     2.11           OBSERVATION DATA    G (GPS)             RINEX VERSION / TYPE
teqc  2018Jun8                          20210202 03:10:40UTCPGM / RUN BY / DATE
Linux2.6.32-573.12.1.el6.x86_64|x86_64|gcc|Win64-MinGW64|=+ COMMENT
BIT 2 OF LLI FLAGS DATA COLLECTED UNDER A/S CONDITION       COMMENT
-Unknown-                                                   MARKER NAME
CRNO                                                        MARKER NUMBER
-Unknown-           -Unknown-                               OBSERVER / AGENCY
-Unknown-           ASHTECH             -Unknown-           REC # / TYPE / VERS
-Unknown-           -Unknown-                               ANT # / TYPE
   408080.2453 -6158373.6030  1605163.4689                  APPROX POSITION XYZ
        0.0000        0.0000        0.0000                  ANTENNA: DELTA H/E/N
     1     1                                                WAVELENGTH FACT L1/2
     7    L1    L2    C1    P1    P2    S1    S2            # / TYPES OF OBSERV
    30.0000                                                 INTERVAL
Forced Modulo Decimation to 30 seconds                      COMMENT
 SNR is mapped to RINEX snr flag value [1-9]                COMMENT
  L1: 1 -> 1;  90 -> 5; 210 -> 9                            COMMENT
  L2: 1 -> 1; 150 -> 5; 250 -> 9                            COMMENT
pseudorange smoothing corrections not applied               COMMENT
  2021     2     1     0     0   30.0000000     GPS         TIME OF FIRST OBS
                                                            END OF HEADER
 21  2  1  0  0 30.0000000  0  8G21G08G07G04G09G03G01G27
 -13774899.16347 -10727100.20146  22323921.823    22323922.4554   22323926.7884
       164.0004        166.0004
 -22580284.67149 -17579510.29347  20367526.995    20367527.4544   20367534.7214
       210.0004        211.0004
  -8906107.31348  -6920144.41446  23212550.610    23212552.0824   23212554.9744
       170.0004        169.0004
 -19234626.41449 -14970995.93047  20757394.628    20757395.1194   20757401.4394
       203.0004        202.0004
 -19396744.46749 -15095528.66848  20812945.769    20812946.0134   20812952.6494
       212.0004        213.0004
   1855200.34448   1473021.40846  24676872.792    24676873.2344   24676881.0474
       171.0004        173.0004
  -7010687.57947  -5447680.10045  23475095.247    23475094.8104   23475104.6934
       153.0004        155.0004
 -11991160.89149  -9332454.41747  22552376.980    22552377.1444   22552384.4324
       205.0004        204.0004
 21  2  1  0  1  0.0000000  0  8G21G08G07G04G09G03G01G27
 -13818321.14648 -10760935.49946  22315660.151    22315659.5574   22315663.6524
       166.0004        167.0004
 -22542754.18649 -17550265.74447  20374668.609    20374669.2604   20374676.5934
       210.0004        211.0004
  -8979641.84248  -6977444.02046  23198557.690    23198557.6904   23198562.7044
       169.0004        171.0004
 -19179451.16049 -14928002.22647  20767894.525    20767894.8974   20767900.4664
       203.0004        201.0004
 -19411732.56949 -15107207.70448  20810093.805    20810094.1404   20810100.6214
       213.0004        213.0004
   1902442.31948   1509833.33946  24685860.981    24685861.9614   24685870.6664
       169.0004        169.0004
  -7086578.01647  -5506815.47245  23460654.061    23460655.0404   23460663.9064
       154.0004        157.0004
 -11896895.38949  -9259000.78147  22570314.844    22570315.4034   22570322.8694
       204.0004        205.0004
 21  2  1  0  1 30.0000000  0  8G21G08G07G04G09G03G01G27
 -13861521.87848 -10794598.39346  22307440.011    22307438.9514   22307443.8054
       167.0004        166.0004
 -22504679.15249 -17520596.86947  20381914.419    20381914.5464   20381922.1884
       211.0004        211.0004
  -9053256.17548  -7034805.80146  23184549.907    23184551.2704   23184554.5694
       171.0004        173.0004
 -19123796.13949 -14884634.68147  20778484.677    20778485.2914   20778491.7274
       202.0004        201.0004
 -19426152.32749 -15118443.86848  20807350.036    20807350.1084   20807356.6884
       214.0004        214.0004
   1949425.01748   1546443.23746  24694802.925    24694802.9654   24694811.1524
       167.0004        168.0004
  -7162565.90647  -5566026.78745  23446194.003    23446195.2144   23446204.4164
       156.0004        158.0004
 -11802340.24949  -9185321.45147  22588307.824    22588308.6594   22588315.8744
       204.0004        204.0004
 21  2  1  0  2  0.0000000  0  8G21G08G07G04G09G03G01G27
 -13904500.49148 -10828088.19246  22299258.702    22299258.9154   22299265.2744
       165.0004        165.0004
 -22466062.85949 -17490506.23547  20389262.314    20389262.7604   20389270.5624
       210.0004        211.0004
  -9126950.11348  -7092229.61646  23170525.105    23170525.7284   23170530.8374
       171.0004        171.0004
 -19067664.85649 -14840896.02247  20789166.219    20789166.6764   20789173.0204
       202.0004        201.0004
 -19440004.90449 -15129238.08148  20804713.484    20804713.7714   20804720.2964
       213.0004        213.0004
   1996145.76948   1582849.02046  24703693.001    24703694.1174   24703703.2144
       169.0004        171.0004
  -7238650.14147  -5625313.17745  23431715.503    23431715.4964   23431725.2364
       154.0004        156.0004
 -11707499.84549  -9111419.84547  22606355.337    22606355.8344   22606363.5784
       204.0004        203.0004
 21  2  1  0  2 30.0000000  0  8G21G08G07G04G09G03G01G27
 -13947252.30947 -10861401.26546  22291123.683    22291124.3584   22291130.2494
       164.0004        166.0004
 -22426905.46649 -17459993.97247  20396714.525    20396714.4574   20396721.9604
       210.0004        210.0004
  -9200720.25648  -7149712.83546  23156488.767    23156489.0424   23156493.2344
       170.0004        172.0004
 -19011057.73249 -14796786.58647  20799939.096    20799939.0614   20799944.9544
       202.0004        201.0004
 -19453288.34349 -15139588.81148  20802185.885    20802186.2114   20802192.7054
       213.0004        214.0004
   2042604.67448   1619050.74346  24712533.355    24712534.5294   24712543.7964
       168.0004        168.0004
  -7314826.38947  -5684671.26845  23417218.766    23417220.4544   23417229.8964
       154.0004        156.0004
 -11612375.59849  -9037297.05347  22624457.350    22624457.6164   22624465.1084
       203.0004        203.0004
 21  2  1  0  3  0.0000000  0  8G21G08G07G04G09G03G01G27
 -13989775.92548 -10894536.57046  22283033.627    22283033.5614   22283037.8254
       165.0004        166.0004
 -22387210.08149 -17429062.49447  20404267.798    20404268.0444   20404275.8534
       210.0004        210.0004
  -9274566.73848  -7207255.53146  23142435.902    23142435.8654   23142441.2374
       172.0004        173.0004
 -18953978.06549 -14752308.92947  20810800.053    20810800.7584   20810807.2164
       202.0004        201.0004
 -19466003.59749 -15149496.80848  20799766.383    20799766.7764   20799773.1854
       213.0004        213.0004
   2088799.23148   1655046.51446  24721323.778    24721323.9264   24721333.7454
       167.0004        167.0004
  -7391093.22547  -5744099.92345  23402708.009    23402708.3124   23402716.7714
       154.0004        157.0004
 -11516971.65349  -8962956.32647  22642613.651    22642613.3054   22642620.0744
       204.0004        204.0004
 21  2  1  0  3 30.0000000  0  8G21G08G07G04G09G03G01G27
 -14032068.83547 -10927492.04046  22274981.382    22274981.5944   22274989.4894
       163.0004        163.0004
 -22346978.40649 -17397713.12647  20411923.406    20411923.7914   20411931.5604
       210.0004        210.0004
  -9348487.78448  -7264856.31046  23128368.603    23128370.4014   23128374.6544
       172.0004        173.0004
 -18896427.90049 -14707464.64247  20821751.543    20821752.3664   20821758.4834
       202.0004        201.0004
 -19478150.34649 -15158961.80048  20797454.728    20797454.9034   20797461.9944
       213.0004        214.0004
   2134728.09348   1690835.24946  24730065.778    24730066.0004   24730074.1304
       171.0004        174.0004
  -7467447.80547  -5803596.98345  23388176.810    23388177.6554   23388187.3294
       153.0004        156.0004
 -11421290.97949  -8888399.96147  22660819.319    22660819.9594   22660827.2974
       202.0004        202.0004
 21  2  1  0  4  0.0000000  0  8G21G08G07G04G09G03G01G27
 -14074127.66047 -10960265.11446  22266977.576    22266978.8484   22266985.4994
       161.0004        163.0004
 -22306212.18249 -17365947.22947  20419681.763    20419681.8934   20419689.0934
       210.0004        210.0004
  -9422481.25848  -7322513.55746  23114288.865    23114289.0764   23114293.3524
       172.0004        173.0004
 -18838409.04449 -14662255.15547  20832792.740    20832793.0684   20832799.3434
       202.0004        201.0004
 -19489728.02849 -15167983.37548  20795250.928    20795251.6004   20795258.5494
       213.0004        213.0004
   2180390.23548   1726416.11746  24738755.692    24738756.1354   24738762.9764
       171.0004        172.0004
  -7543887.15847  -5863160.09545  23373631.795    23373631.8324   23373641.8124
       152.0004        155.0004
 -11325336.32149  -8813630.11347  22679080.521    22679079.6574   22679086.2214
       202.0004        201.0004
 21  2  1  0  4 30.0000000  0  8G21G08G07G04G09G03G01G27
 -14115950.19448 -10992854.11046  22259025.759    22259024.7614   22259027.1114
       166.0004        170.0004
 -22264914.10449 -17333766.89547  20427539.657    20427540.3044   20427548.0264
       210.0004        210.0004
  -9496546.17448  -7380226.46546  23100194.701    23100194.8294   23100199.6174
       173.0004        174.0004
 -18779924.21749 -14616682.56047  20843921.875    20843922.2104   20843928.0404
       202.0004        200.0004
 -19500737.05749 -15176561.83948  20793156.244    20793156.7334   20793163.6394
       213.0004        214.0004
   2225783.72348   1761787.62346  24747390.740    24747391.7804   24747399.9394
       167.0004        166.0004
  -7620409.20147  -5922787.63845  23359069.110    23359070.1994   23359078.3984
       153.0004        156.0004
 -11229111.18049  -8738649.47947  22697389.178    22697391.0214   22697397.5554
       201.0004        201.0004
 21  2  1  0  5  0.0000000  0  8G21G08G07G04G09G03G01G27
 -14157532.70248 -11025256.08046  22251112.330    22251111.6524   22251114.8554
       170.0004        172.0004
 -22223084.49149 -17301172.38347  20435499.837    20435500.3374   20435507.6254
       210.0004        210.0004
  -9570679.89948  -7437992.97646  23086085.558    23086087.2484   23086091.2944
       172.0004        174.0004
 -18720974.47149 -14570747.70447  20855139.495    20855140.0754   20855146.2144
       202.0004        200.0004
 -19511176.17549 -15184696.21348  20791170.151    20791170.4394   20791177.2614
       213.0004        214.0004
   2270908.49448   1796949.75146  24755979.044    24755978.7914   24755987.4374
       165.0004        166.0004
  -7697010.06047  -5982476.56645  23344493.501    23344494.4514   23344502.4064
       153.0004        156.0004
 -11132617.52749  -8663459.60447  22715752.408    22715753.6944   22715759.3624
       201.0004        202.0004
 21  2  1  0  5 30.0000000  0  8G21G08G07G04G09G03G01G27
 -14198873.02448 -11057469.29946  22243243.432    22243241.9804   22243247.8664
       169.0004        167.0004
 -22180726.04249 -17268165.79447  20443560.282    20443560.8214   20443568.0444
       209.0004        210.0004
  -9644881.38548  -7495812.29846  23071966.250    23071967.0844   23071971.5584
       173.0004        176.0004
 -18661562.50049 -14524452.66847  20866445.010    20866445.5764   20866451.5814
       202.0004        200.0004
 -19521045.75549 -15192386.78348  20789291.747    20789291.9264   20789299.2214
       214.0004        214.0004
   2315762.62948   1831901.00846  24764514.693    24764515.3634   24764523.8544
       167.0004        169.0004
  -7773687.48947  -6042225.18945  23329901.613    23329901.6584   23329909.8744
       153.0004        155.0004
 -11035858.82649  -8588063.21447  22734165.819    22734166.2044   22734172.6054
       202.0004        202.0004
 21  2  1  0  6  0.0000000  0  8G21G08G07G04G09G03G01G27
 -14239967.69847 -11089491.04746  22235419.599    22235419.9554   22235426.5684
       164.0004        163.0004
 -22137840.15849 -17234748.20747  20451721.795    20451721.8374   20451729.1524
       209.0004        210.0004
  -9719147.91648  -7553682.28446  23057833.772    23057834.9554   23057839.2054
       174.0004        177.0004
 -18601689.52749 -14477798.39547  20877838.640    20877839.1014   20877844.9854
       201.0004        200.0004
 -19530344.64949 -15199632.66748  20787522.336    20787522.8744   20787529.3524
       213.0004        214.0004
   2360345.80848   1866641.14546  24772997.115    24772998.1304   24773007.6984
       167.0004        168.0004
  -7850437.84647  -6102030.63945  23315297.007    23315296.6614   23315305.0484
       152.0004        155.0004
 -10938837.07949  -8512461.85847  22752628.395    22752628.2894   22752634.9714
       202.0004        201.0004
 21  2  1  0  6 30.0000000  0  8G21G08G07G04G09G03G01G27
 -14280815.10247 -11121320.19646  22227648.256    22227649.0704   22227654.8254
       163.0004        165.0004
 -22094429.72549 -17200921.88547  20459981.781    20459982.3024   20459989.9844
       209.0004        210.0004
  -9793478.97348  -7611602.59346  23043690.657    23043690.8674   23043694.9554
       177.0004        178.0004
 -18541358.97549 -14430787.57847  20889318.832    20889319.4824   20889325.4284
       201.0004        199.0004
 -19539074.07149 -15206434.81448  20785860.863    20785861.0674   20785868.0634
       213.0004        213.0004
   2404655.54548   1901168.21246  24781430.274    24781430.5414   24781439.4184
       168.0004        169.0004
  -7927259.58847  -6161891.71445  23300679.174    23300678.7894   23300687.0954
       152.0004        155.0004
 -10841556.54549  -8436658.86047  22771139.675    22771140.0984   22771146.7324
       201.0004        200.0004
 21  2  1  0  7  0.0000000  0  8G21G08G07G04G09G03G01G27
 -14321413.13248 -11152954.98546  22219923.879    22219923.9934   22219929.9544
       166.0004        169.0004
 -22050497.41249 -17166688.90347  20468342.033    20468342.4174   20468349.6144
       209.0004        210.0004
  -9867873.57848  -7669572.39346  23029533.113    23029533.0384   23029538.1734
       177.0004        178.0004
 -18480573.61649 -14383422.35847  20900886.038    20900886.5324   20900892.4154
       201.0004        200.0004
 -19547234.44249 -15212793.53448  20784307.957    20784308.4234   20784315.1624
       213.0004        213.0004
   2448690.18348   1935480.87246  24789809.736    24789810.3204   24789818.8354
       170.0004        171.0004
  -8004150.37747  -6221806.58345  23286046.752    23286046.8224   23286055.2004
       153.0004        156.0004
 -10744020.76549  -8360656.94947  22789700.011    22789700.2464   22789707.0234
       201.0004        200.0004
 21  2  1  0  7 30.0000000  0  7G21G08G07G04G09G01G27
 -14361755.00748 -11184390.18846  22212248.172    22212247.7424   22212253.0074
       169.0004        172.0004
 -22006041.46949 -17132047.90347  20476801.756    20476802.0284   20476809.6714
       209.0004        209.0004
  -9942326.11548  -7727587.36046  23015366.444    23015365.5674   23015369.2514
       177.0004        178.0004
 -18419331.82649 -14335701.49347  20912540.207    20912540.5094   20912546.7384
       201.0004        199.0004
 -19554821.82449 -15218705.78348  20782865.047    20782865.0414   20782871.3304
       213.0004        214.0004
  -8081103.63247  -6281770.14545  23271402.310    23271403.4104   23271410.8914
       153.0004        155.0004
 -10646228.80049  -8284455.42147  22808309.127    22808309.9004   22808316.5304
       201.0004        201.0004
 21  2  1  0  8  0.0000000  0  7G21G08G07G04G09G01G27
 -14401842.50848 -11215627.20346  22204620.581    22204619.1674   22204623.7524
       171.0004        171.0004
 -21961067.79749 -17097003.48447  20485359.674    20485360.2684   20485367.5034
       209.0004        209.0004
 -10016839.18048  -7785649.47146  23001185.633    23001186.2844   23001191.1864
       178.0004        180.0004
 -18357640.13149 -14287630.05047  20924279.470    20924280.1864   20924285.4174
       201.0004        199.0004
 -19561840.53649 -15224174.91448  20781528.920    20781529.2764   20781535.8114
       214.0004        214.0004
  -8158120.84247  -6341783.53145  23256745.583    23256747.0094   23256754.5394
       152.0004        155.0004
 -10548187.98649  -8208059.98247  22826965.742    22826966.2924   22826972.1694
       201.0004        200.0004
 21  2  1  0  8 30.0000000  0  7G21G08G07G04G09G01G27
 -14441672.36248 -11246663.43546  22197039.623    22197039.3784   22197045.0314
       170.0004        170.0004
 -21915578.60549 -17061557.34747  20494016.753    20494017.0064   20494024.1234
       209.0004        210.0004
 -10091410.91348  -7843757.31146  22986995.987    22986996.4774   22987000.1964
       180.0004        180.0004
 -18295500.30949 -14239209.41047  20936104.286    20936105.0004   20936110.7004
       201.0004        199.0004
 -19568290.14149 -15229200.57548  20780301.772    20780301.9394   20780308.6964
       214.0004        215.0004
  -8235198.80747  -6401844.27245  23242078.051    23242078.8394   23242088.1684
       153.0004        157.0004
 -10449900.84449  -8131472.59347  22845669.794    22845670.1354   22845675.9354
       200.0004        201.0004
 21  2  1  0  9  0.0000000  0  7G21G08G07G04G09G01G27
 -14481241.69248 -11277496.64246  22189509.607    22189508.6444   22189513.8744
       169.0004        170.0004
 -21869575.69149 -17025710.91147  20502770.513    20502770.5304   20502778.5284
       209.0004        209.0004
 -10166039.16748  -7901909.17946  22972793.574    22972794.6064   22972798.0114
       179.0004        180.0004
 -18232914.44649 -14190441.20747  20948014.219    20948014.4874   20948020.6494
       201.0004        199.0004
 -19574170.38449 -15233782.57848  20779182.788    20779183.1614   20779189.9404
       214.0004        215.0004
  -8312334.36147  -6461949.88345  23227400.706    23227401.3064   23227409.7434
       156.0004        159.0004
 -10351370.10849  -8054695.39547  22864420.315    22864420.2544   22864426.0854
       201.0004        201.0004
 21  2  1  0  9 30.0000000  0  7G21G08G07G04G09G01G27
 -14520548.12348 -11308125.01446  22182029.853    22182029.8054   22182034.1044
       168.0004        169.0004
 -21823060.88449 -16989465.60047  20511621.590    20511622.2874   20511629.5704
       209.0004        209.0004
 -10240722.00848  -7960103.59646  22958582.287    22958582.5524   22958587.5734
       179.0004        180.0004
 -18169884.80149 -14141327.19647  20960008.359    20960008.9244   20960014.9854
       201.0004        199.0004
 -19579481.34949 -15237920.99248  20778172.084    20778172.3754   20778179.0214
       214.0004        214.0004
  -8389524.74947  -6522098.20145  23212710.265    23212711.7954   23212721.5564
       157.0004        160.0004
 -10252598.75349  -7977730.70747  22883215.526    22883215.4804   22883221.7954
       202.0004        202.0004
 21  2  1  0 10  0.0000000  0  7G21G08G07G04G09G01G27
 -14559588.77148 -11338546.27746  22174600.265    22174599.4484   22174604.5654
       167.0004        168.0004
 -21776036.78049 -16952823.44147  20520570.033    20520570.7314   20520577.7494
       209.0004        209.0004
 -10315458.13148  -8018339.53646  22944360.623    22944361.2834   22944365.7684
       180.0004        181.0004
 -18106414.12249 -14091869.53947  20972086.775    20972087.0724   20972092.6464
       200.0004        199.0004
 -19584223.54549 -15241616.22148  20777269.050    20777269.5944   20777276.6794
       213.0004        214.0004
  -8466767.50647  -6582287.36345  23198014.468    23198014.5264   23198022.2054
       160.0004        162.0004
 -10153590.23949  -7900581.21947  22902055.214    22902055.5684   22902062.7194
       201.0004        201.0004
 21  2  1  0 10 30.0000000  0  7G21G08G07G04G09G01G27
 -14598361.22448 -11368758.55546  22167221.576    22167221.6104   22167227.0304
       168.0004        170.0004
 -21728505.17849 -16915785.81247  20529615.714    20529616.0514   20529622.8864
       209.0004        210.0004
 -10390245.48148  -8076615.37946  22930130.117    22930130.2944   22930134.0654
       181.0004        182.0004
 -18042504.40749 -14042069.75547  20984248.503    20984248.9014   20984254.8174
       201.0004        200.0004
 -19588396.77949 -15244868.07948  20776475.477    20776475.7284   20776482.0654
       213.0004        214.0004
  -8544059.51347  -6642514.89645  23183304.461    23183305.6894   23183313.4364
       158.0004        160.0004
 -10054347.15249  -7823248.94647  22920939.610    22920940.5954   22920947.2124
       200.0004        199.0004
 21  2  1  0 11  0.0000000  0  7G21G08G07G04G09G01G27
 -14636862.41448 -11398759.45346  22159896.010    22159895.1784   22159900.6754
       168.0004        170.0004
 -21680468.21449 -16878354.40447  20538756.265    20538756.6264   20538764.2494
       209.0004        209.0004
 -10465082.02148  -8134929.56446  22915887.841    22915888.5124   22915892.2564
       180.0004        180.0004
 -17978157.75649 -13991929.51047  20996492.993    20996493.3204   20996499.0674
       200.0004        199.0004
 -19592000.93849 -15247676.51748  20775790.192    20775790.1874   20775796.6734
       214.0004        215.0004
  -8621397.62047  -6702778.34646  23168589.077    23168589.1584   23168597.3154
       160.0004        163.0004
  -9954872.21349  -7745735.99947  22939870.065    22939870.0254   22939876.9094
       199.0004        199.0004
 21  2  1  0 11 30.0000000  0  7G21G08G07G04G09G01G27
 -14675089.93048 -11428547.08046  22152621.644    22152620.6504   22152626.4864
       168.0004        170.0004
 -21631928.05449 -16840530.89947  20547993.016    20547993.4624   20548001.1634
       208.0004        208.0004
 -10539966.55348  -8193281.13046  22901637.914    22901638.8774   22901643.3174
       180.0004        182.0004
 -17913376.83349 -13941450.87947  21008820.764    21008820.9794   21008826.8084
       200.0004        199.0004
 -19595036.45549 -15250041.86148  20775211.873    20775212.2724   20775219.1344
       214.0004        215.0004
  -8698779.21447  -6763075.64346  23153862.642    23153863.9954   23153871.5854
       161.0004        163.0004
  -9855168.74349  -7668044.98547  22958843.230    22958843.4724   22958849.4414
       199.0004        199.0004
 21  2  1  0 12  0.0000000  0  7G21G08G07G04G09G01G27
 -14713040.93348 -11458119.26446  22145400.274    22145399.9424   22145404.4354
       170.0004        173.0004
 -21582887.11149 -16802317.17447  20557325.526    20557325.9234   20557333.3004
       208.0004        209.0004
 -10614896.86948  -8251668.38946  22887379.515    22887379.9774   22887383.8644
       182.0004        183.0004
 -17848163.85149 -13890635.57347  21021229.590    21021229.9074   21021236.4004
       200.0004        199.0004
 -19597503.40949 -15251964.16648  20774742.377    20774742.8974   20774749.7034
       215.0004        215.0004
  -8776201.34047  -6823404.54546  23139129.929    23139130.9194   23139139.2444
       162.0004        164.0004
  -9755239.56349  -7590178.08847  22977859.868    22977859.7714   22977865.8744
       199.0004        199.0004
 21  2  1  0 12 30.0000000  0  7G21G08G07G04G09G01G27
 -14750713.74348 -11487474.68146  22138231.204    22138230.5834   22138236.1014
       172.0004        174.0004
 -21533348.16349 -16763715.38347  20566753.014    20566753.3764   20566760.0204
       209.0004        209.0004
 -10689871.69648  -8310090.32146  22873111.407    22873111.4564   22873116.0424
       180.0004        179.0004
 -17782521.76249 -13839485.89947  21033721.059    21033721.2214   21033727.0534
       199.0004        197.0004
 -19599402.60649 -15253444.05748  20774380.763    20774381.2774   20774388.3014
       214.0004        214.0004
  -8853661.65847  -6883763.20946  23124390.379    23124390.6004   23124399.0294
       162.0004        163.0004
  -9655088.23549  -7512138.10047  22996917.081    22996917.8604   22996924.2914
       200.0004        200.0004
 21  2  1  0 13  0.0000000  0  7G21G08G07G04G09G01G27
 -14788103.37848 -11516609.43746  22131116.358    22131115.7404   22131119.9944
       173.0004        173.0004
 -21483311.58049 -16724725.82347  20576274.968    20576275.1314   20576281.7974
       209.0004        209.0004
 -10764887.64448  -8368544.30046  22858836.946    22858837.3894   22858841.9294
       179.0004        178.0004
 -17716451.24549 -13788002.38247  21046293.640    21046294.5074   21046299.9744
       199.0004        198.0004
 -19600732.55049 -15254480.38048  20774127.809    20774128.2524   20774134.7864
       214.0004        214.0004
  -8931155.53147  -6944148.02145  23109642.929    23109642.5194   23109651.9814
       161.0004        162.0004
  -9554715.96449  -7433925.94047  23016017.381    23016017.8714   23016024.5254
       198.0004        198.0004
 21  2  1  0 13 30.0000000  0  7G21G08G07G04G09G01G27
 -14825209.29948 -11545523.12546  22124055.060    22124054.6104   22124059.2054
       173.0004        174.0004
 -21432781.20449 -16685351.50447  20585889.866    20585890.6034   20585897.5174
       209.0004        209.0004
 -10839944.52748  -8427030.18046  22844555.595    22844555.7624   22844558.8524
       179.0004        180.0004
 -17649956.29749 -13736188.14947  21058947.698    21058947.9674   21058953.4794
       198.0004        197.0004
 -19601495.11049 -15255074.59248  20773982.674    20773983.1034   20773989.8974
       214.0004        214.0004
  -9008681.65047  -7004557.96845  23094890.147    23094890.8284   23094898.0694
       159.0004        160.0004
  -9454127.32549  -7355545.19147  23035158.505    23035159.2194   23035165.9434
       197.0004        195.0004
 21  2  1  0 14  0.0000000  0  7G21G08G07G04G09G01G27
 -14862028.64848 -11574213.49946  22117047.402    22117047.0114   22117053.1554
       173.0004        173.0004
 -21381758.85049 -16645593.82047  20595598.739    20595599.2034   20595606.7324
       208.0004        208.0004
 -10915039.96848  -8485546.09246  22830264.043    22830264.4234   22830268.6194
       180.0004        181.0004
 -17583039.15149 -13684044.92847  21071681.372    21071682.0914   21071686.9984
       198.0004        196.0004
 -19601690.36849 -15255226.75048  20773945.750    20773946.3294   20773953.0144
       214.0004        215.0004
  -9086236.87347  -7064990.61045  23080131.558    23080131.9494   23080140.2024
       159.0004        160.0004
  -9353325.07149  -7276997.97747  23054341.699    23054341.8774   23054347.7884
       196.0004        196.0004
 21  2  1  0 14 30.0000000  0  7G21G08G07G04G09G01G27
 -14898558.99348 -11602678.69146  22110096.285    22110096.3434   22110102.0434
       172.0004        173.0004
 -21330247.79549 -16605455.33247  20605400.654    20605401.1084   20605408.8184
       208.0004        207.0004
 -10990172.67648  -8544091.08546  22815967.544    22815967.3324   22815970.3994
       180.0004        181.0004
 -17515702.57049 -13631574.85947  21084494.739    21084495.6444   21084501.0524
       198.0004        197.0004
 -19601318.98949 -15254937.36848  20774015.893    20774016.5034   20774023.3324
       214.0004        214.0004
  -9163818.57947  -7125443.86846  23065369.736    23065369.7594   23065376.7834
       162.0004        165.0004
  -9252312.45049  -7198286.85047  23073562.763    23073562.5844   23073570.7154
       196.0004        195.0004
 21  2  1  0 15  0.0000000  0  7G21G08G07G04G09G01G27
 -14934798.36448 -11630917.14546  22103201.236    22103200.9364   22103205.1624
       172.0004        172.0004
 -21278250.81049 -16564938.20047  20615295.030    20615295.7034   20615303.6914
       207.0004        207.0004
 -11065341.52948  -8602664.20946  22801663.489    22801662.9264   22801666.5464
       180.0004        180.0004
 -17447949.85549 -13578780.53447  21097388.391    21097388.9094   21097394.8734
       199.0004        198.0004
 -19600382.17849 -15254207.38448  20774194.251    20774194.8854   20774201.6034
       214.0004        215.0004
  -9241424.69247  -7185916.12046  23050600.740    23050601.2694   23050609.2034
       163.0004        164.0004
  -9151093.31649  -7119414.81247  23092824.123    23092824.3034   23092831.8934
       196.0004        196.0004
 21  2  1  0 15 30.0000000  0  7G21G08G07G04G09G01G27
 -14970744.00748 -11658926.70246  22096360.206    22096360.1044   22096365.0864
       171.0004        172.0004
 -21225769.52049 -16524043.67647  20625283.060    20625283.1914   20625290.7484
       207.0004        208.0004
 -11140543.84448  -8661263.39246  22787351.114    22787351.8624   22787356.0564
       179.0004        180.0004
 -17379782.71149 -13525663.27347  21110359.580    21110360.0424   21110367.0144
       199.0004        198.0004
 -19598879.51849 -15253036.47948  20774480.945    20774481.0674   20774487.8214
       215.0004        215.0004
  -9319051.55047  -7246404.54246  23035828.497    23035828.1904   23035838.3554
       163.0004        164.0004
  -9049669.86349  -7040383.55247  23112124.260    23112124.5734   23112132.0414
       196.0004        196.0004
 21  2  1  0 16  0.0000000  0  7G21G08G07G04G09G01G27
 -15006390.89348 -11686703.48646  22089576.819    22089576.2004   22089581.3614
       171.0004        171.0004
 -21172803.91949 -16482771.77347  20635362.302    20635362.2714   20635369.7354
       208.0004        209.0004
 -11215775.85048  -8719885.71046  22773035.031    22773035.5154   22773041.3254
       178.0004        178.0004
 -17311201.45749 -13472223.34747  21123410.411    21123410.6164   21123417.1454
       198.0004        197.0004
 -19596809.34149 -15251423.35748  20774874.425    20774875.0064   20774881.9234
       215.0004        216.0004
  -9396694.03047  -7306905.14746  23021053.702    23021054.0864   23021062.4834
       161.0004        163.0004
  -8948042.87448  -6961193.70847  23131462.010    23131463.4034   23131470.6554
       194.0004        194.0004
 21  2  1  0 16 30.0000000  0  7G21G08G07G04G09G01G27
 -15041736.68448 -11714245.63846  22082851.419    22082850.7744   22082855.6804
       172.0004        174.0004
 -21119357.03649 -16441124.84947  20645532.926    20645533.1674   20645539.8944
       208.0004        208.0004
 -11291036.03148  -8778529.99846  22758715.069    22758714.3224   22758719.2434
       179.0004        179.0004
 -17242209.16849 -13418463.12547  21136538.838    21136539.5234   21136545.5414
       198.0004        196.0004
 -19594172.58649 -15249368.74548  20775376.474    20775376.7274   20775383.6534
       215.0004        216.0004
  -9474349.67447  -7367416.02546  23006275.719    23006276.7324   23006285.1234
       162.0004        163.0004
  -8846215.87648  -6881848.00447  23150838.332    23150840.0924   23150848.1754
       192.0004        191.0004
 21  2  1  0 17  0.0000000  0  7G21G08G07G04G09G01G27
 -15076781.37348 -11741553.16946  22076181.361    22076179.9954   22076187.8264
       171.0004        171.0004
 -21065433.55049 -16399106.54047  20655794.023    20655794.1664   20655800.9604
       207.0004        207.0004
 -11366324.38048  -8837196.24446  22744388.661    22744388.3474   22744391.9254
       179.0004        181.0004
 -17172810.45849 -13364386.22547  21149745.100    21149745.7154   21149751.8414
       197.0004        196.0004
 -19590971.84349 -15246874.66748  20775985.570    20775985.7354   20775992.6374
       215.0004        215.0004
  -9552017.60047  -7427936.47446  22991496.755    22991497.7604   22991505.0124
       162.0004        164.0004
  -8744193.88848  -6802350.36847  23170253.619    23170253.9664   23170262.5354
       191.0004        192.0004
 21  2  1  0 17 30.0000000  0  7G21G08G07G04G09G01G27
 -15111522.63248 -11768624.27146  22069570.090    22069569.7084   22069575.9254
       171.0004        172.0004
 -21011035.78849 -16356718.66247  20666144.988    20666145.0904   20666152.5764
       207.0004        207.0004
 -11441639.22548  -8895883.11146  22730055.082    22730054.9594   22730060.3174
       179.0004        179.0004
 -17103007.94449 -13309994.65447  21163029.178    21163029.3324   21163035.3794
       198.0004        197.0004
 -19587207.71349 -15243941.58148  20776701.935    20776702.1594   20776708.7954
       215.0004        215.0004
  -9629694.99147  -7488464.28546  22976716.065    22976715.6434   22976724.2824
       162.0004        164.0004
  -8641980.01148  -6722703.18147  23189704.865    23189705.2114   23189713.1554
       191.0004        192.0004
 21  2  1  0 18  0.0000000  0  7G21G08G07G04G09G01G27
 -15145957.52948 -11795456.63846  22063018.424    22063017.8844   22063022.8824
       172.0004        173.0004
 -20956165.78049 -16313962.82947  20676586.189    20676586.5784   20676593.9074
       206.0004        206.0004
 -11516978.57548  -8954589.09846  22715717.999    22715718.3004   22715723.4744
       178.0004        180.0004
 -17032804.03349 -13255290.31947  21176387.785    21176388.2414   21176394.0574
       197.0004        196.0004
 -19582880.55149 -15240569.77248  20777524.951    20777525.2914   20777532.3304
       215.0004        215.0004
  -9707378.69247  -7548997.01746  22961932.734    22961933.2434   22961942.1114
       162.0004        163.0004
  -8539576.99948  -6642908.66347  23209192.275    23209191.9834   23209199.5124
       190.0004        189.0004
 21  2  1  0 18 30.0000000  0  7G21G08G07G04G09G01G27
 -15180083.53448 -11822048.30846  22056524.545    22056524.1154   22056528.4514
       172.0004        173.0004
 -20900826.37149 -16270841.21047  20687117.294    20687117.6864   20687124.9764
       206.0004        207.0004
 -11592340.54948  -9013312.69846  22701377.646    22701378.2034   22701382.3984
       179.0004        181.0004
 -16962201.47449 -13200275.33647  21189823.124    21189823.1084   21189829.5014
       197.0004        196.0004
 -19577991.16849 -15236759.85848  20778455.434    20778455.9094   20778462.5084
       214.0004        214.0004
  -9785065.95947  -7609532.51845  22947148.380    22947148.8114   22947157.8224
       161.0004        162.0004
  -8436987.98548  -6562969.19147  23228714.600    23228714.5064   23228722.2014
       190.0004        191.0004
 21  2  1  0 19  0.0000000  0  7G21G08G07G04G09G01G27
 -15213896.99948 -11848396.42546  22050089.866    22050089.6364   22050094.5114
       173.0004        174.0004
 -20845018.61449 -16227354.64347  20697737.711    20697737.9334   20697744.8654
       206.0004        206.0004
 -11667721.98548  -9072051.47346  22687032.629    22687033.0114   22687037.4744
       180.0004        180.0004
 -16891201.41949 -13144950.63147  21203333.819    21203334.5764   21203340.4224
       197.0004        195.0004
 -19572538.63949 -15232511.13948  20779493.220    20779493.8514   20779500.1804
       214.0004        215.0004
  -9862752.23147  -7670067.24845  22932364.360    22932365.4424   22932375.4314
       161.0004        162.0004
  -8334214.51148  -6482885.96847  23248270.542    23248271.4804   23248279.1424
       190.0004        191.0004
 21  2  1  0 19 30.0000000  0  7G21G08G07G04G09G01G27
 -15247395.23948 -11874498.93546  22043716.824    22043715.4514   22043719.7544
       174.0004        176.0004
 -20788744.70049 -16183504.82047  20708446.079    20708446.5314   20708453.4744
       206.0004        207.0004
 -11743120.38348  -9130803.45846  22672685.255    22672685.9944   22672689.8344
       179.0004        180.0004
 -16819806.26349 -13089318.03347  21216920.026    21216920.2494   21216927.0624
       197.0004        196.0004
 -19566523.45149 -15227823.97348  20780638.009    20780638.2884   20780645.0724
       215.0004        215.0004
  -9940434.47047  -7730598.83145  22917582.243    22917583.2434   22917591.1344
       161.0004        162.0004
  -8231259.34148  -6402661.17947  23267861.446    23267862.3174   23267870.7564
       189.0004        188.0004
 21  2  1  0 20  0.0000000  0  7G21G08G07G04G09G01G27
 -15280576.33448 -11900354.31946  22037401.919    22037401.4404   22037406.4624
       174.0004        175.0004
 -20732007.93849 -16139294.35247  20719243.401    20719243.3724   20719250.1074
       207.0004        207.0004
 -11818534.81648  -9189567.93046  22658334.079    22658334.8824   22658338.9154
       179.0004        180.0004
 -16748019.21649 -13033380.08347  21230580.280    21230580.9484   21230587.1524
       197.0004        196.0004
 -19559946.85849 -15222699.35348  20781888.718    20781889.3374   20781896.4454
       214.0004        215.0004
 -10018110.14147  -7791125.29246  22902802.972    22902802.6004   22902811.6224
       162.0004        164.0004
  -8128126.00248  -6322297.53847  23287486.344    23287488.0704   23287496.0854
       189.0004        190.0004
 21  2  1  0 20 30.0000000  0  7G21G08G07G04G09G01G27
 -15313438.32548 -11925961.04446  22031147.528    22031147.4854   22031152.6614
       175.0004        174.0004
 -20674811.08249 -16094725.37347  20730126.789    20730127.3084   20730134.0704
       206.0004        206.0004
 -11893963.62348  -9248343.61546  22643979.846    22643980.8314   22643984.6814
       180.0004        180.0004
 -16675843.54449 -12977139.31447  21244315.297    21244315.8024   21244321.3344
       197.0004        196.0004
 -19552810.14949 -15217138.28948  20783247.379    20783247.4484   20783254.2974
       214.0004        215.0004
 -10095776.99347  -7851644.87546  22888022.841    22888023.0034   22888031.0934
       162.0004        163.0004
  -8024818.12248  -6241797.90347  23307146.512    23307146.8774   23307155.3364
       190.0004        190.0004
 21  2  1  0 21  0.0000000  0  7G21G08G07G04G09G01G27
 -15345979.18448 -11951317.55846  22024955.602    22024955.5174   22024959.2714
       175.0004        176.0004
 -20617157.32049 -16049800.36247  20741097.387    20741097.9114   20741105.4874
       206.0004        206.0004
 -11969405.05448  -9307129.12646  22629623.660    22629624.5974   22629629.1104
       181.0004        180.0004
 -16603281.93949 -12920597.80047  21258122.577    21258123.3044   21258129.4014
       196.0004        194.0004
 -19545114.05549 -15211141.33848  20784711.586    20784712.2344   20784718.7554
       214.0004        215.0004
 -10173431.96847  -7912155.22545  22873245.372    22873246.0484   22873253.2024
       161.0004        161.0004
  -7921338.61948  -6161164.54447  23326838.470    23326838.9124   23326846.5004
       190.0004        190.0004
 21  2  1  0 21 30.0000000  0  7G21G08G07G04G09G01G27
 -15378196.69448 -11976422.10746  22018824.409    22018823.7034   22018829.3064
       175.0004        175.0004
 -20559049.60249 -16004521.63047  20752154.636    20752155.2154   20752162.8084
       205.0004        205.0004
 -12044857.60948  -9365923.34046  22615267.255    22615267.4014   22615270.2204
       181.0004        183.0004
 -16530337.78849 -12863758.21447  21272003.819    21272004.0944   21272009.9764
       196.0004        194.0004
 -19536860.08949 -15204709.68448  20786282.484    20786282.7824   20786289.5154
       214.0004        214.0004
 -10251072.82847  -7972654.58646  22858470.858    22858471.4744   22858479.0684
       160.0004        163.0004
  -7817691.26748  -6080400.37547  23346561.665    23346561.9874   23346569.7674
       189.0004        189.0004
 21  2  1  0 22  0.0000000  0  7G21G08G07G04G09G01G27
 -15410089.54848 -12001273.65446  22012756.009    22012754.9724   22012759.8254
       174.0004        175.0004
 -20500490.84249 -15958891.42947  20763298.797    20763298.8154   20763305.8844
       205.0004        204.0004
 -12120320.18448  -9424725.34846  22600907.272    22600907.3024   22600910.6424
       183.0004        184.0004
 -16457014.40649 -12806623.11447  21285957.214    21285957.7114   21285963.1214
       195.0004        194.0004
 -19528049.71949 -15197844.45348  20787959.213    20787959.3364   20787966.2514
       214.0004        214.0004
 -10328697.23647  -8033141.10146  22843700.448    22843699.5294   22843708.0754
       162.0004        164.0004
  -7713879.63848  -5999508.20947  23366316.567    23366316.5544   23366325.4964
       190.0004        191.0004
 21  2  1  0 22 30.0000000  0  7G21G08G07G04G09G01G27
 -15441653.45848 -12025868.89346  22006749.613    22006748.7754   22006753.8634
       175.0004        176.0004
 -20441482.30149 -15912910.73547  20774527.874    20774528.3174   20774535.0814
       205.0004        206.0004
 -12195789.25848  -9483532.40846  22586545.692    22586545.6554   22586550.3954
       183.0004        185.0004
 -16383312.93849 -12749193.39247  21299982.399    21299982.1974   21299988.3924
       196.0004        195.0004
 -19518682.10449 -15190545.00948  20789741.592    20789742.0324   20789748.8874
       214.0004        215.0004
 -10406300.54447  -8093611.18846  22828933.039    22828932.9764   22828940.7694
       163.0004        165.0004
  -7609905.12348  -5918489.11247  23386102.568    23386103.0684   23386110.8214
       191.0004        192.0004
 21  2  1  0 23  0.0000000  0  7G21G08G07G04G09G01G27
 -15472886.10048 -12050205.98846  22000806.398    22000805.2694   22000810.1714
       174.0004        175.0004
 -20382026.26649 -15866581.34747  20785842.146    20785842.2704   20785849.2884
       205.0004        206.0004
 -12271262.71248  -9542342.86946  22572182.819    22572183.4534   22572188.2104
       184.0004        185.0004
 -16309236.06149 -12691471.15147  21314077.755    21314078.5494   21314084.7264
       196.0004        195.0004
 -19508758.08549 -15182812.00948  20791629.948    20791630.2764   20791637.1094
       214.0004        214.0004
 -10483879.73347  -8154062.47646  22814167.704    22814169.0494   22814178.1594
       163.0004        164.0004
  -7505770.57548  -5837345.34647  23405920.106    23405919.7434   23405927.2194
       192.0004        193.0004
 21  2  1  0 23 30.0000000  0  7G21G08G07G04G09G01G27
 -15503783.82348 -12074282.12146  21994926.022    21994925.4704   21994930.7254
       174.0004        175.0004
 -20322124.42849 -15819904.57447  20797241.026    20797240.9194   20797248.4714
       205.0004        206.0004
 -12346737.24648  -9601154.17546  22557820.952    22557820.5534   22557825.2454
       184.0004        184.0004
 -16234785.03349 -12633457.36747  21328245.029    21328245.8804   21328252.0134
       196.0004        194.0004
 -19498277.10949 -15174645.01248  20793624.100    20793624.6364   20793631.4674
       213.0004        214.0004
 -10561430.27447  -8214491.40146  22799411.590    22799411.0274   22799420.5744
       163.0004        165.0004
  -7401477.60248  -5756078.08547  23425764.288    23425764.9004   23425773.3214
       192.0004        191.0004
 21  2  1  0 24  0.0000000  0  7G21G08G07G04G09G01G27
 -15534345.19448 -12098096.15546  21989110.603    21989109.5184   21989115.3834
       174.0004        175.0004
 -20261779.91749 -15772882.88247  20808723.828    20808724.1184   20808731.2814
       205.0004        205.0004
 -12422211.66848  -9659965.40946  22543459.415    22543459.2434   22543463.5704
       185.0004        185.0004
 -16159963.55949 -12575154.92747  21342484.105    21342484.9234   21342489.9834
       195.0004        194.0004
 -19487240.99349 -15166045.45448  20795724.708    20795725.1354   20795731.7324
       214.0004        214.0004
 -10638950.22547  -8274896.51346  22784658.627    22784659.9174   22784668.2544
       164.0004        166.0004
  -7297030.03348  -5674690.39147  23445641.131    23445641.4084   23445648.0494
       192.0004        191.0004
 21  2  1  0 24 30.0000000  0  7G21G08G07G04G09G01G27
 -15564568.24048 -12121646.57646  21983357.604    21983358.0554   21983364.5124
       174.0004        175.0004
 -20200995.98249 -15725518.78047  20820290.750    20820291.0984   20820298.3894
       205.0004        205.0004
 -12497684.21848  -9718775.17746  22529096.760    22529096.6764   22529101.2634
       184.0004        185.0004
 -16084774.83749 -12516566.32647  21356791.873    21356792.8784   21356797.9984
       196.0004        195.0004
 -19475651.18349 -15157014.43748  20797930.028    20797930.4704   20797937.2094
       214.0004        215.0004
 -10716436.91548  -8335275.72946  22769916.082    22769915.9764   22769924.1664
       167.0004        170.0004
  -7192431.30448  -5593184.88047  23465544.764    23465545.3614   23465553.0994
       191.0004        191.0004
 21  2  1  0 25  0.0000000  0  7G21G08G07G04G09G01G27
 -15594451.44348 -12144932.15746  21977670.766    21977671.8334   21977677.8164
       174.0004        174.0004
 -20139776.09049 -15677814.96747  20831939.551    20831940.0324   20831947.7994
       204.0004        204.0004
 -12573153.68048  -9777582.54846  22514735.502    22514735.6264   22514739.5614
       185.0004        186.0004
 -16009222.30049 -12457694.23147  21371168.835    21371169.1484   21371175.2054
       195.0004        194.0004
 -19463509.21449 -15147553.16048  20800240.633    20800240.8684   20800247.6244
       214.0004        214.0004
 -10793887.95548  -8395627.15446  22755176.519    22755177.1044   22755184.9374
       168.0004        170.0004
  -7087684.98248  -5511564.38947  23485477.968    23485478.2534   23485484.7674
       190.0004        189.0004
 21  2  1  0 25 30.0000000  0  7G21G08G07G04G09G01G27
 -15623992.49148 -12167951.14246  21972050.220    21972050.0954   21972055.3864
       173.0004        174.0004
 -20078123.05649 -15629773.63047  20843672.037    20843672.6354   20843679.5354
       203.0004        204.0004
 -12648618.43748  -9836386.24046  22500374.981    22500375.4164   22500379.2014
       186.0004        186.0004
 -15933308.90649 -12398540.93347  21385614.459    21385615.2134   21385620.9344
       195.0004        193.0004
 -19450816.29749 -15137662.57848  20802656.327    20802656.6104   20802662.9594
       214.0004        214.0004
 -10871300.49848  -8455948.58646  22740446.558    22740445.8134   22740454.2104
       168.0004        170.0004
  -6982794.31848  -5429831.39447  23505437.398    23505437.9424   23505445.1614
       191.0004        191.0004
 21  2  1  0 26  0.0000000  0  7G21G08G07G04G09G01G27
 -15653187.41748 -12190700.40946  21966494.806    21966494.9154   21966499.7094
       173.0004        173.0004
 -20016037.35149 -15581395.14447  20855487.589    20855487.7114   20855494.0944
       204.0004        205.0004
 -12724074.59448  -9895183.23346  22486016.244    22486016.1044   22486020.1734
       186.0004        187.0004
 -15857035.62848 -12339107.20747  21400129.200    21400129.8234   21400135.5394
       194.0004        193.0004
 -19437571.61149 -15127342.04648  20805176.457    20805177.1124   20805183.7824
       214.0004        215.0004
 -10948669.71348  -8516236.24446  22725723.177    22725723.2464   22725731.0794
       168.0004        171.0004
  -6877760.25348  -5347986.68547  23525426.240    23525425.7904   23525431.6364
       189.0004        189.0004
 21  2  1  0 26 30.0000000  0  7G21G08G07G04G09G01G27
 -15682034.34448 -12213178.53146  21961005.936    21961005.7594   21961010.1314
       173.0004        174.0004
 -19953522.79949 -15532682.50047  20867383.579    20867383.8154   20867390.9064
       204.0004        205.0004
 -12799520.30848  -9953972.09646  22471658.689    22471659.4444   22471663.6154
       186.0004        187.0004
 -15780405.69749 -12279395.59447  21414711.715    21414711.9124   21414717.7514
       195.0004        193.0004
 -19423776.68549 -15116592.75448  20807801.776    20807801.9224   20807808.8104
       214.0004        215.0004
 -11025992.96548  -8576488.11046  22711008.478    22711008.4304   22711016.7194
       168.0004        168.0004
  -6772586.30248  -5266032.97647  23545439.856    23545439.5104   23545446.6984
       189.0004        190.0004
 21  2  1  0 27  0.0000000  0  7G21G08G07G04G09G01G27
 -15710531.01648 -12235383.70246  21955583.443    21955582.5614   21955587.6124
       173.0004        174.0004
 -19890581.64549 -15483637.44147  20879360.523    20879360.5764   20879368.1144
       204.0004        204.0004
 -12874953.62748 -10012751.29447  22457304.539    22457305.1694   22457309.0074
       187.0004        188.0004
 -15703421.77248 -12219408.11147  21429360.771    21429361.5514   21429367.2694
       194.0004        193.0004
 -19409432.41849 -15105415.39748  20810531.385    20810531.7014   20810538.0824
       215.0004        215.0004
 -11103267.03148  -8636701.61446  22696303.654    22696303.9384   22696313.0124
       168.0004        170.0004
  -6667275.25948  -5183972.43147  23565480.046    23565479.5464   23565486.3564
       190.0004        189.0004
 21  2  1  0 27 30.0000000  0  7G21G08G07G04G09G01G27
 -15738675.29948 -12257314.29846  21950226.839    21950226.8634   21950233.4114
       174.0004        175.0004
 -19827216.22449 -15434261.79747  20891418.350    20891418.7104   20891426.2024
       203.0004        203.0004
 -12950372.23748 -10071519.06047  22442952.245    22442953.2854   22442957.5104
       187.0004        188.0004
 -15626086.76948 -12159147.09347  21444076.980    21444077.8424   21444083.6924
       194.0004        193.0004
 -19394539.94549 -15093810.88548  20813365.206    20813365.4364   20813371.9954
       215.0004        215.0004
 -11180488.92448  -8696874.48346  22681608.017    22681609.2804   22681616.5074
       169.0004        171.0004
  -6561830.08148  -5101807.36847  23585544.843    23585545.2504   23585552.4214
       190.0004        192.0004
 21  2  1  0 28  0.0000000  0  7G21G08G07G04G09G01G27
 -15766463.93648 -12278967.77146  21944939.214    21944939.4084   21944944.6184
       175.0004        176.0004
 -19763429.62049 -15384557.94847  20903556.509    20903556.6924   20903564.2954
       203.0004        203.0004
 -13025773.40348 -10130273.22347  22428605.031    22428605.1434   22428609.5324
       188.0004        188.0004
 -15548403.12748 -12098614.39047  21458860.039    21458860.5544   21458866.2744
       194.0004        192.0004
 -19379100.06049 -15081779.80748  20816303.168    20816303.5614   20816310.2794
       214.0004        215.0004
 -11257655.22648  -8757004.05546  22666923.647    22666925.1144   22666932.8394
       170.0004        172.0004
  -6456253.32448  -5019539.78646  23605634.389    23605635.4914   23605642.2034
       187.0004        186.0004
 21  2  1  0 28 30.0000000  0  7G21G08G07G04G09G01G27
 -15793895.49448 -12300343.00646  21939719.219    21939718.9684   21939724.2334
       175.0004        176.0004
 -19699224.96349 -15334528.34447  20915774.264    20915774.7474   20915781.7734
       203.0004        203.0004
 -13101156.19748 -10189013.03947  22414260.626    22414260.4014   22414264.8384
       188.0004        188.0004
 -15470374.20548 -12037812.64647  21473708.471    21473708.7744   21473714.7704
       193.0004        192.0004
 -19363114.40749 -15069323.46248  20819345.307    20819345.5914   20819352.3834
       214.0004        215.0004
 -11334763.39848  -8817088.32446  22652249.678    22652251.3314   22652259.2594
       170.0004        172.0004
  -6350548.31048  -4937172.24646  23625748.923    23625750.2714   23625758.3784
       186.0004        186.0004
 21  2  1  0 29  0.0000000  0  8G21G08G07G04G09G01G30G27
 -15820968.38548 -12321438.72846  21934567.685    21934567.4544   21934572.5304
       176.0004        178.0004
 -19634605.03349 -15284175.12547  20928071.063    20928071.2054   20928078.6754
       202.0004        203.0004
 -13176518.57048 -10247736.92646  22399918.162    22399918.8964   22399923.0404
       187.0004        186.0004
 -15392003.01048 -11976744.17847  21488621.581    21488622.3354   21488628.5124
       193.0004        192.0004
 -19346584.33149 -15056442.87748  20822490.787    20822491.0624   20822497.7414
       214.0004        215.0004
 -11411810.46248  -8877124.95546  22637588.398    22637589.6284   22637598.4134
       171.0004        172.0004
  -1727863.14356  -1317876.28645  24349524.499                    24349535.8994
       131.0004        145.0004
  -6244718.29848  -4854707.30846  23645891.174    23645890.1524   23645896.4694
       185.0004        186.0004
 21  2  1  0 29 30.0000000  0  8G21G08G07G04G09G01G30G27
 -15847680.51048 -12342253.37246  21929484.640    21929484.2574   21929489.4134
       177.0004        177.0004
 -19569572.59349 -15233500.49447  20940445.902    20940446.2424   20940453.8694
       202.0004        202.0004
 -13251858.72948 -10306443.54546  22385581.746    22385582.1764   22385586.1324
       186.0004        187.0004
 -15313292.72148 -11915411.49847  21503600.087    21503600.5254   21503606.2134
       193.0004        192.0004
 -19329511.34349 -15043139.25048  20825739.573    20825739.8664   20825746.6604
       214.0004        214.0004
 -11488793.66848  -8937111.82846  22622940.088    22622940.7044   22622949.5874
       172.0004        173.0004
  -1811502.23347  -1383049.57745  24333612.203    24333611.7064   24333617.1814
       140.0004        147.0004
  -6138766.39048  -4772147.39746  23666052.680    23666051.8944   23666058.9464
       185.0004        185.0004
 21  2  1  0 30  0.0000000  0  8G21G08G07G04G09G01G30G27
 -15874031.85848 -12362786.87546  21924470.041    21924469.4784   21924474.6874
       177.0004        178.0004
 -19504133.11649 -15182508.68547  20952898.141    20952898.8314   20952906.7034
       201.0004        202.0004
 -13327176.30448 -10365132.56546  22371249.245    22371249.8164   22371253.1914
       187.0004        186.0004
 -15234248.39248 -11853818.52047  21518641.316    21518641.9464   21518648.0264
       193.0004        191.0004
 -19311898.83449 -15029415.22248  20829091.597    20829091.8484   20829098.3434
       214.0004        215.0004
 -11565712.10948  -8997048.24846  22608303.392    22608303.6164   22608311.4464
       172.0004        173.0004
  -1895256.21747  -1448312.40345  24317673.788    24317673.8604   24317680.6384
       144.0004        149.0004
  -6032697.78348  -4689496.55746  23686237.436    23686236.9644   23686241.8834
       185.0004        185.0004
 21  2  1  0 30 30.0000000  0  8G21G08G07G04G09G01G30G27
 -15900017.75448 -12383035.60546  21919524.750    21919524.1034   21919529.5204
       177.0004        178.0004
 -19438287.06249 -15131200.07147  20965428.379    20965429.0694   20965436.8834
       201.0004        202.0004
 -13402467.13148 -10423800.74346  22356922.202    22356922.8174   22356926.2594
       187.0004        187.0004
 -15154870.54848 -11791965.66447  21533746.710    21533747.3854   21533753.6494
       193.0004        192.0004
 -19293745.70449 -15015269.93048  20832545.788    20832545.9974   20832552.6064
       214.0004        215.0004
 -11642560.31448  -9056929.95746  22593679.592    22593679.6984   22593688.0334
       171.0004        172.0004
  -1979121.51747  -1513661.98245  24301715.165    24301714.5064   24301721.9374
       145.0004        149.0004
  -5926512.85448  -4606755.07546  23706443.459    23706443.4724   23706449.4044
       186.0004        187.0004
 21  2  1  0 31  0.0000000  0  8G21G08G07G04G09G01G30G27
 -15925636.27548 -12402998.09246  21914649.547    21914649.3924   21914653.9864
       177.0004        177.0004
 -19372036.77349 -15079576.46147  20978035.688    20978035.7034   20978043.5834
       201.0004        202.0004
 -13477729.11148 -10482446.44146  22342599.873    22342600.4424   22342604.0034
       186.0004        186.0004
 -15075161.99148 -11729855.10947  21548915.101    21548915.3144   21548920.7794
       193.0004        192.0004
 -19275053.19549 -15000704.34448  20836102.127    20836102.6144   20836109.6624
       214.0004        214.0004
 -11719335.17048  -9116754.51046  22579068.506    22579068.8554   22579078.1234
       170.0004        170.0004
  -2063096.81247  -1579097.25145  24285735.677    24285734.8514   24285742.0804
       148.0004        153.0004
  -5820214.55248  -4523925.22446  23726671.914    23726671.4874   23726677.0854
       186.0004        185.0004
 21  2  1  0 31 30.0000000  0  8G21G08G07G04G09G01G30G27
 -15950883.56548 -12422671.30046  21909845.373    21909845.6014   21909850.6064
       178.0004        179.0004
 -19305383.44349 -15027638.79547  20990719.724    20990720.0004   20990727.5174
       201.0004        201.0004
 -13552958.44448 -10541066.69946  22328284.035    22328284.6674   22328289.4564
       186.0004        187.0004
 -14995123.99648 -11667487.84647  21564145.272    21564146.0214   21564151.9204
       192.0004        192.0004
 -19255820.96049 -14985718.18848  20839762.439    20839762.7334   20839769.8814
       214.0004        215.0004
 -11796031.85548  -9176518.14146  22564474.206    22564474.9724   22564482.5754
       170.0004        170.0004
  -2147179.28147  -1644616.03145  24269735.802    24269734.8544   24269741.8144
       151.0004        156.0004
  -5713804.05748  -4441007.97447  23746919.906    23746920.1054   23746925.9984
       187.0004        188.0004
 21  2  1  0 32  0.0000000  0  8G21G08G07G04G09G01G30G27
 -15975757.64548 -12442053.69746  21905112.296    21905111.7994   21905117.1814
       179.0004        181.0004
 -19238330.33049 -14975389.60347  21003478.384    21003479.3004   21003487.2834
       200.0004        200.0004
 -13628152.88248 -10599659.75347  22313974.801    22313975.6894   22313979.9924
       187.0004        189.0004
 -14914759.69148 -11604866.31847  21579438.522    21579438.7784   21579445.2304
       193.0004        192.0004
 -19236050.54849 -14970312.67148  20843524.978    20843525.4084   20843532.1414
       215.0004        216.0004
 -11872647.51248  -9236218.62946  22549894.735    22549895.7884   22549903.5324
       169.0004        170.0004
  -2231367.85447  -1710217.48645  24253714.300    24253713.7524   24253721.0834
       152.0004        155.0004
  -5607284.53748  -4358005.74646  23767189.544    23767189.3034   23767196.6784
       186.0004        184.0004
 21  2  1  0 32 30.0000000  0  8G21G08G07G04G09G01G30G27
 -16000257.13248 -12461144.18046  21900450.292    21900449.9754   21900454.8434
       180.0004        181.0004
 -19170880.88649 -14922831.58347  21016313.956    21016314.6354   21016322.0284
       200.0004        200.0004
 -13703311.30648 -10658224.75447  22299673.738    22299673.8834   22299677.8354
       188.0004        189.0004
 -14834072.75648 -11541993.37347  21594792.089    21594792.6904   21594799.3714
       193.0004        191.0004
 -19215744.09249 -14954489.45348  20847389.377    20847389.5684   20847395.9224
       215.0004        215.0004
 -11949179.75748  -9295854.13146  22535331.483    22535332.1294   22535339.8614
       170.0004        172.0004
  -2315662.00847  -1775901.23645  24237673.444    24237672.8864   24237679.6854
       151.0004        154.0004
  -5500659.59848  -4274921.38046  23787478.257    23787478.6594   23787485.9554
       183.0004        182.0004
 21  2  1  0 33  0.0000000  0  8G21G08G07G04G09G01G30G27
 -16024378.86848 -12479940.33646  21895859.598    21895859.5074   21895864.4994
       180.0004        180.0004
 -19103037.15549 -14869966.33047  21029224.836    21029224.8274   21029231.9844
       200.0004        200.0004
 -13778430.56848 -10716759.24846  22285378.545    22285378.7754   22285383.0544
       187.0004        187.0004
 -14753065.06648 -11478870.51947  21610207.187    21610208.1044   21610214.0884
       191.0004        190.0004
 -19194901.90849 -14938248.80248  20851354.665    20851355.3184   20851362.2624
       214.0004        215.0004
 -12025624.48948  -9355421.44746  22520784.425    22520785.1264   22520793.2964
       170.0004        171.0004
  -2400059.48047  -1841665.47745  24221613.030    24221612.6974   24221619.6274
       153.0004        156.0004
  -5393931.08748  -4191756.32446  23807787.627    23807788.5324   23807795.4984
       181.0004        180.0004
 21  2  1  0 33 30.0000000  0  8G21G08G07G04G09G01G30G27
 -16048121.63448 -12498441.18346  21891342.127    21891341.1454   21891345.5424
       179.0004        179.0004
 -19034802.47249 -14816796.44947  21042209.013    21042209.4594   21042217.0524
       200.0004        200.0004
 -13853508.95748 -10775261.87047  22271091.813    22271092.2574   22271096.0124
       188.0004        189.0004
 -14671740.24648 -11415500.54247  21625683.538    21625683.9614   21625689.9064
       192.0004        191.0004
 -19173526.15349 -14921592.37248  20855422.607    20855422.9754   20855429.6404
       214.0004        214.0004
 -12101979.24048  -9414918.63346  22506254.206    22506254.2244   22506263.1884
       170.0004        171.0004
  -2484559.67247  -1907509.76945  24205533.378    24205533.1654   24205539.9544
       154.0004        157.0004
  -5287102.54548  -4108513.28146  23828116.447    23828117.5474   23828124.3574
       181.0004        181.0004
 21  2  1  0 34  0.0000000  0  8G21G08G07G04G09G01G30G27
 -16071483.50148 -12516645.22246  21886895.371    21886895.2484   21886900.6264
       179.0004        179.0004
 -18966179.77249 -14763324.20247  21055267.287    21055267.5724   21055275.7434
       200.0004        200.0004
 -13928544.42348 -10833731.07447  22256813.497    22256813.3314   22256816.6774
       188.0004        188.0004
 -14590101.23048 -11351885.73047  21641219.034    21641219.4774   21641225.0374
       192.0004        190.0004
 -19151618.16349 -14904521.21248  20859591.849    20859592.2344   20859598.6524
       214.0004        214.0004
 -12178240.86648  -9474343.25446  22491742.095    22491742.2954   22491750.8894
       170.0004        171.0004
  -2569161.26947  -1973433.08845  24189432.617    24189433.0514   24189440.9984
       156.0004        158.0004
  -5180176.74748  -4025194.52646  23848464.743    23848465.8594   23848470.7354
       180.0004        180.0004
 21  2  1  0 34 30.0000000  0  8G21G08G07G04G09G01G30G27
 -16094462.31648 -12534550.78346  21882523.646    21882522.4354   21882527.9924
       179.0004        179.0004
 -18897172.06249 -14709551.95447  21068398.992    21068399.1464   21068407.4624
       199.0004        199.0004
 -14003534.96648 -10892165.26046  22242541.927    22242542.3054   22242547.7354
       187.0004        187.0004
 -14508151.15448 -11288028.54447  21656813.133    21656814.1654   21656819.7484
       191.0004        191.0004
 -19129179.73249 -14887036.72648  20863861.722    20863862.1234   20863868.5524
       214.0004        214.0004
 -12254406.44448  -9533693.04846  22477248.159    22477248.7694   22477257.8484
       170.0004        173.0004
  -2653863.23947  -2039434.60545  24173314.926    24173316.1484   24173323.6584
       157.0004        160.0004
  -5073156.92648  -3941802.40946  23868829.610    23868830.2614   23868837.2964
       179.0004        180.0004
 21  2  1  0 35  0.0000000  0  8G21G08G07G04G09G01G30G27
 -16117056.48248 -12552156.62046  21878224.106    21878223.3534   21878229.0124
       179.0004        180.0004
 -18827782.30349 -14655482.00447  21081603.143    21081603.7524   21081611.9864
       199.0004        199.0004
 -14078478.58348 -10950562.86847  22228280.645    22228281.1624   22228285.2894
       187.0004        188.0004
 -14425893.17248 -11223931.42347  21672466.736    21672467.1644   21672473.2284
       192.0004        191.0004
 -19106212.36449 -14869140.08648  20868232.370    20868232.6554   20868239.4014
       214.0004        214.0004
 -12330472.98048  -9592965.65946  22462773.800    22462774.6694   22462782.1914
       171.0004        172.0004
  -2738664.42247  -2105513.45245  24157178.411    24157178.7964   24157185.9164
       158.0004        160.0004
  -4966045.97648  -3858339.35346  23889212.652    23889213.0514   23889219.6884
       181.0004        182.0004
 21  2  1  0 35 30.0000000  0  8G21G08G07G04G09G01G30G27
 -16139263.84348 -12569461.04246  21873997.939    21873997.4934   21874002.4114
       179.0004        180.0004
 -18758013.46449 -14601116.67747  21094880.429    21094880.7364   21094888.2404
       198.0004        198.0004
 -14153372.69148 -11008921.90247  22214028.948    22214029.2164   22214033.7074
       188.0004        189.0004
 -14343330.10448 -11159596.56647  21688177.205    21688178.1454   21688184.2844
       192.0004        191.0004
 -19082717.52549 -14850832.41848  20872702.753    20872703.2884   20872710.2424
       213.0004        214.0004
 -12406437.22348  -9652158.55746  22448317.138    22448318.4524   22448326.5804
       170.0004        172.0004
  -2823563.34747  -2171668.44145  24141022.648    24141022.8724   24141030.1884
       158.0004        161.0004
  -4858846.58048  -3774807.36946  23909610.312    23909611.2964   23909620.1594
       181.0004        181.0004
 21  2  1  0 36  0.0000000  0  8G21G08G07G04G09G01G30G27
 -16161081.69448 -12586461.95546  21869847.543    21869846.5274   21869851.6724
       180.0004        182.0004
 -18687867.73049 -14546457.65047  21108228.231    21108228.8834   21108236.7974
       198.0004        198.0004
 -14228214.61048 -11067240.28047  22199786.694    22199787.6124   22199791.8014
       189.0004        190.0004
 -14260464.39448 -11095025.89447  21703946.813    21703947.2184   21703952.5314
       191.0004        190.0004
 -19058696.27349 -14832114.56048  20877274.369    20877274.8004   20877281.2774
       214.0004        214.0004
 -12482295.51148  -9711268.90246  22433882.299    22433883.4544   22433890.8994
       171.0004        171.0004
  -2908558.19547  -2237898.20045  24124847.868    24124848.5854   24124856.0174
       157.0004        159.0004
  -4751561.12648  -3691208.31646  23930026.816    23930027.2834   23930034.4734
       179.0004        179.0004
 21  2  1  0 36 30.0000000  0  8G21G08G07G04G09G01G30G27
 -16182508.27648 -12603157.97946  21865768.712    21865768.3534   21865772.6904
       179.0004        179.0004
 -18617348.00049 -14491507.19947  21121648.022    21121648.3114   21121656.0094
       198.0004        198.0004
 -14303002.29248 -11125516.39047  22185555.993    22185556.5394   22185559.9064
       189.0004        190.0004
 -14177299.05848 -11030221.74847  21719772.996    21719772.8894   21719778.7294
       191.0004        189.0004
 -19034150.13249 -14812987.69548  20881945.075    20881945.5594   20881952.3364
       214.0004        214.0004
 -12558044.73348  -9770294.24546  22419468.120    22419468.9434   22419475.9384
       172.0004        174.0004
  -2993647.62447  -2304201.65345  24108656.270    24108656.2994   24108663.7454
       157.0004        159.0004
  -4644192.43948  -3607544.41246  23950459.488    23950459.1814   23950465.7384
       178.0004        178.0004
 21  2  1  0 37  0.0000000  0  8G21G08G07G04G09G01G30G27
 -16203542.47048 -12619548.24846  21861765.520    21861765.0454   21861770.4954
       178.0004        178.0004
 -18546458.69049 -14436268.77447  21135137.963    21135137.9644   21135146.0914
       198.0004        198.0004
 -14377734.61048 -11183749.36847  22171335.073    22171335.3614   22171339.1524
       189.0004        190.0004
 -14093838.31548 -10965187.40947  21735654.727    21735655.2624   21735660.6024
       191.0004        190.0004
 -19009081.94549 -14793454.04948  20886715.708    20886716.0694   20886722.2864
       214.0004        214.0004
 -12633682.96048  -9829233.10646  22405074.158    22405075.2564   22405082.8704
       172.0004        173.0004
  -3078831.56247  -2370578.74445  24092447.832    24092447.5554   24092453.3854
       156.0004        158.0004
  -4536744.65748  -3523818.85746  23970906.641    23970906.0734   23970913.1944
       178.0004        178.0004
 21  2  1  0 37 30.0000000  0  8G21G08G07G04G09G01G30G27
 -16224181.92648 -12635630.93346  21857837.748    21857838.0894   21857842.7114
       178.0004        179.0004
 -18475201.58949 -14380743.75247  21148698.019    21148697.7524   21148705.6294
       198.0004        197.0004
 -14452408.18048 -11241936.55747  22157124.291    22157125.2844   22157129.1154
       189.0004        188.0004
 -14010084.13048 -10899924.41947  21751592.775    21751592.9314   21751598.9324
       190.0004        189.0004
 -18983492.30149 -14773514.06648  20891585.324    20891585.4494   20891592.1414
       213.0004        214.0004
 -12709206.06048  -9888082.24346  22390702.344    22390703.2004   22390711.0304
       171.0004        172.0004
  -3164107.63447  -2437027.61345  24076219.664    24076219.6214   24076225.6254
       157.0004        160.0004
  -4429219.44648  -3440033.00146  23991365.845    23991366.6304   23991373.9594
       175.0004        175.0004
 21  2  1  0 38  0.0000000  0  8G21G08G07G04G09G01G30G27
 -16244423.98348 -12651403.95246  21853985.481    21853985.9834   21853991.0354
       178.0004        179.0004
 -18403578.92849 -14324933.89047  21162326.752    21162326.6864   21162335.3284
       197.0004        197.0004
 -14527020.42248 -11300075.95847  22142926.760    22142927.0054   22142931.0864
       190.0004        191.0004
 -13926038.82548 -10834434.58347  21767586.563    21767586.3624   21767592.1944
       190.0004        189.0004
 -18957382.17649 -14753168.51748  20896553.529    20896553.8144   20896560.5444
       213.0004        213.0004
 -12784610.15048  -9946838.67446  22376353.480    22376353.6154   22376362.5494
       172.0004        174.0004
  -3249473.82947  -2503546.69245  24059975.291    24059974.7634   24059982.0484
       157.0004        160.0004
  -4321619.06048  -3356188.55146  24011841.746    24011842.4774   24011848.6914
       174.0004        173.0004
 21  2  1  0 38 30.0000000  0  8G21G08G07G04G09G01G30G27
 -16264267.09048 -12666866.09746  21850210.625    21850209.9424   21850215.2254
       178.0004        179.0004
 -18331594.00649 -14268841.74147  21176024.271    21176025.0824   21176033.1764
       197.0004        197.0004
 -14601569.36748 -11358166.03147  22128739.867    22128740.3874   22128744.8184
       191.0004        192.0004
 -13841705.87148 -10768720.59947  21783633.960    21783633.9844   21783640.3054
       190.0004        188.0004
 -18930753.67949 -14732419.04048  20901620.465    20901620.9784   20901627.7324
       213.0004        213.0004
 -12859892.51748 -10005500.23146  22362027.737    22362028.4024   22362036.4324
       173.0004        174.0004
  -3334929.11147  -2570135.20745  24043712.466    24043713.6434   24043720.2964
       159.0004        162.0004
  -4213946.74348  -3272288.08046  24032331.756    24032331.8874   24032339.3044
       173.0004        174.0004
 21  2  1  0 39  0.0000000  0  8G21G08G07G04G09G01G30G27
 -16283708.80148 -12682015.46746  21846511.831    21846510.8214   21846515.8194
       180.0004        180.0004
 -18259249.52549 -14212469.41747  21189792.168    21189792.2974   21189799.8814
       197.0004        198.0004
 -14676052.51048 -11416204.84147  22114566.944    22114567.3784   22114571.0054
       192.0004        192.0004
 -13757087.85148 -10702784.48746  21799735.218    21799736.1274   21799741.7324
       188.0004        186.0004
 -18903608.05349 -14711266.61148  20906786.165    20906786.3234   20906793.9804
       212.0004        213.0004
 -12935049.60148 -10064064.17746  22347727.085    22347727.4524   22347735.1514
       174.0004        175.0004
  -3420471.73747  -2636791.79746  24027434.406    24027435.1594   24027442.4304
       161.0004        164.0004
  -4106204.81948  -3188333.35346  24052833.928    24052833.7944   24052840.8614
       172.0004        172.0004
 21  2  1  0 39 30.0000000  0  8G21G08G07G04G09G01G30G27
 -16302748.07548 -12696851.24946  21842887.492    21842887.7054   21842892.3074
       180.0004        181.0004
 -18186548.90049 -14155819.56447  21203626.786    21203626.7414   21203634.3744
       197.0004        197.0004
 -14750467.68648 -11474190.68647  22100406.679    22100406.3564   22100410.5464
       192.0004        190.0004
 -13672188.31948 -10636629.01047  21815891.936    21815892.1814   21815898.3824
       188.0004        188.0004
 -18875947.57949 -14689712.99648  20912049.590    20912050.4244   20912057.1924
       212.0004        213.0004
 -13010078.77048 -10122528.43446  22333449.955    22333450.0534   22333457.1164
       175.0004        176.0004
  -3506100.94047  -2703515.82945  24011140.061    24011140.6804   24011147.3244
       160.0004        162.0004
  -3998396.62648  -3104326.99346  24073348.769    24073349.3854   24073357.2264
       172.0004        174.0004
 21  2  1  0 40  0.0000000  0  8G21G08G07G04G09G01G30G27
 -16321382.26948 -12711371.39346  21839340.629    21839341.4764   21839346.0264
       180.0004        179.0004
 -18113494.33549 -14098893.92447  21217527.855    21217527.9774   21217536.4964
       196.0004        196.0004
 -14824811.99448 -11532121.30947  22086258.748    22086259.1374   22086262.9104
       191.0004        191.0004
 -13587009.57348 -10570255.97046  21832101.057    21832101.4554   21832106.7854
       188.0004        187.0004
 -18847773.21849 -14667758.96248  20917411.435    20917411.7024   20917418.3134
       212.0004        213.0004
 -13084976.09148 -10180889.95346  22319196.404    22319196.5694   22319204.8304
       175.0004        176.0004
  -3591814.43747  -2770305.54845  23994829.382    23994829.6274   23994836.0894
       157.0004        157.0004
  -3890524.27248  -3020270.61246  24093876.404    24093877.2644   24093883.6894
       174.0004        176.0004
 21  2  1  0 40 30.0000000  0  8G21G08G07G04G09G01G30G27
 -16339610.14548 -12725574.92746  21835872.778    21835872.3814   21835878.4584
       180.0004        180.0004
 -18040089.87649 -14041695.65247  21231496.089    21231496.3914   21231504.9204
       195.0004        196.0004
 -14899084.11048 -11589995.68347  22072125.248    22072125.8974   22072129.3794
       191.0004        192.0004
 -13501555.46048 -10503668.35446  21848362.116    21848362.3354   21848368.4394
       188.0004        186.0004
 -18819087.55149 -14645406.49847  20922870.038    20922870.5114   20922877.4164
       212.0004        212.0004
 -13159739.26748 -10239146.94346  22304968.801    22304969.1964   22304977.9754
       175.0004        176.0004
  -3677611.69947  -2837160.56345  23978503.371    23978503.0934   23978509.0954
       154.0004        156.0004
  -3782591.33148  -2936167.03846  24114415.008    24114416.5194   24114423.9864
       174.0004        175.0004
 21  2  1  0 41  0.0000000  0  8G21G08G07G04G09G01G30G27
 -16357429.19748 -12739459.88846  21832482.174    21832481.6084   21832487.1104
       181.0004        181.0004
 -17966337.32749 -13984226.13347  21245531.770    21245531.6274   21245539.4314
       196.0004        196.0004
 -14973281.05648 -11647811.47247  22058005.953    22058006.5264   22058011.0854
       192.0004        193.0004
 -13415828.23948 -10436867.93246  21864675.136    21864675.6624   21864681.8004
       187.0004        187.0004
 -18789891.59949 -14622656.40748  20928426.224    20928426.2914   20928433.0604
       212.0004        213.0004
 -13234364.33348 -10297296.32746  22290767.629    22290768.7424   22290776.9224
       174.0004        174.0004
  -3763490.49847  -2904079.08845  23962161.544    23962161.1344   23962168.0054
       156.0004        159.0004
  -3674599.73648  -2852017.72946  24134965.855    24134967.0734   24134972.6074
       172.0004        173.0004
 21  2  1  0 41 30.0000000  0  8G21G08G07G04G09G01G30G27
 -16374837.51848 -12753024.79246  21829169.500    21829169.5104   21829174.1904
       180.0004        180.0004
 -17892239.63949 -13926487.66847  21259631.775    21259631.8574   21259639.3204
       196.0004        196.0004
 -15047400.12848 -11705566.58947  22043901.581    22043902.2254   22043905.5984
       193.0004        192.0004
 -13329830.72648 -10369856.89146  21881040.521    21881040.4314   21881046.1754
       186.0004        186.0004
 -18760186.97249 -14599509.94447  20934078.092    20934078.6104   20934085.4864
       212.0004        212.0004
 -13308847.92448 -10355335.47546  22276595.391    22276595.5844   22276603.5924
       174.0004        175.0004
  -3849449.25547  -2971059.91545  23945801.963    23945803.5314   23945810.2734
       157.0004        159.0004
  -3566552.05148  -2767824.75446  24155528.146    24155528.5744   24155534.7114
       176.0004        178.0004
 21  2  1  0 42  0.0000000  0  8G21G08G07G04G09G01G30G27
 -16391833.51748 -12766268.40946  21825934.285    21825934.6884   21825939.4954
       180.0004        180.0004
 -17817800.29349 -13868482.97447  21273796.269    21273796.9664   21273804.5844
       195.0004        195.0004
 -15121439.39948 -11763259.52047  22029812.213    22029812.3324   22029816.5984
       192.0004        192.0004
 -13243566.43448 -10302637.96946  21897456.066    21897456.3944   21897462.1074
       186.0004        186.0004
 -18729975.89749 -14575968.85447  20939827.751    20939828.0264   20939834.6804
       212.0004        212.0004
 -13383187.26148 -10413262.20446  22262448.418    22262449.1514   22262457.0624
       175.0004        176.0004
  -3935486.94147  -3038102.21645  23929429.358    23929429.1014   23929437.4054
       156.0004        158.0004
  -3458451.59448  -2683590.63346  24176097.677    24176098.1184   24176104.8894
       176.0004        176.0004
 21  2  1  0 42 30.0000000  0  8G21G08G07G04G09G01G30G27
 -16408414.37148 -12779188.54846  21822780.133    21822779.4824   21822783.6174
       180.0004        181.0004
 -17743020.64549 -13810213.10447  21288025.910    21288026.8154   21288034.6784
       195.0004        196.0004
 -15195395.05948 -11820887.29147  22015738.145    22015739.1434   22015743.9464
       192.0004        192.0004
 -13157036.99148 -10235212.41746  21913921.862    21913922.5704   21913928.3454
       186.0004        186.0004
 -18699258.82349 -14552033.46748  20945673.108    20945673.1654   20945680.1214
       212.0004        213.0004
 -13457377.75048 -10471072.95446  22248329.960    22248330.8664   22248338.8404
       176.0004        177.0004
  -4021600.68347  -3105203.81045  23913042.733    23913044.0784   23913050.0864
       157.0004        160.0004
  -3350299.54948  -2599316.34046  24196678.625    24196679.1754   24196685.7844
       176.0004        176.0004
 21  2  1  0 43  0.0000000  0  8G21G08G07G04G09G01G30G27
 -16424580.16048 -12791785.26146  21819704.848    21819703.5724   21819708.3664
       181.0004        181.0004
 -17667905.27149 -13751681.65147  21302320.796    21302321.0314   21302329.0924
       195.0004        195.0004
 -15269267.01548 -11878449.84747  22001681.601    22001682.2494   22001686.0914
       193.0004        193.0004
 -13070247.10748 -10167583.94846  21930436.649    21930437.2824   21930444.0724
       186.0004        185.0004
 -18668039.29349 -14527706.56147  20951613.682    20951613.9424   20951620.7034
       212.0004        212.0004
 -13531417.81548 -10528766.49946  22234241.034    22234242.2964   22234248.8854
       176.0004        177.0004
  -4107790.58447  -3172364.78345  23896643.357    23896643.3864   23896649.1684
       159.0004        162.0004
  -3242100.30048  -2515005.26946  24217267.854    24217268.9204   24217274.6074
       175.0004        176.0004
 21  2  1  0 43 30.0000000  0  8G21G08G07G04G09G01G30G27
 -16440328.30248 -12804056.51446  21816706.658    21816707.0764   21816711.7504
       181.0004        181.0004
 -17592456.71349 -13692890.57347  21316679.185    21316678.9204   21316686.2934
       195.0004        195.0004
 -15343051.68248 -11935944.37847  21987640.785    21987641.4864   21987645.2804
       193.0004        194.0004
 -12983199.10948 -10099754.35846  21947002.845    21947003.0374   21947009.1464
       186.0004        185.0004
 -18636318.45849 -14502989.02447  20957650.227    20957650.4374   20957656.8524
       212.0004        212.0004
 -13605303.65848 -10586339.86246  22220181.252    22220181.3534   22220188.9774
       176.0004        177.0004
  -4194054.54347  -3239583.43045  23880227.513    23880227.2464   23880233.3714
       158.0004        159.0004
  -3133855.96848  -2430659.03646  24237866.941    24237867.1744   24237873.0944
       177.0004        178.0004
 21  2  1  0 44  0.0000000  0  8G21G08G07G04G09G01G30G27
 -16455656.97748 -12816000.93446  21813789.601    21813789.7574   21813794.7994
       181.0004        181.0004
 -17516677.81649 -13633842.08847  21331099.660    21331099.6164   21331106.8254
       196.0004        197.0004
 -15416746.83248 -11993369.17447  21973616.912    21973617.3124   21973621.6564
       193.0004        193.0004
 -12895896.14748 -10031726.07446  21963615.171    21963615.8034   21963621.8294
       186.0004        185.0004
 -18604098.28749 -14477882.42247  20963780.872    20963781.2144   20963788.4044
       211.0004        212.0004
 -13679032.11748 -10643790.59046  22206151.054    22206151.4744   22206159.7654
       176.0004        177.0004
  -4280391.12647  -3306858.67745  23863796.704    23863797.3414   23863804.3894
       155.0004        157.0004
  -3025569.36648  -2346279.85546  24258472.649    24258473.6854   24258479.7664
       178.0004        179.0004
 21  2  1  0 44 30.0000000  0  8G21G08G07G04G09G01G30G27
 -16470563.44448 -12827616.34446  21810953.008    21810953.3114   21810958.8654
       181.0004        182.0004
 -17440571.06849 -13574538.12447  21345581.318    21345582.0864   21345589.4844
       196.0004        196.0004
 -15490348.95148 -12050721.46847  21959611.522    21959611.9044   21959615.1614
       193.0004        193.0004
 -12808340.23548  -9963500.70746  21980276.654    21980277.1674   21980282.7644
       185.0004        184.0004
 -18571379.71349 -14452387.43148  20970007.628    20970007.9554   20970014.6004
       211.0004        213.0004
 -13752598.94748 -10701115.38946  22192151.285    22192151.7104   22192160.1744
       177.0004        179.0004
  -4366797.78947  -3374188.53445  23847352.900    23847353.7634   23847361.4684
       152.0004        154.0004
  -2917242.07748  -2261869.01946  24279087.319    24279087.9224   24279094.5104
       180.0004        181.0004
 21  2  1  0 45  0.0000000  0  8G21G08G07G04G09G01G30G27
 -16485045.71748 -12838901.20946  21808197.944    21808197.3484   21808202.5104
       182.0004        182.0004
 -17364138.89449 -13514980.58447  21360125.342    21360125.8704   21360133.5944
       195.0004        194.0004
 -15563855.60948 -12107999.38047  21945622.808    21945623.5474   21945627.6464
       193.0004        193.0004
 -12720534.32348  -9895080.51346  21996985.763    21996986.0534   21996991.6274
       185.0004        185.0004
 -18538164.55649 -14426505.49747  20976327.949    20976328.2734   20976334.8834
       212.0004        212.0004
 -13826000.84048 -10758311.65946  22178183.107    22178183.8254   22178192.3644
       177.0004        179.0004
  -4453272.88447  -3441571.71645  23830898.351    23830898.8544   23830906.1294
       151.0004        154.0004
  -2808876.69148  -2177428.47646  24299708.588    24299708.4364   24299714.8064
       177.0004        176.0004
 21  2  1  0 45 30.0000000  0  8G21G08G07G04G09G01G30G27
 -16499104.33148 -12849855.95446  21805522.394    21805521.7634   21805527.3074
       182.0004        181.0004
 -17287385.87848 -13455173.04647  21374730.922    21374731.7504   21374739.2134
       194.0004        194.0004
 -15637266.23448 -12165202.44847  21931653.503    21931654.0124   21931658.1804
       194.0004        194.0004
 -12632483.07748  -9826469.16246  22013740.988    22013741.8924   22013747.9694
       185.0004        185.0004
 -18504456.40549 -14400239.40647  20982742.111    20982742.5354   20982749.4704
       212.0004        212.0004
 -13899236.17948 -10815378.15546  22164247.457    22164247.8444   22164255.3394
       177.0004        178.0004
  -4539816.56047  -3509008.32445  23814429.456    23814429.9614   23814438.8184
       153.0004        157.0004
  -2700477.57648  -2092961.61546  24320337.469    24320336.5864   24320342.2144
       175.0004        174.0004
 21  2  1  0 46  0.0000000  0  8G21G08G07G04G09G01G30G27
 -16512736.66948 -12860478.54146  21802928.680    21802927.4364   21802932.6384
       181.0004        181.0004
 -17210314.50448 -13395117.41547  21389398.017    21389398.2864   21389405.9964
       194.0004        195.0004
 -15710577.21848 -12222327.88547  21917703.920    21917703.8234   21917707.3414
       194.0004        196.0004
 -12544188.92248  -9757668.52846  22030543.184    22030543.2704   22030549.4334
       185.0004        184.0004
 -18470256.60649 -14373590.20147  20989250.500    20989250.8944   20989257.3444
       211.0004        212.0004
 -13972301.18948 -10872311.90446  22150342.446    22150343.2544   22150352.5124
       177.0004        177.0004
  -4626426.54947  -3576496.60645  23797950.245    23797949.6974   23797956.6924
       156.0004        160.0004
  -2592046.69648  -2008470.04046  24340970.795    24340970.4944   24340976.5264
       173.0004        172.0004
 21  2  1  0 46 30.0000000  0  8G21G08G07G04G09G01G30G27
 -16525941.20548 -12870767.77946  21800414.880    21800414.9454   21800420.1344
       181.0004        181.0004
 -17132927.76648 -13334816.06547  21404124.150    21404124.6094   21404132.0634
       194.0004        195.0004
 -15783786.80949 -12279374.32047  21903771.434    21903772.0664   21903776.3624
       195.0004        195.0004
 -12455654.97448  -9688681.04246  22047390.636    22047391.0534   22047396.7504
       184.0004        184.0004
 -18435567.16449 -14346559.48047  20995852.445    20995852.9214   20995858.3714
       211.0004        211.0004
 -14045192.58648 -10929110.40046  22136471.745    22136472.9074   22136481.7844
       177.0004        179.0004
  -4713101.36847  -3644035.42345  23781455.913    23781455.8264   23781462.4144
       159.0004        162.0004
  -2483586.80348  -1923955.82146  24361609.703    24361610.3544   24361614.0174
       170.0004        171.0004
 21  2  1  0 47  0.0000000  0  9G21G08G07G04G09G17G01G30G27
 -16538715.49148 -12880721.75546  21797984.191    21797984.7754   21797989.1914
       181.0004        182.0004
 -17055227.84348 -13274270.66547  21418909.655    21418910.3654   21418917.8234
       194.0004        194.0004
 -15856891.65748 -12336339.12547  21889859.742    21889860.3754   21889865.2444
       194.0004        194.0004
 -12366883.26148  -9619508.26846  22064282.812    22064283.1784   22064290.1764
       184.0004        184.0004
 -18400389.09649 -14319148.00847  21002545.397    21002546.0374   21002553.0464
       211.0004        211.0004
   -530971.26757   -398737.28945  24182841.108    24182841.9545   24182847.0574
       138.0004        147.0004
 -14117906.19948 -10985770.34546  22122634.699    22122636.4254   22122644.7744
       178.0004        179.0004
  -4799838.38947  -3711622.71345  23764949.958    23764950.3974   23764957.4414
       159.0004        162.0004
  -2375099.48248  -1839420.21546  24382253.989    24382254.4954   24382259.1424
       172.0004        172.0004
 21  2  1  0 47 30.0000000  0  9G21G08G07G04G09G17G01G30G27
 -16551058.10548 -12890339.37246  21795637.033    21795636.1504   21795640.3794
       181.0004        182.0004
 -16977217.94148 -13213483.73847  21433755.087    21433755.0424   21433762.2734
       194.0004        194.0004
 -15929889.35448 -12393220.45947  21875969.619    21875969.5704   21875973.9884
       194.0004        194.0004
 -12277877.22348  -9550152.93346  22081219.278    22081220.2924   22081227.0894
       184.0004        184.0004
 -18364724.85349 -14291357.69847  21009331.738    21009332.7114   21009339.5574
       211.0004        211.0004
   -627423.13047   -473894.50245  24164487.796    24164487.6094   24164492.4754
       144.0004        148.0004
 -14190439.18148 -11042289.54246  22108833.144    22108833.8114   22108840.8224
       178.0004        179.0004
  -4886636.45747  -3779257.53445  23748432.258    23748432.5284   23748440.8214
       160.0004        162.0004
  -2266587.78148  -1754865.69146  24402901.934    24402903.0534   24402909.3344
       173.0004        174.0004
 21  2  1  0 48  0.0000000  0  9G21G08G07G04G09G17G01G30G27
 -16562969.00248 -12899620.58246  21793369.407    21793368.8334   21793374.3114
       182.0004        183.0004
 -16898902.09648 -13152458.40747  21448657.667    21448658.1324   21448665.2194
       193.0004        194.0004
 -16002778.61549 -12450017.27447  21862099.058    21862099.1314   21862103.6324
       195.0004        195.0004
 -12188641.17448  -9480618.35546  22098201.293    22098201.9934   22098207.7624
       184.0004        184.0004
 -18328577.72049 -14263191.10947  21016211.092    21016211.3314   21016218.4874
       211.0004        212.0004
   -723648.37247   -548875.10445  24146176.366    24146176.7124   24146182.3714
       148.0004        153.0004
 -14262789.47548 -11098666.38446  22095065.543    22095065.8974   22095073.3664
       178.0004        179.0004
  -4973495.17147  -3846939.61045  23731903.587    23731903.8284   23731911.7634
       159.0004        160.0004
  -2158055.54148  -1670295.14346  24423555.718    24423556.3454   24423561.2814
       172.0004        172.0004
 21  2  1  0 48 30.0000000  0  9G21G08G07G04G09G17G01G30G27
 -16574445.18748 -12908563.05246  21791185.517    21791184.8964   21791191.1444
       183.0004        184.0004
 -16820282.30149 -13091196.23747  21463618.614    21463618.9994   21463626.7694
       210.0004        212.0004
 -16075556.23749 -12506727.10247  21848250.175    21848250.7884   21848254.8344
       195.0004        196.0004
 -12099177.13248  -9410906.11546  22115225.755    22115225.9424   22115232.8324
       184.0004        184.0004
 -18291948.74149 -14234649.04547  21023181.714    21023181.6454   21023188.5754
       211.0004        211.0004
   -819644.06947   -623676.82245  24127907.054    24127907.9184   24127914.8354
       147.0004        150.0004
 -14334952.92148 -11154897.62146  22081333.178    22081333.8054   22081342.7044
       179.0004        180.0004
  -5060411.92347  -3914666.94845  23715364.842    23715364.5094   23715371.3264
       157.0004        159.0004
  -2049504.40448  -1585709.82746  24444212.878    24444212.8554   24444218.7444
       170.0004        169.0004
 21  2  1  0 49  0.0000000  0  9G21G08G07G04G09G17G01G30G27
 -16585485.16148 -12917165.61246  21789084.426    21789084.0814   21789089.8564
       183.0004        182.0004
 -16741361.83449 -13029699.76847  21478636.623    21478636.9214   21478644.6914
       213.0004        212.0004
 -16148219.28749 -12563347.66447  21834422.750    21834423.3224   21834427.1314
       196.0004        195.0004
 -12009487.81448  -9341018.34346  22132294.195    22132294.0514   22132300.0284
       185.0004        185.0004
 -18254839.63049 -14205732.86347  21030243.428    21030243.5724   21030250.3054
       210.0004        210.0004
   -915407.63147   -698297.67045  24109684.899    24109685.6334   24109691.7604
       149.0004        153.0004
 -14406925.85948 -11210980.41546  22067637.046    22067637.2764   22067646.5824
       179.0004        179.0004
  -5147384.73647  -3982437.95645  23698814.307    23698813.5654   23698821.1054
       157.0004        159.0004
  -1940936.56748  -1501111.58746  24464872.176    24464872.4134   24464878.3874
       168.0004        170.0004
 21  2  1  0 49 30.0000000  0  9G21G08G07G04G09G17G01G30G27
 -16596085.71848 -12925425.78046  21787067.320    21787066.9804   21787072.2664
       182.0004        182.0004
 -16662141.34949 -12967969.50648  21493711.531    21493711.7594   21493719.5884
       222.0004        225.0004
 -16220763.83649 -12619875.87247  21820618.152    21820618.4854   21820622.7644
       195.0004        196.0004
 -11919574.64648  -9270956.13346  22149402.942    22149403.4104   22149409.9454
       185.0004        185.0004
 -18217250.89649 -14176442.93647  21037396.161    21037396.4204   21037403.2614
       210.0004        211.0004
  -1010935.46647   -772734.81745  24091507.074    24091507.6634   24091512.9224
       151.0004        155.0004
 -14478703.44048 -11266910.98146  22053978.633    22053978.9314   22053986.3674
       179.0004        180.0004
  -5234410.31947  -4050250.08445  23682253.661    23682253.6554   23682260.4824
       156.0004        158.0004
  -1832353.01848  -1416501.01546  24485534.882    24485535.3054   24485540.9424
       170.0004        171.0004
 21  2  1  0 50  0.0000000  0  9G21G08G07G04G09G17G01G30G27
 -16606247.68348 -12933344.18046  21785133.298    21785133.0914   21785138.0044
       182.0004        182.0004
 -16582626.30349 -12906009.73548  21508842.859    21508843.0094   21508850.2534
       224.0004        224.0004
 -16293189.50949 -12676311.45547  21806835.753    21806835.9374   21806840.1944
       195.0004        196.0004
 -11829443.09848  -9200723.75946  22166554.501    22166554.6304   22166561.4474
       183.0004        182.0004
 -18179187.07349 -14146782.81847  21044638.839    21044639.5164   21044646.2844
       210.0004        210.0004
  -1106227.68147   -846988.40145  24073373.751    24073373.4644   24073377.7814
       152.0004        155.0004
 -14550284.82748 -11322688.69446  22040357.614    22040357.5994   22040364.4724
       179.0004        180.0004
  -5321489.40847  -4118103.93145  23665682.397    23665682.9934   23665689.5724
       157.0004        160.0004
  -1723758.71348  -1331882.12146  24506198.940    24506199.4284   24506206.3464
       169.0004        170.0004
 21  2  1  0 50 30.0000000  0  9G21G08G07G04G09G17G01G30G27
 -16615967.19048 -12940917.79346  21783283.930    21783283.6214   21783287.4294
       181.0004        181.0004
 -16502817.84949 -12843821.32248  21524029.796    21524030.2974   21524037.3404
       224.0004        224.0004
 -16365491.87249 -12732650.95447  21793077.242    21793077.6344   21793081.7004
       195.0004        196.0004
 -11739093.93948  -9130321.81846  22183746.900    22183748.2464   22183753.7874
       182.0004        182.0004
 -18140648.04149 -14116752.39547  21051972.808    21051972.9784   21051979.7324
       210.0004        210.0004
  -1201280.01947   -921055.07545  24055286.722    24055286.3284   24055289.8504
       151.0004        153.0004
 -14621664.54348 -11378309.23146  22026773.237    22026774.2484   22026781.3184
       178.0004        179.0004
  -5408618.06547  -4185996.38745  23649102.776    23649103.4054   23649110.4954
       159.0004        162.0004
  -1615154.03448  -1247255.11746  24526865.611    24526866.2044   24526872.2544
       168.0004        168.0004
 21  2  1  0 51  0.0000000  0  9G21G08G07G04G09G17G01G30G27
 -16625243.14148 -12948145.81446  21781518.329    21781518.4614   21781522.8344
       181.0004        182.0004
 -16422719.50449 -12781407.03748  21539271.900    21539272.9704   21539279.9784
       225.0004        224.0004
 -16437668.92949 -12788892.80147  21779341.999    21779342.2594   21779346.4364
       196.0004        196.0004
 -11648530.90748  -9059753.23246  22200981.394    22200982.0994   22200986.7474
       182.0004        181.0004
 -18101636.55249 -14086353.84947  21059396.672    21059396.7834   21059403.4694
       210.0004        210.0004
  -1296090.92847   -994933.60145  24037243.356    24037244.6624   24037248.8644
       149.0004        151.0004
 -14692839.93548 -11433770.57846  22013228.391    22013229.5514   22013238.3004
       178.0004        179.0004
  -5495795.27847  -4253926.67846  23632513.202    23632513.4914   23632520.7334
       161.0004        163.0004
  -1506542.06448  -1162622.38446  24547530.795    24547533.2264   24547541.6844
       168.0004        169.0004
 21  2  1  0 51 30.0000000  0  9G21G08G07G04G09G17G01G30G27
 -16634074.10148 -12955027.06846  21779838.489    21779838.0304   21779841.9354
       181.0004        182.0004
 -16342333.60349 -12718768.67348  21554570.516    21554570.4584   21554576.8544
       225.0004        225.0004
 -16509717.55649 -12845034.57847  21765631.886    21765632.2524   21765636.5724
       195.0004        195.0004
 -11557756.62048  -8989020.02146  22218255.501    22218255.2054   22218261.4294
       182.0004        181.0004
 -18062154.42949 -14055588.56047  21066909.873    21066910.0234   21066916.9464
       210.0004        210.0004
  -1390658.09847  -1068622.26445  24019247.925    24019248.7634   24019252.7364
       147.0004        149.0004
 -14763807.38948 -11489069.88646  21999724.130    21999725.3114   21999733.4964
       179.0004        181.0004
  -5583019.00547  -4321893.19745  23615914.736    23615915.3194   23615922.4514
       159.0004        160.0004
  -1397924.92948  -1077985.73246  24568199.935    24568201.9264   24568211.0854
       168.0004        170.0004
 21  2  1  0 52  0.0000000  0  8G21G08G07G04G09G17G01G30
 -16642457.80548 -12961559.80846  21778243.046    21778242.6274   21778246.5984
       182.0004        183.0004
 -16261662.25149 -12655907.87548  21569921.212    21569921.3254   21569928.0474
       225.0004        224.0004
 -16581634.28349 -12901073.58947  21751945.811    21751946.3604   21751950.7884
       195.0004        196.0004
 -11466773.01248  -8918123.71046  22235567.555    22235568.7134   22235574.8924
       181.0004        181.0004
 -18022202.68049 -14024457.32847  21074512.388    21074512.7574   21074519.6454
       210.0004        210.0004
  -1484978.26647  -1142118.41545  24001299.703    24001299.5124   24001302.9794
       150.0004        154.0004
 -14834562.49548 -11544203.71546  21986260.415    21986261.3044   21986268.7754
       180.0004        180.0004
  -5670286.34847  -4389893.69246  23599308.611    23599308.6794   23599316.7384
       160.0004        163.0004
 21  2  1  0 52 30.0000000  0  8G21G08G07G04G09G17G01G30
 -16650394.94348 -12967744.58746  21776731.684    21776732.0554   21776736.9004
       183.0004        183.0004
 -16180710.96349 -12592828.95048  21585325.309    21585325.2264   21585332.2374
       224.0004        222.0004
 -16653418.98949 -12957009.72047  21738286.263    21738286.9054   21738291.0034
       196.0004        197.0004
 -11375585.70148  -8847068.66746  22252920.701    22252921.1484   22252926.9734
       181.0004        181.0004
 -17981786.16149 -13992963.93947  21082203.477    21082203.8384   21082210.3564
       209.0004        209.0004
  -1579051.79247  -1215422.37545  23983397.581    23983398.2114   23983402.9364
       152.0004        156.0004
 -14905104.56048 -11599171.54846  21972836.739    21972837.5614   21972845.0684
       180.0004        181.0004
  -5757598.09747  -4457928.82746  23582694.907    23582695.2044   23582702.0074
       162.0004        165.0004
 21  2  1  0 53  0.0000000  0  8G21G08G07G04G09G17G01G30
 -16657884.09748 -12973580.28746  21775307.347    21775306.9794   21775311.8354
       183.0004        183.0004
 -16099482.69849 -12529534.19648  21600782.110    21600782.5204   21600789.1344
       223.0004        222.0004
 -16725069.47649 -13012841.26347  21724651.532    21724652.0544   21724656.1204
       196.0004        197.0004
 -11284197.67848  -8775857.23146  22270311.011    22270311.6764   22270318.0234
       180.0004        179.0004
 -17940906.96749 -13961110.02647  21089982.438    21089982.8214   21089989.5894
       209.0004        210.0004
  -1672876.66547  -1288532.58345  23965542.765    23965542.5864   23965548.9284
       153.0004        156.0004
 -14975430.25548 -11653970.77146  21959453.869    21959454.8144   21959463.1824
       180.0004        181.0004
  -5844952.53547  -4525997.22046  23566072.035    23566071.8234   23566078.3964
       162.0004        163.0004
 21  2  1  0 53 30.0000000  0  8G21G08G07G04G09G17G01G30
 -16664924.08448 -12979065.97446  21773968.038    21773967.4474   21773972.6694
       183.0004        184.0004
 -16017980.20749 -12466025.75848  21616292.772    21616292.4634   21616299.0694
       224.0004        223.0004
 -16796582.89049 -13068565.99747  21711043.424    21711043.3344   21711047.6444
       197.0004        197.0004
 -11192612.01048  -8704491.78446  22287739.148    22287739.9544   22287746.2254
       179.0004        178.0004
 -17899567.39749 -13928897.38147  21097848.925    21097849.3784   21097856.0564
       209.0004        209.0004
  -1766450.70547  -1361447.32145  23947736.889    23947737.0524   23947743.1034
       155.0004        159.0004
 -15045536.33548 -11708598.86246  21946113.345    21946113.9054   21946122.6264
       180.0004        181.0004
  -5932347.92247  -4594097.52946  23549441.562    23549441.2704   23549448.0104
       163.0004        166.0004
 21  2  1  0 54  0.0000000  0  8G21G08G07G04G09G17G01G30
 -16671512.91348 -12984200.10746  21772714.661    21772713.8554   21772719.3444
       184.0004        185.0004
 -15936206.44749 -12402305.94348  21631853.316    21631853.5424   21631860.3254
       224.0004        223.0004
 -16867956.35049 -13124181.70347  21697461.478    21697461.4064   21697465.4754
       197.0004        197.0004
 -11100831.19048  -8632974.26946  22305204.878    22305204.5564   22305210.9724
       177.0004        177.0004
 -17857769.16549 -13896327.33047  21105802.955    21105803.1504   21105810.0944
       209.0004        210.0004
  -1859771.50047  -1434164.74445  23929978.052    23929978.3434   23929983.9694
       155.0004        157.0004
 -15115419.03848 -11763052.90946  21932814.950    21932815.7634   21932823.8544
       181.0004        182.0004
  -6019781.96747  -4662227.94946  23532801.683    23532802.3514   23532809.6774
       164.0004        166.0004
 21  2  1  0 54 30.0000000  0  8G21G08G07G04G09G17G01G30
 -16677648.38048 -12988980.97446  21771545.801    21771545.6414   21771551.7774
       184.0004        183.0004
 -15854163.23549 -12338376.17148  21647465.013    21647465.2364   21647472.7914
       224.0004        223.0004
 -16939186.06149 -13179685.37647  21683906.431    21683907.0994   21683911.1984
       197.0004        197.0004
 -11008857.37248  -8561306.36946  22322707.726    22322707.7914   22322713.3244
       177.0004        178.0004
 -17815513.61949 -13863400.93847  21113844.469    21113844.6014   21113851.2344
       210.0004        210.0004
  -1952835.81647  -1506682.31745  23912268.692    23912268.6074   23912274.9654
       157.0004        159.0004
 -15185074.22748 -11817329.67446  21919560.436    21919560.6434   21919568.2894
       181.0004        182.0004
  -6107251.97547  -4730386.37046  23516157.151    23516157.3834   23516164.8324
       164.0004        166.0004
 21  2  1  0 55  0.0000000  0  8G21G08G07G04G09G17G01G30
 -16683329.68148 -12993407.94446  21770465.005    21770464.5404   21770470.1474
       183.0004        183.0004
 -15771854.02449 -12274239.11448  21663127.360    21663128.1144   21663135.5144
       223.0004        221.0004
 -17010270.26549 -13235075.65847  21670379.383    21670380.0634   21670384.2684
       197.0004        197.0004
 -10916694.30748  -8489490.99446  22340245.661    22340245.8774   22340251.5014
       178.0004        179.0004
 -17772803.76249 -13830120.52247  21121971.154    21121971.3324   21121978.9024
       209.0004        210.0004
  -2045642.27447  -1578998.97745  23894608.380    23894608.3094   23894612.8834
       158.0004        160.0004
 -15254499.27148 -11871427.08646  21906349.319    21906349.8984   21906357.9464
       181.0004        183.0004
  -6194756.85348  -4798571.96046  23499506.596    23499505.6424   23499512.0734
       165.0004        167.0004
 21  2  1  0 55 30.0000000  0  8G21G08G07G04G09G17G01G30
 -16688555.95848 -12997480.35946  21769469.572    21769469.6094   21769475.3814
       183.0004        183.0004
 -15689282.45649 -12209897.62848  21678841.174    21678841.4054   21678848.5884
       223.0004        223.0004
 -17081206.96949 -13290350.99947  21656880.994    21656881.6094   21656885.4064
       197.0004        197.0004
 -10824345.20548  -8417530.66046  22357818.444    22357818.2634   22357824.6454
       178.0004        177.0004
 -17729642.08949 -13796488.05447  21130185.212    21130185.4594   21130191.9034
       210.0004        210.0004
  -2138189.06747  -1651113.30245  23876996.777    23876997.3294   23877001.9174
       157.0004        160.0004
 -15323691.13448 -11925342.81646  21893182.797    21893182.5544   21893191.8354
       182.0004        182.0004
  -6282294.97548  -4866783.47346  23482847.776    23482847.8164   23482853.5574
       165.0004        166.0004
 21  2  1  0 56  0.0000000  0  9G21G08G07G04G09G17G14G01G30
 -16693325.32948 -13001196.73746  21768563.643    21768563.1764   21768567.4054
       183.0004        184.0004
 -15606450.23849 -12145353.04748  21694604.796    21694604.5364   21694610.7394
       224.0004        223.0004
 -17151992.58849 -13345508.61747  21643410.419    21643410.7964   21643415.0054
       197.0004        197.0004
 -10731812.60948  -8345427.34646  22375426.308    22375426.7554   22375433.0734
       177.0004        176.0004
 -17686030.37649 -13762504.89647  21138484.160    21138484.2124   21138490.6504
       209.0004        209.0004
  -2230473.78147  -1723023.41545  23859436.569    23859436.4244   23859441.5024
       158.0004        160.0004
  -1254397.04155   -969019.04245  23558388.905                    23558392.9074
        97.0004        151.0004
 -15392645.99748 -11979073.87346  21880060.784    21880060.5854   21880069.4464
       182.0004        182.0004
  -6369864.05648  -4935019.12346  23466183.975    23466184.1414   23466190.2494
       165.0004        166.0004
 21  2  1  0 56 30.0000000  0  9G21G08G07G04G09G17G14G01G30
 -16697636.54548 -13004556.11946  21767743.831    21767742.1934   21767746.9284
       184.0004        184.0004
 -15523361.03449 -12080608.21648  21710415.422    21710415.6494   21710422.2434
       224.0004        224.0004
 -17222624.73349 -13400546.65447  21629969.876    21629970.3774   21629974.6684
       197.0004        198.0004
 -10639099.46948  -8273183.34446  22393069.789    22393070.4364   22393076.0114
       176.0004        176.0004
 -17641970.89849 -13728172.84147  21146866.868    21146867.7604   21146875.3194
       209.0004        209.0004
  -2322494.19647  -1794727.59745  23841926.035    23841925.6224   23841929.9144
       158.0004        160.0004
  -1281120.71647   -989842.55645  23553303.379    23553304.6274   23553308.7334
       145.0004        154.0004
 -15461360.50748 -12032617.63546  21866984.786    21866985.3134   21866993.6814
       182.0004        183.0004
  -6457462.19447  -5003277.41446  23449514.508    23449514.5064   23449521.0624
       164.0004        165.0004
 21  2  1  0 57  0.0000000  0  9G21G08G07G04G09G17G14G01G30
 -16701488.90048 -13007557.95446  21767009.847    21767009.3824   21767013.3844
       183.0004        184.0004
 -15440018.13349 -12015665.69848  21726274.951    21726274.8874   21726281.8144
       224.0004        222.0004
 -17293101.24849 -13455463.42347  21616557.767    21616558.7744   21616563.5734
       197.0004        198.0004
 -10546209.61048  -8200801.65746  22410745.553    22410745.7754   22410752.5274
       176.0004        176.0004
 -17597466.84449 -13693494.36047  21155337.277    21155337.4304   21155344.1584
       209.0004        210.0004
  -2414249.43047  -1866225.15245  23824464.755    23824464.3794   23824469.4714
       157.0004        158.0004
  -1307796.00247  -1010628.47645  23548226.607    23548228.1124   23548232.8554
       152.0004        157.0004
 -15529832.27348 -12085972.25646  21853954.978    21853955.4924   21853963.6644
       182.0004        183.0004
  -6545088.38447  -5071557.56346  23432839.109    23432840.3164   23432846.1034
       163.0004        164.0004
 21  2  1  0 57 30.0000000  0  9G21G08G07G04G09G17G14G01G30
 -16704880.17648 -13010200.50146  21766364.421    21766363.4794   21766368.1734
       184.0004        184.0004
 -15356423.75749 -11950527.21448  21742181.954    21742182.4424   21742188.9954
       222.0004        221.0004
 -17363418.70949 -13510256.25847  21603178.240    21603178.4304   21603182.3034
       197.0004        198.0004
 -10453145.01148  -8128283.80046  22428455.850    22428455.6474   22428462.4684
       177.0004        178.0004
 -17552519.42849 -13658470.40047  21163890.147    21163890.2804   21163897.4534
       210.0004        210.0004
  -2505736.07047  -1937513.37845  23807053.861    23807053.6014   23807059.5244
       152.0004        152.0004
  -1334423.12147  -1031376.86245  23543160.563    23543160.9904   23543166.7024
       157.0004        161.0004
 -15598056.90848 -12139134.29946  21840972.371    21840972.7634   21840980.4664
       182.0004        183.0004
  -6632739.68147  -5139857.25246  23416159.337    23416159.8654   23416167.0574
       163.0004        164.0004
 21  2  1  0 58  0.0000000  0  9G21G08G07G04G09G17G14G01G30
 -16707809.22848 -13012482.88246  21765806.166    21765805.9804   21765812.2824
       184.0004        185.0004
 -15272580.57849 -11885194.87448  21758137.158    21758137.2574   21758144.0534
       221.0004        221.0004
 -17433574.70749 -13564923.27047  21589828.040    21589828.0524   21589832.2214
       198.0004        199.0004
 -10359908.78948  -8055632.20546  22446197.735    22446198.3874   22446204.8394
       178.0004        178.0004
 -17507131.14849 -13623102.92247  21172527.178    21172527.4784   21172534.5954
       209.0004        210.0004
  -2596952.33447  -2008590.91945  23789697.565    23789697.2914   23789701.4554
       150.0004        153.0004
  -1361003.41147  -1052088.75845  23538102.858    23538103.7474   23538107.6114
       158.0004        159.0004
 -15666031.24548 -12192101.31846  21828038.269    21828037.4384   21828046.2244
       183.0004        184.0004
  -6720414.29447  -5208175.11846  23399475.784    23399476.1174   23399483.5674
       164.0004        167.0004
 21  2  1  0 58 30.0000000  0  9G21G08G07G04G09G17G14G01G30
 -16710276.03748 -13014405.04946  21765337.672    21765337.7524   21765342.8544
       186.0004        187.0004
 -15188492.98249 -11819672.06448  21774138.385    21774138.6804   21774145.6664
       222.0004        222.0004
 -17503567.34649 -13619462.98347  21576508.663    21576508.8234   21576512.8664
       199.0004        199.0004
 -10266504.84748  -7982849.91346  22463971.975    22463972.7914   22463979.2164
       177.0004        177.0004
 -17461305.28549 -13587394.45847  21181247.902    21181248.0334   21181254.8794
       209.0004        209.0004
  -2687896.84847  -2079456.71245  23772391.702    23772392.1644   23772395.7394
       153.0004        157.0004
  -1387539.11447  -1072765.92645  23533053.504    23533053.9934   23533058.2824
       157.0004        158.0004
 -15733752.86348 -12244871.41146  21815149.573    21815150.6304   21815159.1134
       183.0004        184.0004
  -6808111.19048  -5276510.35546  23382787.557    23382787.7924   23382795.3544
       165.0004        166.0004
 21  2  1  0 59  0.0000000  0  9G21G08G07G04G09G17G14G01G30
 -16712278.32848 -13015965.25347  21764956.775    21764956.5484   21764962.5364
       187.0004        189.0004
 -15104162.53249 -11753960.01148  21790186.301    21790186.5704   21790193.1134
       222.0004        222.0004
 -17573393.08049 -13673872.63847  21563221.206    21563221.4564   21563225.7924
       199.0004        199.0004
 -10172935.29348  -7909938.56646  22481778.079    22481778.7194   22481783.7024
       176.0004        176.0004
 -17415043.33849 -13551346.17647  21190050.777    21190050.9524   21190058.5544
       209.0004        209.0004
  -2778566.79947  -2150108.55645  23755136.879    23755137.7194   23755141.0924
       155.0004        158.0004
  -1414030.52347  -1093408.56145  23528011.397    23528012.5404   23528018.0114
       158.0004        160.0004
 -15801217.63748 -12297441.34946  21802311.775    21802311.6914   21802320.5444
       184.0004        184.0004
  -6895827.64947  -5344860.84946  23366095.145    23366096.2974   23366103.4734
       163.0004        163.0004
 21  2  1  0 59 30.0000000  0  9G21G08G07G04G09G17G14G01G30
 -16713815.02948 -13017162.66947  21764664.017    21764663.3164   21764670.5354
       188.0004        188.0004
 -15019592.50749 -11688061.28448  21806279.668    21806279.5264   21806286.1264
       222.0004        220.0004
 -17643049.06449 -13728150.04747  21549966.477    21549966.8524   21549970.1504
       199.0004        198.0004
 -10079203.10548  -7836900.50846  22499614.522    22499614.8634   22499620.6894
       176.0004        176.0004
 -17368347.68049 -13514959.94947  21198936.863    21198937.3734   21198943.9904
       209.0004        209.0004
  -2868960.32147  -2220545.01045  23737934.863    23737935.8874   23737941.9784
       156.0004        160.0004
  -1440478.87547  -1114017.66246  23522979.886    23522980.2074   23522984.3804
       162.0004        164.0004
 -15868422.25548 -12349808.57046  21789522.576    21789523.4954   21789532.6644
       184.0004        186.0004
  -6983561.74547  -5413225.08246  23349399.556    23349401.4174   23349408.3174
       163.0004        165.0004
 21  2  1  1  0  0.0000000  0  9G21G08G07G04G09G17G14G01G30
 -16714884.32848 -13017995.88147  21764460.146    21764459.7564   21764467.0004
       188.0004        188.0004
 -14934785.14649 -11621977.62448  21822416.868    21822417.5484   21822424.5364
       221.0004        220.0004
 -17712532.22949 -13782292.76347  21536743.014    21536743.5094   21536748.2074
       198.0004        198.0004
  -9985310.75948  -7763737.64846  22517482.070    22517481.9474   22517487.7284
       177.0004        177.0004
 -17321220.18349 -13478237.23747  21207905.546    21207905.6374   21207911.7414
       209.0004        208.0004
  -2959074.71847  -2290763.98745  23720788.249    23720788.2064   23720793.5124
       159.0004        162.0004
  -1466884.92048  -1134593.79346  23517954.524    23517954.8894   23517959.4794
       165.0004        167.0004
 -15935362.84148 -12401970.04946  21776784.669    21776785.7934   21776794.0264
       185.0004        185.0004
  -7071310.97048  -5481601.07446  23332703.089    23332703.5814   23332710.4594
       165.0004        169.0004
 21  2  1  1  0 30.0000000  0  9G21G08G07G04G09G17G14G01G30
 -16715486.72148 -13018465.24847  21764346.122    21764345.5814   21764352.8164
       188.0004        188.0004
 -14849744.85349 -11555712.46848  21838599.494    21838599.9764   21838606.9254
       220.0004        220.0004
 -17781841.84249 -13836300.25647  21523554.100    21523554.9384   21523559.2374
       199.0004        199.0004
  -9891262.99748  -7690453.69446  22535376.971    22535378.4664   22535384.5234
       177.0004        177.0004
 -17273665.03349 -13441181.28147  21216953.954    21216954.4594   21216961.4044
       208.0004        208.0004
  -3048909.87447  -2360765.37545  23703693.799    23703693.4514   23703697.1374
       157.0004        158.0004
  -1493251.62448  -1155139.25946  23512936.505    23512937.2444   23512942.3554
       166.0004        167.0004
 -16002037.91348 -12453924.65246  21764096.160    21764097.2024   21764106.3934
       185.0004        185.0004
  -7159075.13448  -5549988.70646  23316001.289    23316001.1734   23316008.7324
       166.0004        167.0004
 21  2  1  1  1  0.0000000  0  9G21G08G07G04G09G17G14G01G30
 -16715620.26848 -13018569.28947  21764320.490    21764319.9874   21764327.1774
       188.0004        188.0004
 -14764474.12149 -11489267.73448  21854826.280    21854826.4824   21854833.2284
       220.0004        219.0004
 -17850973.46649 -13890169.05447  21510400.458    21510400.1464   21510403.6854
       199.0004        200.0004
  -9797061.31648  -7617049.78346  22553304.562    22553304.7204   22553310.6654
       177.0004        177.0004
 -17225683.20849 -13403792.83747  21226085.505    21226085.3474   21226092.3294
       208.0004        208.0004
  -3138462.43647  -2430546.53445  23686650.705    23686650.4094   23686655.6464
       155.0004        155.0004
  -1519578.83347  -1175653.95946  23507926.917    23507927.6314   23507932.6844
       164.0004        165.0004
 -16068442.71748 -12505668.64146  21751461.139    21751461.6084   21751469.6584
       185.0004        186.0004
  -7246850.77348  -5618385.28146  23299298.200    23299298.4594   23299305.9864
       166.0004        167.0004
 21  2  1  1  1 30.0000000  0  9G21G08G07G04G09G17G14G01G30
 -16715282.86848 -13018306.35946  21764384.640    21764384.1244   21764391.0764
       188.0004        187.0004
 -14678973.96949 -11422644.23648  21871097.292    21871096.9364   21871103.4304
       220.0004        219.0004
 -17919924.19549 -13943896.88747  21497278.020    21497278.6554   21497282.2414
       199.0004        199.0004
  -9702708.40648  -7543528.04346  22571258.041    22571259.6044   22571265.2494
       177.0004        177.0004
 -17177276.85449 -13366073.60947  21235296.700    21235296.8304   21235303.6504
       208.0004        208.0004
  -3227729.80347  -2500105.50545  23669662.892    23669663.9104   23669668.1334
       154.0004        156.0004
  -1545867.45447  -1196138.59446  23502925.239    23502925.0884   23502929.6234
       163.0004        164.0004
 -16134573.68348 -12557199.26746  21738877.054    21738877.5684   21738885.0394
       185.0004        186.0004
  -7334635.70848  -5686789.09246  23282593.155    23282592.6634   23282600.4054
       165.0004        165.0004
 21  2  1  1  2  0.0000000  0  9G21G08G07G04G09G17G14G01G30
 -16714474.25248 -13017676.24246  21764538.816    21764537.7724   21764544.6234
       187.0004        187.0004
 -14593248.84949 -11355845.43148  21887409.956    21887410.1934   21887416.4774
       220.0004        219.0004
 -17988692.01149 -13997482.19147  21484192.341    21484192.7194   21484196.8984
       199.0004        200.0004
  -9608207.85948  -7469891.26346  22589242.112    22589242.3544   22589248.6394
       177.0004        177.0004
 -17128449.04749 -13328025.97047  21244588.546    21244588.3294   21244595.0014
       208.0004        208.0004
  -3316710.96647  -2569441.42145  23652728.941    23652730.8434   23652735.4364
       153.0004        155.0004
  -1572119.29947  -1216594.56746  23497929.176    23497929.7434   23497934.5504
       162.0004        164.0004
 -16200428.13248 -12608514.41246  21726343.691    21726345.1164   21726353.5894
       185.0004        185.0004
  -7422428.54048  -5755199.05846  23265886.205    23265887.3604   23265894.2154
       165.0004        168.0004
 21  2  1  1  2 30.0000000  0  9G21G08G07G04G09G17G14G01G30
 -16713193.28148 -13016678.05946  21764782.542    21764781.6844   21764787.8174
       186.0004        186.0004
 -14507301.15849 -11288873.20048  21903765.463    21903765.2724   21903771.5134
       220.0004        219.0004
 -18057274.07249 -14050922.75247  21471141.645    21471141.7984   21471145.9294
       199.0004        199.0004
  -9513562.38848  -7396141.53546  22607251.893    22607252.4904   22607258.7714
       176.0004        176.0004
 -17079201.95449 -13289651.61247  21253959.296    21253959.6044   21253966.8864
       207.0004        208.0004
  -3405403.54247  -2638552.48545  23635853.906    23635853.5404   23635857.4984
       155.0004        159.0004
  -1598335.29547  -1237022.59546  23492940.117    23492940.6394   23492945.7884
       163.0004        165.0004
 -16266002.42948 -12659611.25846  21713866.162    21713866.9884   21713874.7034
       185.0004        186.0004
  -7510226.95948  -5823613.41046  23249179.752    23249179.7274   23249186.5334
       167.0004        170.0004
 21  2  1  1  3  0.0000000  0  9G21G08G07G04G09G17G14G01G30
 -16711439.86648 -13015311.76246  21765115.935    21765115.4714   21765120.5324
       185.0004        185.0004
 -14421135.10949 -11221730.82348  21920161.144    21920161.7554   21920168.1994
       219.0004        218.0004
 -18125668.60249 -14104217.19547  21458125.827    21458126.3144   21458130.8154
       199.0004        199.0004
  -9418776.16548  -7322282.15846  22625290.212    22625289.7094   22625295.8484
       176.0004        176.0004
 -17029539.34149 -13250953.48047  21263410.017    21263410.2944   21263417.0194
       208.0004        208.0004
  -3493806.92847  -2707438.24745  23619031.001    23619030.6974   23619035.6614
       155.0004        157.0004
  -1624517.87247  -1257424.60046  23487957.486    23487958.1324   23487962.8664
       163.0004        164.0004
 -16331294.63548 -12710488.30546  21701442.284    21701442.4444   21701450.8364
       185.0004        186.0004
  -7598030.21748  -5892031.51046  23232470.082    23232470.3054   23232478.5394
       168.0004        169.0004
 21  2  1  1  3 30.0000000  0  9G21G08G07G04G09G17G14G01G30
 -16709212.24548 -13013575.92646  21765540.073    21765539.2984   21765544.3954
       185.0004        184.0004
 -14334752.85949 -11154419.97948  21936599.715    21936599.9764   21936606.4114
       219.0004        218.0004
 -18193871.99749 -14157362.68547  21445147.022    21445147.7514   21445152.2534
       199.0004        199.0004
  -9323851.28748  -7248314.72846  22643352.654    22643353.5464   22643359.4934
       175.0004        175.0004
 -16979462.78449 -13211932.78847  21272939.763    21272939.9474   21272946.4844
       208.0004        208.0004
  -3581918.22447  -2776096.37045  23602263.909    23602263.2824   23602268.1344
       155.0004        158.0004
  -1650667.41147  -1277800.85546  23482981.400    23482981.8114   23482987.6484
       163.0004        164.0004
 -16396300.53248 -12761142.22546  21689071.969    21689072.3664   21689080.2074
       186.0004        187.0004
  -7685835.38948  -5960451.10546  23215761.852    23215761.9724   23215769.5064
       166.0004        167.0004
 21  2  1  1  4  0.0000000  0  9G21G08G07G04G09G17G14G01G30
 -16706509.47948 -13011469.86446  21766053.792    21766053.8634   21766058.1744
       184.0004        184.0004
 -14248157.09049 -11086942.74348  21953078.570    21953078.6804   21953085.2944
       219.0004        218.0004
 -18261881.52849 -14210357.12247  21432205.644    21432206.5144   21432210.8964
       199.0004        200.0004
  -9228790.72748  -7174241.56546  22661441.763    22661442.3774   22661449.4124
       174.0004        174.0004
 -16928974.81149 -13172591.51647  21282546.540    21282547.1694   21282554.4834
       208.0004        208.0004
  -3669735.24147  -2844525.19145  23585554.146    23585554.4374   23585557.3074
       158.0004        161.0004
  -1676785.15647  -1298152.32046  23478012.099    23478013.2174   23478017.0274
       164.0004        166.0004
 -16461016.84648 -12811570.49946  21676755.248    21676756.7404   21676765.1054
       185.0004        185.0004
  -7773640.40548  -6028870.58546  23199054.336    23199053.9724   23199061.2914
       168.0004        171.0004
 21  2  1  1  4 30.0000000  0  9G21G08G07G04G09G17G14G01G30
 -16703331.23448 -13008993.29946  21766658.248    21766658.3274   21766662.5754
       183.0004        183.0004
 -14161351.49849 -11019302.00948  21969596.731    21969597.0624   21969603.5974
       218.0004        217.0004
 -18329695.20849 -14263198.94647  21419301.710    21419301.6414   21419306.3204
       200.0004        201.0004
  -9133598.12848  -7100065.53746  22679556.365    22679556.8884   22679564.1984
       173.0004        173.0004
 -16878078.61849 -13132932.14347  21292232.112    21292232.6564   21292239.0924
       208.0004        208.0004
  -3757257.13647  -2912724.05745  23568898.650    23568898.4474   23568903.7054
       159.0004        162.0004
  -1702872.88248  -1318480.39946  23473046.740    23473047.5514   23473052.7204
       165.0004        166.0004
 -16525440.94448 -12861771.08246  21664496.101    21664496.9934   21664505.2714
       186.0004        186.0004
  -7861443.94648  -6097288.91646  23182345.453    23182345.2774   23182352.0274
       170.0004        172.0004
 21  2  1  1  5  0.0000000  0  9G21G08G07G04G09G17G14G01G30
 -16699675.28048 -13006144.50446  21767354.634    21767354.5404   21767358.1934
       183.0004        182.0004
 -14074337.93649 -10951499.23148  21986155.634    21986155.1564   21986162.4674
       217.0004        217.0004
 -18397309.12749 -14315885.11147  21406434.363    21406435.2414   21406439.3634
       200.0004        200.0004
  -9038275.19348  -7025787.93546  22697696.456    22697696.8384   22697703.7074
       173.0004        173.0004
 -16826775.51349 -13092955.71347  21301994.125    21301994.7414   21302001.9414
       207.0004        206.0004
  -3844480.65747  -2980690.44045  23552301.230    23552301.1634   23552304.9874
       160.0004        161.0004
  -1728930.67247  -1338785.14846  23468089.325    23468089.0114   23468094.0144
       164.0004        165.0004
 -16589568.41248 -12911740.52946  21652293.544    21652294.6424   21652302.2914
       186.0004        187.0004
  -7949242.76448  -6165703.58746  23165638.325    23165637.7614   23165644.4654
       170.0004        172.0004
 21  2  1  1  5 30.0000000  0  9G21G08G07G04G09G17G14G01G30
 -16695542.68048 -13002924.27946  21768141.021    21768140.8484   21768144.4854
       182.0004        182.0004
 -13987120.96049 -10883537.95848  22002751.990    22002751.9904   22002759.0574
       218.0004        217.0004
 -18464722.42349 -14368414.95047  21393606.614    21393607.1314   21393611.3524
       200.0004        201.0004
  -8942826.78548  -6951412.55046  22715859.868    22715860.3914   22715866.4894
       172.0004        173.0004
 -16775070.01649 -13052665.70847  21311833.087    21311833.5514   21311841.0564
       206.0004        205.0004
  -3931405.69347  -3048424.20445  23535757.731    23535758.4264   23535763.9714
       158.0004        157.0004
  -1754961.57347  -1359068.98146  23463135.438    23463135.4844   23463140.5194
       163.0004        165.0004
 -16653397.86048 -12961477.73746  21640147.317    21640147.4274   21640155.8724
       187.0004        187.0004
  -8037036.65048  -6234114.40446  23148931.398    23148931.7914   23148938.4924
       172.0004        173.0004
 21  2  1  1  6  0.0000000  0  9G21G08G07G04G09G17G14G01G30
 -16690930.55048 -12999330.39746  21769019.310    21769018.6974   21769022.2204
       182.0004        182.0004
 -13899701.33549 -10815418.75548  22019388.071    22019387.6094   22019394.3074
       218.0004        217.0004
 -18531930.52949 -14420784.89747  21380817.446    21380817.7154   21380822.1374
       201.0004        201.0004
  -8847253.87248  -6876940.16446  22734046.847    22734046.7244   22734053.2104
       171.0004        172.0004
 -16722962.63149 -13012062.55247  21321748.827    21321749.4364   21321756.9764
       205.0004        206.0004
  -4018028.58647  -3115922.55745  23519273.855    23519275.1284   23519281.0514
       154.0004        157.0004
  -1780964.84347  -1379331.26046  23458187.195    23458187.1564   23458192.0114
       163.0004        163.0004
 -16716924.06548 -13010978.66346  21628058.076    21628059.0474   21628067.4614
       186.0004        187.0004
  -8124821.56448  -6302518.21446  23132226.257    23132226.2754   23132233.8964
       172.0004        173.0004
 21  2  1  1  6 30.0000000  0  9G21G08G07G04G09G17G14G01G30
 -16685839.06948 -12995363.00446  21769987.080    21769987.5654   21769991.5544
       182.0004        182.0004
 -13812083.31849 -10747144.97448  22036060.160    22036060.6894   22036067.3214
       218.0004        217.0004
 -18598931.57249 -14472993.49547  21368066.927    21368067.8094   21368072.1324
       201.0004        201.0004
  -8751560.37948  -6802373.84046  22752256.607    22752257.3744   22752262.9564
       170.0004        171.0004
 -16670456.96349 -12971149.06247  21331741.136    21331741.2774   21331748.1654
       205.0004        206.0004
  -4104348.34647  -3183184.68445  23502848.197    23502849.4644   23502855.1634
       157.0004        160.0004
  -1806942.66947  -1399573.70046  23453243.390    23453244.2924   23453249.0454
       162.0004        164.0004
 -16780144.74848 -13060241.52847  21616028.731    21616029.0354   21616037.0634
       187.0004        188.0004
  -8212596.44248  -6370914.21746  23115523.883    23115523.9374   23115530.5784
       172.0004        174.0004
 21  2  1  1  7  0.0000000  0  9G21G08G07G04G09G17G14G01G30
 -16680266.24648 -12991020.54446  21771046.971    21771046.8294   21771051.3694
       182.0004        182.0004
 -13724268.13849 -10678717.55648  22052771.054    22052771.0974   22052778.1374
       217.0004        216.0004
 -18665721.64849 -14525037.70747  21355358.268    21355358.5464   21355362.5304
       201.0004        201.0004
  -8655748.23748  -6727715.04446  22770488.995    22770489.5524   22770495.4384
       170.0004        170.0004
 -16617554.51049 -12929926.37247  21341808.109    21341808.4594   21341815.2084
       205.0004        206.0004
  -4190362.08547  -3250208.36145  23486480.928    23486480.8404   23486484.9644
       156.0004        158.0004
  -1832895.08547  -1419796.35146  23448304.339    23448304.9154   23448310.8394
       163.0004        164.0004
 -16843055.60348 -13109262.95347  21604057.708    21604057.9474   21604065.6344
       187.0004        188.0004
  -8300358.10748  -6439299.90746  23098823.104    23098822.3434   23098829.6084
       172.0004        172.0004
 21  2  1  1  7 30.0000000  0  9G21G08G07G04G09G17G14G01G30
 -16674211.23648 -12986302.33846  21772200.618    21772200.4054   21772203.6364
       182.0004        182.0004
 -13636259.37249 -10610139.30148  22069517.951    22069518.1984   22069525.1254
       216.0004        214.0004
 -18732298.23649 -14576915.57447  21342688.712    21342689.0824   21342692.9824
       202.0004        202.0004
  -8559820.41548  -6652966.09746  22788743.993    22788744.4524   22788750.2934
       170.0004        171.0004
 -16564258.01449 -12888396.63747  21351950.032    21351950.5494   21351957.6084
       206.0004        206.0004
  -4276067.93347  -3316992.11545  23470171.330    23470171.2714   23470175.7844
       155.0004        157.0004
  -1858823.45547  -1440000.28846  23443371.758    23443371.2504   23443376.2434
       162.0004        163.0004
 -16905653.49348 -13158040.51847  21592145.041    21592145.7094   21592153.4804
       188.0004        189.0004
  -8388104.55248  -6507673.78946  23082124.419    23082125.1074   23082131.0904
       169.0004        169.0004
 21  2  1  1  8  0.0000000  0  9G21G08G07G04G09G17G14G01G30
 -16667673.85648 -12981208.25746  21773443.904    21773443.7354   21773448.0974
       182.0004        182.0004
 -13548059.61649 -10541412.21448  22086302.225    22086302.4724   22086309.4114
       216.0004        216.0004
 -18798658.72049 -14628625.03647  21330060.614    21330061.3114   21330065.0924
       202.0004        202.0004
  -8463780.28648  -6578129.62846  22807018.963    22807019.5244   22807025.5854
       170.0004        170.0004
 -16510570.39349 -12846562.12547  21362166.687    21362166.7494   21362173.6974
       206.0004        206.0004
  -4361464.65047  -3383534.98945  23453919.377    23453920.4984   23453925.4954
       157.0004        160.0004
  -1884729.27547  -1460186.63845  23438440.331    23438440.9004   23438447.1144
       160.0004        160.0004
 -16967935.49548 -13206571.93247  21580293.685    21580293.8654   21580301.2854
       189.0004        189.0004
  -8475833.98748  -6576034.38446  23065429.862    23065430.6414   23065438.3934
       169.0004        172.0004
 21  2  1  1  8 30.0000000  0  9G21G08G07G04G09G17G14G01G30
 -16660652.88548 -12975737.36046  21774779.502    21774779.5004   21774784.6834
       182.0004        183.0004
 -13459671.70549 -10472538.51648  22103121.833    22103122.6294   22103129.3944
       217.0004        217.0004
 -18864800.29249 -14680163.92247  21317474.368    21317474.7854   21317478.5234
       202.0004        202.0004
  -8367630.39948  -6503207.67046  22825314.731    22825315.6214   22825321.9054
       168.0004        168.0004
 -16456494.04749 -12804424.71647  21372456.683    21372457.0184   21372463.9354
       205.0004        205.0004
  -4446549.80947  -3449835.10646  23437731.614    23437731.1874   23437734.0644
       159.0004        163.0004
  -1910613.51647  -1480356.13945  23433515.739    23433515.2074   23433521.3894
       158.0004        160.0004
 -17029898.08948 -13254854.46747  21568501.644    21568502.3574   21568509.6724
       188.0004        188.0004
  -8563544.00248  -6644379.82646  23048740.076    23048739.9134   23048747.9244
       171.0004        174.0004
 21  2  1  1  9  0.0000000  0  9G21G08G07G04G09G17G14G01G30
 -16653149.26648 -12969890.38146  21776208.053    21776208.4744   21776212.7364
       183.0004        183.0004
 -13371100.53049 -10403522.00748  22119976.024    22119977.0564   22119983.9224
       216.0004        216.0004
 -18930721.83149 -14731531.35847  21304929.764    21304930.1784   21304934.1104
       202.0004        202.0004
  -8271375.56948  -6428203.92146  22843633.030    22843633.2104   22843639.4794
       169.0004        171.0004
 -16402033.42349 -12761987.86547  21382820.369    21382820.5284   21382827.5854
       205.0004        204.0004
  -4531323.72647  -3515892.71245  23421597.254    23421597.7124   23421602.4964
       160.0004        162.0004
  -1936479.08247  -1500511.10645  23428593.094    23428593.5054   23428597.7544
       159.0004        161.0004
 -17091539.95348 -13302887.07847  21556770.652    21556771.6244   21556779.6444
       187.0004        188.0004
  -8651234.39948  -6712709.99046  23032052.849    23032053.1354   23032060.1944
       172.0004        172.0004
 21  2  1  1  9 30.0000000  0  9G21G08G07G04G09G17G14G01G30
 -16645160.90048 -12963665.65746  21777728.665    21777728.0024   21777732.9114
       184.0004        184.0004
 -13282347.45849 -10334363.76448  22136866.306    22136865.8494   22136872.9314
       216.0004        214.0004
 -18996418.94949 -14782723.91047  21292427.672    21292428.3304   21292432.9914
       202.0004        203.0004
  -8175017.28648  -6353119.55146  22861968.610    22861969.1504   22861975.6034
       168.0004        168.0004
 -16347189.70649 -12719252.50047  21393256.764    21393257.3274   21393264.2974
       205.0004        205.0004
  -4615783.14847  -3581705.22846  23405525.126    23405525.5574   23405530.9884
       161.0004        164.0004
  -1962325.75147  -1520651.35245  23423673.793    23423674.9974   23423680.5054
       159.0004        160.0004
 -17152856.37448 -13350666.08647  21545103.525    21545104.0164   21545112.4224
       187.0004        188.0004
  -8738901.41148  -6781021.95546  23015371.546    23015371.4874   23015377.6514
       173.0004        174.0004
 21  2  1  1 10  0.0000000  0  9G21G08G07G04G09G17G14G01G30
 -16636687.72948 -12957063.17046  21779339.479    21779340.5034   21779345.2124
       184.0004        184.0004
 -13193415.52949 -10265066.15848  22153787.977    22153788.2764   22153795.8124
       214.0004        213.0004
 -19061890.02649 -14833740.32947  21279968.991    21279969.5964   21279973.6054
       202.0004        202.0004
  -8078559.01348  -6277957.26746  22880324.850    22880325.0274   22880331.9154
       168.0004        169.0004
 -16291966.16949 -12676221.17047  21403766.394    21403766.2444   21403773.0954
       205.0004        205.0004
  -4699926.62647  -3647271.55346  23389514.070    23389513.4004   23389518.9414
       163.0004        166.0004
  -1988155.26747  -1540778.23345  23418759.455    23418760.4304   23418764.6684
       158.0004        160.0004
 -17213844.74948 -13398189.49347  21533498.352    21533498.4514   21533506.0344
       187.0004        188.0004
  -8826543.57448  -6849314.55346  22998693.611    22998693.4044   22998700.2974
       173.0004        172.0004
 21  2  1  1 10 30.0000000  0  9G21G08G07G04G09G17G14G01G30
 -16627728.44548 -12950081.89646  21781044.960    21781044.7944   21781050.3024
       184.0004        184.0004
 -13104307.27849 -10195631.16048  22170745.009    22170745.1844   22170752.4754
       213.0004        213.0004
 -19127131.51549 -14884577.85047  21267554.409    21267554.6904   21267558.4244
       202.0004        202.0004
  -7982003.30548  -6202719.05846  22898699.692    22898699.5144   22898705.5974
       169.0004        171.0004
 -16236365.08049 -12632895.65947  21414346.077    21414346.2514   21414353.1874
       204.0004        204.0004
  -4783752.25447  -3712590.19246  23373561.877    23373562.6464   23373567.6204
       164.0004        167.0004
  -2013968.39947  -1560892.34045  23413846.952    23413848.2214   23413852.8454
       159.0004        161.0004
 -17274501.46048 -13445454.45647  21521956.306    21521956.2314   21521963.2864
       188.0004        188.0004
  -8914158.32448  -6917585.79546  22982020.797    22982020.1314   22982027.7094
       172.0004        173.0004
 21  2  1  1 11  0.0000000  0  9G21G08G07G04G09G17G14G01G30
 -16618282.78848 -12942721.62846  21782842.462    21782842.0094   21782847.1034
       184.0004        184.0004
 -13015026.10449 -10126061.41647  22187734.484    22187734.6954   22187742.2794
       213.0004        212.0004
 -19192140.88649 -14935234.50647  21255184.114    21255184.0654   21255188.1314
       202.0004        202.0004
  -7885353.38648  -6127407.44646  22917088.980    22917090.5034   22917096.1894
       168.0004        168.0004
 -16180389.43349 -12589278.27147  21424997.636    21424998.1494   21425004.9244
       204.0004        204.0004
  -4867258.65648  -3777660.07146  23357671.464    23357671.5244   23357677.9834
       165.0004        168.0004
  -2039766.66047  -1580994.83845  23408937.948    23408939.1484   23408943.5584
       160.0004        161.0004
 -17334823.64048 -13492458.73247  21510475.305    21510475.6684   21510485.0114
       187.0004        188.0004
  -9001743.81148  -6985834.21746  22965354.608    22965353.6604   22965360.8484
       173.0004        175.0004
 21  2  1  1 11 30.0000000  0  9G21G08G07G04G09G17G14G01G30
 -16608349.55948 -12934981.43646  21784732.311    21784732.2464   21784738.1854
       184.0004        185.0004
 -12925574.06349 -10056358.51848  22204756.408    22204757.0454   22204764.3634
       213.0004        213.0004
 -19256914.85949 -14985707.72747  21242856.994    21242857.5614   21242861.9404
       202.0004        202.0004
  -7788611.39648  -6052024.07546  22935499.454    22935500.0974   22935506.6684
       168.0004        169.0004
 -16124041.18049 -12545370.54847  21435719.926    21435720.8184   21435727.6034
       203.0004        203.0004
  -4950443.07148  -3842479.03746  23341840.662    23341841.3974   23341848.1394
       165.0004        166.0004
  -2065550.34647  -1601086.02045  23404032.967    23404032.6724   23404036.6524
       160.0004        161.0004
 -17394807.29948 -13539199.21247  21499061.550    21499062.3544   21499070.6854
       188.0004        189.0004
  -9089297.03648  -7054057.50046  22948691.923    22948691.6294   22948698.8914
       172.0004        170.0004
 21  2  1  1 12  0.0000000  0  9G21G08G07G04G09G17G14G01G30
 -16597928.85148 -12926861.38546  21786715.660    21786715.7624   21786720.4764
       185.0004        186.0004
 -12835954.08249  -9986524.77248  22221812.651    22221812.1124   22221818.5574
       213.0004        213.0004
 -19321451.33349 -15035995.88247  21230576.755    21230576.9974   21230580.7594
       202.0004        202.0004
  -7691780.94448  -5976571.78446  22953927.400    22953926.1824   22953932.4614
       168.0004        170.0004
 -16067323.70949 -12501175.11747  21446514.005    21446514.3744   21446520.6894
       204.0004        204.0004
  -5033304.39948  -3907046.28146  23326074.433    23326075.1244   23326080.1764
       168.0004        170.0004
  -2091321.43847  -1621167.37445  23399127.495    23399128.3114   23399132.6704
       157.0004        157.0004
 -17454449.94948 -13585674.01447  21487713.851    21487714.6134   21487721.6164
       191.0004        193.0004
  -9176816.53848  -7122254.50046  22932037.711    22932037.6074   22932045.4504
       169.0004        170.0004
 21  2  1  1 12 30.0000000  0  9G21G08G07G04G09G17G14G01G30
 -16587020.79848 -12918361.59246  21788791.664    21788791.3504   21788796.9364
       186.0004        186.0004
 -12746170.87649  -9916563.83447  22238896.923    22238896.8124   22238904.1204
       212.0004        212.0004
 -19385748.51549 -15086097.58447  21218341.763    21218341.9384   21218345.5834
       202.0004        203.0004
  -7594866.10448  -5901053.73046  22972367.942    22972368.4384   22972374.8314
       169.0004        171.0004
 -16010240.95149 -12456695.04447  21457376.244    21457376.3704   21457383.4674
       203.0004        203.0004
  -5115842.13048  -3971361.35446  23310367.783    23310367.7054   23310374.5384
       168.0004        169.0004
  -2117082.17847  -1641240.66145  23394226.137    23394225.1824   23394231.2424
       156.0004        156.0004
 -17513749.63748 -13631881.57847  21476429.576    21476429.9124   21476436.3724
       193.0004        194.0004
  -9264301.31048  -7190424.43846  22915389.014    22915389.2794   22915398.0754
       169.0004        170.0004
 21  2  1  1 13  0.0000000  0  9G21G08G07G04G09G17G14G01G30
 -16575623.10048 -12909480.25146  21790959.943    21790959.9334   21790965.5484
       186.0004        186.0004
 -12656225.19949  -9846476.30047  22256011.295    22256012.1534   22256020.0404
       212.0004        211.0004
 -19449801.53449 -15136009.02447  21206152.400    21206152.6474   21206156.5764
       203.0004        203.0004
  -7497867.71448  -5825470.58946  22990827.564    22990827.3364   22990832.0434
       169.0004        168.0004
 -15952793.53449 -12411930.82747  21468307.572    21468307.8884   21468314.8944
       203.0004        202.0004
  -5198052.87048  -4035421.64546  23294723.343    23294723.9234   23294730.0914
       167.0004        168.0004
  -2142831.60647  -1661305.15445  23389325.333    23389325.8784   23389331.8114
       154.0004        156.0004
 -17572701.12748 -13677817.80247  21465209.344    21465210.4564   21465217.8504
       192.0004        190.0004
  -9351747.03148  -7258563.97546  22898748.793    22898750.3354   22898756.8204
       169.0004        171.0004
 21  2  1  1 13 30.0000000  0  9G21G08G07G04G09G17G14G01G30
 -16563735.83148 -12900217.43046  21793223.298    21793222.9944   21793227.4944
       186.0004        187.0004
 -12566120.26849  -9776264.66347  22273159.273    22273158.9304   22273166.2574
       212.0004        212.0004
 -19513608.26849 -15185728.54747  21194009.447    21194010.4554   21194014.5754
       202.0004        203.0004
  -7400789.26148  -5749825.04546  23009299.208    23009300.1294   23009305.7914
       168.0004        169.0004
 -15894984.81349 -12366885.06747  21479307.266    21479307.8944   21479315.8394
       202.0004        202.0004
  -5279935.01148  -4099225.87146  23279142.118    23279142.4814   23279147.1994
       166.0004        166.0004
  -2168571.55147  -1681362.24445  23384427.548    23384427.0664   23384434.0524
       155.0004        157.0004
 -17631301.89948 -13723480.72146  21454056.958    21454057.9504   21454066.2964
       189.0004        187.0004
  -9439152.15148  -7326671.84846  22882115.822    22882116.6274   22882125.1134
       171.0004        173.0004
 21  2  1  1 14  0.0000000  0  9G21G08G07G04G09G17G14G01G30
 -16551358.71048 -12890572.91346  21795577.869    21795577.7174   21795583.2804
       186.0004        186.0004
 -12475858.93649  -9705931.18347  22290335.819    22290335.8494   22290342.6294
       212.0004        212.0004
 -19577166.42149 -15235254.38847  21181916.178    21181916.2874   21181919.8464
       203.0004        203.0004
  -7303634.02848  -5674119.66446  23027787.831    23027788.3394   23027794.7034
       168.0004        169.0004
 -15836817.90649 -12321560.21847  21490377.519    21490377.4264   21490384.6944
       202.0004        202.0004
  -5361487.58748  -4162773.30946  23263623.057    23263623.1134   23263629.1264
       166.0004        167.0004
  -2194303.47747  -1701413.10345  23379531.374    23379531.8784   23379536.4864
       155.0004        157.0004
 -17689549.13048 -13768868.15247  21442972.814    21442973.4324   21442982.4824
       188.0004        189.0004
  -9526514.76348  -7394746.60746  22865492.768    22865493.0124   22865500.0414
       172.0004        173.0004
 21  2  1  1 14 30.0000000  0  9G21G08G07G04G09G17G14G01G30
 -16538491.04648 -12880546.15546  21798026.449    21798026.5204   21798031.4554
       186.0004        186.0004
 -12385444.06249  -9635478.04147  22307539.283    22307540.3234   22307547.7384
       211.0004        210.0004
 -19640472.96049 -15284584.16947  21169868.977    21169869.1054   21169873.1024
       203.0004        204.0004
  -7206404.69348  -5598356.58046  23046289.204    23046289.7574   23046296.0284
       168.0004        167.0004
 -15778295.44749 -12275958.30747  21501513.714    21501514.0154   21501520.8684
       202.0004        202.0004
  -5442708.78048  -4226062.52646  23248167.959    23248168.0184   23248171.3694
       166.0004        167.0004
  -2220028.37547  -1721458.48245  23374636.118    23374634.9924   23374640.7234
       154.0004        156.0004
 -17747439.50048 -13813977.51847  21431958.197    21431958.8304   21431966.1094
       189.0004        191.0004
  -9613832.48448  -7462786.37246  22848877.130    22848876.7674   22848884.2714
       172.0004        173.0004
 21  2  1  1 15  0.0000000  0 10G21G08G07G04G09G17G14G01G30G22
 -16525132.13948 -12870136.60446  21800568.405    21800568.2334   21800573.6154
       186.0004        187.0004
 -12294878.64049  -9564907.57647  22324773.799    22324773.9484   22324781.9764
       210.0004        209.0004
 -19703524.79449 -15333715.45347  21157869.642    21157870.2304   21157874.9604
       203.0004        203.0004
  -7109104.05848  -5522537.89446  23064805.869    23064806.1424   23064811.5534
       167.0004        168.0004
 -15719420.00449 -12230081.34347  21512717.188    21512717.5174   21512724.5714
       202.0004        202.0004
  -5523596.77347  -4289092.06646  23232774.803    23232774.4424   23232777.8494
       164.0004        164.0004
  -2245747.23647  -1741499.12345  23369740.193    23369742.2174   23369747.4244
       154.0004        156.0004
 -17804969.78548 -13858806.30747  21421011.126    21421011.8624   21421018.5744
       191.0004        193.0004
  -9701102.85348  -7530789.24646  22832270.374    22832270.3184   22832276.3024
       173.0004        173.0004
  -1339994.40454  -1032845.089 3                                  24579235.245
        74.0004         74.000
 21  2  1  1 15 30.0000000  0 10G21G08G07G04G09G17G14G01G30G22
 -16511281.03748 -12859343.52446  21803204.105    21803204.2114   21803208.9814
       186.0004        186.0004
 -12204164.71249  -9494221.39847  22342035.137    22342036.2844   22342043.7124
       209.0004        208.0004
 -19766318.78749 -15382645.83647  21145921.153    21145921.5504   21145925.5714
       203.0004        204.0004
  -7011734.26148  -5446665.34446  23083334.589    23083335.7514   23083341.1504
       167.0004        168.0004
 -15660193.73549 -12183930.99747  21523987.597    21523987.8384   21523995.1644
       202.0004        203.0004
  -5604149.28247  -4351860.21445  23217444.538    23217445.1194   23217447.5864
       160.0004        159.0004
  -2271460.46247  -1761535.36845  23364847.601    23364848.4534   23364853.4194
       155.0004        158.0004
 -17862136.10248 -13903351.48547  21410132.642    21410133.1274   21410140.1074
       192.0004        193.0004
  -9788323.04448  -7598753.02146  22815671.705    22815672.1974   22815678.6074
       172.0004        173.0004
  -1339994.40444  -1032845.089 3                                  24579235.245
        74.0004         74.000
 21  2  1  1 16  0.0000000  0 10G21G08G07G04G09G17G14G01G30G22
 -16496937.59448 -12848166.81346  21805933.903    21805933.4404   21805938.7304
       186.0004        186.0004
 -12113305.10349  -9423421.70647  22359327.020    22359327.0144   22359333.8254
       209.0004        209.0004
 -19828852.51249 -15431373.41847  21134021.050    21134021.6134   21134025.6574
       204.0004        204.0004
  -6914298.78448  -5370741.60546  23101875.598    23101876.9544   23101881.1234
       166.0004        166.0004
 -15600619.98449 -12137509.89247  21535324.219    21535324.8844   21535331.6804
       202.0004        203.0004
  -5684365.29747  -4414366.18045  23202180.834    23202181.0974   23202182.3524
       158.0004        158.0004
  -2297169.81447  -1781568.59945  23359956.456    23359956.5044   23359961.3954
       158.0004        162.0004
 -17918936.00748 -13947611.14547  21399325.151    21399325.1734   21399331.8334
       193.0004        194.0004
  -9875491.31048  -7666676.33546  22799085.795    22799084.8254   22799091.9924
       176.0004        179.0004
  -1339994.40454  -1032845.089 3                                  24579235.245
        74.0004         74.000
 21  2  1  1 16 30.0000000  0 10G28G21G08G07G04G09G17G14G01G30
  -1413388.86756  -1093124.13345  23685379.158    23685379.7665   23685383.3624
       134.0004        142.0004
 -16482102.29648 -12836606.82646  21808757.856    21808756.7104   21808761.2104
       186.0004        186.0004
 -12022303.13349  -9352511.08647  22376644.383    22376644.2904   22376651.0184
       209.0004        209.0004
 -19891123.65649 -15479896.38647  21122170.632    21122171.5804   21122176.0204
       204.0004        204.0004
  -6816800.97248  -5294769.30146  23120428.733    23120429.7024   23120435.6614
       165.0004        165.0004
 -15540702.08349 -12090820.61447  21546726.980    21546726.9684   21546733.5404
       203.0004        203.0004
  -5764243.59147  -4476608.99845  23186978.961    23186979.9454   23186983.9254
       156.0004        157.0004
  -2322876.85847  -1801600.02145  23355064.252    23355064.6164   23355069.0054
       160.0004        162.0004
 -17975366.87348 -13991583.24547  21388585.846    21388586.3264   21388594.1814
       194.0004        194.0004
  -9962605.92748  -7734557.83546  22782507.889    22782507.5404   22782514.4564
       177.0004        179.0004
 21  2  1  1 17  0.0000000  0 10G28G21G08G07G04G09G17G14G01G30
  -1428333.32847  -1104769.14245  23682537.207    23682534.6854   23682541.0354
       137.0004        143.0004
 -16466775.44648 -12824663.81646  21811673.527    21811673.1004   21811678.8914
       186.0004        186.0004
 -11931162.59049  -9281492.47847  22393986.507    22393987.4474   22393994.9094
       209.0004        208.0004
 -19953130.52149 -15528213.42247  21110372.630    21110372.4974   21110376.2294
       204.0004        204.0004
  -6719244.61848  -5218751.38646  23138995.254    23138994.7444   23139000.0124
       165.0004        166.0004
 -15480443.73349 -12043866.06647  21558192.942    21558193.3874   21558200.7024
       203.0004        204.0004
  -5843783.31047  -4538587.97845  23171845.172    23171845.3064   23171848.0574
       158.0004        162.0004
  -2348583.65247  -1821631.26045  23350172.023    23350172.5144   23350177.2654
       160.0004        162.0004
 -18031426.55848 -14035266.10247  21377917.375    21377918.3154   21377925.7834
       193.0004        192.0004
 -10049665.48648  -7802396.45346  22765940.198    22765940.6244   22765947.3464
       178.0004        178.0004
 21  2  1  1 17 30.0000000  0 10G28G21G08G07G04G09G17G14G01G30
  -1443265.24247  -1116404.39045  23679695.509    23679694.3034   23679699.0194
       140.0004        146.0004
 -16450958.05448 -12812338.57146  21814682.772    21814682.6134   21814688.5064
       186.0004        185.0004
 -11839888.01749  -9210369.44747  22411355.219    22411355.7094   22411363.5874
       207.0004        206.0004
 -20014871.36649 -15576323.17547  21098622.554    21098623.4254   21098627.3964
       204.0004        204.0004
  -6621633.88847  -5142691.07146  23157568.350    23157568.0484   23157574.8994
       164.0004        164.0004
 -15419849.09449 -11996649.46447  21569723.938    21569724.2234   21569730.4744
       203.0004        202.0004
  -5922984.24547  -4600302.95446  23156773.276    23156772.5204   23156778.1244
       162.0004        165.0004
  -2374292.60647  -1841664.19745  23345280.700    23345280.6294   23345285.1164
       160.0004        161.0004
 -18087113.26648 -14078658.33647  21367320.283    21367320.3264   21367328.6554
       191.0004        191.0004
 -10136669.05448  -7870191.42546  22749384.317    22749384.3004   22749390.9514
       178.0004        179.0004
 21  2  1  1 18  0.0000000  0 10G28G21G08G07G04G09G17G14G01G30
  -1458184.46147  -1128029.73045  23676855.736    23676854.2914   23676861.2404
       141.0004        145.0004
 -16434648.05048 -12799629.47046  21817786.760    21817786.4834   21817791.8704
       185.0004        186.0004
 -11748479.94749  -9139142.39647  22428749.971    22428750.5654   22428758.0094
       206.0004        206.0004
 -20076341.86049 -15624222.26247  21086925.549    21086925.5404   21086930.2564
       204.0004        204.0004
  -6523969.87747  -5066589.27146  23176151.376    23176152.4744   23176159.3674
       163.0004        164.0004
 -15358919.13949 -11949171.57747  21581319.208    21581319.3294   21581326.2944
       203.0004        205.0004
  -6001843.67248  -4661751.84746  23141767.249    23141767.5014   23141773.0814
       166.0004        170.0004
  -2400003.06247  -1861698.29745  23340387.550    23340388.0004   23340391.5264
       159.0004        160.0004
 -18142422.12748 -14121756.13647  21356794.349    21356795.2474   21356803.8934
       190.0004        190.0004
 -10223612.51148  -7937939.56746  22732839.859    22732839.5954   22732846.4734
       179.0004        181.0004
 21  2  1  1 18 30.0000000  0 10G28G21G08G07G04G09G17G14G01G30
  -1473091.59747  -1139645.68945  23674018.516    23674018.3914   23674023.4364
       142.0004        147.0004
 -16417844.42148 -12786535.71146  21820984.258    21820984.3324   21820989.3044
       185.0004        185.0004
 -11656940.16149  -9067812.68747  22446170.288    22446169.9274   22446177.8424
       207.0004        208.0004
 -20137538.71249 -15671908.11947  21075280.320    21075280.5194   21075284.5174
       203.0004        204.0004
  -6426254.59347  -4990447.52246  23194747.658    23194747.9184   23194754.1724
       163.0004        164.0004
 -15297655.94349 -11901434.01647  21592976.366    21592976.6134   21592984.1334
       204.0004        203.0004
  -6080358.90548  -4722932.51746  23126825.322    23126825.6854   23126832.6814
       169.0004        170.0004
  -2425715.26247  -1881733.76345  23335494.661    23335494.9844   23335499.4014
       159.0004        161.0004
 -18197349.29048 -14164556.50547  21346342.493    21346343.1844   21346351.7124
       190.0004        191.0004
 -10310492.71848  -8005638.41546  22716307.861    22716307.1764   22716314.1294
       181.0004        181.0004
 21  2  1  1 19  0.0000000  0 10G28G21G08G07G04G09G17G14G01G30
  -1487986.39547  -1151252.01145  23671183.834    23671184.4494   23671188.4034
       143.0004        147.0004
 -16400544.98048 -12773055.61046  21824276.076    21824276.0274   21824281.5744
       185.0004        185.0004
 -11565270.40849  -8996381.71247  22463611.887    22463613.3354   22463622.3134
       207.0004        207.0004
 -20198456.96249 -15719376.91947  21063688.108    21063688.4814   21063692.0934
       204.0004        204.0004
  -6328489.21947  -4914266.72346  23213350.932    23213352.2524   23213358.7404
       163.0004        164.0004
 -15236060.70749 -11853437.72547  21604697.744    21604698.1914   21604705.2854
       203.0004        204.0004
  -6158526.89048  -4783842.58546  23111950.877    23111951.1224   23111957.4024
       170.0004        172.0004
  -2451428.70547  -1901770.19245  23330601.607    23330601.5844   23330605.8464
       160.0004        161.0004
 -18251890.07748 -14207055.78947  21335963.510    21335963.6104   21335972.7524
       190.0004        190.0004
 -10397305.80948  -8073284.96646  22699787.078    22699786.6174   22699793.3214
       180.0004        179.0004
 21  2  1  1 19 30.0000000  0 10G28G21G08G07G04G09G17G14G01G30
  -1502870.05347  -1162849.65645  23668353.578    23668352.0814   23668356.5134
       145.0004        150.0004
 -16382749.05848 -12759188.64746  21827663.316    21827663.0984   21827668.1964
       185.0004        185.0004
 -11473472.63849  -8924850.99747  22481082.577    22481082.4524   22481090.4794
       206.0004        206.0004
 -20259093.89149 -15766626.47547  21052148.781    21052149.0144   21052153.7384
       204.0004        204.0004
  -6230676.56347  -4838049.09346  23231965.637    23231965.9714   23231970.9834
       163.0004        163.0004
 -15174136.27249 -11805184.92247  21616482.093    21616482.4304   21616488.5444
       203.0004        203.0004
  -6236345.46648  -4844480.40446  23097141.967    23097142.3844   23097149.1194
       170.0004        170.0004
  -2477144.40547  -1921808.40145  23325707.257    23325708.0894   23325713.1444
       160.0004        161.0004
 -18306041.40948 -14249251.61247  21325658.952    21325659.8454   21325668.1114
       190.0004        190.0004
 -10484049.34948  -8140877.33846  22683280.665    22683280.8674   22683285.7114
       178.0004        178.0004
 21  2  1  1 20  0.0000000  0 10G28G21G08G07G04G09G17G14G01G30
  -1517746.02747  -1174441.28945  23665521.594    23665521.8324   23665525.1674
       148.0004        152.0004
 -16364458.33548 -12744936.13146  21831143.458    21831143.4924   21831148.5314
       185.0004        185.0004
 -11381551.31649  -8853224.00147  22498574.889    22498574.9344   22498581.8744
       206.0004        206.0004
 -20319448.24649 -15813655.84247  21040664.322    21040664.5934   21040668.1064
       204.0004        204.0004
  -6132821.05647  -4761798.04446  23250586.964    23250587.1584   23250592.8894
       162.0004        163.0004
 -15111887.03449 -11756679.01647  21628327.281    21628327.7274   21628334.1384
       202.0004        202.0004
  -6313814.93548  -4904846.19246  23082401.686    23082401.7004   23082407.1614
       171.0004        173.0004
  -2502865.03847  -1941850.43145  23320814.304    23320814.3574   23320818.3884
       160.0004        161.0004
 -18359801.79848 -14291142.81747  21315429.605    21315429.9584   21315437.4894
       191.0004        192.0004
 -10570722.60648  -8208414.93946  22666787.207    22666787.1194   22666792.3364
       178.0004        179.0004
 21  2  1  1 20 30.0000000  0 10G28G21G08G07G04G09G17G14G01G30
  -1532615.95147  -1186028.23545  23662691.325    23662691.5864   23662697.1844
       149.0004        153.0004
 -16345673.07248 -12730298.25246  21834717.722    21834717.8124   21834723.2924
       185.0004        186.0004
 -11289509.90749  -8781503.44247  22516089.146    22516089.4364   22516096.7094
       205.0004        204.0004
 -20379517.49249 -15860463.06347  21029233.568    21029233.7194   21029237.3164
       204.0004        205.0004
  -6034925.79047  -4685516.03446  23269215.182    23269215.5004   23269222.1754
       162.0004        163.0004
 -15049316.18649 -11707922.52347  21640233.063    21640233.7354   21640241.2694
       201.0004        201.0004
  -6390934.00548  -4964938.92646  23067726.086    23067725.2944   23067731.1664
       171.0004        170.0004
  -2528591.98547  -1961897.39045  23315917.700    23315918.8284   23315922.2434
       158.0004        159.0004
 -18413168.54848 -14332727.29147  21305273.638    21305274.5314   21305281.9544
       192.0004        193.0004
 -10657323.47348  -8275896.14846  22650307.435    22650307.4674   22650313.7214
       180.0004        182.0004
 21  2  1  1 21  0.0000000  0 10G28G21G08G07G04G09G17G14G01G30
  -1547480.95047  -1197611.32945  23659863.351    23659863.6414   23659868.1794
       150.0004        152.0004
 -16326392.48848 -12715274.40946  21838386.273    21838386.8714   21838392.1574
       185.0004        184.0004
 -11197350.16049  -8709690.64847  22533626.364    22533626.6934   22533634.1084
       204.0004        204.0004
 -20439298.55849 -15907045.69347  21017857.387    21017857.6334   21017861.8604
       204.0004        205.0004
  -5936993.05647  -4609204.82146  23287851.391    23287851.7594   23287857.9894
       162.0004        164.0004
 -14986426.06249 -11658917.22247  21652201.489    21652201.7384   21652208.6254
       200.0004        200.0004
  -6467701.30648  -5024757.57346  23053116.888    23053117.2004   23053122.4424
       170.0004        171.0004
  -2554325.77947  -1981949.65645  23311021.720    23311021.7054   23311026.3904
       158.0004        160.0004
 -18466138.13948 -14374002.27947  21295193.991    21295194.9624   21295202.4334
       193.0004        194.0004
 -10743849.13748  -8343318.70646  22633842.043    22633842.0284   22633849.3324
       182.0004        183.0004
 21  2  1  1 21 30.0000000  0 10G28G21G08G07G04G09G17G14G01G30
  -1562341.92347  -1209191.31045  23657035.393    23657036.0284   23657039.7354
       150.0004        153.0004
 -16306615.78048 -12699863.98146  21842151.543    21842150.9274   21842155.2094
       185.0004        185.0004
 -11105074.63849  -8637787.65447  22551186.358    22551186.3374   22551194.0204
       204.0004        204.0004
 -20498788.12549 -15953401.20347  21006536.723    21006537.4914   21006541.1534
       205.0004        205.0004
  -5839025.14047  -4532866.20846  23306492.971    23306494.2094   23306500.8024
       163.0004        164.0004
 -14923218.97349 -11609664.95147  21664229.613    21664229.7794   21664236.7014
       200.0004        200.0004
  -6544114.65148  -5084300.41046  23038575.199    23038575.7094   23038580.4914
       168.0004        167.0004
  -2580066.89547  -2002007.67745  23306122.579    23306124.7174   23306128.2564
       159.0004        160.0004
 -18518707.01148 -14414965.02347  21285190.351    21285191.5184   21285199.8304
       194.0004        194.0004
 -10830296.69448  -8410680.43246  22617391.647    22617391.4144   22617398.1234
       182.0004        181.0004
 21  2  1  1 22  0.0000000  0 10G28G21G08G07G04G09G17G14G01G30
  -1577201.54047  -1220770.22745  23654206.922    23654206.6434   23654211.1354
       150.0004        153.0004
 -16286343.92748 -12684067.72146  21846008.341    21846008.4294   21846013.1404
       185.0004        186.0004
 -11012686.77949  -8565797.11947  22568767.171    22568767.0974   22568775.0454
       204.0004        204.0004
 -20557984.29249 -15999528.08647  20995272.227    20995272.7324   20995276.4744
       205.0004        205.0004
  -5741025.92847  -4456503.19946  23325142.464    23325142.9244   23325148.4614
       162.0004        164.0004
 -14859698.90549 -11560168.79447  21676315.068    21676316.3724   21676324.0144
       199.0004        199.0004
  -6620173.29948  -5143566.83646  23024102.689    23024101.9424   23024107.0324
       168.0004        170.0004
  -2605817.51447  -2022073.09945  23301222.218    23301222.4124   23301226.7134
       158.0004        159.0004
 -18570873.27349 -14455614.04647  21275264.690    21275264.8994   21275272.7394
       195.0004        195.0004
 -10916664.81948  -8477980.24646  22600956.417    22600955.8104   22600963.0704
       182.0004        182.0004
 21  2  1  1 22 30.0000000  0 10G28G21G08G07G04G09G17G14G01G30
  -1592060.96347  -1232348.99345  23651380.433    23651379.7904   23651384.4394
       151.0004        154.0004
 -16265576.38148 -12667885.20746  21849961.060    21849960.0784   21849965.3134
       185.0004        186.0004
 -10920188.87949  -8493720.84847  22586367.996    22586368.5944   22586376.6574
       204.0004        204.0004
 -20616884.12349 -16045424.06047  20984063.490    20984064.1084   20984068.1174
       204.0004        205.0004
  -5642997.86447  -4380117.71245  23343796.622    23343796.7014   23343802.4314
       162.0004        162.0004
 -14795868.44949 -11510430.78347  21688463.549    21688463.4974   21688470.4524
       199.0004        200.0004
  -6695875.60248  -5202555.62346  23009696.728    23009696.9414   23009701.5814
       169.0004        170.0004
  -2631578.34747  -2042146.46145  23296320.489    23296320.1544   23296325.3714
       157.0004        160.0004
 -18622633.64249 -14495946.79747  21265414.777    21265415.0204   21265422.5574
       195.0004        195.0004
 -11002950.87148  -8545216.12446  22584536.311    22584536.3024   22584542.9344
       180.0004        180.0004
 21  2  1  1 23  0.0000000  0 10G28G21G08G07G04G09G17G14G01G30
  -1606922.28547  -1243929.23545  23648552.330    23648552.8184   23648556.7584
       152.0004        156.0004
 -16244313.44348 -12651316.68146  21854006.021    21854006.6744   21854011.3554
       185.0004        185.0004
 -10827584.21449  -8421561.39247  22603990.139    22603990.2574   22603999.0464
       203.0004        202.0004
 -20675485.05149 -16091087.12547  20972913.144    20972913.3914   20972916.6244
       204.0004        205.0004
  -5544944.07947  -4303712.18045  23362454.747    23362456.3494   23362461.6494
       161.0004        162.0004
 -14731730.83349 -11460453.44047  21700668.802    21700669.0934   21700675.3484
       199.0004        200.0004
  -6771220.94348  -5261266.23946  22995358.950    22995359.1934   22995362.9164
       169.0004        171.0004
  -2657350.78047  -2062228.87045  23291416.687    23291416.5084   23291420.7374
       159.0004        161.0004
 -18673985.48849 -14535961.21247  21255642.648    21255642.9914   21255650.5294
       195.0004        196.0004
 -11089152.74748  -8612386.41346  22568132.989    22568132.8154   22568139.7094
       180.0004        181.0004
 21  2  1  1 23 30.0000000  0 10G28G21G08G07G04G09G17G14G01G30
  -1621785.28347  -1255510.78945  23645723.751    23645722.8994   23645726.2614
       152.0004        153.0004
 -16222553.76548 -12634361.08146  21858147.355    21858147.2024   21858152.0054
       185.0004        186.0004
 -10734873.77149  -8349319.51747  22621633.181    22621633.2724   22621641.5404
       202.0004        202.0004
 -20733783.16949 -16136514.23647  20961818.955    20961819.4164   20961822.6604
       204.0004        204.0004
  -5446866.28747  -4227287.93645  23381119.372    23381120.0374   23381124.6894
       161.0004        162.0004
 -14667287.87749 -11410238.14847  21712931.306    21712931.3804   21712938.6514
       199.0004        200.0004
  -6846206.17548  -5319696.27546  22981089.832    22981090.4184   22981092.7124
       169.0004        171.0004
  -2683134.78147  -2082320.28045  23286509.038    23286509.4044   23286514.0144
       159.0004        161.0004
 -18724924.76749 -14575654.15247  21245948.921    21245949.2154   21245956.8454
       195.0004        195.0004
 -11175266.99048  -8679488.42346  22551744.974    22551745.6614   22551751.9124
       179.0004        179.0004
 21  2  1  1 24  0.0000000  0 10G28G21G08G07G04G09G17G14G01G30
  -1636652.96547  -1267095.95345  23642894.473    23642895.0304   23642898.5094
       152.0004        155.0004
 -16200298.83448 -12617019.56746  21862381.665    21862381.7984   21862387.1564
       185.0004        185.0004
 -10642062.37949  -8276998.94847  22639293.990    22639294.7224   22639302.7194
       202.0004        202.0004
 -20791777.09349 -16181704.31747  20950782.787    20950783.3044   20950786.9124
       204.0004        205.0004
  -5348768.61847  -4150848.20045  23399788.304    23399787.7464   23399792.7864
       160.0004        161.0004
 -14602543.85449 -11359788.27047  21725251.584    21725252.0954   21725259.6074
       199.0004        200.0004
  -6920831.71348  -5377846.01746  22966889.457    22966889.5894   22966892.6494
       169.0004        170.0004
  -2708932.70447  -2102422.54545  23281599.763    23281599.7414   23281605.0454
       160.0004        162.0004
 -18775449.94148 -14615024.41247  21236333.753    21236334.5584   21236342.5314
       194.0004        195.0004
 -11261292.55648  -8746521.30946  22535374.593    22535375.2454   22535382.6364
       179.0004        179.0004
 21  2  1  1 24 30.0000000  0 10G28G21G08G07G04G09G17G14G01G30
  -1651526.74247  -1278685.88245  23640064.019    23640063.5974   23640068.6364
       152.0004        155.0004
 -16177548.38848 -12599291.93746  21866711.605    21866711.8294   21866716.3494
       185.0004        186.0004
 -10549152.16249  -8204601.37547  22656973.881    22656974.5924   22656982.5074
       202.0004        202.0004
 -20849463.97949 -16226655.13647  20939805.437    20939805.6154   20939809.7534
       205.0004        205.0004
  -5250653.53547  -4074394.88145  23418458.247    23418457.5354   23418463.6774
       159.0004        160.0004
 -14537501.40049 -11309105.84447  21737629.882    21737629.5644   21737636.8114
       200.0004        199.0004
  -6995095.78948  -5435714.09646  22952757.221    22952757.8194   22952762.2664
       171.0004        174.0004
  -2734745.31847  -2122536.25245  23276687.460    23276687.8574   23276692.8104
       160.0004        161.0004
 -18825557.79348 -14654069.47747  21226798.756    21226799.5374   21226807.4464
       194.0004        194.0004
 -11347226.78148  -8813483.03746  22519022.988    22519022.1804   22519029.3574
       177.0004        178.0004
 21  2  1  1 25  0.0000000  0 10G28G21G08G07G04G09G17G14G01G30
  -1666407.53347  -1290281.29445  23637232.350    23637232.1894   23637236.4024
       151.0004        153.0004
 -16154301.58148 -12581177.51746  21871134.494    21871134.1304   21871139.9994
       185.0004        184.0004
 -10456145.03249  -8132128.29247  22674674.151    22674672.9324   22674680.9504
       201.0004        200.0004
 -20906840.10949 -16271363.80347  20928886.678    20928887.3584   20928891.4214
       205.0004        205.0004
  -5152523.24547  -3997929.72045  23437130.229    23437131.6864   23437136.4514
       157.0004        159.0004
 -14472162.85749 -11258192.69147  21750062.474    21750063.1154   21750070.2104
       199.0004        200.0004
  -7068996.54648  -5493299.08546  22938694.097    22938694.3894   22938698.6744
       173.0004        174.0004
  -2760573.09547  -2142661.75146  23271773.373    23271772.9554   23271779.2104
       161.0004        163.0004
 -18875244.83348 -14692786.63247  21217343.295    21217343.9894   21217351.9484
       194.0004        194.0004
 -11433066.58548  -8880371.18646  22502688.239    22502688.1614   22502695.1394
       179.0004        181.0004
 21  2  1  1 25 30.0000000  0 10G28G21G08G07G04G09G17G14G01G30
  -1681297.05047  -1301883.50045  23634398.832    23634399.3054   23634402.6214
       149.0004        152.0004
 -16130559.21748 -12562676.96146  21875652.557    21875653.0094   21875658.0074
       184.0004        184.0004
 -10363044.22549  -8059582.23347  22692389.625    22692389.5084   22692398.2214
       201.0004        201.0004
 -20963903.49949 -16315828.78847  20918028.155    20918028.6504   20918032.7184
       205.0004        206.0004
  -5054381.01747  -3921455.27645  23455807.317    23455806.8444   23455812.9414
       158.0004        160.0004
 -14406531.67249 -11207051.51047  21762551.456    21762551.9824   21762558.9304
       199.0004        199.0004
  -7142533.20548  -5550600.34746  22924700.428    22924700.8634   22924704.4704
       171.0004        171.0004
  -2786417.53147  -2162800.25145  23266854.158    23266854.7124   23266859.5084
       160.0004        161.0004
 -18924508.68148 -14731174.03247  21207968.013    21207968.9894   21207977.1164
       193.0004        193.0004
 -11518810.10148  -8947184.31846  22486371.113    22486370.9974   22486378.6514
       180.0004        180.0004
 21  2  1  1 26  0.0000000  0 10G28G21G08G07G04G09G17G14G01G30
  -1696196.31547  -1313493.31445  23631563.161    23631563.1904   23631567.2144
       149.0004        153.0004
 -16106320.59448 -12543789.70746  21880266.335    21880266.0014   21880270.0864
       185.0004        185.0004
 -10269851.59449  -7986964.61847  22710123.330    22710122.9614   22710132.1114
       199.0004        199.0004
 -21020650.93049 -16360047.56447  20907229.747    20907229.8984   20907234.0824
       205.0004        206.0004
  -4956229.06747  -3844973.23445  23474484.151    23474484.7664   23474490.8424
       157.0004        158.0004
 -14340610.24349 -11155684.16347  21775096.132    21775096.6374   21775103.4264
       198.0004        199.0004
  -7215703.52548  -5607616.15246  22910776.883    22910777.2314   22910781.8534
       170.0004        170.0004
  -2812279.09647  -2182952.11645  23261933.946    23261934.6044   23261937.4244
       158.0004        159.0004
 -18973345.89348 -14769228.99547  21198675.850    21198676.0224   21198684.0784
       193.0004        194.0004
 -11604454.37448  -9013920.11746  22470072.972    22470073.1114   22470080.9314
       180.0004        180.0004
 21  2  1  1 26 30.0000000  0 10G28G21G08G07G04G09G17G14G01G30
  -1711107.24647  -1325112.21045  23628726.131    23628726.4144   23628729.6234
       151.0004        154.0004
 -16081586.18548 -12524516.12746  21884972.538    21884972.7084   21884977.6854
       185.0004        185.0004
 -10176570.69349  -7914278.21247  22727872.312    22727873.9094   22727883.2034
       199.0004        200.0004
 -21077079.73349 -16404018.06247  20896491.929    20896492.0084   20896496.5734
       205.0004        206.0004
  -4858070.56447  -3768486.11645  23493163.823    23493164.6334   23493168.6614
       156.0004        158.0004
 -14274401.93849 -11104093.28647  21787694.828    21787695.7534   21787702.7724
       198.0004        198.0004
  -7288507.11548  -5664346.19346  22896922.421    22896922.4374   22896928.0944
       172.0004        175.0004
  -2838159.27547  -2203118.48745  23257008.635    23257008.8254   23257014.2454
       159.0004        161.0004
 -19021754.07748 -14806949.64847  21189463.810    21189464.4724   21189471.9264
       194.0004        194.0004
 -11689997.45048  -9080577.04246  22453795.041    22453795.2624   22453802.7894
       179.0004        179.0004
 21  2  1  1 27  0.0000000  0 10G28G21G08G07G04G09G17G14G01G30
  -1726030.49047  -1336740.71645  23625885.668    23625886.1574   23625890.4334
       150.0004        153.0004
 -16056355.54948 -12504855.88046  21889773.580    21889773.3354   21889778.5814
       184.0004        185.0004
 -10083202.78449  -7841524.00647  22745641.974    22745641.2434   22745650.4234
       200.0004        200.0004
 -21133186.74249 -16447737.81647  20885814.293    20885814.8494   20885819.5274
       206.0004        206.0004
  -4759907.57947  -3691995.47945  23511844.127    23511844.0724   23511849.0414
       154.0004        157.0004
 -14207909.07549 -11052280.66247  21800348.758    21800349.0054   21800355.5524
       198.0004        198.0004
  -7360941.95048  -5720788.90946  22883138.749    22883139.0114   22883143.8644
       174.0004        175.0004
  -2864058.31247  -2223299.56646  23252081.346    23252081.4724   23252085.8404
       162.0004        165.0004
 -19069729.71348 -14844333.25847  21180334.103    21180335.0134   21180343.0264
       194.0004        195.0004
 -11775436.10348  -9147152.60546  22437536.856    22437536.2854   22437543.9214
       180.0004        181.0004
 21  2  1  1 27 30.0000000  0 10G28G21G08G07G04G09G17G14G01G30
  -1740969.00047  -1348381.08945  23623044.564    23623043.8194   23623047.2824
       150.0004        153.0004
 -16030630.22448 -12484810.16846  21894667.992    21894668.0764   21894673.7524
       185.0004        185.0004
  -9989752.31749  -7768705.45347  22763423.459    22763424.2174   22763432.6034
       199.0004        199.0004
 -21188970.48949 -16491205.67347  20875200.101    20875200.0314   20875203.7334
       206.0004        206.0004
  -4661744.26147  -3615504.60445  23530523.254    23530523.5634   23530529.3454
       155.0004        158.0004
 -14141135.99349 -11000249.68547  21813054.728    21813055.1094   21813061.7554
       197.0004        197.0004
  -7433007.63548  -5776943.95246  22869425.072    22869425.4694   22869430.1704
       173.0004        173.0004
  -2889978.71447  -2243497.23446  23247147.010    23247148.3914   23247153.2294
       164.0004        166.0004
 -19117271.38549 -14881378.70247  21171288.111    21171288.1104   21171296.2104
       195.0004        196.0004
 -11860769.39348  -9213646.07646  22421298.847    22421298.7994   22421305.3064
       180.0004        182.0004
 21  2  1  1 28  0.0000000  0 10G28G21G08G07G04G09G17G14G01G30
  -1755922.84447  -1360033.39945  23620197.739    23620197.9924   23620202.9784
       150.0004        154.0004
 -16004408.95448 -12464377.99346  21899658.639    21899658.3834   21899663.4974
       185.0004        184.0004
  -9896220.78249  -7695823.75147  22781222.223    22781222.8754   22781231.5284
       198.0004        197.0004
 -21244426.83349 -16534418.41547  20864646.233    20864646.4554   20864650.5574
       206.0004        206.0004
  -4563581.90647  -3539014.46145  23549203.209    23549203.5394   23549209.7404
       157.0004        159.0004
 -14074084.25549 -10948001.58347  21825814.506    21825814.8234   21825821.4574
       197.0004        198.0004
  -7504702.14948  -5832809.76246  22855782.711    22855782.4334   22855787.4864
       172.0004        173.0004
  -2915920.00748  -2263711.19746  23242211.983    23242212.1144   23242217.0574
       165.0004        165.0004
 -19164374.84149 -14918082.68047  21162324.021    21162324.8884   21162332.7534
       196.0004        197.0004
 -11945993.35248  -9280054.35446  22405081.068    22405081.5774   22405088.1054
       181.0004        182.0004
 21  2  1  1 28 30.0000000  0 10G28G21G08G07G04G09G17G14G01G30
  -1770894.45847  -1371699.59245  23617348.296    23617348.3874   23617353.3404
       152.0004        155.0004
 -15977692.71548 -12443560.12346  21904742.292    21904742.2834   21904747.4194
       184.0004        185.0004
  -9802611.16149  -7622881.20347  22799036.933    22799036.6094   22799045.0814
       196.0004        197.0004
 -21299554.04949 -16577374.69147  20854155.530    20854156.1714   20854160.6724
       206.0004        206.0004
  -4465424.24047  -3462527.98245  23567882.832    23567883.2064   23567888.1904
       156.0004        157.0004
 -14006757.78049 -10895539.40747  21838627.251    21838627.2914   21838633.6894
       198.0004        199.0004
  -7576025.15748  -5888386.12746  22842209.207    22842210.4274   22842215.3174
       174.0004        177.0004
  -2941884.13448  -2283942.97046  23237271.878    23237272.2224   23237276.0424
       167.0004        168.0004
 -19211038.27149 -14954443.79147  21153443.799    21153444.7574   21153453.3554
       197.0004        197.0004
 -12031106.54348  -9346376.32246  22388884.988    22388885.0714   22388891.2734
       181.0004        181.0004
 21  2  1  1 29  0.0000000  0 10G28G21G08G07G04G09G17G14G01G30
  -1785885.58047  -1383380.96445  23614497.138    23614497.1944   23614500.2994
       154.0004        156.0004
 -15950481.84748 -12422356.84046  21909919.745    21909919.9454   21909925.8334
       184.0004        184.0004
  -9708926.86549  -7549880.47347  22816863.414    22816863.7704   22816871.9774
       195.0004        195.0004
 -21354349.93049 -16620072.77547  20843728.968    20843729.2454   20843733.3924
       206.0004        206.0004
  -4367274.44847  -3386047.63645  23586558.427    23586558.8434   23586565.9304
       155.0004        156.0004
 -13939160.05249 -10842865.84247  21851490.349    21851490.2474   21851496.7964
       198.0004        197.0004
  -7646975.77548  -5943672.28346  22828708.106    22828707.9704   22828713.0944
       175.0004        175.0004
  -2967872.58948  -2304193.71146  23232325.992    23232326.4474   23232330.1084
       167.0004        168.0004
 -19257259.38349 -14990460.22347  21144648.691    21144649.3794   21144657.0434
       197.0004        197.0004
 -12116106.98548  -9412610.41946  22372710.485    22372710.0174   22372716.4214
       182.0004        183.0004
 21  2  1  1 29 30.0000000  0 10G28G21G08G07G04G09G17G14G01G30
  -1800895.83247  -1395077.23245  23611640.469    23611640.0904   23611644.0094
       154.0004        157.0004
 -15922774.95548 -12400767.04446  21915193.136    21915193.0414   21915197.6734
       184.0004        184.0004
  -9615168.42149  -7476821.95347  22834704.785    22834705.9204   22834713.5274
       196.0004        197.0004
 -21408809.65749 -16662508.92747  20833365.327    20833365.4494   20833369.9654
       206.0004        206.0004
  -4269133.28847  -3309574.01145  23605235.054    23605234.5864   23605240.7164
       154.0004        157.0004
 -13871292.06249 -10789981.68947  21864404.714    21864404.8274   21864411.9624
       196.0004        196.0004
  -7717551.01748  -5998665.93146  22815278.079    22815277.9774   22815283.9254
       174.0004        174.0004
  -2993884.35648  -2324462.59846  23227375.830    23227376.3784   23227381.0764
       167.0004        167.0004
 -19303033.43049 -15026128.30347  21135937.987    21135938.8464   21135946.2944
       197.0004        198.0004
 -12200990.21648  -9478753.19446  22356556.717    22356556.9014   22356563.4814
       183.0004        185.0004
 21  2  1  1 30  0.0000000  0 10G28G21G08G07G04G09G17G14G01G30
  -1815928.05947  -1406790.61545  23608779.739    23608778.7154   23608783.7144
       155.0004        158.0004
 -15894573.73448 -12378792.04946  21920560.183    21920559.5034   21920564.1744
       184.0004        184.0004
  -9521339.51649  -7403708.52147  22852561.058    22852560.7404   22852568.9724
       197.0004        197.0004
 -21462931.79049 -16704682.02347  20823066.244    20823066.6264   20823071.0984
       206.0004        207.0004
  -4171004.73447  -3233110.22445  23623907.311    23623907.5674   23623913.5914
       153.0004        153.0004
 -13803158.09249 -10736890.29047  21877370.183    21877370.5544   21877377.4304
       195.0004        196.0004
  -7787750.82348  -6053367.07146  22801919.000    22801919.7674   22801924.0014
       173.0004        174.0004
  -3019921.68848  -2344751.41846  23222421.593    23222421.8374   23222425.7344
       167.0004        168.0004
 -19348358.96349 -15061446.89047  21127313.011    21127313.7724   21127321.6564
       197.0004        198.0004
 -12285755.02348  -9544803.69546  22340426.440    22340426.5544   22340433.7974
       184.0004        185.0004
 21  2  1  1 30 30.0000000  0 10G28G21G08G07G04G09G17G14G01G30
  -1830982.92247  -1418521.66045  23605914.284    23605914.5524   23605919.1904
       155.0004        157.0004
 -15865877.91548 -12356431.65946  21926020.220    21926019.8504   21926024.6304
       184.0004        183.0004
  -9427442.46349  -7330541.99447  22870428.726    22870428.6194   22870436.6764
       196.0004        195.0004
 -21516712.96349 -16746589.43347  20812832.165    20812832.7494   20812836.7474
       207.0004        207.0004
  -4072890.94647  -3156657.94345  23642576.984    23642577.4594   23642584.4154
       152.0004        154.0004
 -13734760.58649 -10683593.53647  21890384.663    21890385.2474   21890393.4134
       195.0004        195.0004
  -7857573.42348  -6107774.25946  22788633.166    22788632.9274   22788638.1224
       173.0004        173.0004
  -3045985.03748  -2365060.52746  23217461.145    23217461.4734   23217465.8524
       166.0004        164.0004
 -19393232.71549 -15096413.44747  21118773.970    21118774.5894   21118782.1714
       198.0004        198.0004
 -12370398.53348  -9610759.67246  22324319.619    22324319.8684   22324325.9754
       185.0004        186.0004
 21  2  1  1 31  0.0000000  0 10G28G21G08G07G04G09G17G14G01G30
  -1846061.95947  -1430271.54345  23603045.219    23603044.9494   23603050.1304
       155.0004        157.0004
 -15836687.54648 -12333685.91146  21931574.420    21931575.0864   21931579.6574
       184.0004        184.0004
  -9333479.80548  -7257324.35047  22888308.876    22888309.2674   22888317.5144
       194.0004        194.0004
 -21570150.78449 -16788229.30547  20802663.526    20802663.7424   20802667.8824
       207.0004        207.0004
  -3974794.67447  -3080219.32945  23661245.164    23661244.9364   23661251.5554
       152.0004        155.0004
 -13666102.60248 -10630093.83547  21903449.447    21903449.9384   21903457.7524
       193.0004        192.0004
  -7927017.82948  -6161886.78746  22775419.021    22775418.9334   22775423.8634
       174.0004        176.0004
  -3072075.40547  -2385390.67145  23212494.736    23212495.5484   23212501.5334
       162.0004        161.0004
 -19437651.99249 -15131025.86447  21110320.525    21110321.6444   21110329.5554
       198.0004        198.0004
 -12454918.05348  -9676619.04846  22308235.643    22308235.7764   22308242.4574
       186.0004        187.0004
 21  2  1  1 31 30.0000000  0 10G28G21G08G07G04G09G17G14G01G30
  -1861166.59647  -1442041.35145  23600171.493    23600171.5524   23600174.3284
       155.0004        157.0004
 -15807002.83448 -12310554.96346  21937224.489    21937224.1284   21937229.0404
       184.0004        184.0004
  -9239453.48848  -7184057.11347  22906200.947    22906201.6104   22906209.9584
       194.0004        194.0004
 -21623242.31549 -16829599.33147  20792559.726    20792560.5674   20792564.8304
       207.0004        207.0004
  -3876718.58947  -3003796.43945  23679908.689    23679909.2164   23679915.0784
       153.0004        156.0004
 -13597187.06948 -10576393.44047  21916564.149    21916564.4684   21916571.7694
       191.0004        191.0004
  -7996083.02948  -6215703.79246  22762275.030    22762275.3914   22762280.0624
       173.0004        173.0004
  -3098193.72947  -2405742.57546  23207525.967    23207526.1514   23207531.8344
       163.0004        165.0004
 -19481614.09849 -15165282.04647  21101955.957    21101956.4124   21101964.2694
       199.0004        199.0004
 -12539311.20848  -9742379.93846  22292175.614    22292176.6994   22292183.5324
       186.0004        186.0004
 21  2  1  1 32  0.0000000  0 10G28G21G08G07G04G09G17G14G01G30
  -1876298.28547  -1453832.23945  23597291.376    23597291.3174   23597295.5784
       154.0004        156.0004
 -15776824.39448 -12287039.27246  21942966.342    21942965.8954   21942971.0564
       184.0004        184.0004
  -9145367.25748  -7110743.16847  22924105.050    22924105.7764   22924114.2904
       194.0004        195.0004
 -21675985.58149 -16870697.97947  20782523.764    20782524.0604   20782528.0904
       207.0004        207.0004
  -3778665.57447  -2927391.49945  23698566.440    23698567.5774   23698574.2184
       155.0004        158.0004
 -13528017.37448 -10522494.98547  21929726.729    21929727.0844   21929734.6104
       191.0004        192.0004
  -8064768.28348  -6269224.75846  22749204.578    22749205.5014   22749209.1424
       171.0004        172.0004
  -3124341.19247  -2426117.20646  23202550.947    23202550.8244   23202554.6984
       164.0004        165.0004
 -19525116.63549 -15199180.10047  21093677.538    21093677.5334   21093686.1304
       199.0004        198.0004
 -12623575.76748  -9808040.62546  22276141.417    22276141.3884   22276148.0814
       186.0004        187.0004
 21  2  1  1 32 30.0000000  0 10G28G21G08G07G04G09G17G14G01G30
  -1891458.63347  -1465645.47445  23594406.650    23594406.5954   23594410.2164
       154.0004        156.0004
 -15746152.61648 -12263139.16846  21948803.007    21948803.1264   21948808.4154
       184.0004        184.0004
  -9051223.29148  -7037384.23147  22942020.754    22942020.3244   22942028.9514
       194.0004        193.0004
 -21728377.13249 -16911522.56247  20772553.637    20772554.1354   20772558.4704
       207.0004        208.0004
  -3680638.25547  -2851006.59445  23717220.063    23717221.6594   23717228.9744
       157.0004        160.0004
 -13458596.31248 -10468400.64047  21942938.185    21942938.5594   21942945.9514
       194.0004        196.0004
  -8133072.03748  -6322448.44946  22736206.886    22736208.1454   22736211.0024
       170.0004        171.0004
  -3150518.60247  -2446515.16446  23197568.167    23197567.6434   23197574.6044
       164.0004        165.0004
 -19568156.75549 -15232717.85147  21085486.782    21085487.6454   21085495.1124
       198.0004        198.0004
 -12707709.01848  -9873599.00846  22260131.251    22260131.1804   22260138.2274
       186.0004        187.0004
 21  2  1  1 33  0.0000000  0 10G28G21G08G07G04G09G17G14G01G30
  -1906648.17847  -1477481.45945  23591515.742    23591515.9514   23591519.4364
       154.0004        156.0004
 -15714987.15148 -12238854.38146  21954733.418    21954732.6914   21954738.8174
       183.0004        184.0004
  -8957023.01049  -6963981.42647  22959947.674    22959947.4554   22959954.8714
       195.0004        196.0004
 -21780413.73949 -16952070.56547  20762650.998    20762651.8714   20762656.1334
       207.0004        207.0004
  -3582638.58747  -2774643.25245  23735870.510    23735870.4784   23735877.5694
       158.0004        159.0004
 -13388926.23349 -10414112.26747  21956196.295    21956196.6244   21956202.9084
       196.0004        197.0004
  -8200992.63748  -6375373.55546  22723281.691    22723282.0354   22723286.6194
       170.0004        172.0004
  -3176726.22647  -2466936.66546  23192581.562    23192581.4754   23192587.5644
       162.0004        163.0004
 -19610731.22649 -15265892.74347  21077384.800    21077385.8744   21077393.5024
       198.0004        198.0004
 -12791707.86548  -9939052.63847  22244145.712    22244146.8604   22244153.9904
       187.0004        189.0004
 21  2  1  1 33 30.0000000  0 10G28G21G08G07G04G09G17G14G01G30
  -1921869.59247  -1489342.28645  23588619.754    23588619.8284   23588623.5634
       154.0004        156.0004
 -15683329.78848 -12214186.29546  21960757.786    21960758.0684   21960762.6454
       183.0004        184.0004
  -8862770.26748  -6890537.73647  22977882.676    22977882.6574   22977890.3624
       194.0004        194.0004
 -21832094.30849 -16992341.15347  20752817.080    20752817.3574   20752821.3884
       207.0004        208.0004
  -3484670.54147  -2698304.54345  23754512.149    23754513.6184   23754520.8294
       157.0004        158.0004
 -13319011.51549 -10359633.26947  21969501.329    21969501.3844   21969507.3224
       197.0004        198.0004
  -8268530.44048  -6428000.40346  22710429.582    22710430.3964   22710434.1004
       172.0004        173.0004
  -3202966.36147  -2487383.55345  23187587.410    23187588.3144   23187593.3934
       161.0004        162.0004
 -19652838.70249 -15298703.75547  21069371.673    21069372.9614   21069380.7524
       197.0004        197.0004
 -12875571.04548 -10004400.58147  22228189.026    22228188.6244   22228195.9664
       189.0004        191.0004
 21  2  1  1 34  0.0000000  0 10G28G21G08G07G04G09G17G14G01G30
  -1937123.50647  -1501228.43745  23585715.529    23585715.4574   23585720.4094
       153.0004        154.0004
 -15651179.67848 -12189134.25046  21966875.924    21966874.8294   21966880.9254
       183.0004        184.0004
  -8768466.37348  -6817054.19747  22995828.233    22995827.8164   22995836.1824
       193.0004        194.0004
 -21883414.72549 -17032331.09547  20743051.029    20743051.3884   20743055.5714
       207.0004        208.0004
  -3386735.62547  -2621991.64145  23773148.606    23773149.5794   23773155.1384
       154.0004        155.0004
 -13248853.96349 -10304965.04947  21982852.283    21982852.4764   21982857.7374
       198.0004        198.0004
  -8335683.24148  -6480327.23746  22697650.696    22697650.5184   22697655.3664
       172.0004        171.0004
  -3229238.75147  -2507855.54646  23182588.155    23182588.6974   23182593.4934
       161.0004        163.0004
 -19694475.41449 -15331147.93747  21061448.834    21061449.8244   21061457.4074
       197.0004        197.0004
 -12959294.92548 -10069639.95847  22212256.590    22212255.7764   22212263.1774
       190.0004        191.0004
 21  2  1  1 34 30.0000000  0 10G28G21G08G07G04G09G17G14G01G30
  -1952410.82047  -1513140.63145  23582807.365    23582807.3874   23582811.4754
       150.0004        152.0004
 -15618537.62348 -12163698.88146  21973086.920    21973087.0704   21973092.5704
       183.0004        183.0004
  -8674114.65148  -6743533.41247  23013783.471    23013782.6084   23013790.5694
       193.0004        193.0004
 -21934372.79349 -17072038.68447  20733354.076    20733354.2934   20733358.9184
       207.0004        208.0004
  -3288836.68147  -2545706.76545  23791778.494    23791779.2304   23791784.6014
       153.0004        154.0004
 -13178456.86449 -10250110.16347  21996247.710    21996248.0184   21996253.6814
       198.0004        198.0004
  -8402450.43548  -6532353.59146  22684945.546    22684946.2624   22684950.5484
       172.0004        175.0004
  -3255544.51347  -2528353.53646  23177582.839    23177582.8134   23177588.0874
       163.0004        166.0004
 -19735638.99349 -15363223.43847  21053615.725    21053616.3124   21053624.2804
       197.0004        196.0004
 -13042877.18548 -10134768.96947  22196351.482    22196351.5144   22196358.2874
       190.0004        190.0004
 21  2  1  1 35  0.0000000  0 10G28G21G08G07G04G09G17G14G01G30
  -1967733.82947  -1525080.60945  23579890.568    23579890.9384   23579896.8484
       147.0004        150.0004
 -15585404.40348 -12137880.77746  21979393.097    21979391.9774   21979397.2134
       183.0004        183.0004
  -8579717.89348  -6669977.50447  23031744.574    23031745.8624   23031754.2764
       194.0004        194.0004
 -21984966.24049 -17111462.15547  20723727.022    20723727.4174   20723731.3644
       208.0004        209.0004
  -3190976.93647  -2469452.43545  23810400.297    23810401.0384   23810407.8694
       153.0004        156.0004
 -13107823.80449 -10195071.40747  22009687.971    22009688.3264   22009695.5224
       197.0004        196.0004
  -8468831.44948  -6584079.03446  22672315.187    22672314.6724   22672318.4294
       174.0004        174.0004
  -3281885.18248  -2548878.72046  23172571.625    23172572.4854   23172576.2974
       166.0004        169.0004
 -19776327.43649 -15394928.70747  21045872.800    21045873.5984   21045881.8504
       196.0004        196.0004
 -13126315.79948 -10199786.08847  22180473.553    22180473.7084   22180479.6174
       188.0004        188.0004
 21  2  1  1 35 30.0000000  0 10G28G21G08G07G04G09G17G14G01G30
  -1983092.76447  -1537048.58345  23576967.957    23576968.2774   23576972.6474
       148.0004        151.0004
 -15551779.33848 -12111679.40846  21985790.859    21985790.8814   21985795.9664
       183.0004        184.0004
  -8485276.89548  -6596387.12347  23049718.035    23049717.5044   23049724.8104
       194.0004        194.0004
 -22035190.97549 -17150598.31547  20714168.805    20714169.3404   20714173.7744
       208.0004        209.0004
  -3093157.80347  -2393229.74545  23829014.893    23829015.9904   23829022.2304
       155.0004        158.0004
 -13036956.53049 -10139850.15747  22023173.297    22023173.3994   22023180.6394
       195.0004        193.0004
  -8534823.98548  -6635501.75546  22659755.192    22659756.1494   22659759.6354
       172.0004        172.0004
  -3308260.34948  -2569430.75946  23167552.885    23167554.0624   23167556.2184
       169.0004        171.0004
 -19816536.95749 -15426260.78547  21038221.395    21038222.1444   21038229.8504
       196.0004        197.0004
 -13209607.04148 -10264688.35847  22164622.717    22164623.4974   22164630.1794
       188.0004        188.0004
 21  2  1  1 36  0.0000000  0 10G28G21G08G07G04G09G17G14G01G30
  -1998491.32647  -1549047.47145  23574037.781    23574037.2454   23574042.2904
       146.0004        148.0004
 -15517665.50548 -12085097.19446  21992283.248    21992282.5114   21992288.8234
       184.0004        184.0004
  -8390796.94749  -6522766.39447  23067696.379    23067696.5444   23067703.8894
       195.0004        195.0004
 -22085047.00149 -17189447.16947  20704682.054    20704682.6404   20704686.4334
       208.0004        209.0004
  -2995384.31347  -2317042.65745  23847622.526    23847622.3044   23847628.5224
       157.0004        159.0004
 -12965860.56848 -10084450.71447  22036701.497    22036701.9244   22036710.3024
       193.0004        192.0004
  -8600429.62448  -6686623.01846  22647270.334    22647271.2884   22647275.5604
       173.0004        175.0004
  -3334673.36848  -2590012.28846  23162527.608    23162527.5754   23162530.4824
       170.0004        170.0004
 -19856267.47049 -15457219.61847  21030660.513    21030661.5174   21030669.3614
       196.0004        196.0004
 -13292750.80048 -10329475.68947  22148800.806    22148801.4564   22148808.1224
       187.0004        188.0004
 21  2  1  1 36 30.0000000  0 10G28G21G08G07G04G09G17G14G01G30
  -2013928.85647  -1561076.66445  23571100.626    23571100.7814   23571104.9574
       143.0004        146.0004
 -15483061.45248 -12058133.00246  21998867.872    21998867.2954   21998873.1044
       184.0004        184.0004
  -8296278.68248  -6449115.80547  23085681.489    23085681.9204   23085690.9504
       194.0004        194.0004
 -22134529.82049 -17228005.21447  20695265.778    20695265.9944   20695270.1824
       209.0004        209.0004
  -2897657.03747  -2240891.55645  23866217.810    23866218.6634   23866225.5004
       156.0004        156.0004
 -12894536.89648 -10028873.83447  22050273.272    22050274.1424   22050282.5054
       192.0004        192.0004
  -8665645.46448  -6737440.53246  22634861.689    22634862.0764   22634865.5114
       173.0004        175.0004
  -3361123.09448  -2610622.45546  23157491.051    23157490.9384   23157496.8374
       167.0004        165.0004
 -19895514.44149 -15487801.65947  21023192.601    21023193.2094   21023200.9004
       196.0004        197.0004
 -13375742.49848 -10394144.52847  22133009.770    22133009.4024   22133015.9854
       188.0004        189.0004
 21  2  1  1 37  0.0000000  0 10G28G21G08G07G04G09G17G14G01G30
  -2029406.34047  -1573137.01545  23568156.370    23568155.4564   23568160.3204
       144.0004        149.0004
 -15447967.18348 -12030786.82546  22005546.864    22005545.9894   22005550.6764
       184.0004        184.0004
  -8201723.82348  -6375436.70947  23103674.973    23103675.0704   23103684.3644
       193.0004        194.0004
 -22183636.18849 -17266269.92847  20685921.246    20685921.5954   20685925.3494
       209.0004        210.0004
  -2799978.13147  -2164778.15745  23884805.765    23884805.7794   23884812.8074
       153.0004        155.0004
 -12822988.12148  -9973121.56147  22063889.310    22063890.2804   22063897.5154
       191.0004        192.0004
  -8730469.96448  -6787953.11546  22622526.288    22622525.8114   22622530.4834
       174.0004        176.0004
  -3387609.87947  -2631261.53646  23152448.450    23152449.4704   23152457.0974
       163.0004        164.0004
 -19934274.90149 -15518004.60247  21015815.238    21015816.3424   21015825.4694
       196.0004        196.0004
 -13458579.08548 -10458692.52847  22117245.714    22117246.0344   22117252.2054
       188.0004        188.0004
 21  2  1  1 37 30.0000000  0 10G28G21G08G07G04G09G17G14G01G30
  -2044924.79447  -1585229.29645  23565202.141    23565202.1564   23565207.3334
       148.0004        152.0004
 -15412383.26848 -12003059.08646  22012318.221    22012317.1524   22012322.4924
       184.0004        184.0004
  -8107134.42948  -6301730.70847  23121675.309    23121675.1994   23121683.5384
       193.0004        192.0004
 -22232363.24449 -17304239.06847  20676648.851    20676649.2594   20676653.2404
       209.0004        210.0004
  -2702350.10947  -2088704.39745  23903383.437    23903383.4984   23903390.7854
       152.0004        154.0004
 -12751217.13948  -9917196.13347  22077548.353    22077548.6614   22077554.7284
       192.0004        194.0004
  -8794902.19548  -6838160.01346  22610265.323    22610266.1144   22610268.9034
       176.0004        178.0004
  -3414134.62547  -2651930.17046  23147404.239    23147404.9864   23147408.9584
       162.0004        164.0004
 -19972546.29049 -15547826.44547  21008533.316    21008534.3304   21008542.3194
       196.0004        197.0004
 -13541257.93148 -10523117.59547  22101512.708    22101512.4764   22101519.0194
       188.0004        189.0004
 21  2  1  1 38  0.0000000  0 10G28G21G08G07G04G09G17G14G01G30
  -2060486.79047  -1597355.52545  23562240.971    23562240.5274   23562246.1094
       150.0004        154.0004
 -15376311.33548 -11974951.08946  22019181.176    22019181.2954   22019186.5284
       183.0004        183.0004
  -8012514.30948  -6228000.75647  23139680.312    23139680.6074   23139690.0734
       193.0004        194.0004
 -22280709.64149 -17341911.59047  20667448.256    20667449.0204   20667453.2274
       209.0004        210.0004
  -2604776.58547  -2012673.10145  23921951.537    23921952.9524   23921957.1474
       150.0004        153.0004
 -12679228.10848  -9861100.79147  22091248.012    22091248.0204   22091254.3574
       193.0004        194.0004
  -8858942.36548  -6888061.43846  22598078.607    22598077.7104   22598084.0194
       177.0004        178.0004
  -3440699.28448  -2672629.87846  23142351.940    23142351.5044   23142354.9484
       165.0004        168.0004
 -20010327.20949 -15577266.10547  21001344.104    21001344.8354   21001352.6734
       197.0004        197.0004
 -13623777.52148 -10587418.58247  22085810.751    22085809.8174   22085816.3534
       189.0004        188.0004
 21  2  1  1 38 30.0000000  0 10G28G21G08G07G04G09G17G14G01G30
  -2076093.75847  -1609516.79345  23559271.916    23559270.4054   23559274.3094
       150.0004        152.0004
 -15339752.05448 -11946463.33946  22026139.301    22026138.9424   22026143.1154
       183.0004        184.0004
  -7917866.17848  -6154248.98147  23157690.214    23157691.1344   23157700.3664
       193.0004        194.0004
 -22328672.95149 -17379285.60247  20658321.441    20658321.7934   20658325.7004
       209.0004        210.0004
  -2507260.45147  -1936686.52745  23940508.238    23940509.2184   23940515.8584
       149.0004        152.0004
 -12607024.32548  -9804838.08747  22104987.176    22104987.3464   22104994.1854
       194.0004        193.0004
  -8922589.51148  -6937656.60146  22585966.312    22585966.8774   22585971.3994
       177.0004        178.0004
  -3467304.90948  -2693361.49046  23137287.054    23137287.5644   23137290.9854
       167.0004        168.0004
 -20047615.44849 -15606321.86047  20994248.432    20994249.2724   20994257.0364
       197.0004        197.0004
 -13706135.57048 -10651593.66046  22070136.323    22070136.2234   22070144.2794
       188.0004        187.0004
 21  2  1  1 39  0.0000000  0 10G28G21G08G07G04G09G17G14G01G30
  -2091746.41947  -1621713.63245  23556292.680    23556292.1844   23556296.3084
       149.0004        151.0004
 -15302705.31848 -11917595.73146  22033189.276    22033188.9824   22033192.8084
       183.0004        184.0004
  -7823191.49148  -6080476.50347  23175708.556    23175708.3504   23175715.8924
       193.0004        193.0004
 -22376249.74249 -17416358.42647  20649268.043    20649268.4504   20649272.4244
       209.0004        210.0004
  -2409803.34747  -1860745.92145  23959053.169    23959053.9624   23959061.2594
       149.0004        152.0004
 -12534607.88848  -9748409.69547  22118767.067    22118767.4554   22118774.5684
       193.0004        193.0004
  -8985842.06248  -6986944.25946  22573930.745    22573930.4024   22573934.8974
       178.0004        178.0004
  -3493951.38547  -2714125.00046  23132215.171    23132214.8804   23132220.1694
       164.0004        163.0004
 -20084407.76749 -15634991.18247  20987247.205    20987247.9654   20987255.7644
       197.0004        197.0004
 -13788328.54848 -10715640.12947  22054495.476    22054496.4254   22054503.3014
       188.0004        188.0004
 21  2  1  1 39 30.0000000  0 10G28G21G08G07G04G09G17G14G01G30
  -2107446.56547  -1633947.48845  23553304.643    23553304.4334   23553307.5354
       148.0004        151.0004
 -15265172.50148 -11888349.36746  22040331.122    22040330.4714   22040335.3074
       183.0004        183.0004
  -7728493.34448  -6006685.74847  23193728.367    23193728.7034   23193736.4284
       192.0004        192.0004
 -22423437.81549 -17453128.35847  20640288.626    20640289.0694   20640292.7534
       209.0004        210.0004
  -2312408.40547  -1784853.76245  23977587.352    23977587.4474   23977594.1454
       148.0004        152.0004
 -12461982.40248  -9691818.41647  22132586.839    22132587.2534   22132595.0284
       192.0004        192.0004
  -9048700.14148  -7035924.57046  22561967.589    22561968.0364   22561972.9084
       176.0004        176.0004
  -3520640.14947  -2734921.43546  23127135.864    23127136.7574   23127141.9764
       164.0004        165.0004
 -20120702.26249 -15663272.60047  20980341.515    20980341.7934   20980349.4484
       198.0004        199.0004
 -13870354.44748 -10779556.40947  22038887.291    22038887.8124   22038894.3574
       189.0004        189.0004
 21  2  1  1 40  0.0000000  0 10G28G21G08G07G04G09G17G14G01G30
  -2123194.18847  -1646218.35345  23550308.253    23550308.5764   23550312.2334
       148.0004        152.0004
 -15227152.77648 -11858723.60946  22047564.940    22047564.9684   22047569.9264
       183.0004        183.0004
  -7633772.40048  -5932877.23947  23211753.431    23211753.4954   23211761.3114
       191.0004        191.0004
 -22470233.39149 -17489592.44747  20631383.233    20631383.7564   20631387.8334
       210.0004        211.0004
  -2215076.76447  -1709010.98745  23996109.810    23996110.3264   23996114.9154
       147.0004        149.0004
 -12389149.53848  -9635065.54447  22146446.671    22146447.2244   22146454.7884
       191.0004        192.0004
  -9111161.68148  -7084595.88246  22550081.839    22550082.8994   22550087.0814
       177.0004        178.0004
  -3547370.70947  -2755750.42246  23122049.122    23122050.8154   23122055.4634
       164.0004        165.0004
 -20156495.20049 -15691163.18947  20973529.410    20973529.9124   20973538.0014
       198.0004        198.0004
 -13952209.31648 -10843339.42446  22023310.601    22023310.8164   22023317.2894
       188.0004        187.0004
 21  2  1  1 40 30.0000000  0 10G28G21G08G07G04G09G17G14G01G30
  -2138991.77447  -1658528.14645  23547302.141    23547301.9154   23547306.4834
       149.0004        153.0004
 -15188648.29448 -11828720.12046  22054893.634    22054892.7414   22054897.5174
       183.0004        183.0004
  -7539032.71048  -5859054.11647  23229781.516    23229781.3344   23229789.6904
       191.0004        190.0004
 -22516635.24649 -17525749.75047  20622553.924    20622553.9304   20622557.9334
       210.0004        210.0004
  -2117812.45947  -1633220.66845  24014616.876    24014618.3004   24014623.6364
       144.0004        147.0004
 -12316113.83948  -9578154.62747  22160345.525    22160345.8364   22160352.4794
       191.0004        191.0004
  -9173227.11048  -7132958.54246  22538272.547    22538271.9994   22538276.0954
       178.0004        180.0004
  -3574145.33947  -2776613.76245  23116953.960    23116953.3854   23116960.6484
       162.0004        162.0004
 -20191785.65149 -15718662.24847  20966813.295    20966814.3994   20966822.5704
       198.0004        199.0004
 -14033892.02048 -10906988.28047  22007766.336    22007766.5234   22007774.0714
       187.0004        188.0004
 21  2  1  1 41  0.0000000  0 10G28G21G08G07G04G09G17G14G01G30
  -2154840.13747  -1670877.50945  23544285.476    23544285.5524   23544289.9054
       149.0004        153.0004
 -15149659.23948 -11798339.02946  22062312.476    22062312.2704   22062316.5184
       183.0004        183.0004
  -7444275.95248  -5785217.69947  23247813.552    23247812.9404   23247821.2474
       190.0004        190.0004
 -22562640.06049 -17561597.66747  20613798.395    20613799.2834   20613803.2404
       210.0004        210.0004
  -2020617.38547  -1557484.28845  24033113.191    24033113.8514   24033118.6104
       144.0004        148.0004
 -12242877.65348  -9521087.47947  22174281.963    22174282.5354   22174288.7674
       191.0004        192.0004
  -9234894.84148  -7181011.30446  22526536.231    22526537.1084   22526541.6234
       179.0004        180.0004
  -3600964.15747  -2797511.55245  23111851.267    23111851.2204   23111856.6434
       161.0004        162.0004
 -20226570.65549 -15745767.42947  20960193.956    20960195.2804   20960202.8524
       198.0004        199.0004
 -14115399.26248 -10970500.42247  21992257.080    21992256.5944   21992263.6954
       188.0004        190.0004
 21  2  1  1 41 30.0000000  0 10G28G21G08G07G04G09G17G14G01G30
  -2170740.65747  -1683267.50445  23541259.506    23541260.0364   23541264.4394
       150.0004        154.0004
 -15110186.64048 -11767581.15146  22069824.218    22069823.6664   22069828.6514
       183.0004        184.0004
  -7349504.64748  -5711369.95647  23265848.924    23265848.0504   23265855.4614
       190.0004        190.0004
 -22608245.57649 -17597134.44547  20605121.374    20605121.1924   20605125.0604
       210.0004        211.0004
  -1923494.12647  -1481803.84545  24051596.394    24051596.0584   24051600.9374
       144.0004        147.0004
 -12169444.12948  -9463866.55547  22188256.661    22188256.5544   22188262.6314
       191.0004        191.0004
  -9296164.12548  -7228753.59946  22514877.073    22514878.1154   22514882.3164
       180.0004        181.0004
  -3627828.07147  -2818444.45546  23106738.708    23106739.6054   23106744.6754
       161.0004        163.0004
 -20260847.99749 -15772477.03447  20953672.225    20953672.5834   20953680.4844
       199.0004        199.0004
 -14196728.54648 -11033873.87847  21976780.303    21976780.0854   21976787.0554
       189.0004        190.0004
 21  2  1  1 42  0.0000000  0 10G28G21G08G07G04G09G17G14G01G30
  -2186694.74147  -1695699.23745  23538224.540    23538223.9984   23538228.2524
       152.0004        156.0004
 -15070231.21148 -11736447.04246  22077427.751    22077427.0544   22077431.3714
       183.0004        182.0004
  -7254721.29248  -5637512.80647  23283882.520    23283883.2744   23283892.4584
       189.0004        189.0004
 -22653449.47449 -17632358.26047  20596518.407    20596518.7664   20596523.2874
       210.0004        210.0004
  -1826445.60547  -1406181.63445  24070065.078    24070064.2624   24070069.9104
       144.0004        149.0004
 -12095816.73548  -9406494.55147  22202266.799    22202267.2504   22202273.9844
       190.0004        191.0004
  -9357034.47748  -7276185.01346  22503294.796    22503295.1334   22503300.0794
       181.0004        181.0004
  -3654738.30447  -2839413.47346  23101619.505    23101619.7454   23101623.2714
       163.0004        166.0004
 -20294615.76049 -15798789.55647  20947246.392    20947246.7824   20947254.6614
       199.0004        199.0004
 -14277877.69248 -11097106.97447  21961338.727    21961338.3074   21961345.1764
       190.0004        191.0004
 21  2  1  1 42 30.0000000  0 11G28G21G08G07G04G19G09G17G14G01G30
  -2202703.28047  -1708173.41745  23535178.913    23535178.4324   23535182.2974
       152.0004        154.0004
 -15029793.25848 -11704936.95246  22085122.212    22085121.7344   22085125.6814
       181.0004        182.0004
  -7159928.03348  -5563647.95146  23301920.803    23301921.5294   23301930.6684
       188.0004        187.0004
 -22698248.64649 -17667266.71047  20587993.643    20587993.8444   20587998.0714
       210.0004        211.0004
  -1729473.70247  -1330619.16545  24088517.894    24088517.6574   24088522.8684
       145.0004        149.0004
  -1447376.63956  -1110570.11145  24761228.729                    24761231.6954
       122.0004        144.0004
 -12021997.80048  -9348973.31747  22216313.698    22216314.1144   22216321.4564
       191.0004        191.0004
  -9417504.99148  -7323304.87546  22491787.644    22491787.8624   22491792.0364
       182.0004        182.0004
  -3681694.98648  -2860418.68246  23096488.347    23096489.5774   23096494.5314
       165.0004        167.0004
 -20327871.02549 -15824702.74747  20940917.093    20940918.3854   20940926.2744
       199.0004        199.0004
 -14358843.40648 -11160197.14547  21945931.314    21945931.6834   21945937.9934
       191.0004        192.0004
 21  2  1  1 43  0.0000000  0 11G28G21G08G07G04G19G09G17G14G01G30
  -2218768.02647  -1720691.38645  23532120.024    23532120.6094   23532124.8024
       149.0004        151.0004
 -14988874.24448 -11673052.00346  22092909.534    22092908.9074   22092912.7474
       182.0004        182.0004
  -7065127.68148  -5489777.54646  23319960.002    23319961.6234   23319970.7204
       187.0004        187.0004
 -22742641.16649 -17701858.29847  20579545.799    20579546.5084   20579550.4444
       210.0004        211.0004
  -1632581.51247  -1255118.79845  24106953.713    24106956.0104   24106961.0574
       147.0004        151.0004
  -1537905.64747  -1181112.17545  24744000.932    24743999.4244   24744004.0104
       139.0004        145.0004
 -11947991.06048  -9291305.72847  22230396.210    22230396.2744   22230403.7024
       191.0004        190.0004
  -9477575.56148  -7370113.09946  22480356.102    22480356.6884   22480362.1694
       183.0004        184.0004
  -3708699.53348  -2881461.18946  23091351.075    23091351.1074   23091356.2484
       166.0004        167.0004
 -20360612.17649 -15850215.32247  20934688.009    20934687.9974   20934695.7154
       199.0004        200.0004
 -14439623.69648 -11223142.83147  21930559.097    21930559.1944   21930566.1044
       192.0004        192.0004
 21  2  1  1 43 30.0000000  0 12G28G21G08G07G04G19G09G17G14G01G30G22
  -2234890.43647  -1733254.31345  23529053.254    23529052.2774   23529055.7634
       147.0004        150.0004
 -14947474.99148 -11640792.84246  22100786.190    22100785.4534   22100791.1914
       182.0004        181.0004
  -6970321.99248  -5415903.01046  23338003.137    23338003.3114   23338012.2944
       186.0004        186.0004
 -22786624.31749 -17736130.88347  20571176.367    20571176.8104   20571180.8414
       210.0004        211.0004
  -1535771.41047  -1179682.38045  24125377.058    24125377.5814   24125383.3084
       148.0004        151.0004
  -1628221.69347  -1251488.26445  24726813.642    24726813.4824   24726817.0834
       142.0004        146.0004
 -11873799.37448  -9233494.04447  22244514.432    22244515.3704   22244521.9624
       190.0004        191.0004
  -9537244.76548  -7416608.55946  22469001.093    22469001.5604   22469005.9224
       182.0004        182.0004
  -3735752.63148  -2902541.46946  23086202.607    23086202.4794   23086207.0484
       165.0004        165.0004
 -20392836.81249 -15875325.41947  20928555.870    20928555.7864   20928563.3184
       200.0004        200.0004
 -14520215.83248 -11285941.88447  21915222.398    21915222.8134   21915229.6364
       191.0004        191.0004
  -1339994.40455  -1032845.089 5                                  24579235.245
        88.0004        139.000
 21  2  1  1 44  0.0000000  0 11G28G21G08G07G04G19G09G17G14G01G30
  -2251072.32747  -1745863.53845  23525973.400    23525973.4664   23525977.4644
       146.0004        150.0004
 -14905596.88348 -11608160.54946  22108755.690    22108755.4104   22108759.3994
       181.0004        180.0004
  -6875514.13748  -5342026.78347  23356047.952    23356045.8914   23356053.9894
       187.0004        188.0004
 -22830196.37749 -17770083.14747  20562884.681    20562884.9674   20562889.1804
       210.0004        211.0004
  -1439046.57847  -1104312.42045  24143783.720    24143783.2744   24143790.2844
       147.0004        151.0004
  -1718324.02047  -1321697.84345  24709669.035    24709668.5284   24709670.5264
       142.0004        146.0004
 -11799426.52948  -9175541.18547  22258668.388    22258668.4794   22258674.9634
       190.0004        191.0004
  -9596513.44748  -7462791.93846  22457723.496    22457723.4724   22457727.8544
       182.0004        182.0004
  -3762855.63448  -2923660.72746  23081045.240    23081045.6624   23081049.1994
       165.0004        167.0004
 -20424543.46349 -15900031.89947  20922521.137    20922522.1844   20922529.9514
       200.0004        200.0004
 -14600617.87248 -11348592.83047  21899922.387    21899922.7654   21899930.0084
       191.0004        193.0004
 21  2  1  1 44 30.0000000  0 11G28G21G08G07G04G19G09G17G14G01G30
  -2267314.69747  -1758519.89945  23522882.303    23522881.3364   23522888.2294
       148.0004        151.0004
 -14863240.91848 -11575155.89546  22116816.525    22116815.9734   22116819.8524
       180.0004        181.0004
  -6780706.32748  -5268150.59347  23374088.117    23374087.5574   23374095.3134
       188.0004        189.0004
 -22873354.65349 -17803712.98347  20554671.534    20554672.3344   20554676.4504
       210.0004        210.0004
  -1342409.39347  -1029010.76945  24162172.913    24162172.6194   24162179.2034
       147.0004        150.0004
  -1808210.72247  -1391739.41345  24692565.164    24692564.3954   24692565.4984
       144.0004        148.0004
 -11724875.43048  -9117449.42347  22272854.143    22272854.9224   22272861.8094
       189.0004        189.0004
  -9655380.43648  -7508662.30546  22446521.397    22446521.5504   22446525.9054
       182.0004        183.0004
  -3790009.29148  -2944819.42646  23075878.574    23075878.9334   23075882.7904
       165.0004        167.0004
 -20455729.80649 -15924332.93947  20916587.899    20916588.3144   20916595.0084
       200.0004        201.0004
 -14680827.04048 -11411093.47747  21884660.343    21884659.8194   21884666.5984
       193.0004        194.0004
 21  2  1  1 45  0.0000000  0 11G28G21G08G07G04G19G09G17G14G01G30
  -2283617.18247  -1771223.12245  23519780.747    23519781.9754   23519784.4744
       148.0004        151.0004
 -14820406.41848 -11541778.35746  22124967.178    22124966.8984   22124971.5194
       180.0004        181.0004
  -6685899.80148  -5194275.42947  23392130.622    23392129.8924   23392135.0304
       188.0004        188.0004
 -22916095.16149 -17837017.28247  20546539.046    20546539.2214   20546543.1544
       210.0004        211.0004
  -1245860.74447   -953778.09645  24180544.996    24180544.0454   24180551.1044
       146.0004        150.0004
  -1897878.84047  -1461610.63345  24675500.303    24675499.0184   24675502.9554
       143.0004        146.0004
 -11650147.55448  -9059219.91746  22287073.999    22287074.1174   22287080.8334
       187.0004        186.0004
  -9713843.75148  -7554218.11946  22435396.187    22435396.4634   22435401.1854
       183.0004        184.0004
  -3817212.82548  -2966016.95546  23070699.752    23070701.2574   23070706.4704
       165.0004        166.0004
 -20486392.13349 -15948225.64947  20910752.778    20910753.2334   20910760.3204
       200.0004        201.0004
 -14760839.20048 -11473440.60447  21869432.594    21869433.4654   21869441.1974
       194.0004        194.0004
 21  2  1  1 45 30.0000000  0 11G28G21G08G07G04G19G09G17G14G01G30
  -2299980.76647  -1783973.96545  23516666.388    23516666.4524   23516670.5124
       148.0004        152.0004
 -14777093.67448 -11508028.15346  22133209.269    22133208.4894   22133213.4864
       180.0004        180.0004
  -6591095.73948  -5120402.13746  23410168.759    23410168.3134   23410175.6784
       188.0004        187.0004
 -22958414.94249 -17869993.73547  20538485.467    20538485.8064   20538490.0124
       210.0004        211.0004
  -1149402.60547   -878615.93145  24198899.469    24198901.3694   24198906.5044
       146.0004        149.0004
  -1987326.39847  -1531309.97745  24658478.833    24658478.4534   24658480.3974
       140.0004        144.0004
 -11575245.49348  -9000854.67846  22301327.449    22301328.1404   22301335.0194
       186.0004        187.0004
  -9771902.32748  -7599458.55346  22424347.601    22424348.3274   22424352.3274
       183.0004        184.0004
  -3844466.38648  -2987253.49546  23065514.666    23065514.4474   23065519.1854
       165.0004        166.0004
 -20516527.81849 -15971707.98847  20905017.614    20905018.3724   20905026.0484
       200.0004        201.0004
 -14840651.21848 -11535631.78147  21854245.421    21854245.8134   21854253.2224
       193.0004        193.0004
 21  2  1  1 46  0.0000000  0 11G28G21G08G07G04G19G09G17G14G01G30
  -2316405.98047  -1796772.82745  23513541.123    23513540.8034   23513545.8224
       149.0004        153.0004
 -14733303.08148 -11473905.61646  22141540.719    22141540.9534   22141546.5204
       180.0004        180.0004
  -6496296.20648  -5046532.39347  23428208.654    23428208.0004   23428216.7694
       187.0004        188.0004
 -23000310.92649 -17902639.96747  20530513.165    20530513.5884   20530517.4344
       210.0004        211.0004
  -1053036.91547   -803525.82645  24217237.834    24217239.1294   24217243.6454
       147.0004        150.0004
  -2076551.21347  -1600835.73445  24641497.965    24641498.1184   24641502.9324
       140.0004        144.0004
 -11500171.75748  -8942355.67846  22315614.020    22315613.9854   22315620.5494
       187.0004        187.0004
  -9829554.68148  -7644382.46646  22413376.801    22413376.6764   22413381.3544
       183.0004        183.0004
  -3871770.29547  -3008529.24646  23060318.443    23060319.1814   23060324.0584
       164.0004        166.0004
 -20546134.21749 -15994777.89647  20899383.658    20899384.4714   20899392.0754
       200.0004        200.0004
 -14920259.92148 -11597664.54447  21839097.107    21839097.3394   21839103.5824
       193.0004        194.0004
 21  2  1  1 46 30.0000000  0 11G28G21G08G07G04G19G09G17G14G01G30
  -2332894.19947  -1809620.79945  23510402.154    23510402.1254   23510405.8014
       147.0004        150.0004
 -14689035.77248 -11439411.60546  22149965.273    22149965.5754   22149970.2854
       179.0004        179.0004
  -6401503.35948  -4972667.85746  23446244.097    23446245.3624   23446254.6284
       185.0004        185.0004
 -23041780.60249 -17934954.01147  20522620.823    20522621.6614   20522626.1494
       210.0004        211.0004
   -956766.08247   -728509.62845  24235557.237    24235557.8044   24235564.0344
       147.0004        150.0004
  -2165551.64447  -1670186.74645  24624562.654    24624562.3794   24624566.9794
       139.0004        143.0004
 -11424929.39648  -8883725.27646  22329931.549    22329931.7174   22329939.5704
       186.0004        186.0004
  -9886800.47148  -7688989.57446  22402483.958    22402484.1734   22402487.1694
       183.0004        183.0004
  -3899125.19948  -3029844.75646  23055112.567    23055113.6004   23055118.6654
       165.0004        166.0004
 -20575209.27449 -16017433.77847  20893851.176    20893851.2064   20893859.6534
       200.0004        201.0004
 -14999662.69448 -11659536.84447  21823987.018    21823987.2534   21823993.6714
       194.0004        194.0004
 21  2  1  1 47  0.0000000  0 11G28G21G08G07G04G19G09G17G14G01G30
  -2349447.23647  -1822519.23945  23507252.438    23507252.5844   23507257.7074
       145.0004        150.0004
 -14644293.21548 -11404547.27746  22158480.633    22158480.0104   22158484.1684
       179.0004        180.0004
  -6306719.37948  -4898810.22146  23464281.761    23464282.3564   23464291.5104
       184.0004        185.0004
 -23082822.44749 -17966934.67347  20514811.224    20514811.9644   20514816.0034
       210.0004        211.0004
   -860592.99147   -653569.59945  24253858.276    24253858.7254   24253864.8514
       147.0004        151.0004
  -2254327.05847  -1739362.33545  24607668.851    24607668.1454   24607670.8944
       137.0004        141.0004
 -11349521.87348  -8824966.18146  22344281.409    22344281.9524   22344288.8404
       185.0004        186.0004
  -9943639.65948  -7733279.83046  22391667.345    22391667.3334   22391670.7984
       182.0004        182.0004
  -3926532.28448  -3051200.92546  23049898.403    23049898.5234   23049903.6484
       166.0004        168.0004
 -20603751.32449 -16039674.31547  20888419.529    20888419.8964   20888428.0274
       201.0004        201.0004
 -15078857.29848 -11721246.91647  21808917.193    21808917.2004   21808923.5504
       194.0004        195.0004
 21  2  1  1 47 30.0000000  0 11G28G21G08G07G04G19G09G17G14G01G30
  -2366067.13847  -1835469.81345  23504090.886    23504091.8274   23504094.6824
       148.0004        153.0004
 -14599077.42448 -11369314.18346  22167084.800    22167083.9304   22167089.0564
       179.0004        180.0004
  -6211948.56448  -4824962.86946  23482315.014    23482316.1484   23482325.3294
       184.0004        184.0004
 -23123434.77249 -17998580.65547  20507083.267    20507083.7484   20507087.9254
       211.0004        212.0004
   -764521.26247   -578708.55645  24272140.598    24272141.2374   24272147.2494
       148.0004        152.0004
  -2342877.04747  -1808362.31145  24590819.062    24590818.4604   24590822.5784
       138.0004        144.0004
 -11273953.48448  -8766081.72046  22358661.960    22358662.5524   22358668.1294
       185.0004        186.0004
 -10000072.54348  -7777253.50946  22380928.148    22380929.3074   22380932.5814
       182.0004        182.0004
  -3953993.50648  -3072599.27646  23044672.601    23044672.8834   23044677.8664
       167.0004        169.0004
 -20631759.51949 -16061498.88847  20883089.317    20883090.0964   20883098.3164
       200.0004        200.0004
 -15157842.33349 -11782793.70347  21793886.079    21793886.5464   21793893.0714
       195.0004        196.0004
 21  2  1  1 48  0.0000000  0 11G28G21G08G07G04G19G09G17G14G01G30
  -2382754.43147  -1848472.88145  23500914.561    23500914.8174   23500919.5634
       149.0004        152.0004
 -14553389.35348 -11333713.08146  22175778.834    22175778.1984   22175782.4034
       180.0004        180.0004
  -6117192.43448  -4751126.93046  23500347.740    23500349.1414   23500356.8764
       185.0004        187.0004
 -23163614.60349 -18029889.61547  20499437.449    20499437.8784   20499441.9804
       211.0004        212.0004
   -668553.11747   -503928.23845  24290402.957    24290403.6884   24290409.7314
       148.0004        151.0004
  -2431199.26247  -1877184.77645  24574012.565    24574011.1844   24574014.6364
       140.0004        145.0004
 -11198226.98548  -8707074.05546  22373072.588    22373072.7274   22373079.7914
       185.0004        186.0004
 -10056098.91448  -7820910.39446  22370266.979    22370267.7474   22370270.5594
       181.0004        183.0004
  -3981509.29548  -3094040.15746  23039435.421    23039435.7064   23039441.1814
       166.0004        166.0004
 -20659231.64249 -16082905.72447  20877862.081    20877862.7684   20877870.2194
       200.0004        200.0004
 -15236614.94349 -11844174.95747  21778896.643    21778896.4934   21778903.4604
       195.0004        195.0004
 21  2  1  1 48 30.0000000  0 11G28G21G08G07G04G19G09G17G14G01G30
  -2399510.57547  -1861529.60945  23497725.714    23497725.8894   23497730.5364
       149.0004        152.0004
 -14507229.25248 -11297744.17646  22184562.308    22184562.1984   22184566.6384
       179.0004        180.0004
  -6022453.07848  -4677304.07546  23518377.607    23518377.0244   23518385.0364
       186.0004        186.0004
 -23203359.54749 -18060859.71547  20491874.197    20491874.4914   20491878.7684
       211.0004        212.0004
   -572690.47647   -429230.11245  24308642.907    24308645.2054   24308651.5994
       147.0004        150.0004
  -2519292.13147  -1945828.52045  24557249.853    24557248.8294   24557252.9924
       144.0004        150.0004
 -11122345.03048  -8647945.26946  22387511.924    22387512.4854   22387519.1124
       186.0004        187.0004
 -10111717.48648  -7864249.52846  22359683.408    22359683.4664   22359687.7954
       183.0004        182.0004
  -4009079.95248  -3115523.77946  23034190.389    23034189.3414   23034195.4444
       166.0004        167.0004
 -20686165.23749 -16103892.92847  20872736.482    20872737.2014   20872744.7084
       200.0004        200.0004
 -15315171.98849 -11905388.24247  21763947.642    21763947.8284   21763954.5844
       195.0004        195.0004
 21  2  1  1 49  0.0000000  0 11G28G21G08G07G04G19G09G17G14G01G30
  -2416337.89047  -1874641.80545  23494524.528    23494524.5454   23494528.6734
       151.0004        155.0004
 -14460599.69748 -11261409.43446  22193434.769    22193435.1194   22193439.5494
       179.0004        179.0004
  -5927733.27248  -4603496.48647  23536402.824    23536402.9754   23536410.6004
       187.0004        188.0004
 -23242668.41449 -18091490.00447  20484393.177    20484393.9394   20484398.2954
       211.0004        212.0004
   -476936.95847   -354617.02645  24326863.261    24326865.6594   24326872.9324
       145.0004        149.0004
  -2607155.55847  -2014293.48645  24540529.429    24540528.4984   24540532.9214
       147.0004        151.0004
 -11046311.81448  -8588698.60746  22401980.954    22401980.2574   22401987.6864
       184.0004        185.0004
 -10166929.29448  -7907271.71346  22349175.449    22349176.2284   22349180.8834
       182.0004        182.0004
  -4036707.36248  -3137051.60446  23028930.175    23028931.4304   23028937.9744
       166.0004        167.0004
 -20712559.50349 -16124459.88147  20867713.665    20867714.3244   20867722.0234
       199.0004        199.0004
 -15393512.01049 -11966432.42447  21749040.189    21749040.3204   21749046.6344
       195.0004        196.0004
 21  2  1  1 49 30.0000000  0 11G28G21G08G07G04G19G09G17G14G01G30
  -2433236.32847  -1887809.43945  23491309.835    23491310.4364   23491313.2454
       154.0004        157.0004
 -14413501.04548 -11224709.17746  22202398.187    22202398.2054   22202402.4674
       179.0004        178.0004
  -5833034.89548  -4529705.54946  23554423.553    23554423.7654   23554430.0574
       187.0004        187.0004
 -23281537.77049 -18121777.82347  20476997.477    20476997.8584   20477002.0294
       211.0004        212.0004
   -381293.86047   -280089.98445  24345066.136    24345068.1164   24345073.0644
       145.0004        148.0004
  -2694787.04647  -2082577.70945  24523855.041    24523853.3574   24523857.3504
       150.0004        154.0004
 -10970129.31648  -8529335.63846  22416477.430    22416477.9074   22416485.0614
       184.0004        185.0004
 -10221732.47648  -7949975.47546  22338747.992    22338748.6614   22338752.5994
       182.0004        184.0004
  -4064391.08648  -3158623.36846  23023665.017    23023665.6654   23023669.4184
       166.0004        168.0004
 -20738411.44649 -16144604.23647  20862793.981    20862795.2824   20862802.8714
       200.0004        200.0004
 -15471631.31549 -12027304.60547  21734174.178    21734174.2714   21734181.4054
       195.0004        196.0004
 21  2  1  1 50  0.0000000  0 11G28G21G08G07G04G19G09G17G14G01G30
  -2450207.92247  -1901034.02845  23488079.950    23488079.7554   23488083.5154
       154.0004        157.0004
 -14365935.00248 -11187644.72446  22211451.183    22211449.9014   22211454.8354
       179.0004        180.0004
  -5738360.40548  -4455933.25446  23572438.650    23572439.2294   23572447.5384
       187.0004        187.0004
 -23319966.06149 -18151721.95747  20469684.267    20469685.0454   20469689.3524
       211.0004        212.0004
   -285764.29247   -205651.40245  24363244.862    24363245.6844   24363251.2184
       143.0004        146.0004
  -2782185.97447  -2150680.73945  24507221.989    24507221.5894   24507226.2304
       152.0004        156.0004
 -10893801.35748  -8469859.31046  22431002.505    22431002.4114   22431010.1594
       184.0004        184.0004
 -10276127.80648  -7992361.44146  22328396.629    22328397.4184   22328401.2514
       183.0004        183.0004
  -4092132.64748  -3180240.17546  23018385.411    23018385.9334   23018390.3424
       166.0004        167.0004
 -20763719.92049 -16164325.11547  20857978.009    20857978.9414   20857986.6034
       200.0004        200.0004
 -15549528.03849 -12088003.34247  21719351.420    21719351.1724   21719358.3584
       196.0004        197.0004
 21  2  1  1 50 30.0000000  0 11G28G21G08G07G04G19G09G17G14G01G30
  -2467253.13447  -1914315.98945  23484834.908    23484835.3114   23484839.1794
       155.0004        157.0004
 -14317901.76848 -11150216.21146  22220591.029    22220590.6294   22220595.0384
       179.0004        179.0004
  -5643711.44448  -4382180.83246  23590450.046    23590450.1844   23590457.0844
       186.0004        185.0004
 -23357950.25049 -18181320.03147  20462456.543    20462457.0114   20462460.7664
       211.0004        212.0004
   -190350.07647   -131302.68245  24381401.419    24381402.9404   24381407.5934
       141.0004        145.0004
  -2869349.99347  -2218600.72345  24490633.230    24490633.3984   24490638.3804
       151.0004        154.0004
 -10817330.31848  -8410271.48546  22445554.504    22445554.8954   22445560.7194
       183.0004        183.0004
 -10330113.60848  -8034428.28946  22318123.190    22318123.6524   22318128.0914
       183.0004        183.0004
  -4119932.00848  -3201901.99346  23013094.631    23013095.0794   23013100.4324
       166.0004        166.0004
 -20788482.37249 -16183620.51747  20853266.444    20853267.0794   20853274.9734
       200.0004        200.0004
 -15627198.79549 -12148526.01047  21704570.911    21704570.6984   21704577.5014
       196.0004        197.0004
 21  2  1  1 51  0.0000000  0 11G28G21G08G07G04G19G09G17G14G01G30
  -2484372.37047  -1927655.63545  23481578.908    23481579.1864   23481582.0714
       155.0004        159.0004
 -14269401.89548 -11112424.09246  22229818.427    22229819.0084   22229823.8424
       179.0004        179.0004
  -5549089.23648  -4308449.25946  23608456.471    23608455.8894   23608464.5684
       185.0004        186.0004
 -23395487.01849 -18210569.47748  20455313.670    20455313.9464   20455317.8884
       211.0004        213.0004
    -95052.62147    -57044.95945  24399536.456    24399536.6484   24399543.8564
       141.0004        145.0004
  -2956276.89347  -2286335.93545  24474092.837    24474092.8154   24474097.7824
       150.0004        153.0004
 -10740718.35248  -8350573.86646  22460132.230    22460133.2524   22460140.2154
       182.0004        183.0004
 -10383689.25648  -8076175.53146  22307928.023    22307928.5934   22307933.3374
       181.0004        182.0004
  -4147788.96648  -3223608.71046  23007794.952    23007795.9214   23007798.6944
       165.0004        166.0004
 -20812696.06249 -16202488.31747  20848658.659    20848659.0174   20848666.9594
       200.0004        200.0004
 -15704640.11449 -12208869.90947  21689834.309    21689834.5244   21689841.8464
       197.0004        198.0004
 21  2  1  1 51 30.0000000  0 11G28G21G08G07G04G19G09G17G14G01G30
  -2501567.04947  -1941054.06145  23478307.578    23478307.6664   23478309.8164
       156.0004        158.0004
 -14220436.74848 -11074269.42546  22239136.948    22239136.9514   22239142.0604
       178.0004        178.0004
  -5454496.59048  -4234740.73746  23626452.965    23626454.8534   23626464.5784
       183.0004        183.0004
 -23432574.34049 -18239468.68648  20448256.028    20448256.3424   20448260.7174
       212.0004        213.0004
       125.31147     17119.61845  24417647.945    24417649.0314   24417654.6074
       138.0004        142.0004
  -3042965.53347  -2353885.53645  24457595.993    24457594.7324   24457600.4474
       148.0004        151.0004
 -10663968.88048  -8290769.07446  22474738.518    22474738.9424   22474746.0744
       184.0004        185.0004
 -10436854.53348  -8117603.00746  22297810.773    22297811.6934   22297816.0794
       183.0004        185.0004
  -4175704.56148  -3245361.12246  23002482.267    23002482.8434   23002486.9704
       165.0004        166.0004
 -20836359.51249 -16220927.36347  20844155.115    20844156.3854   20844163.9084
       199.0004        200.0004
 -15781849.69849 -12269033.21247  21675141.740    21675142.0464   21675148.8924
       197.0004        197.0004
 21  2  1  1 52  0.0000000  0 11G28G21G08G07G04G19G09G17G14G01G30
  -2518837.36847  -1954511.44045  23475020.788    23475019.3574   23475023.4154
       153.0004        153.0004
 -14171006.78948 -11035752.56346  22248543.411    22248543.2584   22248548.1734
       178.0004        180.0004
  -5359934.18848  -4161055.76746  23644449.579    23644450.1404   23644458.7224
       183.0004        184.0004
 -23469209.20149 -18268015.33847  20441284.361    20441284.8654   20441289.2704
       212.0004        212.0004
     95182.33347     91189.97945  24435734.756    24435736.3794   24435743.7984
       137.0004        141.0004
  -3129413.71647  -2421247.71145  24441147.383    24441145.9434   24441149.1424
       151.0004        154.0004
 -10587083.93448  -8230858.74546  22489369.025    22489368.7744   22489376.3884
       184.0004        184.0004
 -10489607.97248  -8158709.56546  22287772.264    22287772.3584   22287777.5894
       184.0004        184.0004
  -4203678.45648  -3267158.95646  22997158.432    22997159.0614   22997164.5774
       166.0004        169.0004
 -20859469.92249 -16238935.46847  20839757.897    20839758.4504   20839765.8444
       199.0004        199.0004
 -15858823.95449 -12329013.14247  21660493.961    21660494.0084   21660500.6664
       196.0004        195.0004
 21  2  1  1 52 30.0000000  0 11G28G21G08G07G04G19G09G17G14G01G30
  -2536186.00547  -1968029.87945  23471715.373    23471714.6644   23471723.5354
       149.0004        151.0004
 -14121114.65948 -10996875.57046  22258036.859    22258037.3564   22258042.4204
       178.0004        178.0004
  -5265406.10548  -4087397.54646  23662437.393    23662437.7864   23662446.5834
       181.0004        181.0004
 -23505390.73249 -18296208.74648  20434399.801    20434400.1774   20434403.7254
       212.0004        213.0004
    190114.62747    165163.15645  24453802.944    24453802.9234   24453808.5744
       136.0004        141.0004
  -3215621.72547  -2488422.73345  24424741.657    24424740.8454   24424745.5374
       152.0004        155.0004
 -10510068.08748  -8170846.40546  22504024.140    22504024.3244   22504032.1194
       183.0004        183.0004
 -10541951.10048  -8199496.40346  22277812.159    22277811.9704   22277817.0364
       184.0004        185.0004
  -4231712.77648  -3289003.87746  22991824.956    22991825.0184   22991829.1114
       167.0004        169.0004
 -20882027.04149 -16256512.42547  20835464.966    20835465.5154   20835473.1014
       198.0004        198.0004
 -15935561.69749 -12388808.78147  21645891.119    21645891.3164   21645898.2964
       196.0004        197.0004
 21  2  1  1 53  0.0000000  0 11G28G21G08G07G04G19G09G17G14G01G30
  -2553612.66547  -1981609.11145  23468399.859    23468400.4714   23468406.5614
       147.0004        151.0004
 -14070760.21748 -10957638.35146  22267619.865    22267618.9404   22267623.8574
       178.0004        178.0004
  -5170912.77548  -4013766.37846  23680418.146    23680418.9234   23680428.8684
       180.0004        181.0004
 -23541115.38649 -18324046.14248  20427601.640    20427601.8734   20427605.7404
       212.0004        213.0004
    284921.16547    239038.33845  24471844.226    24471844.5454   24471850.2274
       136.0004        142.0004
  -3301586.58447  -2555408.34045  24408382.928    24408382.4034   24408386.2014
       152.0004        155.0004
 -10432923.09548  -8110733.41546  22518703.744    22518704.6474   22518711.7744
       182.0004        181.0004
 -10593882.04948  -8239962.07746  22267929.351    22267929.7294   22267934.5134
       185.0004        186.0004
  -4259806.90248  -3310895.37946  22986477.336    22986478.0024   22986483.5624
       168.0004        169.0004
 -20904027.83449 -16273655.88447  20831278.528    20831278.8184   20831287.0564
       199.0004        199.0004
 -16012058.97549 -12448417.04047  21631334.108    21631334.3684   21631341.5844
       197.0004        198.0004
 21  2  1  1 53 30.0000000  0 11G28G21G08G07G04G19G09G17G14G01G30
  -2571119.84947  -1995251.08045  23465073.075    23465073.8734   23465074.0264
       151.0004        156.0004
 -14019946.09448 -10918042.93046  22277288.711    22277289.3124   22277293.9144
       178.0004        180.0004
  -5076457.85248  -3940165.19546  23698396.032    23698394.0644   23698403.0744
       180.0004        180.0004
 -23576382.01749 -18351526.64448  20420890.068    20420890.8984   20420894.7664
       212.0004        213.0004
    379598.38247    312812.75645  24489858.807    24489860.5334   24489867.2204
       137.0004        143.0004
  -3387308.23947  -2622204.41645  24392070.671    24392070.6954   24392072.4524
       150.0004        152.0004
 -10355653.23248  -8050523.15246  22533408.503    22533409.2334   22533416.2164
       182.0004        185.0004
 -10645401.88948  -8280107.40446  22258125.502    22258126.1314   22258130.3064
       185.0004        186.0004
  -4287962.67448  -3332834.95546  22981120.958    22981120.8994   22981124.2434
       168.0004        168.0004
 -20925471.76649 -16290365.44147  20827197.204    20827197.9564   20827206.6704
       199.0004        199.0004
 -16088314.40749 -12507836.86547  21616823.123    21616823.0284   21616829.7614
       197.0004        196.0004
 21  2  1  1 54  0.0000000  0 11G28G21G08G07G04G19G09G17G14G01G30
  -2588709.15447  -2008957.01245  23461725.113    23461725.2304   23461727.4874
       154.0004        157.0004
 -13968674.07148 -10878090.70646  22287045.882    22287045.7804   22287050.4374
       178.0004        179.0004
  -4982044.03848  -3866596.03046  23716361.952    23716360.8674   23716369.2504
       180.0004        181.0004
 -23611189.38049 -18378649.27448  20414266.891    20414267.3074   20414270.8444
       212.0004        213.0004
    474143.33547    386484.11045  24507852.561    24507851.3784   24507857.9974
       139.0004        144.0004
  -3472786.02247  -2688810.45945  24375805.271    24375805.0794   24375806.8234
       150.0004        153.0004
 -10278262.07248  -7990218.35646  22548136.187    22548136.1894   22548143.6704
       184.0004        185.0004
 -10696510.63648  -8319932.38846  22248400.488    22248400.6644   22248404.9414
       186.0004        187.0004
  -4316181.30048  -3354823.48646  22975749.772    22975750.8454   22975755.5694
       168.0004        170.0004
 -20946357.70149 -16306640.18947  20823223.142    20823223.7954   20823231.7384
       199.0004        199.0004
 -16164325.92549 -12567066.61647  21602358.801    21602358.3314   21602365.3314
       195.0004        195.0004
 21  2  1  1 54 30.0000000  0 11G28G21G08G07G04G19G09G17G14G01G30
  -2606380.88147  -2022727.18845  23458360.673    23458360.1884   23458364.1514
       154.0004        155.0004
 -13916944.45448 -10837781.92146  22296889.040    22296889.2404   22296894.8814
       178.0004        178.0004
  -4887672.34648  -3793059.67746  23734317.597    23734318.2184   23734326.8524
       179.0004        179.0004
 -23645533.87549 -18405411.23148  20407731.015    20407731.5494   20407735.5624
       212.0004        213.0004
    568554.74947    460051.41445  24525816.604    24525817.5244   24525823.0244
       139.0004        145.0004
  -3558017.45747  -2755224.56945  24359586.801    24359585.1574   24359589.3724
       154.0004        157.0004
 -10200751.65148  -7929820.63246  22562885.029    22562885.5174   22562893.0114
       182.0004        182.0004
 -10747207.29248  -8359436.25346  22238753.716    22238753.8994   22238757.6504
       186.0004        187.0004
  -4344462.36948  -3376860.69446  22970368.871    22970369.5614   22970373.9774
       171.0004        172.0004
 -20966682.93649 -16322478.03647  20819355.466    20819356.1794   20819363.7214
       198.0004        199.0004
 -16240089.81149 -12626103.41347  21587941.301    21587941.8564   21587948.1604
       196.0004        197.0004
 21  2  1  1 55  0.0000000  0 11G28G21G08G07G04G19G09G17G14G01G30
  -2624134.94047  -2036561.51045  23454979.432    23454979.6364   23454985.9114
       152.0004        153.0004
 -13864758.17648 -10797117.27246  22306820.599    22306820.0474   22306826.1554
       178.0004        179.0004
  -4793343.85848  -3719556.97746  23752269.284    23752268.7024   23752277.2104
       178.0004        179.0004
 -23679412.18849 -18431809.92148  20401284.858    20401285.2154   20401289.0034
       212.0004        214.0004
    662831.17647    533513.54545  24543756.082    24543757.3024   24543764.0924
       140.0004        144.0004
  -3643000.05847  -2821444.78245  24343413.016    24343413.3334   24343417.6034
       153.0004        156.0004
 -10123124.13548  -7869331.66846  22577656.764    22577657.6204   22577664.6394
       182.0004        183.0004
 -10797490.98048  -8398618.32447  22229184.100    22229184.7504   22229190.2904
       188.0004        188.0004
  -4372805.62648  -3398946.34746  22964975.597    22964975.9604   22964979.8754
       170.0004        170.0004
 -20986445.02749 -16337877.05147  20815594.872    20815595.3464   20815603.0584
       198.0004        198.0004
 -16315602.56549 -12684944.51447  21573572.699    21573571.9734   21573578.5894
       196.0004        197.0004
 21  2  1  1 55 30.0000000  0 11G28G21G08G07G04G19G09G17G14G01G30
  -2641971.70947  -2050460.29445  23451588.233    23451586.8594   23451590.7214
       150.0004        152.0004
 -13812115.19048 -10756096.76246  22316838.490    22316838.4674   22316843.2854
       178.0004        179.0004
  -4699060.38348  -3646089.37546  23770209.924    23770210.4664   23770219.5114
       179.0004        181.0004
 -23712821.63549 -18457843.25448  20394926.398    20394926.9414   20394931.2214
       212.0004        213.0004
    756971.27947    606869.42945  24561670.584    24561672.0194   24561679.2754
       141.0004        145.0004
  -3727731.94647  -2887469.59445  24327290.289    24327289.4184   24327293.1194
       153.0004        155.0004
 -10045381.62948  -7808753.08246  22592451.700    22592451.6544   22592458.6254
       182.0004        182.0004
 -10847360.49448  -8437477.66346  22219694.001    22219694.3404   22219699.4004
       187.0004        187.0004
  -4401210.73248  -3421080.15546  22959570.023    22959570.0794   22959574.5574
       170.0004        170.0004
 -21005641.35149 -16352835.21247  20811941.730    20811942.3794   20811950.5064
       199.0004        199.0004
 -16390860.67149 -12743587.18647  21559250.538    21559250.9204   21559257.1474
       197.0004        197.0004
 21  2  1  1 56  0.0000000  0 12G28G21G08G07G04G19G09G17G14G01G30G22
  -2659894.56747  -2064426.15045  23448177.891    23448177.8354   23448181.3974
       152.0004        156.0004
 -13759018.64648 -10714722.83646  22326942.333    22326941.7994   22326947.0414
       177.0004        177.0004
  -4604825.51148  -3572659.65046  23788142.223    23788142.2504   23788150.5944
       178.0004        178.0004
 -23745762.02849 -18483511.10948  20388658.751    20388659.2354   20388662.9534
       213.0004        214.0004
    850970.54947    680115.57845  24579557.155    24579559.3654   24579565.7034
       140.0004        144.0004
  -3812213.86947  -2953299.64445  24311212.742    24311212.1524   24311218.0134
       153.0004        155.0004
  -9967529.33948  -7748088.99746  22607266.443    22607266.6454   22607273.5564
       182.0004        183.0004
 -10896817.72448  -8476015.76446  22210282.392    22210282.9054   22210287.7794
       186.0004        186.0004
  -4429680.47248  -3443264.38746  22954152.500    22954153.0644   22954155.7994
       169.0004        169.0004
 -21024272.55649 -16367353.03447  20808395.750    20808397.0174   20808404.9614
       199.0004        199.0004
 -16465863.59349 -12802031.03747  21544978.941    21544978.8174   21544985.1524
       198.0004        199.0004
  -1339994.40454  -1032845.089 3                                  24579235.245
        74.0004         74.000
 21  2  1  1 56 30.0000000  0 12G28G21G08G07G04G19G09G17G14G01G30G22
  -2677902.89747  -2078458.60845  23444749.592    23444749.8414   23444755.0244
       154.0004        156.0004
 -13705468.60148 -10672995.52546  22337132.673    22337132.0444   22337137.6164
       178.0004        179.0004
  -4510639.51548  -3499267.97346  23806062.930    23806064.6474   23806076.3164
       179.0004        180.0004
 -23778229.61349 -18508810.54448  20382480.329    20382480.8224   20382484.4154
       213.0004        214.0004
    944828.37347    753251.52445  24597419.022    24597419.9814   24597427.1034
       140.0004        144.0004
  -3896443.16447  -3018932.84345  24295184.220    24295184.2944   24295189.6404
       152.0004        153.0004
  -9889568.72348  -7687340.46446  22622101.685    22622101.8774   22622108.6334
       183.0004        183.0004
 -10945860.83248  -8514231.15546  22200951.086    22200951.0694   22200955.3584
       186.0004        187.0004
  -4458213.85548  -3465498.21046  22948722.348    22948723.2754   22948727.1244
       169.0004        170.0004
 -21042335.43849 -16381428.00047  20804959.214    20804960.1604   20804968.1624
       199.0004        200.0004
 -16540607.12349 -12860272.74947  21530755.339    21530755.2784   21530761.5824
       199.0004        199.0004
  -1339994.40444  -1032845.089 4                                  24579235.245
        74.0004        109.000
 21  2  1  1 57  0.0000000  0 12G28G21G08G07G04G19G09G17G14G01G30G22
  -2695997.97747  -2092558.68845  23441307.390    23441307.0354   23441311.2514
       156.0004        159.0004
 -13651467.33448 -10630916.61746  22347408.293    22347408.4974   22347413.2074
       177.0004        177.0004
  -4416505.50248  -3425916.84546  23823979.272    23823979.5034   23823988.2154
       179.0004        181.0004
 -23810222.65949 -18533740.20148  20376392.402    20376392.5414   20376396.6034
       213.0004        214.0004
   1038541.97347    826275.09345  24615252.762    24615253.0744   24615259.4554
       139.0004        143.0004
  -3980419.01147  -3084368.56745  24279205.531    24279204.8584   24279208.9624
       151.0004        154.0004
  -9811503.22548  -7626510.21646  22636956.647    22636956.7024   22636962.8294
       182.0004        182.0004
 -10994490.21648  -8552124.17346  22191696.042    22191696.7434   22191701.3874
       186.0004        186.0004
  -4486811.85048  -3487782.36846  22943280.793    22943280.8664   22943285.4504
       169.0004        170.0004
 -21059828.91849 -16395059.28347  20801629.910    20801630.9424   20801638.9774
       199.0004        199.0004
 -16615089.05649 -12918310.62747  21516581.402    21516582.0054   21516588.3424
       199.0004        200.0004
  -1339994.40444  -1032845.089 4                                  24579235.245
        74.0004        111.000
 21  2  1  1 57 30.0000000  0 11G28G21G08G07G04G19G09G17G14G01G30
  -2714181.49447  -2106727.65745  23437847.982    23437847.2064   23437850.2894
       155.0004        157.0004
 -13597016.37048 -10588487.29646  22357769.832    22357769.8814   22357774.8424
       176.0004        177.0004
  -4322425.46248  -3352607.77246  23841880.439    23841881.1884   23841891.0304
       177.0004        177.0004
 -23841739.74949 -18558298.98248  20370395.118    20370395.2114   20370399.0434
       213.0004        214.0004
   1132108.76547    899184.23845  24633057.593    24633058.4184   24633064.2624
       138.0004        142.0004
  -4064140.11547  -3149605.77645  24263273.504    24263273.4934   24263277.7744
       150.0004        153.0004
  -9733336.22648  -7565600.87846  22651832.654    22651832.4804   22651838.3114
       182.0004        183.0004
 -11042706.23448  -8589695.07946  22182521.731    22182521.3284   22182526.2694
       186.0004        186.0004
  -4515475.39248  -3510117.57546  22937826.170    22937826.6874   22937831.2744
       170.0004        171.0004
 -21076751.87649 -16408246.00447  20798409.946    20798410.6074   20798418.2684
       199.0004        199.0004
 -16689307.10449 -12976142.87847  21502458.777    21502459.1064   21502465.3404
       199.0004        200.0004
 21  2  1  1 58  0.0000000  0 11G28G21G08G07G04G19G09G17G14G01G30
  -2732454.73247  -2120966.52545  23434369.788    23434369.6234   23434373.3864
       155.0004        157.0004
 -13542116.97648 -10545708.53546  22368216.881    22368215.8774   22368221.1744
       176.0004        177.0004
  -4228401.42148  -3279342.31846  23859775.158    23859775.6364   23859782.7374
       177.0004        179.0004
 -23872778.49349 -18582485.01348  20364487.953    20364488.3104   20364492.4334
       213.0004        213.0004
   1225526.62047    971977.36345  24650833.896    24650834.7074   24650840.3914
       136.0004        140.0004
  -4147605.23547  -3214643.49845  24247391.365    24247391.3844   24247394.4854
       151.0004        154.0004
  -9655070.63548  -7504614.70046  22666724.736    22666725.5264   22666733.1744
       182.0004        183.0004
 -11090508.49448  -8626943.57347  22173424.918    22173425.3804   22173429.8514
       186.0004        188.0004
  -4544204.93448  -3532504.22946  22932359.574    22932359.7574   22932364.3404
       171.0004        171.0004
 -21093102.68449 -16420986.87947  20795299.600    20795299.7194   20795306.9414
       199.0004        200.0004
 -16763258.56549 -13033767.38147  21488386.252    21488386.1634   21488392.7704
       200.0004        200.0004
 21  2  1  1 58 30.0000000  0 11G28G21G08G07G04G19G09G17G14G01G30
  -2750819.35647  -2135276.61745  23430874.502    23430875.6804   23430879.6564
       156.0004        159.0004
 -13486771.63248 -10502582.28646  22378748.236    22378747.8464   22378753.4984
       176.0004        177.0004
  -4134436.56748  -3206122.96046  23877655.350    23877655.9614   23877664.1064
       177.0004        177.0004
 -23903337.68849 -18606297.38548  20358672.763    20358673.0984   20358677.3934
       213.0004        214.0004
   1318792.16147   1044651.79345  24668582.911    24668582.6424   24668586.8564
       135.0004        141.0004
  -4230814.25947  -3279481.70545  24231556.164    24231555.0134   24231559.2664
       151.0004        152.0004
  -9576710.56748  -7443554.90246  22681636.681    22681636.8954   22681643.9864
       182.0004        183.0004
 -11137898.30848  -8663870.68747  22164406.310    22164406.9294   22164412.3424
       187.0004        188.0004
  -4573002.08848  -3554943.59146  22926879.073    22926879.6604   22926883.0844
       169.0004        169.0004
 -21108880.98049 -16433281.64147  20792296.761    20792296.9184   20792304.8204
       199.0004        200.0004
 -16836941.79149 -13091182.88547  21474364.466    21474364.6304   21474371.6224
       200.0004        200.0004
 21  2  1  1 59  0.0000000  0 11G28G21G08G07G04G19G09G17G14G01G30
  -2769274.55847  -2149657.29945  23427362.583    23427362.6764   23427366.8144
       157.0004        158.0004
 -13430980.21548 -10459108.46146  22389366.678    22389365.8394   22389370.0214
       176.0004        177.0004
  -4040530.63448  -3132949.55846  23895525.239    23895525.5834   23895532.7594
       178.0004        179.0004
 -23933413.30449 -18629732.93648  20352949.809    20352950.2244   20352954.2324
       213.0004        214.0004
   1411905.28047   1117207.43245  24686300.233    24686302.1344   24686307.5254
       137.0004        142.0004
  -4313763.90147  -3344117.78845  24215772.218    24215771.6774   24215775.3474
       152.0004        155.0004
  -9498256.82548  -7382422.12746  22696565.979    22696565.6714   22696573.2964
       182.0004        182.0004
 -11184873.33148  -8700474.58647  22155468.408    22155468.3154   22155472.5964
       189.0004        190.0004
  -4601865.24648  -3577434.36746  22921386.852    22921387.2314   22921391.3954
       169.0004        170.0004
 -21124083.13249 -16445127.47547  20789404.042    20789404.3474   20789411.6994
       200.0004        200.0004
 -16910351.99349 -13148385.64447  21460396.016    21460395.2944   21460402.0464
       200.0004        201.0004
 21  2  1  1 59 30.0000000  0 11G28G21G08G07G04G19G09G17G14G01G30
  -2787821.61147  -2164109.58345  23423834.184    23423833.6074   23423837.3904
       156.0004        158.0004
 -13374744.55048 -10415288.45946  22400066.919    22400066.7514   22400071.3384
       176.0004        176.0004
  -3946686.51448  -3059824.26746  23913385.035    23913384.3264   23913390.9654
       180.0004        181.0004
 -23963004.18949 -18652790.78448  20347318.741    20347319.1234   20347322.8654
       213.0004        214.0004
   1504863.14047   1189642.05045  24703991.402    24703991.9084   24703998.3654
       139.0004        145.0004
  -4396453.53447  -3408551.28145  24200036.788    24200035.9764   24200039.8604
       153.0004        156.0004
  -9419713.12848  -7321219.27746  22711512.499    22711512.4294   22711519.5094
       181.0004        181.0004
 -11231434.12048  -8736755.72147  22146607.904    22146607.9064   22146612.5744
       189.0004        189.0004
  -4630795.70948  -3599977.57646  22915880.256    22915880.8874   22915886.6664
       169.0004        169.0004
 -21138708.53949 -16456523.89347  20786619.343    20786620.5504   20786628.5664
       200.0004        200.0004
 -16983487.31549 -13205374.21047  21446477.698    21446477.7934   21446484.8824
       201.0004        201.0004
 21  2  1  2  0  0.0000000  0 11G28G21G08G07G04G19G09G17G14G01G30
  -2806461.85047  -2178634.40645  23420286.739    23420285.8824   23420291.0964
       155.0004        158.0004
 -13318066.06748 -10371123.40146  22410851.912    22410851.1564   22410857.2154
       175.0004        174.0004
  -3852906.01948  -2986748.59746  23931229.256    23931229.4044   23931237.2434
       179.0004        179.0004
 -23992107.61549 -18675468.79348  20341780.526    20341781.1694   20341784.9914
       213.0004        215.0004
   1597663.75147   1261954.16545  24721649.884    24721650.1004   24721656.7504
       138.0004        141.0004
  -4478881.82147  -3472781.09745  24184350.742    24184349.7884   24184353.4424
       154.0004        157.0004
  -9341082.33848  -7259948.51546  22726474.818    22726474.6274   22726481.6044
       179.0004        178.0004
 -11277580.72948  -8772714.11447  22137826.782    22137826.8474   22137831.6154
       189.0004        190.0004
  -4659793.69148  -3622573.40746  22910363.643    22910363.2814   22910368.2654
       169.0004        170.0004
 -21152755.58349 -16467469.63847  20783947.314    20783947.8214   20783955.6474
       200.0004        200.0004
 -17056344.84549 -13262146.31447  21432613.195    21432613.2754   21432620.3944
       201.0004        200.0004
 21  2  1  2  0 30.0000000  0 10G28G21G08G07G19G09G17G14G01G30
  -2825195.05447  -2193231.69845  23416722.804    23416721.9164   23416726.0674
       156.0004        160.0004
 -13260945.35448 -10326613.76246  22421722.223    22421722.0154   22421727.0354
       175.0004        176.0004
  -3759189.58448  -2913722.79346  23949062.698    23949063.0084   23949071.4824
       179.0004        181.0004
 -24020720.78549 -18697764.77648  20336335.530    20336336.2174   20336340.0524
       213.0004        214.0004
  -4561046.40947  -3536805.40145  24168714.045    24168712.6504   24168718.7684
       153.0004        155.0004
  -9262366.32448  -7198611.36646  22741453.292    22741453.8744   22741462.1364
       178.0004        179.0004
 -11323311.60648  -8808348.55247  22129124.029    22129124.5124   22129128.5844
       189.0004        189.0004
  -4688858.65548  -3645221.41846  22904831.552    22904833.5724   22904838.7244
       170.0004        171.0004
 -21166221.82149 -16477962.80747  20781384.588    20781384.9174   20781393.1164
       199.0004        200.0004
 -17128920.91349 -13318699.10047  21418802.247    21418802.7694   21418809.1364
       200.0004        200.0004
 21  2  1  2  1  0.0000000  0 10G28G21G08G07G19G09G17G14G01G30
  -2844019.83247  -2207900.37345  23413139.882    23413140.0724   23413143.1254
       156.0004        158.0004
 -13203381.70248 -10281758.96346  22432677.034    22432676.7434   22432680.3344
       175.0004        176.0004
  -3665537.73848  -2840747.36446  23966883.774    23966883.9724   23966892.5774
       180.0004        180.0004
 -24048839.48949 -18719675.45948  20330984.927    20330985.4104   20330989.1484
       214.0004        215.0004
  -4642944.03347  -3600621.74045  24153131.117    24153130.0834   24153133.8974
       153.0004        156.0004
  -9183565.94248  -7137208.47346  22756449.828    22756449.5054   22756456.7544
       178.0004        178.0004
 -11368625.22948  -8843657.85447  22120500.378    22120501.1304   22120505.1624
       188.0004        188.0004
  -4717988.97948  -3667920.36446  22899288.854    22899289.7404   22899294.0184
       169.0004        170.0004
 -21179103.85649 -16488000.74847  20778933.495    20778933.8574   20778941.3824
       199.0004        200.0004
 -17201210.69549 -13375028.80447  21405046.879    21405046.6034   21405053.2414
       201.0004        201.0004
 21  2  1  2  1 30.0000000  0 10G28G21G08G07G19G09G17G14G01G30
  -2862941.53047  -2222644.54545  23409539.024    23409537.9494   23409542.0584
       156.0004        159.0004
 -13145380.35748 -10236563.12546  22443713.810    22443713.6034   22443717.1814
       174.0004        174.0004
  -3571955.87448  -2767826.43446  23984690.526    23984691.7264   23984699.7044
       177.0004        176.0004
 -24076465.85249 -18741202.50748  20325727.970    20325728.3484   20325732.3644
       214.0004        215.0004
  -4724577.66047  -3664232.32945  24137594.373    24137594.3084   24137599.8474
       152.0004        153.0004
  -9104688.17348  -7075745.29246  22771458.920    22771459.8884   22771466.2404
       177.0004        178.0004
 -11413525.37048  -8878644.96947  22111957.146    22111957.8884   22111961.9484
       189.0004        190.0004
  -4747189.16548  -3690673.77846  22893733.446    22893732.9234   22893736.4794
       169.0004        168.0004
 -21191404.33549 -16497585.53347  20776592.509    20776593.1494   20776600.6034
       199.0004        199.0004
 -17273215.58149 -13431136.50447  21391344.789    21391344.3034   21391351.3874
       201.0004        201.0004
 21  2  1  2  2  0.0000000  0 10G28G21G08G07G19G09G17G14G01G30
  -2881960.11647  -2237464.21345  23405919.355    23405919.0084   23405924.3844
       156.0004        158.0004
 -13086942.57848 -10191027.19146  22454833.036    22454833.7114   22454837.6424
       174.0004        175.0004
  -3478445.31248  -2694961.10346  24002488.592    24002487.4144   24002495.0974
       176.0004        177.0004
 -24103596.98949 -18762343.66248  20320564.733    20320565.1064   20320569.3304
       214.0004        215.0004
  -4805944.93447  -3727635.40145  24122112.153    24122111.3544   24122117.0104
       152.0004        156.0004
  -9025735.21148  -7014223.50646  22786483.571    22786484.1794   22786490.7134
       178.0004        179.0004
 -11458011.26648  -8913309.29147  22103491.416    22103492.0734   22103496.7844
       191.0004        192.0004
  -4776458.85148  -3713481.33046  22888160.752    22888162.3234   22888166.7834
       168.0004        169.0004
 -21203121.18749 -16506715.54447  20774362.865    20774363.5284   20774370.8374
       200.0004        199.0004
 -17344932.10949 -13487019.51147  21377696.592    21377696.9814   21377703.9234
       201.0004        201.0004
 21  2  1  2  2 30.0000000  0 10G28G21G08G07G19G09G17G14G01G30
  -2901077.14847  -2252360.62045  23402282.238    23402281.1194   23402285.7934
       156.0004        158.0004
 -13028070.42348 -10145152.77846  22466038.105    22466036.0464   22466040.9614
       174.0004        174.0004
  -3385008.21448  -2622152.99146  24020268.502    24020267.6894   24020276.0424
       178.0004        178.0004
 -24130231.46149 -18783097.80148  20315496.436    20315496.9084   20315500.6444
       214.0004        215.0004
  -4887045.37447  -3790830.54245  24106681.758    24106680.0064   24106683.8354
       155.0004        158.0004
  -8946710.19248  -6952645.57846  22801521.643    22801521.7634   22801529.5384
       178.0004        179.0004
 -11502083.39748  -8947651.19747  22095104.093    22095104.9694   22095109.0184
       190.0004        190.0004
  -4805798.69048  -3736343.54146  22882579.072    22882580.0824   22882583.6344
       169.0004        170.0004
 -21214253.40649 -16515389.99647  20772244.779    20772245.6004   20772253.2734
       200.0004        200.0004
 -17416357.83149 -13542675.91747  21364105.667    21364105.6634   21364112.1144
       201.0004        201.0004
 21  2  1  2  3  0.0000000  0 10G28G21G08G07G19G09G17G14G01G30
  -2920293.76947  -2267334.60045  23398624.995    23398625.4884   23398627.8134
       154.0004        155.0004
 -12968765.09748 -10098940.83946  22477321.736    22477321.7524   22477325.5554
       173.0004        173.0004
  -3291646.86648  -2549403.90446  24038032.736    24038032.6594   24038042.1084
       174.0004        174.0004
 -24156367.57349 -18803463.62248  20310523.519    20310523.7624   20310527.6614
       214.0004        215.0004
  -4967877.91947  -3853816.91345  24091297.182    24091297.3674   24091301.4944
       153.0004        155.0004
  -8867616.77748  -6891014.36146  22816572.940    22816572.8004   22816579.9614
       179.0004        179.0004
 -11545742.24648  -8981671.07347  22086796.928    22086797.1234   22086801.0664
       189.0004        190.0004
  -4835209.84048  -3759261.32446  22876981.361    22876983.2224   22876987.4194
       168.0004        167.0004
 -21224800.45249 -16523608.47547  20770237.836    20770238.2564   20770246.1584
       200.0004        201.0004
 -17487490.79749 -13598104.21847  21350569.331    21350569.2944   21350575.7264
       200.0004        200.0004
 21  2  1  2  3 30.0000000  0 10G28G21G08G07G19G09G17G14G01G30
  -2939608.85647  -2282385.31545  23394949.337    23394950.1764   23394953.5014
       155.0004        159.0004
 -12909026.32948 -10052391.15946  22488690.390    22488689.2954   22488694.5704
       173.0004        173.0004
  -3198360.98348  -2476713.61646  24055783.188    24055784.0514   24055793.8404
       177.0004        178.0004
 -24182000.99749 -18823437.73348  20305644.923    20305645.3904   20305649.8684
       214.0004        215.0004
  -5048439.11247  -3916591.82245  24075967.603    24075967.4814   24075971.7044
       156.0004        160.0004
  -8788455.45548  -6829330.21846  22831636.808    22831637.4044   22831643.7234
       178.0004        179.0004
 -11588985.41348  -9015367.02647  22078568.171    22078568.3684   22078572.8144
       190.0004        191.0004
  -4864690.20848  -3782233.06246  22871372.578    22871373.5604   22871378.1154
       168.0004        171.0004
 -21234758.64249 -16531368.10747  20768342.429    20768343.2854   20768350.9514
       200.0004        200.0004
 -17558325.88049 -13653300.38147  21337089.457    21337089.5814   21337096.8104
       201.0004        202.0004
 21  2  1  2  4  0.0000000  0 10G28G21G08G07G19G09G17G14G01G30
  -2959024.17247  -2297514.15745  23391255.528    23391255.5244   23391258.7164
       157.0004        159.0004
 -12848857.26748 -10005506.17646  22500139.619    22500139.4774   22500143.7874
       172.0004        173.0004
  -3105153.44248  -2404084.39846  24073519.152    24073519.8324   24073530.2834
       175.0004        175.0004
 -24207131.27149 -18843019.76948  20300862.934    20300863.5414   20300867.5334
       214.0004        215.0004
  -5128729.14747  -3979155.44845  24060689.517    24060688.5964   24060693.2104
       159.0004        162.0004
  -8709230.39648  -6767596.40146  22846712.994    22846713.0814   22846719.9984
       177.0004        177.0004
 -11631813.93648  -9048739.89747  22070417.534    22070418.0854   22070423.0554
       190.0004        191.0004
  -4894241.48548  -3805260.02246  22865749.377    22865750.3194   22865754.3684
       170.0004        171.0004
 -21244128.04349 -16538668.93247  20766559.391    20766560.1434   20766567.9064
       200.0004        200.0004
 -17628861.63749 -13708263.30647  21323667.641    21323667.3534   21323674.4304
       202.0004        203.0004
 21  2  1  2  4 30.0000000  0 10G28G21G08G07G19G09G17G14G01G30
  -2978539.90047  -2312721.20745  23387541.316    23387540.8254   23387545.3984
       154.0004        156.0004
 -12788258.48148  -9958286.33646  22511672.084    22511670.6184   22511675.0084
       172.0004        173.0004
  -3012025.67948  -2331517.32446  24091242.527    24091242.4354   24091251.2304
       173.0004        174.0004
 -24231755.53449 -18862207.51448  20296177.510    20296177.5204   20296181.6674
       214.0004        216.0004
  -5208745.88847  -4041506.13745  24045463.417    24045462.3984   24045465.5724
       158.0004        159.0004
  -8629943.55348  -6705814.43846  22861799.870    22861800.2144   22861806.8904
       175.0004        174.0004
 -11674227.82748  -9081789.66747  22062347.477    22062347.8394   22062351.5474
       191.0004        192.0004
  -4923863.13448  -3828341.83246  22860112.478    22860113.1954   22860117.2854
       169.0004        169.0004
 -21252906.58749 -16545509.35047  20764889.270    20764889.7484   20764897.1274
       200.0004        200.0004
 -17699094.50949 -13762990.22947  21310301.890    21310302.2424   21310308.4534
       202.0004        201.0004
 21  2  1  2  5  0.0000000  0 10G28G21G08G07G19G09G17G14G01G30
  -2998157.86047  -2328007.92745  23383808.154    23383808.8104   23383812.2854
       155.0004        159.0004
 -12727232.44848  -9910733.58746  22523283.871    22523284.0064   22523287.8494
       172.0004        173.0004
  -2918979.72348  -2259013.99846  24108948.566    24108948.4944   24108957.9614
       173.0004        174.0004
 -24255872.65949 -18881000.09048  20291587.696    20291588.2994   20291592.4954
       215.0004        216.0004
  -5288489.42847  -4103643.95045  24030287.110    24030287.0794   24030290.7714
       157.0004        159.0004
  -8550598.66448  -6643987.26046  22876898.736    22876899.2574   22876906.5184
       174.0004        175.0004
 -11716227.84348  -9114516.93847  22054353.700    22054354.6734   22054359.1604
       191.0004        191.0004
  -4953556.34748  -3851479.39946  22854461.306    22854462.2454   22854466.1394
       168.0004        168.0004
 -21261093.93749 -16551889.11047  20763330.991    20763332.1094   20763339.1124
       200.0004        200.0004
 -17769022.65549 -13817479.69947  21296995.767    21296995.4344   21297002.2904
       201.0004        202.0004
 21  2  1  2  5 30.0000000  0 10G28G21G08G07G19G09G17G14G01G30
  -3017878.66547  -2343374.80645  23380055.600    23380054.9154   23380058.9984
       156.0004        159.0004
 -12665780.41348  -9862848.89346  22534978.915    22534978.3484   22534981.7974
       173.0004        174.0004
  -2826017.15748  -2186575.66246  24126641.048    24126640.0174   24126647.2824
       174.0004        175.0004
 -24279480.67849 -18899395.96048  20287095.607    20287095.7684   20287099.9604
       215.0004        216.0004
  -5367958.12047  -4165567.56845  24015165.214    24015164.4574   24015166.6274
       156.0004        158.0004
  -8471198.41748  -6582116.95146  22892008.670    22892008.3684   22892016.3634
       176.0004        178.0004
 -11757813.73748  -9146921.53447  22046440.923    22046440.9974   22046445.8114
       190.0004        190.0004
  -4983321.23748  -3874672.79646  22848796.930    22848798.2794   22848803.2234
       168.0004        168.0004
 -21268688.79049 -16557807.17947  20761885.211    20761886.2454   20761893.8104
       199.0004        199.0004
 -17838643.12749 -13871729.41247  21283747.515    21283747.3224   21283754.5464
       203.0004        203.0004
 21  2  1  2  6  0.0000000  0 10G28G21G08G07G19G09G17G14G01G30
  -3037703.55247  -2358822.75645  23376281.378    23376281.8174   23376285.5564
       154.0004        155.0004
 -12603904.59448  -9814633.97046  22546752.844    22546752.3284   22546756.0774
       173.0004        175.0004
  -2733140.36148  -2114204.16346  24144313.574    24144314.0944   24144322.4214
       175.0004        176.0004
 -24302577.68749 -18917393.63748  20282700.067    20282700.4014   20282704.6874
       215.0004        216.0004
  -5447151.20147  -4227276.43845  24000095.558    24000094.0454   24000096.1404
       155.0004        157.0004
  -8391746.07348  -6520206.04546  22907128.078    22907128.7264   22907136.7314
       177.0004        180.0004
 -11798986.25748  -9179004.00447  22038605.711    22038606.1454   22038610.0324
       189.0004        189.0004
  -5013158.53148  -3897922.64546  22843119.957    22843120.8604   22843124.5464
       168.0004        169.0004
 -21275690.40349 -16563262.97947  20760553.729    20760554.2644   20760561.3814
       200.0004        200.0004
 -17907953.64649 -13925737.60947  21270557.761    21270557.7404   21270564.6414
       203.0004        203.0004
 21  2  1  2  6 30.0000000  0 10G28G21G08G07G19G09G17G14G01G30
  -3057632.71047  -2374351.98645  23372490.186    23372489.8594   23372494.7094
       154.0004        157.0004
 -12541605.90548  -9766089.52746  22558608.528    22558607.5204   22558612.1664
       174.0004        174.0004
  -2640350.88048  -2041900.72246  24161971.920    24161972.0154   24161979.9724
       175.0004        176.0004
 -24325161.59249 -18934991.49148  20278402.450    20278402.9464   20278407.0444
       215.0004        216.0004
  -5526066.93147  -4288769.19145  23985077.976    23985077.8014   23985079.7504
       157.0004        160.0004
  -8312244.02548  -6458256.39746  22922256.115    22922256.4704   22922263.8864
       177.0004        176.0004
 -11839744.89248  -9210763.97147  22030850.256    22030850.3894   22030854.4494
       189.0004        189.0004
  -5043068.10348  -3921228.81346  22837428.428    22837427.9754   22837433.3134
       169.0004        169.0004
 -21282097.24549 -16568255.31547  20759334.162    20759334.6114   20759342.5554
       199.0004        200.0004
 -17976951.08449 -13979501.84947  21257428.565    21257428.0864   21257434.9744
       202.0004        203.0004
 21  2  1  2  7  0.0000000  0 10G28G21G08G07G19G09G17G14G01G30
  -3077667.29047  -2389963.35145  23368677.885    23368677.9744   23368681.6114
       154.0004        157.0004
 -12478886.92448  -9717217.60046  22570543.385    22570543.5414   22570546.8254
       175.0004        176.0004
  -2547650.70548  -1969666.84646  24179611.159    24179611.3764   24179620.0584
       176.0004        177.0004
 -24347230.96849 -18952188.42448  20274203.537    20274203.6924   20274207.3334
       215.0004        216.0004
  -5604704.83447  -4350045.43945  23970112.614    23970112.6764   23970117.0654
       158.0004        160.0004
  -8232695.41248  -6396270.47646  22937394.352    22937394.9894   22937401.0604
       175.0004        174.0004
 -11880089.80948  -9242201.55547  22023172.162    22023172.3824   22023177.1064
       189.0004        189.0004
  -5073050.54548  -3944591.74446  22831722.404    22831722.9054   22831727.9634
       168.0004        170.0004
 -21287908.57249 -16572783.61647  20758228.471    20758229.1444   20758236.7754
       199.0004        200.0004
 -18045633.04649 -14033020.26147  21244357.648    21244358.0584   21244365.3984
       202.0004        203.0004
 21  2  1  2  7 30.0000000  0 10G28G21G08G07G19G09G17G14G01G30
  -3097807.53947  -2405657.02045  23364845.094    23364845.3274   23364849.2664
       154.0004        157.0004
 -12415748.00648  -9668018.45146  22582559.090    22582558.3594   22582561.9784
       175.0004        175.0004
  -2455040.03648  -1897502.72846  24197232.972    24197234.2144   24197243.1014
       174.0004        174.0004
 -24368783.06249 -18968982.26848  20270102.296    20270102.4054   20270106.4024
       215.0004        217.0004
  -5683062.61547  -4411103.40645  23955202.166    23955201.4264   23955205.4524
       157.0004        159.0004
  -8153102.20948  -6334249.77846  22952540.741    22952541.1084   22952546.3734
       173.0004        173.0004
 -11920020.97048  -9273316.75147  22015573.915    22015574.4224   22015578.8144
       189.0004        190.0004
  -5103105.19248  -3968010.98146  22826003.408    22826004.1784   22826008.0554
       169.0004        170.0004
 -21293122.47649 -16576846.39047  20757236.306    20757236.7484   20757244.2704
       199.0004        200.0004
 -18113995.96249 -14086290.06547  21231348.827    21231349.0034   21231356.2594
       203.0004        203.0004
 21  2  1  2  8  0.0000000  0 10G28G21G08G07G19G09G17G14G01G30
  -3118054.60447  -2421433.97145  23360991.601    23360991.8604   23360996.2774
       154.0004        157.0004
 -12352191.60648  -9618493.98946  22594652.796    22594652.5614   22594656.8404
       175.0004        176.0004
  -2362521.88348  -1825410.68746  24214838.606    24214840.2664   24214848.4314
       173.0004        174.0004
 -24389816.74849 -18985372.16348  20266099.414    20266099.5084   20266103.6364
       215.0004        216.0004
  -5761139.80947  -4471942.76145  23940346.154    23940344.6904   23940348.7554
       159.0004        161.0004
  -8073467.83348  -6272197.01246  22967694.504    22967695.3694   22967701.1344
       173.0004        175.0004
 -11959538.79448  -9304109.84047  22008053.356    22008054.0904   22008058.5764
       190.0004        190.0004
  -5133233.04648  -3991487.21146  22820270.404    22820270.7094   22820275.9734
       168.0004        168.0004
 -21297738.53549 -16580443.31747  20756357.912    20756358.3814   20756366.0354
       199.0004        200.0004
 -18182037.69649 -14139309.60247  21218401.406    21218401.3534   21218408.5304
       203.0004        204.0004
 21  2  1  2  8 30.0000000  0 10G28G21G08G07G19G09G17G14G01G30
  -3138408.98947  -2437294.51945  23357118.858    23357118.3664   23357122.8064
       156.0004        158.0004
 -12288219.03048  -9568645.23846  22606826.506    22606825.7534   22606830.5014
       176.0004        177.0004
  -2270097.24248  -1753391.52446  24232426.874    24232427.9104   24232437.2684
       175.0004        177.0004
 -24410329.81449 -19001356.38348  20262195.661    20262196.1664   20262199.9814
       215.0004        216.0004
  -5838935.02347  -4532562.35845  23925540.877    23925540.3284   23925544.2114
       158.0004        159.0004
  -7993794.76548  -6210114.11946  22982855.621    22982855.8134   22982862.8544
       174.0004        175.0004
 -11998643.14748  -9334580.75247  22000612.022    22000612.4224   22000616.7344
       189.0004        189.0004
  -5163433.99348  -4015020.40446  22814522.319    22814524.2324   22814528.9924
       169.0004        170.0004
 -21301755.51349 -16583573.42247  20755593.682    20755594.3644   20755601.9534
       200.0004        200.0004
 -18249755.26749 -14192076.54047  21205515.588    21205515.3484   21205522.2974
       204.0004        205.0004
 21  2  1  2  9  0.0000000  0 10G28G21G08G07G19G09G17G14G01G30
  -3158871.73247  -2453239.52445  23353225.118    23353224.7594   23353228.1254
       154.0004        157.0004
 -12223832.16648  -9518473.66646  22619078.286    22619078.4744   22619082.8154
       176.0004        177.0004
  -2177768.03948  -1681446.73646  24249997.219    24249997.1414   24250006.2294
       173.0004        173.0004
 -24430320.38549 -19016933.46148  20258391.651    20258392.0044   20258396.0744
       215.0004        217.0004
  -5916447.23547  -4592961.45046  23910791.116    23910790.8344   23910793.8644
       160.0004        163.0004
  -7914086.01048  -6148003.40646  22998022.987    22998023.1484   22998030.7384
       174.0004        174.0004
 -12037334.91048  -9364730.16647  21993249.064    21993249.3484   21993253.8504
       189.0004        189.0004
  -5193708.34448  -4038610.82246  22808763.133    22808763.0424   22808768.1454
       168.0004        169.0004
 -21305172.54849 -16586236.03347  20754943.413    20754944.0164   20754951.4324
       200.0004        200.0004
 -18317146.11049 -14244588.88547  21192690.692    21192690.7964   21192697.5864
       204.0004        204.0004
 21  2  1  2  9 30.0000000  0 10G28G21G08G07G19G09G17G14G01G30
  -3179443.94947  -2469269.81445  23349311.337    23349310.5574   23349314.3674
       155.0004        158.0004
 -12159033.20548  -9467980.97046  22631410.266    22631408.7544   22631414.3234
       176.0004        178.0004
  -2085536.72448  -1609578.23546  24267550.833    24267550.0494   24267557.5084
       176.0004        177.0004
 -24449787.49349 -19032102.64148  20254687.023    20254687.2904   20254691.7564
       215.0004        217.0004
  -5993676.01347  -4653139.70946  23896095.143    23896094.6944   23896098.4754
       161.0004        163.0004
  -7834344.89448  -6085867.44746  23013197.616    23013197.1584   23013205.3244
       173.0004        175.0004
 -12075614.39048  -9394558.33047  21985966.114    21985966.1764   21985969.6764
       189.0004        191.0004
  -5224056.97348  -4062259.06646  22802984.844    22802986.3864   22802992.3334
       167.0004        168.0004
 -21307989.26949 -16588430.88047  20754406.634    20754407.7184   20754415.6514
       200.0004        200.0004
 -18384208.09149 -14296844.97347  21179929.188    21179929.3864   21179936.3364
       204.0004        204.0004
 21  2  1  2 10  0.0000000  0 10G28G21G08G07G19G09G17G14G01G30
  -3200126.07647  -2485385.73345  23345372.507    23345373.7794   23345379.7834
       155.0004        158.0004
 -12093823.92448  -9417168.55946  22643818.048    22643818.1334   22643824.1124
       177.0004        177.0004
  -1993404.15048  -1537786.66546  24285079.649    24285080.9224   24285089.1804
       173.0004        173.0004
 -24468728.84249 -19046862.13948  20251082.677    20251082.9334   20251087.0154
       215.0004        216.0004
  -6070619.81047  -4713095.85146  23881453.175    23881452.8604   23881456.4924
       161.0004        163.0004
  -7754573.67048  -6023708.05846  23028378.539    23028378.2064   23028383.9714
       174.0004        175.0004
 -12113481.52748  -9424065.17547  21978758.735    21978759.6834   21978764.6724
       190.0004        191.0004
  -5254479.52148  -4085964.94346  22797199.541    22797199.5974   22797203.1974
       169.0004        171.0004
 -21310204.27249 -16590156.84547  20753986.075    20753986.4534   20753994.0794
       200.0004        201.0004
 -18450938.04549 -14348842.33347  21167230.879    21167231.0384   21167238.2354
       204.0004        205.0004
 21  2  1  2 10 30.0000000  0 10G28G21G08G07G19G09G17G14G01G30
  -3220919.10047  -2501588.09145  23341417.211    23341416.6484   23341422.7544
       155.0004        158.0004
 -12028206.10248  -9366037.81746  22656305.248    22656303.6924   22656309.4954
       177.0004        177.0004
  -1901372.65948  -1466073.86346  24302593.396    24302594.3994   24302602.6234
       174.0004        176.0004
 -24487143.27049 -19061211.06248  20247578.685    20247579.1094   20247582.9734
       215.0004        217.0004
  -6147278.13347  -4772829.57946  23866866.136    23866864.4004   23866869.6594
       161.0004        163.0004
  -7674775.69248  -5961527.79946  23043563.905    23043563.3344   23043570.1544
       174.0004        175.0004
 -12150937.29948  -9453251.48347  21971631.235    21971631.8424   21971636.2284
       190.0004        190.0004
  -5284976.78348  -4109729.06146  22791394.656    22791395.1874   22791398.8124
       169.0004        169.0004
 -21311817.26349 -16591413.71447  20753678.896    20753679.3304   20753686.6234
       200.0004        200.0004
 -18517333.79249 -14400579.27947  21154596.462    21154596.5974   21154603.4794
       205.0004        206.0004
 21  2  1  2 11  0.0000000  0 10G28G21G08G07G19G09G17G14G01G30
  -3241823.06547  -2517876.90145  23337439.960    23337439.3794   23337443.9584
       155.0004        157.0004
 -11962180.50448  -9314589.30646  22668869.278    22668869.1164   22668874.1294
       176.0004        177.0004
  -1809442.85448  -1394440.26646  24320088.506    24320086.6354   24320097.0644
       172.0004        171.0004
 -24505028.19549 -19075147.36748  20244175.079    20244175.5184   20244179.8994
       216.0004        217.0004
  -6223649.18247  -4832339.46645  23852331.452    23852331.4124   23852335.7734
       160.0004        161.0004
  -7594952.85048  -5899328.17846  23058752.170    23058752.8514   23058759.8024
       173.0004        172.0004
 -12187981.12848  -9482116.80547  21964582.754    21964583.0024   21964588.1604
       191.0004        192.0004
  -5315548.04948  -4133550.83246  22785577.017    22785577.7564   22785582.4004
       168.0004        168.0004
 -21312826.54349 -16592200.15347  20753486.573    20753487.3164   20753494.8824
       200.0004        201.0004
 -18583391.74549 -14452053.00947  21142026.080    21142025.9074   21142032.8254
       205.0004        204.0004
 21  2  1  2 11 30.0000000  0 10G28G21G08G07G19G09G17G14G01G30
  -3262838.56547  -2534252.60845  23333439.478    23333439.3394   23333444.0314
       154.0004        156.0004
 -11895749.22248  -9262824.69346  22681510.802    22681510.3014   22681516.1744
       176.0004        177.0004
  -1717616.47648  -1322887.30546  24337561.556    24337560.2234   24337569.9684
       168.0004        168.0004
 -24522381.86249 -19088669.73248  20240872.789    20240873.2034   20240877.4554
       216.0004        217.0004
  -6299731.37047  -4891624.25446  23837854.838    23837854.1244   23837857.7164
       160.0004        164.0004
  -7515107.82348  -5837111.30646  23073946.653    23073946.8924   23073953.4894
       172.0004        172.0004
 -12224613.02948  -9510661.14747  21957612.079    21957612.4084   21957616.6484
       192.0004        192.0004
  -5346193.48448  -4157430.39546  22779745.352    22779746.0314   22779751.0714
       168.0004        169.0004
 -21313231.20849 -16592515.48847  20753409.175    20753409.8704   20753417.4534
       200.0004        200.0004
 -18649109.24249 -14503261.45847  21129520.589    21129520.7274   21129527.2864
       205.0004        206.0004
 21  2  1  2 12  0.0000000  0 10G28G21G08G07G19G09G17G14G01G30
  -3283966.80847  -2550716.16145  23329419.494    23329419.8354   23329424.9614
       153.0004        156.0004
 -11828914.37148  -9210745.59346  22694227.890    22694227.8364   22694234.4314
       176.0004        176.0004
  -1625895.57048  -1251416.47846  24355014.947    24355015.6114   24355024.3364
       170.0004        172.0004
 -24539202.88849 -19101777.02648  20237672.336    20237672.4944   20237676.5614
       216.0004        217.0004
  -6375524.23147  -4950683.58046  23823431.160    23823429.6564   23823435.7024
       161.0004        163.0004
  -7435243.87448  -5774879.63746  23089144.295    23089144.0734   23089151.5784
       172.0004        173.0004
 -12260834.12248  -9538885.35047  21950718.717    21950719.1174   21950723.3914
       191.0004        191.0004
  -5376913.78648  -4181368.29046  22773899.979    22773900.7064   22773904.5834
       169.0004        169.0004
 -21313030.89649 -16592359.38947  20753447.859    20753448.2824   20753456.1404
       200.0004        200.0004
 -18714483.95649 -14554202.79047  21117080.495    21117080.6694   21117087.0384
       206.0004        207.0004
 21  2  1  2 12 30.0000000  0 10G28G21G08G07G19G09G17G14G01G30
  -3305207.90947  -2567267.66145  23325378.410    23325377.7324   23325381.6864
       154.0004        157.0004
 -11761677.65748  -9158353.36546  22707023.507    22707022.7984   22707029.5774
       175.0004        176.0004
  -1534280.73348  -1180028.37946  24372448.705    24372449.4144   24372457.4874
       171.0004        172.0004
 -24555489.16249 -19114467.64448  20234572.550    20234573.0684   20234577.3194
       216.0004        217.0004
  -6451026.58047  -5009516.58046  23809063.591    23809063.5154   23809066.8814
       162.0004        164.0004
  -7355363.13548  -5712634.92147  23104344.525    23104345.1204   23104352.0314
       186.0004        190.0004
 -12296644.09748  -9566789.23047  21943903.821    21943904.2284   21943909.2284
       190.0004        190.0004
  -5407708.34448  -4205364.04946  22768038.890    22768039.6684   22768044.9724
       168.0004        170.0004
 -21312224.33449 -16591730.90047  20753601.959    20753602.2154   20753609.5344
       200.0004        200.0004
 -18779512.73149 -14604874.56247  21104705.748    21104705.5414   21104712.6114
       206.0004        207.0004
 21  2  1  2 13  0.0000000  0 10G28G21G08G07G19G09G17G14G01G30
  -3326563.71647  -2583908.54345  23321313.327    23321313.3374   23321318.7464
       153.0004        154.0004
 -11694041.46048  -9105649.85146  22719894.519    22719894.7514   22719899.6614
       176.0004        176.0004
  -1442774.96448  -1108725.19346  24389862.636    24389862.5454   24389870.0704
       170.0004        171.0004
 -24571240.41249 -19126741.35448  20231575.667    20231576.0214   20231580.0974
       216.0004        217.0004
  -6526238.40447  -5068123.14046  23794750.787    23794750.3704   23794753.3294
       162.0004        163.0004
  -7275469.57948  -5650380.19147  23119548.445    23119548.7494   23119556.0864
       191.0004        192.0004
 -12332044.42248  -9594373.88147  21937168.352    21937168.4864   21937172.6154
       191.0004        191.0004
  -5438578.52748  -4229418.71746  22762163.761    22762164.7124   22762170.8394
       167.0004        168.0004
 -21310812.01749 -16590630.37347  20753870.189    20753870.4204   20753877.8194
       200.0004        200.0004
 -18844194.04649 -14655275.57747  21092396.909    21092397.1374   21092403.9684
       207.0004        207.0004
 21  2  1  2 13 30.0000000  0 10G28G21G08G07G19G09G17G14G01G30
  -3348034.29047  -2600638.88445  23317228.794    23317227.7364   23317232.8144
       153.0004        155.0004
 -11626007.10848  -9052636.07146  22732840.849    22732840.5044   22732846.4754
       175.0004        175.0004
  -1351378.96248  -1037507.59146  24407254.672    24407254.5044   24407263.3944
       170.0004        170.0004
 -24586454.55249 -19138596.53348  20228680.153    20228680.6414   20228685.0294
       216.0004        217.0004
  -6601158.26747  -5126502.23346  23780493.846    23780493.5644   23780497.6714
       162.0004        165.0004
  -7195565.37349  -5588117.15747  23134753.597    23134753.8084   23134760.4674
       199.0004        202.0004
 -12367034.84048  -9621639.13547  21930510.041    21930510.7374   21930514.8254
       191.0004        192.0004
  -5469523.92848  -4253532.03146  22756276.251    22756276.6074   22756281.4884
       168.0004        170.0004
 -21308792.59249 -16589056.79247  20754254.439    20754254.9584   20754262.6724
       200.0004        200.0004
 -18908524.66549 -14705403.33847  21080156.046    21080155.7714   21080162.2004
       206.0004        207.0004
 21  2  1  2 14  0.0000000  0 10G28G21G08G07G19G09G17G14G01G30
  -3369621.21147  -2617459.86245  23313119.543    23313120.4044   23313124.7684
       154.0004        157.0004
 -11557577.55948  -8999314.38746  22745862.963    22745862.1514   22745867.6744
       174.0004        175.0004
  -1260095.77648   -966377.86146  24424623.367    24424624.8884   24424633.2494
       169.0004        170.0004
 -24601130.71649 -19150032.52048  20225887.397    20225888.0944   20225892.2194
       216.0004        217.0004
  -6675786.14647  -5184653.80546  23766293.583    23766292.8684   23766296.0534
       164.0004        167.0004
  -7115654.26149  -5525848.75447  23149960.031    23149960.6114   23149966.9664
       200.0004        200.0004
 -12401617.07848  -9648586.32847  21923929.271    21923929.3364   21923934.0154
       191.0004        191.0004
  -5500545.75848  -4277704.88246  22750373.315    22750373.7434   22750378.6454
       170.0004        172.0004
 -21306166.50549 -16587010.49247  20754754.145    20754754.8914   20754762.1654
       200.0004        200.0004
 -18972502.98449 -14755256.58647  21067980.935    21067980.9544   21067987.1494
       207.0004        207.0004
 21  2  1  2 14 30.0000000  0 10G28G21G08G07G19G09G17G14G01G30
  -3391323.64947  -2634370.82745  23308990.816    23308990.5304   23308994.4004
       156.0004        159.0004
 -11488753.70048  -8945685.39446  22758959.348    22758958.4044   22758964.3194
       174.0004        174.0004
  -1168925.04948   -895335.77046  24441975.593    24441975.5304   24441983.8894
       172.0004        173.0004
 -24615265.83849 -19161046.91548  20223198.012    20223198.1184   20223202.3404
       216.0004        217.0004
  -6750119.14847  -5242575.60146  23752147.316    23752147.1874   23752150.9154
       164.0004        164.0004
  -7035737.41849  -5463575.88947  23165166.890    23165167.6394   23165174.2624
       200.0004        201.0004
 -12435789.74648  -9675214.38247  21917426.264    21917426.8084   21917430.3294
       191.0004        192.0004
  -5531642.55948  -4301936.15446  22744456.202    22744456.6454   22744460.9374
       171.0004        171.0004
 -21302931.54149 -16584489.73447  20755370.071    20755370.4834   20755377.2994
       200.0004        200.0004
 -19036124.78749 -14804832.02447  21055873.739    21055873.7154   21055880.3444
       207.0004        207.0004
 21  2  1  2 15  0.0000000  0 10G28G21G08G07G19G09G17G14G01G30
  -3413143.12347  -2651373.02945  23304839.404    23304840.0174   23304843.2394
       157.0004        160.0004
 -11419537.30448  -8891750.54946  22772130.293    22772129.9224   22772135.8534
       173.0004        174.0004
  -1077869.36748   -824383.31946  24459301.985    24459302.4974   24459310.1654
       170.0004        170.0004
 -24628859.48349 -19171639.36848  20220611.030    20220611.2324   20220615.4654
       216.0004        217.0004
  -6824157.65347  -5300267.90646  23738057.967    23738057.8604   23738062.0674
       164.0004        166.0004
  -6955818.22249  -5401301.20247  23180376.690    23180376.6394   23180382.7294
       201.0004        202.0004
 -12469554.19848  -9701524.31447  21911000.506    21911000.9084   21911005.9024
       191.0004        191.0004
  -5562815.12848  -4326226.45446  22738522.793    22738523.8424   22738529.0834
       170.0004        170.0004
 -21299087.83149 -16581494.62647  20756101.061    20756101.7234   20756109.2154
       200.0004        200.0004
 -19099388.12849 -14854128.12847  21043835.679    21043835.8244   21043841.9274
       207.0004        208.0004
 21  2  1  2 15 30.0000000  0 10G28G21G08G07G19G09G17G14G01G30
  -3435080.44447  -2668467.03145  23300663.830    23300663.7924   23300668.8694
       156.0004        157.0004
 -11349930.67748  -8837511.62946  22785376.703    22785376.7004   22785381.8044
       173.0004        174.0004
   -986930.33248   -753521.74946  24476607.889    24476608.0164   24476615.6444
       171.0004        173.0004
 -24641909.65649 -19181808.34748  20218127.947    20218128.3704   20218132.4264
       216.0004        218.0004
  -6897900.27948  -5357729.65646  23724027.712    23724027.1224   23724028.3694
       165.0004        166.0004
  -6875899.55149  -5339026.90447  23195583.517    23195583.5434   23195591.6604
       202.0004        203.0004
 -12502911.17348  -9727516.74847  21904653.303    21904653.5494   21904657.9904
       191.0004        191.0004
  -5594063.63448  -4350575.93746  22732577.425    22732578.1604   22732582.5494
       170.0004        172.0004
 -21294634.88649 -16578024.79647  20756948.244    20756948.9194   20756956.3374
       200.0004        200.0004
 -19162290.48449 -14903142.95447  21031865.541    21031865.8874   21031872.1214
       208.0004        208.0004
 21  2  1  2 16  0.0000000  0 10G28G21G08G07G19G09G17G14G01G30
  -3457135.53647  -2685652.81045  23296466.682    23296466.8934   23296470.9924
       156.0004        158.0004
 -11279935.45248  -8782969.90046  22798696.472    22798695.6804   22798700.7784
       172.0004        172.0004
   -896109.25048   -682752.09146  24493887.797    24493888.6124   24493897.1684
       167.0004        167.0004
 -24654415.32349 -19191553.02048  20215747.533    20215747.8954   20215752.8144
       216.0004        218.0004
  -6971346.16647  -5414960.18246  23710049.896    23710049.7034   23710053.4734
       163.0004        164.0004
  -6795983.85949  -5276754.94047  23210790.526    23210790.8324   23210798.6434
       201.0004        201.0004
 -12535860.65348  -9753191.64547  21898383.403    21898383.3324   21898388.1824
       191.0004        191.0004
  -5625388.03248  -4374984.54346  22726615.978    22726616.7154   22726622.4744
       171.0004        171.0004
 -21289571.99749 -16574079.67647  20757912.198    20757912.5454   20757920.1434
       200.0004        200.0004
 -19224829.03849 -14951874.29447  21019965.032    21019965.0004   21019971.2294
       208.0004        208.0004
 21  2  1  2 16 30.0000000  0 10G28G21G08G07G19G09G17G14G01G30
  -3479309.25047  -2702931.03745  23292247.672    23292247.2604   23292251.8474
       157.0004        158.0004
 -11209553.66048  -8728126.97246  22812088.903    22812089.7654   22812094.3624
       171.0004        171.0004
   -805407.32448   -612075.31346  24511149.734    24511149.9994   24511157.3764
       167.0004        168.0004
 -24666374.64049 -19200871.99148  20213471.962    20213472.3124   20213476.6044
       216.0004        217.0004
  -7044494.56647  -5471958.92445  23696130.574    23696130.3664   23696133.0044
       162.0004        161.0004
  -6716073.92849  -5214487.46847  23225996.970    23225997.0274   23226005.0464
       200.0004        198.0004
 -12568403.26848  -9778549.55547  21892190.516    21892191.0664   21892195.5424
       191.0004        193.0004
  -5656788.38848  -4399452.38846  22720642.258    22720642.1064   22720645.8374
       170.0004        170.0004
 -21283898.68349 -16569658.91747  20758991.256    20758991.9824   20758999.5174
       200.0004        201.0004
 -19287001.21249 -15000320.15247  21008133.808    21008133.8724   21008140.5564
       208.0004        209.0004
 21  2  1  2 17  0.0000000  0 10G28G21G08G07G19G09G17G14G01G30
  -3501602.32347  -2720302.24445  23288006.231    23288005.6474   23288008.1984
       155.0004        157.0004
 -11138787.24648  -8672984.30146  22825556.892    22825555.5884   22825561.1474
       171.0004        172.0004
   -714825.84048   -541492.36146  24528387.309    24528387.2184   24528394.5154
       165.0004        165.0004
 -24677786.12649 -19209764.06448  20211300.501    20211300.7264   20211305.0024
       216.0004        217.0004
  -7117344.43147  -5528725.01445  23682268.525    23682267.2424   23682270.8734
       160.0004        162.0004
  -6636172.28749  -5152226.45547  23241202.987    23241203.0504   23241209.0744
       198.0004        198.0004
 -12600539.52348  -9803590.78147  21886075.477    21886075.6494   21886079.8184
       192.0004        192.0004
  -5688264.75248  -4423979.40746  22714650.519    22714650.9034   22714656.3964
       168.0004        167.0004
 -21277614.37249 -16564762.04247  20760187.211    20760188.1324   20760195.6354
       200.0004        201.0004
 -19348804.27749 -15048478.38347  20996373.139    20996373.2864   20996379.8454
       209.0004        209.0004
 21  2  1  2 17 30.0000000  0 10G28G21G08G07G19G09G17G14G01G30
  -3524016.35347  -2737767.72445  23283740.157    23283740.1004   23283744.1844
       155.0004        157.0004
 -11067639.46648  -8617544.47346  22839095.763    22839095.0064   22839099.0684
       171.0004        171.0004
   -624367.78247   -471005.58445  24545600.594    24545599.7774   24545607.9244
       162.0004        162.0004
 -24688649.59549 -19218229.11748  20209232.686    20209233.3504   20209237.9044
       216.0004        217.0004
  -7189895.73647  -5585258.47146  23668461.495    23668461.2854   23668465.3134
       163.0004        166.0004
  -6556282.74849  -5089974.86347  23256404.610    23256404.8974   23256412.0874
       199.0004        200.0004
 -12632270.86948  -9828316.50047  21880036.339    21880037.2144   21880041.4934
       192.0004        191.0004
  -5719818.15548  -4448566.46546  22708646.484    22708647.0574   22708651.9234
       167.0004        168.0004
 -21270719.72149 -16559389.58547  20761499.915    20761500.2004   20761507.7534
       200.0004        201.0004
 -19410236.71749 -15096347.82247  20984682.481    20984682.6864   20984689.8274
       208.0004        208.0004
 21  2  1  2 18  0.0000000  0 10G28G21G08G07G19G09G17G14G01G30
  -3546550.57947  -2755326.85345  23279451.791    23279451.9144   23279457.3074
       155.0004        158.0004
 -10996110.62148  -8561807.73046  22852705.016    22852705.4514   22852711.0334
       169.0004        169.0004
   -534032.93647   -400614.85946  24562791.252    24562790.7744   24562799.2824
       162.0004        164.0004
 -24698962.24949 -19226264.95948  20207271.122    20207271.1864   20207275.2984
       216.0004        217.0004
  -7262146.83848  -5641557.99846  23654713.160    23654712.1224   23654715.2844
       165.0004        167.0004
  -6476406.72249  -5027733.81947  23271604.232    23271604.7294   23271612.7884
       200.0004        201.0004
 -12663596.97748  -9852726.44247  21874075.398    21874075.7894   21874080.8824
       191.0004        192.0004
  -5751447.38648  -4473212.62846  22702627.627    22702628.5984   22702634.1554
       169.0004        172.0004
 -21263212.97449 -16553540.17047  20762927.922    20762928.4744   20762935.7834
       200.0004        200.0004
 -19471294.60549 -15143925.40547  20973064.330    20973064.2784   20973070.4674
       208.0004        208.0004
