     2.11           OBSERVATION DATA    G (GPS)             RINEX VERSION / TYPE
teqc  2018Jun8                          20210202 03:10:43UTCPGM / RUN BY / DATE
Linux2.6.32-573.12.1.el6.x86_64|x86_64|gcc|Win64-MinGW64|=+ COMMENT
BIT 2 OF LLI FLAGS DATA COLLECTED UNDER A/S CONDITION       COMMENT
-Unknown-                                                   MARKER NAME
CRNO                                                        MARKER NUMBER
-Unknown-           -Unknown-                               OBSERVER / AGENCY
-Unknown-           ASHTECH             -Unknown-           REC # / TYPE / VERS
-Unknown-           -Unknown-                               ANT # / TYPE
   408079.4599 -6158376.9227  1605163.6412                  APPROX POSITION XYZ
        0.0000        0.0000        0.0000                  ANTENNA: DELTA H/E/N
     1     1                                                WAVELENGTH FACT L1/2
     7    L1    L2    C1    P1    P2    S1    S2            # / TYPES OF OBSERV
    30.0000                                                 INTERVAL
Forced Modulo Decimation to 30 seconds                      COMMENT
 SNR is mapped to RINEX snr flag value [1-9]                COMMENT
  L1: 1 -> 1;  90 -> 5; 210 -> 9                            COMMENT
  L2: 1 -> 1; 150 -> 5; 250 -> 9                            COMMENT
pseudorange smoothing corrections not applied               COMMENT
  2021     2     2     0     0   30.0000000     GPS         TIME OF FIRST OBS
                                                            END OF HEADER
 21  2  2  0  0 30.0000000  0  8G30G04G27G21G01G09G08G07
  -1941261.83347  -1485950.30145  24242594.863    24242594.2244   24242601.5724
       151.0004        154.0004
 -15391860.05848 -11965175.60747  21633707.767    21633708.1294   21633714.4264
       190.0004        189.0004
  -6295261.11048  -4887707.10346  23816293.645    23816294.3094   23816301.1884
       180.0004        180.0004
 -12515216.00248  -9375541.05046  21883786.890    21883786.5704   21883792.1114
       178.0004        179.0004
  -8127764.37648  -6315430.55146  22517972.284    22517973.2524   22517982.1464
       168.0004        169.0004
 -19305211.41949 -15026331.43148  20851681.705    20851681.9774   20851688.6984
       213.0004        213.0004
 -19567037.22849 -15225301.05347  21013496.016    21013496.2604   21013503.6934
       200.0004        200.0004
 -13218033.36248 -10282980.42046  22265377.678    22265378.0574   22265382.1204
       186.0004        186.0004
 21  2  2  0  1  0.0000000  0  8G30G04G27G21G01G09G08G07
  -2025879.23447  -1551885.89345  24226492.530    24226492.2364   24226499.6414
       152.0004        154.0004
 -15309994.75448 -11901384.48247  21649285.940    21649286.4264   21649292.9874
       190.0004        189.0004
  -6188372.43748  -4804417.23746  23836633.920    23836634.9284   23836642.4124
       179.0004        180.0004
 -12539201.45948  -9394231.02146  21879222.325    21879222.0644   21879227.7124
       178.0004        179.0004
  -8204162.25748  -6374961.34846  22503434.568    22503434.3604   22503443.7924
       168.0004        169.0004
 -19282974.30749 -15009003.82747  20855912.991    20855913.2514   20855920.0684
       212.0004        212.0004
 -19499162.82049 -15172411.90747  21026410.962    21026411.9524   21026419.9844
       199.0004        199.0004
 -13292912.11248 -10341327.50246  22251128.775    22251128.8024   22251133.5474
       186.0004        187.0004
 21  2  2  0  1 30.0000000  0  8G30G04G27G21G01G09G08G07
  -2110598.57947  -1617900.90645  24210370.761    24210370.5044   24210378.3944
       153.0004        156.0004
 -15227818.71948 -11837351.20647  21664923.154    21664924.4554   21664931.1464
       191.0004        190.0004
  -6081387.60648  -4721052.41246  23856993.618    23856994.0404   23856998.8024
       179.0004        179.0004
 -12562805.44548  -9412623.71046  21874731.024    21874730.0044   21874735.3684
       178.0004        178.0004
  -8280466.17148  -6434418.90946  22488914.464    22488914.8384   22488923.9274
       169.0004        169.0004
 -19260206.25149 -14991262.47648  20860245.437    20860245.7884   20860253.2484
       212.0004        213.0004
 -19430898.45049 -15119218.88747  21039401.322    21039402.2194   21039409.9654
       199.0004        199.0004
 -13367744.89148 -10399638.73446  22236887.494    22236888.2034   22236892.9044
       185.0004        186.0004
 21  2  2  0  2  0.0000000  0  8G30G04G27G21G01G09G08G07
  -2195418.97447  -1683994.68045  24194228.585    24194229.2114   24194237.3164
       154.0004        157.0004
 -15145335.20248 -11773078.35447  21680619.552    21680620.1424   21680626.4684
       191.0004        190.0004
  -5974309.64848  -4637615.07846  23877369.800    23877370.2554   23877376.4774
       179.0004        181.0004
 -12586025.98648  -9430717.62946  21870311.362    21870311.7474   21870316.9874
       178.0004        178.0004
  -8356673.28948  -6493801.05746  22474411.861    22474412.6994   22474422.9324
       169.0004        170.0004
 -19236909.06049 -14973108.82948  20864678.501    20864679.0134   20864686.1534
       212.0004        213.0004
 -19362246.76349 -15065724.07347  21052466.943    21052466.5744   21052474.0684
       199.0004        200.0004
 -13442529.61048 -10457912.53047  22222656.382    22222657.1434   22222661.9394
       186.0004        188.0004
 21  2  2  0  2 30.0000000  0  8G30G04G27G21G01G09G08G07
  -2280337.45247  -1750164.87145  24178069.098    24178070.1914   24178078.0704
       155.0004        157.0004
 -15062545.61448 -11708566.99747  21696374.147    21696374.3374   21696381.0024
       191.0004        189.0004
  -5867139.79448  -4554106.10046  23897762.618    23897763.5544   23897770.5924
       181.0004        181.0004
 -12608859.18648  -9448509.71446  21865965.770    21865966.4254   21865972.1224
       178.0004        179.0004
  -8432778.85848  -6553104.08246  22459929.963    22459931.2884   22459938.6264
       170.0004        171.0004
 -19213082.64449 -14954542.79348  20869213.063    20869213.3524   20869220.2974
       212.0004        213.0004
 -19293209.63249 -15011928.90147  21065603.785    21065603.5934   21065611.0904
       200.0004        200.0004
 -13517263.04548 -10516146.35747  22208435.848    22208436.1694   22208440.5784
       187.0004        188.0004
 21  2  2  0  3  0.0000000  0  8G30G04G27G21G01G09G08G07
  -2365354.14247  -1816411.58545  24161890.979    24161891.4484   24161899.9924
       154.0004        157.0004
 -14979454.19648 -11643820.45647  21712186.446    21712186.7224   21712192.5814
       190.0004        188.0004
  -5759882.34948  -4470528.91346  23918173.151    23918173.2044   23918181.3794
       179.0004        178.0004
 -12631304.66248  -9465999.68946  21861694.542    21861694.4234   21861700.9784
       179.0004        180.0004
  -8508781.10248  -6612326.58646  22445466.632    22445467.7834   22445476.3674
       169.0004        169.0004
 -19188729.90449 -14935566.63148  20873847.195    20873847.3044   20873854.7584
       213.0004        213.0004
 -19223791.03049 -14957836.48247  21078813.063    21078813.2854   21078820.9544
       199.0004        198.0004
 -13591943.75748 -10574339.11147  22194224.845    22194225.0384   22194229.2264
       188.0004        189.0004
 21  2  2  0  3 30.0000000  0  8G30G04G27G21G01G09G08G07
  -2450468.47047  -1882734.39345  24145695.256    24145695.3924   24145703.6354
       155.0004        158.0004
 -14896064.77748 -11578841.69447  21728054.819    21728054.9354   21728061.2214
       190.0004        189.0004
  -5652540.79348  -4386886.13346  23938599.359    23938598.7854   23938608.4824
       177.0004        177.0004
 -12653361.06148  -9483186.47546  21857496.897    21857497.5924   21857503.8274
       178.0004        180.0004
  -8584677.70948  -6671466.79046  22431025.090    22431025.8334   22431034.1674
       169.0004        170.0004
 -19163853.18449 -14916182.18047  20878580.710    20878581.4404   20878588.1234
       212.0004        212.0004
 -19153994.72749 -14903449.75747  21092095.568    21092095.2314   21092102.6914
       198.0004        198.0004
 -13666570.46448 -10632489.78447  22180023.529    22180023.5894   22180028.0014
       188.0004        188.0004
 21  2  2  0  4  0.0000000  0  8G30G04G27G21G01G09G08G07
  -2535678.88547  -1949132.08445  24129479.996    24129480.4344   24129487.8034
       156.0004        159.0004
 -14812380.14048 -11513632.89647  21743978.944    21743979.6984   21743985.8664
       189.0004        189.0004
  -5545117.93148  -4303180.01646  23959043.762    23959042.5634   23959049.2424
       177.0004        179.0004
 -12675026.33548  -9500068.47646  21853376.334    21853375.8414   21853381.3104
       179.0004        179.0004
  -8660465.25448  -6730521.97846  22416602.733    22416603.3494   22416612.8124
       170.0004        172.0004
 -19138453.91449 -14896390.54247  20883414.370    20883414.5384   20883421.8974
       212.0004        212.0004
 -19083823.64649 -14848770.98347  21105447.711    21105448.0044   21105455.8994
       197.0004        197.0004
 -13741140.70348 -10690596.45546  22165833.767    22165834.0064   22165837.4584
       187.0004        186.0004
 21  2  2  0  4 30.0000000  0  8G30G04G27G21G01G09G08G07
  -2620984.68047  -2015604.10245  24113247.063    24113247.2404   24113254.0594
       156.0004        158.0004
 -14728403.86448 -11448196.84346  21759959.361    21759959.6794   21759965.4484
       189.0004        187.0004
  -5437617.05648  -4219413.13246  23979498.673    23979498.0114   23979505.7694
       176.0004        175.0004
 -12696298.88748  -9516644.48946  21849327.181    21849327.2744   21849332.0714
       178.0004        178.0004
  -8736141.24748  -6789490.24246  22402201.658    22402202.3754   22402211.6244
       171.0004        172.0004
 -19112534.31949 -14876193.46247  20888346.343    20888346.8234   20888353.9744
       212.0004        212.0004
 -19013281.14649 -14793802.80347  21118871.262    21118872.0334   21118880.1094
       198.0004        199.0004
 -13815652.50748 -10748657.58547  22151654.018    22151654.3824   22151658.8154
       187.0004        188.0004
 21  2  2  0  5  0.0000000  0  8G30G04G27G21G01G09G08G07
  -2706383.47847  -2082148.58445  24096997.017    24096996.3684   24097002.5694
       156.0004        159.0004
 -14644137.92148 -11382535.07247  21775994.249    21775994.9534   21776001.2964
       188.0004        188.0004
  -5330039.96748  -4135586.87646  23999969.761    23999969.9254   23999977.2024
       174.0004        174.0004
 -12717176.08648  -9532912.41346  21845353.437    21845354.4484   21845358.6794
       178.0004        178.0004
  -8811701.45748  -6848368.28546  22387822.131    22387823.2734   22387832.5694
       171.0004        172.0004
 -19086094.95349 -14855591.36447  20893378.273    20893378.6024   20893385.1484
       212.0004        212.0004
 -18942368.78449 -14738546.42047  21132366.359    21132366.7054   21132374.4554
       198.0004        199.0004
 -13890103.15848 -10806671.06547  22137485.666    22137486.3074   22137491.8824
       189.0004        190.0004
 21  2  2  0  5 30.0000000  0  8G30G04G27G21G01G09G08G07
  -2791872.85047  -2148763.64845  24080727.810    24080728.5504   24080734.2624
       156.0004        158.0004
 -14559584.27148 -11316649.11946  21792084.434    21792084.4354   21792091.0464
       188.0004        187.0004
  -5222388.43748  -4051702.56346  24020453.595    24020454.2344   24020462.4354
       171.0004        171.0004
 -12737654.52448  -9548869.61446  21841457.280    21841457.1284   21841463.0704
       177.0004        177.0004
  -8887141.69148  -6907152.85346  22373467.206    22373467.6304   22373476.6714
       171.0004        173.0004
 -19059136.46649 -14834584.75047  20898508.084    20898508.2754   20898515.5154
       212.0004        212.0004
 -18871088.63549 -14683003.43747  21145930.378    21145930.0684   21145938.2874
       198.0004        198.0004
 -13964489.11048 -10864634.12847  22123331.151    22123332.0874   22123336.4954
       190.0004        191.0004
 21  2  2  0  6  0.0000000  0  8G30G04G27G21G01G09G08G07
  -2877451.77047  -2215448.46745  24064443.579    24064442.6244   24064450.2894
       156.0004        158.0004
 -14474746.29948 -11250541.61946  21808228.183    21808229.1454   21808235.5214
       187.0004        187.0004
  -5114665.63548  -3967762.74546  24040953.259    24040954.0934   24040961.8124
       173.0004        174.0004
 -12757733.49548  -9564515.53746  21837637.106    21837636.7424   21837642.3334
       178.0004        179.0004
  -8962459.17548  -6965841.76546  22359134.390    22359135.4854   22359143.3784
       172.0004        173.0004
 -19031660.92549 -14813175.25247  20903736.048    20903736.8884   20903743.7954
       212.0004        212.0004
 -18799444.02149 -14627176.48247  21159563.123    21159563.7604   21159571.6274
       196.0004        196.0004
 -14038808.39248 -10922545.24247  22109189.085    22109189.1714   22109193.6124
       191.0004        191.0004
 21  2  2  0  6 30.0000000  0  8G30G04G27G21G01G09G08G07
  -2963119.04847  -2282202.12745  24048139.348    24048140.4454   24048148.7654
       157.0004        160.0004
 -14389627.19548 -11184215.06246  21824426.575    21824426.5934   21824433.2474
       187.0004        187.0004
  -5006874.53548  -3883769.69646  24061465.699    24061465.1614   24061473.5494
       171.0004        171.0004
 -12777410.32748  -9579848.10646  21833892.083    21833891.6974   21833897.7094
       179.0004        179.0004
  -9037650.87948  -7024432.68546  22344826.987    22344827.9554   22344835.7934
       172.0004        174.0004
 -19003670.24049 -14791364.32747  20909062.897    20909062.8554   20909070.3654
       212.0004        212.0004
 -18727437.80849 -14571067.74547  21173266.044    21173266.6784   21173274.2014
       196.0004        197.0004
 -14113058.93948 -10980402.80047  22095059.767    22095059.7364   22095064.8844
       190.0004        190.0004
 21  2  2  0  7  0.0000000  0  8G30G04G27G21G01G09G08G07
  -3048873.27647  -2349023.58345  24031821.991    24031822.4704   24031830.8904
       159.0004        162.0004
 -14304229.91948 -11117671.73346  21840676.073    21840676.5614   21840683.7384
       187.0004        185.0004
  -4899017.86848  -3799725.58146  24081989.654    24081989.9434   24081997.4424
       172.0004        173.0004
 -12796683.60348  -9594866.22346  21830224.424    21830224.5204   21830230.7054
       179.0004        179.0004
  -9112713.62148  -7082923.10746  22330543.138    22330544.0294   22330552.0854
       173.0004        174.0004
 -18975166.04649 -14769153.27947  20914486.206    20914487.1814   20914494.5324
       211.0004        212.0004
 -18655073.62149 -14514680.06547  21187036.567    21187036.6934   21187045.0804
       197.0004        197.0004
 -14187238.44048 -11038204.99847  22080943.697    22080943.7844   22080948.7684
       190.0004        190.0004
 21  2  2  0  7 30.0000000  0  9G30G04G27G21G01G17G09G08G07
  -3134713.07947  -2415911.69245  24015488.425    24015488.1454   24015496.2684
       160.0004        162.0004
 -14218557.54048 -11050914.05346  21856979.578    21856979.7184   21856985.5624
       185.0004        183.0004
  -4791098.46548  -3715632.52446  24102524.803    24102526.2164   24102534.6274
       173.0004        174.0004
 -12815551.65048  -9609568.56146  21826633.358    21826633.6564   21826639.9924
       179.0004        180.0004
  -9187644.23648  -7141310.54846  22316283.941    22316284.1324   22316293.7644
       173.0004        175.0004
   1362494.20354   1092428.30945                                  24709222.2474
        74.0004        142.0004
 -18946150.17849 -14746543.51147  20920008.614    20920008.7404   20920016.2514
       212.0004        212.0004
 -18582353.95749 -14458015.37847  21200874.175    21200874.7034   21200882.5794
       197.0004        197.0004
 -14261344.85348 -11095950.23947  22066842.019    22066842.3444   22066846.5194
       191.0004        192.0004
 21  2  2  0  8  0.0000000  0  8G30G04G27G21G01G09G08G07
  -3220637.29747  -2482865.60045  23999135.876    23999136.5234   23999143.9384
       157.0004        158.0004
 -14132613.33248 -10983944.54846  21873334.227    21873334.8334   21873341.4624
       185.0004        184.0004
  -4683119.31448  -3631492.96346  24123073.240    24123074.5054   24123081.3844
       172.0004        172.0004
 -12834012.59848  -9623953.69046  21823120.961    21823120.7714   21823127.2164
       179.0004        179.0004
  -9262439.83748  -7199592.81346  22302049.628    22302050.5374   22302060.7044
       174.0004        175.0004
 -18916624.64049 -14723536.61247  20925627.348    20925627.6004   20925634.6854
       212.0004        212.0004
 -18509281.49749 -14401075.80647  21214779.308    21214779.8304   21214787.8304
       196.0004        196.0004
 -14335375.61448 -11153636.54547  22052754.051    22052755.0604   22052758.9014
       192.0004        192.0004
 21  2  2  0  8 30.0000000  0  8G30G04G27G21G01G09G08G07
  -3306643.69247  -2549883.54745  23982770.929    23982770.4184   23982776.5104
       155.0004        156.0004
 -14046399.59048 -10916765.01546  21889739.925    21889740.5574   21889748.0074
       185.0004        185.0004
  -4575082.46248  -3547308.38446  24143630.844    24143633.2534   24143641.0894
       173.0004        174.0004
 -12852064.04948  -9638019.73246  21819686.807    21819686.4164   21819692.0844
       179.0004        180.0004
  -9337096.47148  -7257766.77646  22287842.748    22287843.5024   22287854.9374
       174.0004        175.0004
 -18886590.52949 -14700133.40747  20931341.993    20931342.5524   20931349.6604
       211.0004        211.0004
 -18435859.44749 -14343863.81947  21228751.638    21228751.7234   21228759.1634
       195.0004        195.0004
 -14409327.98948 -11211261.76247  22038681.524    22038681.4964   22038685.7544
       191.0004        191.0004
 21  2  2  0  9  0.0000000  0  9G30G04G27G21G01G17G09G08G07
  -3392730.98547  -2616964.52445  23966388.620    23966388.9904   23966395.8724
       155.0004        157.0004
 -13959919.50848 -10849377.94346  21906196.932    21906197.3784   21906203.4614
       185.0004        185.0004
  -4466990.79948  -3463081.16546  24164200.806    24164202.0674   24164209.9584
       174.0004        175.0004
 -12869704.34948  -9651765.39146  21816329.561    21816329.4934   21816335.0304
       179.0004        179.0004
  -9411611.09248  -7315830.08946  22273664.307    22273664.7974   22273673.9934
       173.0004        175.0004
  -1286149.13757   -985671.75845  24322981.214    24322980.8145   24322988.3494
       141.0004        147.0004
 -18856049.78849 -14676335.42447  20937153.949    20937154.0194   20937161.7674
       211.0004        211.0004
 -18362090.45849 -14286381.48247  21242789.828    21242789.5894   21242797.0464
       195.0004        195.0004
 -14483199.72448 -11268824.13847  22024623.354    22024624.5784   22024628.8904
       191.0004        190.0004
 21  2  2  0  9 30.0000000  0  9G30G04G27G21G01G17G09G08G07
  -3478902.58347  -2684111.19545  23949989.935    23949990.6024   23949998.3664
       155.0004        158.0004
 -13873180.95048 -10781789.44746  21922702.501    21922702.9154   21922709.6364
       185.0004        183.0004
  -4358851.90348  -3378817.10446  24184778.612    24184780.0654   24184788.1564
       173.0004        174.0004
 -12886936.62948  -9665193.12846  21813049.429    21813049.4104   21813055.2264
       179.0004        179.0004
  -9485985.38148  -7373784.06046  22259511.517    22259512.2064   22259520.3764
       174.0004        176.0004
  -1384629.62747  -1062409.53045  24304239.924    24304239.6584   24304247.0844
       142.0004        147.0004
 -18825009.12049 -14652147.89347  20943060.333    20943061.1864   20943068.4314
       211.0004        211.0004
 -18287982.41949 -14228634.95347  21256891.553    21256892.1404   21256899.2784
       195.0004        196.0004
 -14556993.20748 -11326325.54247  22010581.760    22010581.8474   22010586.2824
       191.0004        191.0004
 21  2  2  0 10  0.0000000  0  9G30G04G27G21G01G17G09G08G07
  -3565150.41747  -2751317.22845  23933577.505    23933576.9184   23933585.0724
       154.0004        156.0004
 -13786180.34048 -10713996.78346  21939258.048    21939258.5494   21939266.2464
       184.0004        184.0004
  -4250661.87548  -3294513.23446  24205367.738    24205367.9284   24205375.7864
       174.0004        175.0004
 -12903752.08448  -9678296.06346  21809849.371    21809849.5804   21809855.6514
       179.0004        180.0004
  -9560209.46848  -7431620.98746  22245386.757    22245387.2954   22245396.1164
       174.0004        175.0004
  -1482899.99847  -1138983.59745  24285538.888    24285540.0114   24285546.3274
       142.0004        145.0004
 -18793463.73749 -14627567.08547  20949064.104    20949064.3204   20949071.1464
       211.0004        212.0004
 -18213531.75649 -14170621.44947  21271059.486    21271059.7144   21271067.0714
       195.0004        196.0004
 -14630699.87648 -11383759.29647  21996555.682    21996556.0904   21996560.4314
       191.0004        192.0004
 21  2  2  0 10 30.0000000  0  9G30G04G27G21G01G17G09G08G07
  -3651473.32747  -2818581.78245  23917150.190    23917150.0544   23917158.2324
       154.0004        157.0004
 -13698921.11948 -10646002.59846  21955863.273    21955863.7454   21955870.3054
       185.0004        184.0004
  -4142423.88048  -3210171.95746  24225964.659    24225965.8564   24225972.8164
       175.0004        177.0004
 -12920149.62148  -9691073.32546  21806729.598    21806729.2974   21806735.5434
       180.0004        180.0004
  -9634280.49748  -7489338.63646  22231290.803    22231292.2564   22231300.7214
       175.0004        176.0004
  -1580958.22847  -1215392.37945  24266878.628    24266880.6034   24266886.5054
       142.0004        146.0004
 -18761415.88949 -14602594.74147  20955161.835    20955162.8374   20955169.8254
       211.0004        211.0004
 -18138741.48649 -14112343.32347  21285292.023    21285291.9884   21285299.4654
       196.0004        196.0004
 -14704317.54848 -11441123.71947  21982547.532    21982546.7404   21982551.0794
       192.0004        192.0004
 21  2  2  0 11  0.0000000  0  9G30G04G27G21G01G17G09G08G07
  -3737870.78847  -2885904.45445  23900710.343    23900710.4354   23900717.6334
       156.0004        159.0004
 -13611407.22748 -10577809.97046  21972517.217    21972517.1194   21972523.8924
       184.0004        183.0004
  -4034141.38248  -3125796.01346  24246571.000    24246571.6884   24246577.7394
       176.0004        177.0004
 -12936128.15048  -9703524.11046  21803689.456    21803688.9764   21803694.5034
       180.0004        179.0004
  -9708196.33348  -7546935.36146  22217225.224    22217226.4474   22217235.0184
       175.0004        176.0004
  -1678803.71347  -1291635.39845  24248258.917    24248259.3104   24248267.6134
       140.0004        143.0004
 -18728868.46149 -14577233.11447  20961355.965    20961356.0984   20961363.5294
       211.0004        212.0004
 -18063615.86749 -14053803.87347  21299586.483    21299586.8714   21299595.2894
       195.0004        195.0004
 -14777844.64748 -11498417.54647  21968553.984    21968555.1574   21968558.7944
       191.0004        191.0004
 21  2  2  0 11 30.0000000  0  9G30G04G27G21G01G17G09G08G07
  -3824341.21647  -2953283.96345  23884255.939    23884255.4214   23884263.0144
       157.0004        160.0004
 -13523641.62148 -10509421.18846  21989217.767    21989218.3184   21989224.7454
       184.0004        183.0004
  -3925817.20248  -3041387.56846  24267184.988    24267185.4704   24267192.2394
       178.0004        179.0004
 -12951686.00148  -9715647.07546  21800727.793    21800728.1944   21800734.2814
       180.0004        180.0004
  -9781953.59348  -7604408.52846  22203190.642    22203190.5074   22203200.1884
       176.0004        176.0004
  -1776433.55247  -1367710.36845  24229681.180    24229682.8954   24229689.0634
       136.0004        139.0004
 -18695823.25949 -14551483.60547  20967644.312    20967644.3364   20967651.8784
       211.0004        212.0004
 -17988157.66648 -13995005.27347  21313945.499    21313946.5314   21313954.5454
       194.0004        194.0004
 -14851278.81448 -11555638.96747  21954580.865    21954581.4034   21954585.2884
       191.0004        192.0004
 21  2  2  0 12  0.0000000  0  9G30G04G27G21G01G17G09G08G07
  -3910883.84547  -3020719.72945  23867786.322    23867786.5074   23867794.3844
       156.0004        157.0004
 -13435628.08748 -10440839.21446  22005965.500    22005966.4094   22005973.2194
       184.0004        184.0004
  -3817454.64648  -2956949.25446  24287804.836    24287805.7324   24287811.8604
       177.0004        177.0004
 -12966822.30548  -9727441.57046  21797848.326    21797848.1264   21797853.6594
       181.0004        181.0004
  -9855549.73948  -7661756.15246  22189185.429    22189185.1634   22189195.0024
       176.0004        178.0004
  -1873845.56746  -1443615.68145  24211143.011    24211142.8304   24211151.2944
       133.0004        138.0004
 -18662282.93949 -14525348.29047  20974026.790    20974026.8434   20974034.1314
       211.0004        212.0004
 -17912370.42449 -13935950.28747  21328369.063    21328369.3974   21328376.0374
       195.0004        196.0004
 -14924618.14648 -11612786.48847  21940624.561    21940625.1184   21940629.6964
       192.0004        192.0004
 21  2  2  0 12 30.0000000  0  9G30G04G27G21G01G17G09G08G07
  -3997495.62347  -3088209.39645  23851305.038    23851305.1404   23851313.0034
       155.0004        156.0004
 -13347368.18848 -10372065.28846  22022761.380    22022762.2284   22022769.1674
       184.0004        183.0004
  -3709054.90248  -2872481.93846  24308433.339    24308433.7124   24308439.4864
       173.0004        173.0004
 -12981533.98648  -9738905.19246  21795049.081    21795048.7884   21795055.1274
       181.0004        182.0004
  -9928980.15548  -7718974.63546  22175211.672    22175212.6384   22175221.6634
       177.0004        177.0004
  -1971037.56447  -1519349.52845  24192648.466    24192648.6244   24192656.8214
       135.0004        142.0004
 -18628248.02449 -14498827.58348  20980503.575    20980504.2044   20980510.6434
       211.0004        213.0004
 -17836255.76649 -13876640.15647  21342853.571    21342853.6704   21342860.8384
       196.0004        197.0004
 -14997858.71048 -11669857.04247  21926688.210    21926688.7974   21926692.7744
       193.0004        194.0004
 21  2  2  0 13  0.0000000  0  9G30G04G27G21G01G17G09G08G07
  -4084175.78547  -3155752.36045  23834810.629    23834811.2124   23834818.3714
       154.0004        155.0004
 -13258865.78748 -10303102.38746  22039602.622    22039602.9844   22039609.3964
       183.0004        182.0004
  -3600621.43848  -2787988.33346  24329069.383    24329067.9114   24329074.2124
       172.0004        173.0004
 -12995820.28448  -9750037.33846  21792331.373    21792330.1694   21792336.0584
       181.0004        181.0004
 -10002242.30048  -7776062.00346  22161270.978    22161271.0664   22161280.0604
       177.0004        177.0004
  -2068007.88347  -1594910.60845  24174196.575    24174196.7644   24174202.7154
       140.0004        146.0004
 -18593721.23649 -14471923.59947  20987074.165    20987074.3294   20987080.9394
       211.0004        211.0004
 -17759817.47849 -13817077.85347  21357398.617    21357399.0614   21357406.2034
       195.0004        195.0004
 -15070999.26948 -11726849.68047  21912770.499    21912770.2024   21912774.2924
       194.0004        193.0004
 21  2  2  0 13 30.0000000  0  9G30G04G27G21G01G17G09G08G07
  -4170923.17447  -3223347.70845  23818303.339    23818303.7534   23818310.1944
       153.0004        155.0004
 -13170124.28448 -10233953.17046  22056489.484    22056490.0614   22056497.0694
       183.0004        183.0004
  -3492157.27848  -2703470.85646  24349708.189    24349708.1444   24349713.1824
       169.0004        169.0004
 -13009679.56848  -9760836.75246  21789692.415    21789692.0054   21789698.0774
       180.0004        180.0004
 -10075333.45548  -7833016.11446  22147360.407    22147361.7154   22147371.5294
       176.0004        176.0004
  -2164754.23347  -1670297.19745  24155786.506    24155786.3954   24155793.2364
       143.0004        147.0004
 -18558705.00049 -14444638.22047  20993736.817    20993737.5794   20993744.2274
       211.0004        211.0004
 -17683059.02249 -13757266.07247  21372005.543    21372005.9834   21372012.8014
       195.0004        195.0004
 -15144037.38448 -11783762.48547  21898869.603    21898870.8294   21898875.7094
       193.0004        193.0004
 21  2  2  0 14  0.0000000  0  9G30G04G27G21G01G17G09G08G07
  -4257735.88747  -3290993.90545  23801781.902    23801782.6134   23801791.0004
       152.0004        155.0004
 -13081146.39248 -10164619.75246  22073420.613    22073421.6984   22073428.6254
       183.0004        183.0004
  -3383664.83648  -2618931.25346  24370354.048    24370353.5084   24370359.6924
       169.0004        170.0004
 -13023109.75148  -9771301.79846  21787135.618    21787136.2764   21787141.5324
       180.0004        180.0004
 -10148249.98548  -7889834.14246  22133484.751    22133485.5854   22133496.1844
       176.0004        177.0004
  -2261274.16647  -1745507.36145  24137418.791    24137418.5984   24137426.6224
       145.0004        149.0004
 -18523200.92749 -14416972.70847  21000492.741    21000493.3664   21000501.0654
       211.0004        211.0004
 -17605983.35449 -13697207.10347  21386672.164    21386672.4464   21386680.1704
       195.0004        195.0004
 -15216970.57648 -11840593.53747  21884991.489    21884992.0634   21884997.0004
       193.0004        193.0004
 21  2  2  0 14 30.0000000  0  9G30G04G27G21G01G17G09G08G07
  -4344612.03547  -3358689.56845  23785251.359    23785251.2964   23785258.7864
       155.0004        158.0004
 -12991934.88748 -10095104.30746  22090397.863    22090398.6314   22090405.6654
       183.0004        183.0004
  -3275146.33748  -2534371.42646  24391003.273    24391003.9094   24391010.5514
       170.0004        171.0004
 -13036109.50348  -9781431.43746  21784662.516    21784662.1864   21784668.0804
       180.0004        179.0004
 -10220988.35448  -7946513.36046  22119644.176    22119645.0104   22119654.3684
       176.0004        178.0004
  -2357565.36447  -1820539.31445  24119094.215    24119095.0184   24119102.8124
       146.0004        150.0004
 -18487210.84949 -14388928.49147  21007341.827    21007342.2254   21007349.4894
       211.0004        211.0004
 -17528592.20848 -13636902.31447  21401399.761    21401399.6904   21401407.3694
       194.0004        195.0004
 -15289796.20148 -11897340.75747  21871133.531    21871133.7204   21871138.5464
       193.0004        193.0004
 21  2  2  0 15  0.0000000  0  9G30G04G27G21G01G17G09G08G07
  -4431549.40547  -3426432.97245  23768708.315    23768707.5754   23768714.7804
       156.0004        159.0004
 -12902492.27048 -10025408.78646  22107418.771    22107418.6094   22107425.8654
       183.0004        184.0004
  -3166603.81248  -2449792.90046  24411658.233    24411658.8524   24411665.3214
       170.0004        171.0004
 -13048676.25848  -9791223.70146  21782272.174    21782271.7174   21782277.1744
       180.0004        181.0004
 -10293544.79648  -8003050.81846  22105837.858    22105838.4334   22105846.1204
       176.0004        177.0004
  -2453625.36547  -1895391.11545  24100814.069    24100814.6354   24100821.6654
       146.0004        150.0004
 -18450736.22649 -14360506.71747  21014282.654    21014283.0354   21014290.2394
       210.0004        210.0004
 -17450888.77548 -13576354.18247  21416186.456    21416186.5344   21416193.3454
       194.0004        195.0004
 -15362511.17648 -11954001.77247  21857296.390    21857297.0384   21857301.8714
       193.0004        194.0004
 21  2  2  0 15 30.0000000  0  9G30G04G27G21G01G17G09G08G07
  -4518547.31847  -3494223.49145  23752151.902    23752151.5524   23752160.2454
       157.0004        159.0004
 -12812822.36848  -9955536.12646  22124482.561    22124483.2324   22124488.7104
       183.0004        182.0004
  -3058040.76048  -2365198.31746  24432315.714    24432316.9894   24432323.9544
       169.0004        170.0004
 -13060809.22748  -9800677.93246  21779962.783    21779962.8244   21779968.0014
       181.0004        182.0004
 -10365916.90448  -8059444.64046  22092065.412    22092065.8164   22092074.7694
       177.0004        179.0004
  -2549452.71747  -1970061.59545  24082579.101    24082579.8154   24082586.3954
       148.0004        152.0004
 -18413779.89849 -14331709.58247  21021314.736    21021315.2134   21021322.7764
       209.0004        209.0004
 -17372876.77948 -13515565.60347  21431031.298    21431031.6104   21431038.5434
       194.0004        195.0004
 -15435113.83048 -12010575.26047  21843481.199    21843481.1544   21843485.9054
       194.0004        195.0004
 21  2  2  0 16  0.0000000  0  9G30G04G27G21G01G17G09G08G07
  -4605603.46647  -3562059.39045  23735586.380    23735586.2844   23735594.0524
       158.0004        160.0004
 -12722927.63748  -9885488.29546  22141589.317    22141589.7954   22141596.1274
       184.0004        184.0004
  -2949459.02348  -2280589.21846  24452979.061    24452979.7594   24452987.7154
       167.0004        168.0004
 -13072506.30948  -9809792.51446  21777737.522    21777737.2974   21777742.8654
       181.0004        182.0004
 -10438100.72848  -8115691.73946  22078329.315    22078330.1874   22078338.7394
       178.0004        179.0004
  -2645044.24947  -2044548.36245  24064388.100    24064389.4144   24064396.1074
       152.0004        155.0004
 -18376343.38349 -14302538.26947  21028438.925    21028439.2084   21028447.0164
       209.0004        209.0004
 -17294558.08848 -13454538.04747  21445933.639    21445934.3334   21445942.5684
       194.0004        194.0004
 -15507600.90548 -12067058.68347  21829686.479    21829687.1504   21829692.0854
       194.0004        194.0004
 21  2  2  0 16 30.0000000  0  9G30G04G27G21G01G17G09G08G07
  -4692716.89847  -3629939.97045  23719008.285    23719008.2114   23719016.0634
       158.0004        159.0004
 -12632811.80748  -9815268.18446  22158737.905    22158737.8694   22158744.8434
       183.0004        182.0004
  -2840862.18248  -2195968.34646  24473644.718    24473645.3404   24473651.9164
       168.0004        170.0004
 -13083766.74348  -9818566.85946  21775594.291    21775593.7744   21775600.1994
       182.0004        183.0004
 -10510093.75748  -8171790.18746  22064629.935    22064630.2384   22064639.9934
       179.0004        180.0004
  -2740398.80647  -2118850.50345  24046244.479    24046244.2254   24046250.3784
       154.0004        157.0004
 -18338429.47049 -14272994.97047  21035653.354    21035653.6264   21035661.1254
       208.0004        209.0004
 -17215937.09448 -13393274.94647  21460895.682    21460896.0664   21460903.1034
       193.0004        194.0004
 -15579970.62348 -12123450.65147  21815914.938    21815915.7384   21815920.4874
       194.0004        194.0004
 21  2  2  0 17  0.0000000  0  9G30G04G27G21G01G17G09G08G07
  -4779886.08447  -3697863.97945  23702420.739    23702420.8894   23702428.9884
       156.0004        158.0004
 -12542477.96148  -9744878.18246  22175926.831    22175927.4274   22175933.6904
       182.0004        180.0004
  -2732252.67648  -2111337.59546  24494311.369    24494312.3814   24494320.7064
       168.0004        168.0004
 -13094589.00548  -9826999.76546  21773533.694    21773533.6554   21773540.3994
       182.0004        182.0004
 -10581892.81348  -8227737.48746  22050966.105    22050966.7604   22050976.2064
       179.0004        178.0004
  -2835514.42247  -2192966.43145  24028143.281    24028144.1424   24028149.6564
       152.0004        154.0004
 -18300040.32649 -14243081.35847  21042959.078    21042959.1234   21042966.5794
       208.0004        209.0004
 -17137016.48148 -13331778.36647  21475914.832    21475914.6834   21475921.0714
       194.0004        194.0004
 -15652220.89548 -12179749.57047  21802166.678    21802167.4214   21802171.8774
       194.0004        195.0004
 21  2  2  0 17 30.0000000  0  9G30G04G27G21G01G17G09G08G07
  -4867108.33347  -3765829.32645  23685823.517    23685823.6864   23685830.5164
       157.0004        159.0004
 -12451928.19348  -9674319.92546  22193157.611    22193158.0954   22193165.3954
       182.0004        181.0004
  -2623632.07248  -2026698.22746  24514982.197    24514982.2054   24514990.2094
       167.0004        168.0004
 -13104970.56548  -9835089.26146  21771558.584    21771558.5794   21771565.2684
       182.0004        181.0004
 -10653493.63348  -8283530.30046  22037341.750    22037341.8334   22037350.4864
       178.0004        178.0004
  -2930388.04447  -2266893.77845  24010089.923    24010090.9204   24010095.2994
       151.0004        152.0004
 -18261177.12449 -14212798.34247  21050354.380    21050354.6824   21050361.9934
       209.0004        209.0004
 -17057798.30948 -13270049.89647  21490989.052    21490989.4044   21490996.0974
       193.0004        193.0004
 -15724347.94949 -12235952.44647  21788441.437    21788441.7994   21788446.1504
       195.0004        195.0004
 21  2  2  0 18  0.0000000  0  9G30G04G27G21G01G17G09G08G07
  -4954382.34647  -3833835.03245  23669216.309    23669216.0604   23669223.0394
       157.0004        160.0004
 -12361165.96648  -9603596.11946  22210429.780    22210430.4274   22210435.4734
       180.0004        180.0004
  -2515003.28348  -1942052.41246  24535652.256    24535653.5084   24535661.1774
       167.0004        169.0004
 -13114910.87048  -9842834.95146  21769667.991    21769666.9144   21769672.5694
       182.0004        182.0004
 -10724893.38348  -8339166.43346  22023753.410    22023755.4714   22023763.9484
       178.0004        179.0004
  -3025017.58747  -2340631.00645  23992083.303    23992083.1334   23992089.0754
       150.0004        153.0004
 -18221842.40049 -14182147.91347  21057840.133    21057840.0794   21057847.1704
       209.0004        209.0004
 -16978285.85148 -13208092.14447  21506118.906    21506119.4464   21506126.0644
       192.0004        191.0004
 -15796349.78048 -12292057.76647  21774739.791    21774739.9794   21774744.3514
       194.0004        194.0004
 21  2  2  0 18 30.0000000  0  9G30G04G27G21G01G17G09G08G07
  -5041706.37047  -3901879.70045  23652598.266    23652598.6184   23652606.2524
       159.0004        161.0004
 -12270194.23748  -9532709.06246  22227740.542    22227741.3714   22227747.4944
       180.0004        179.0004
  -2406368.92848  -1857402.30746  24556322.465    24556324.7304   24556334.4334
       165.0004        166.0004
 -13124407.29148  -9850234.74346  21767861.466    21767860.2164   21767865.2424
       181.0004        182.0004
 -10796088.65548  -8394643.23646  22010205.189    22010205.6794   22010215.9444
       178.0004        178.0004
  -3119400.72847  -2414176.18845  23974121.898    23974122.6714   23974127.9684
       151.0004        155.0004
 -18182038.29449 -14151131.72547  21065414.670    21065414.8524   21065421.6994
       209.0004        210.0004
 -16898482.02648 -13145907.35047  21521305.240    21521305.7104   21521312.4674
       192.0004        192.0004
 -15868223.31048 -12348063.10247  21761062.320    21761062.9814   21761067.5874
       194.0004        195.0004
 21  2  2  0 19  0.0000000  0  9G30G04G27G21G01G17G09G08G07
  -5129078.05247  -3969961.51545  23635971.081    23635971.7814   23635979.3734
       160.0004        162.0004
 -12179015.34148  -9461660.58146  22245091.664    22245092.2244   22245098.3094
       180.0004        179.0004
  -2297730.69548  -1772749.20746  24576999.536    24576999.1824   24577007.6864
       168.0004        171.0004
 -13133457.79048  -9857287.07546  21766139.060    21766138.4974   21766143.0624
       182.0004        182.0004
 -10867075.65748  -8449957.77646  21996697.158    21996698.1314   21996707.5204
       178.0004        179.0004
  -3213535.32747  -2487527.72545  23956208.251    23956209.0574   23956213.9624
       152.0004        154.0004
 -18141766.28449 -14119750.94547  21073077.594    21073077.9804   21073085.1834
       209.0004        209.0004
 -16818388.88348 -13083497.10847  21536546.521    21536546.8094   21536554.4834
       192.0004        193.0004
 -15939966.03649 -12403966.52847  21747411.077    21747411.1144   21747415.6614
       195.0004        196.0004
 21  2  2  0 19 30.0000000  0  8G30G04G21G01G17G09G08G07
  -5216494.58047  -4038078.25745  23619336.368    23619335.9354   23619344.6594
       159.0004        160.0004
 -12087631.23448  -9390452.20046  22262481.458    22262482.5154   22262488.9884
       180.0004        180.0004
 -13142060.35248  -9863990.34246  21764501.688    21764501.0544   21764505.5174
       181.0004        182.0004
 -10937849.90348  -8505106.49546  21983230.355    21983230.3014   21983239.2114
       179.0004        178.0004
  -3307418.04747  -2560682.94145  23938341.834    23938342.1674   23938349.6144
       152.0004        155.0004
 -18101027.49949 -14088006.43347  21080829.391    21080830.1764   21080837.1884
       208.0004        208.0004
 -16738009.25648 -13020863.61947  21551842.714    21551842.6134   21551849.8434
       192.0004        192.0004
 -16011573.97649 -12459764.91147  21733784.170    21733784.5834   21733788.9154
       196.0004        196.0004
 21  2  2  0 20  0.0000000  0  8G30G04G21G01G17G09G08G07
  -5303955.99247  -4106229.94945  23602693.038    23602693.0084   23602700.4494
       158.0004        160.0004
 -11996046.77648  -9319087.70646  22279909.565    22279909.5884   22279916.7144
       179.0004        178.0004
 -13150215.35748  -9870344.88346  21762948.564    21762949.0654   21762954.3034
       182.0004        182.0004
 -11008409.92148  -8560088.30146  21969803.686    21969803.7864   21969811.7044
       178.0004        179.0004
  -3401048.32347  -2633641.46645  23920525.915    23920526.5464   23920531.9024
       154.0004        158.0004
 -18059825.94949 -14055901.33047  21088670.077    21088670.5484   21088678.0944
       208.0004        208.0004
 -16657347.06148 -12958009.97047  21567192.287    21567192.5064   21567198.9694
       192.0004        192.0004
 -16083046.55049 -12515457.82047  21720183.455    21720183.3904   21720188.0674
       196.0004        196.0004
 21  2  2  0 20 30.0000000  0  9G30G04G21G14G01G17G09G08G07
  -5391461.46347  -4174416.00346  23586042.714    23586042.5314   23586049.8864
       160.0004        164.0004
 -11904265.94348  -9247570.17446  22297374.476    22297375.3254   22297381.4294
       177.0004        176.0004
 -13157922.25648  -9876350.25146  21761481.909    21761482.0254   21761488.5304
       182.0004        182.0004
  -1475416.31354  -1140516.38844  23599842.877
        74.0004        117.0004
 -11078753.43148  -8614901.40646  21956417.360    21956417.6634   21956426.3274
       179.0004        179.0004
  -3494425.25347  -2706402.60245  23902757.065    23902757.3724   23902763.3534
       155.0004        158.0004
 -18018164.77849 -14023438.08747  21096598.441    21096598.8134   21096606.1374
       208.0004        209.0004
 -16576406.46848 -12894939.37847  21582594.579    21582594.0834   21582601.1534
       191.0004        190.0004
 -16154382.05749 -12571043.91247  21706608.836    21706609.3274   21706613.7884
       196.0004        196.0004
 21  2  2  0 21  0.0000000  0  9G30G04G21G14G01G17G09G08G07
  -5479008.26347  -4242634.26445  23569382.318    23569382.6394   23569389.7124
       160.0004        162.0004
 -11812290.71848  -9175901.16946  22314877.532    22314878.3864   22314884.1314
       176.0004        177.0004
 -13165178.85748  -9882004.71946  21760101.881    21760101.5894   21760107.2364
       183.0004        183.0004
  -1500811.74944  -1013399.161 3                                  23594980.447
        74.0004         74.000
 -11148876.09848  -8669542.40446  21943073.561    21943073.7424   21943083.1064
       179.0004        180.0004
  -3587545.54747  -2778963.76945  23885035.591    23885035.9764   23885042.9354
       155.0004        158.0004
 -17976045.24649 -13990617.67847  21104613.558    21104613.9054   21104620.8434
       209.0004        209.0004
 -16495189.45448 -12831653.38247  21598049.409    21598049.9774   21598056.6114
       190.0004        190.0004
 -16225576.98949 -12626520.47747  21693060.925    21693061.4104   21693065.4644
       196.0004        196.0004
 21  2  2  0 21 30.0000000  0  9G30G04G21G14G01G17G09G08G07
  -5566595.81647  -4310884.27946  23552714.823    23552715.3414   23552722.6624
       162.0004        164.0004
 -11720125.35348  -9104084.01246  22332415.862    22332416.5274   22332422.1694
       178.0004        177.0004
 -13171984.24548  -9887307.58846  21758807.302    21758806.5974   21758812.5384
       183.0004        183.0004
  -1522993.17044  -1030683.388 4                                  23590791.239
        74.0004        122.000
 -11218775.85848  -8724009.72346  21929772.491    21929772.6654   21929780.7094
       180.0004        181.0004
  -3680408.21647  -2851324.17145  23867366.042    23867365.9194   23867371.4724
       156.0004        158.0004
 -17933470.82249 -13957442.80347  21112713.838    21112714.7564   21112722.6124
       208.0004        208.0004
 -16413700.28348 -12768155.33247  21613556.677    21613557.0294   21613563.9574
       190.0004        191.0004
 -16296629.76949 -12681886.28547  21679539.997    21679540.1764   21679544.4274
       196.0004        195.0004
 21  2  2  0 22  0.0000000  0  9G30G04G21G14G01G17G09G08G07
  -5654220.75647  -4379163.44146  23536039.916    23536040.4764   23536047.5464
       164.0004        165.0004
 -11627771.36948  -9032119.86646  22349988.607    22349989.9394   22349997.6094
       177.0004        176.0004
 -13178335.97348  -9892256.95946  21757598.992    21757598.0664   21757604.7704
       184.0004        184.0004
  -1539718.04744  -1043715.743 5                                  23587609.826
        74.0004        142.000
 -11288447.90248  -8778299.59446  21916513.399    21916514.7444   21916522.3644
       179.0004        180.0004
  -3773009.70847  -2923481.04745  23849742.960    23849743.7854   23849749.6164
       155.0004        157.0004
 -17890442.23449 -13923914.03347  21120902.949    21120903.5644   21120910.4904
       208.0004        209.0004
 -16331939.82748 -12704445.88347  21629115.408    21629115.8844   21629122.6664
       191.0004        192.0004
 -16367536.37349 -12737138.16447  21666046.636    21666047.1054   21666051.0314
       196.0004        196.0004
 21  2  2  0 22 30.0000000  0  9G30G04G21G14G01G17G09G08G07
  -5741879.38447  -4447468.82046  23519358.652    23519359.2484   23519367.6704
       164.0004        165.0004
 -11535229.79448  -8960009.55646  22367598.662    22367600.2914   22367608.1934
       177.0004        176.0004
 -13184230.79948  -9896850.29946  21756475.525    21756476.0264   21756482.3114
       184.0004        183.0004
  -1583915.03847  -1078154.87345  23579194.817                    23579205.3684
       141.0004        154.0004
 -11357887.00548  -8832407.94646  21903299.498    21903299.9994   21903308.6674
       180.0004        181.0004
  -3865346.29847  -2995431.54745  23832170.945    23832171.6414   23832178.8244
       154.0004        157.0004
 -17846959.85749 -13890031.65647  21129177.798    21129177.8624   21129184.4524
       208.0004        208.0004
 -16249910.21848 -12640526.70247  21644724.801    21644725.0204   21644731.6384
       191.0004        191.0004
 -16438292.16849 -12792272.54647  21652581.778    21652582.3574   21652586.7634
       196.0004        196.0004
 21  2  2  0 23  0.0000000  0  9G30G04G21G14G01G17G09G08G07
  -5829572.02247  -4515800.70146  23502672.348    23502672.4964   23502680.3324
       164.0004        166.0004
 -11442505.75548  -8887757.07246  22385244.052    22385245.1544   22385251.8944
       175.0004        175.0004
 -13189669.68248  -9901088.38046  21755440.561    21755440.3744   21755446.8544
       183.0004        182.0004
  -1610903.88847  -1099185.16045  23574059.229    23574059.9034   23574068.6024
       152.0004        157.0004
 -11427091.98848  -8886333.88546  21890130.904    21890131.0734   21890139.9924
       181.0004        182.0004
  -3957417.73747  -3067175.43045  23814651.936    23814652.1894   23814657.5154
       155.0004        158.0004
 -17803028.08249 -13855799.11647  21137537.543    21137538.1894   21137545.1684
       208.0004        209.0004
 -16167615.65048 -12576401.07747  21660384.562    21660384.7494   21660391.7754
       190.0004        189.0004
 -16508896.77149 -12847289.11147  21639145.930    21639146.5004   21639151.4444
       196.0004        197.0004
 21  2  2  0 23 30.0000000  0  9G30G04G21G14G01G17G09G08G07
  -5917298.31848  -4584158.84046  23485979.346    23485979.5834   23485985.4114
       165.0004        166.0004
 -11349603.81548  -8815365.97546  22402923.704    22402924.9264   22402931.4884
       176.0004        177.0004
 -13194652.25748  -9904970.89846  21754492.560    21754493.1294   21754498.3294
       182.0004        182.0004
  -1637842.97547  -1120176.64045  23568933.789    23568934.1564   23568940.3094
       154.0004        157.0004
 -11496061.06348  -8940075.98846  21877005.875    21877006.0344   21877015.1854
       181.0004        182.0004
  -4049223.48047  -3138712.30745  23797181.991    23797181.5284   23797187.6504
       154.0004        156.0004
 -17758650.75249 -13821219.38047  21145982.522    21145982.8964   21145989.9494
       209.0004        209.0004
 -16085060.69048 -12512072.52547  21676093.371    21676093.9644   21676101.9364
       189.0004        189.0004
 -16579349.03949 -12902186.97147  21625739.560    21625739.8194   21625744.6794
       196.0004        195.0004
 21  2  2  0 24  0.0000000  0  9G30G04G21G14G01G17G09G08G07
  -6005055.42048  -4652540.98746  23469279.858    23469279.2804   23469285.9254
       165.0004        167.0004
 -11256525.95548  -8742837.79146  22420636.464    22420636.2714   22420642.9684
       176.0004        175.0004
 -13199176.47348  -9908496.24446  21753632.544    21753632.1704   21753637.3844
       182.0004        183.0004
  -1664732.62647  -1141129.59945  23563816.907    23563817.6704   23563821.7854
       154.0004        156.0004
 -11564789.97048  -8993630.95346  21863926.689    21863928.0384   21863937.0564
       181.0004        182.0004
  -4140760.95647  -3210040.14345  23779761.767    23779762.5844   23779767.4284
       152.0004        152.0004
 -17713829.18949 -13786293.50347  21154511.010    21154511.6384   21154519.0144
       209.0004        209.0004
 -16002247.38648 -12447542.69047  21691852.850    21691853.3344   21691860.6314
       189.0004        190.0004
 -16649645.47249 -12956963.41447  21612362.537    21612363.0354   21612367.5994
       196.0004        196.0004
 21  2  2  0 24 30.0000000  0  9G30G04G21G14G01G17G09G08G07
  -6092840.93748  -4720945.27946  23452574.007    23452573.7434   23452580.7404
       166.0004        167.0004
 -11163274.66848  -8670174.45246  22438380.768    22438381.3944   22438387.5914
       176.0004        176.0004
 -13203240.78348  -9911663.22446  21752858.300    21752857.9734   21752863.4204
       182.0004        182.0004
  -1691573.51147  -1162044.54545  23558707.356    23558708.4254   23558713.5414
       152.0004        154.0004
 -11633274.84148  -9046995.77346  21850894.566    21850895.2934   21850904.0224
       181.0004        182.0004
  -4232027.14747  -3281156.56445  23762393.253    23762394.6754   23762400.9584
       150.0004        153.0004
 -17668565.22549 -13751022.89447  21163124.660    21163125.1214   21163132.3414
       209.0004        209.0004
 -15919178.36449 -12382813.59647  21707661.002    21707661.5384   21707667.8824
       205.0004        209.0004
 -16719782.48649 -13011615.64147  21599016.541    21599016.6164   21599020.9574
       196.0004        197.0004
 21  2  2  0 25  0.0000000  0  9G30G04G21G14G01G17G09G08G07
  -6180651.62447  -4789369.17246  23435863.128    23435863.2304   23435872.0234
       164.0004        163.0004
 -11069851.55248  -8597377.21646  22456158.587    22456158.9894   22456165.5794
       176.0004        176.0004
 -13206842.20848  -9914469.51046  21752173.462    21752173.1424   21752178.0744
       182.0004        183.0004
  -1718365.46847  -1182921.38345  23553610.652    23553610.6274   23553615.9954
       154.0004        157.0004
 -11701510.97748  -9100166.76746  21837909.767    21837910.6934   21837918.8544
       181.0004        182.0004
  -4323018.68347  -3352058.99245  23745079.744    23745079.8524   23745085.9864
       154.0004        158.0004
 -17622859.75949 -13715408.24747  21171822.926    21171822.9114   21171830.0764
       209.0004        209.0004
 -15835854.73649 -12317886.08347  21723517.633    21723517.5324   21723524.0294
       209.0004        207.0004
 -16789756.59349 -13066140.90947  21585700.704    21585700.8914   21585705.8574
       197.0004        197.0004
 21  2  2  0 25 30.0000000  0  9G30G04G21G14G01G17G09G08G07
  -6268486.83547  -4857812.17046  23419147.340    23419149.2054   23419156.0824
       162.0004        164.0004
 -10976260.89648  -8524449.44746  22473969.601    22473969.4874   22473975.1204
       176.0004        175.0004
 -13209981.00148  -9916915.31346  21751576.236    21751575.7674   21751581.0624
       182.0004        183.0004
  -1745111.09247  -1203762.09845  23548520.313    23548521.0044   23548527.2004
       156.0004        158.0004
 -11769496.42048  -9153142.40446  21824972.876    21824973.3004   21824982.2134
       181.0004        182.0004
  -4413734.96347  -3422746.93545  23727817.861    23727817.8144   23727822.4354
       155.0004        157.0004
 -17576716.51649 -13679452.47947  21180603.249    21180603.8604   21180610.9894
       209.0004        209.0004
 -15752281.13049 -12252763.77548  21739419.957    21739420.1784   21739427.7314
       216.0004        220.0004
 -16859566.47649 -13120538.20447  21572415.446    21572416.3394   21572421.0494
       197.0004        197.0004
 21  2  2  0 26  0.0000000  0  9G30G04G21G14G01G17G09G08G07
  -6356344.36147  -4926272.56046  23402430.173    23402429.6414   23402438.1864
       162.0004        165.0004
 -10882505.34048  -8451393.19746  22491808.889    22491809.9854   22491816.3474
       175.0004        174.0004
 -13212655.55448  -9918999.37346  21751067.345    21751066.9024   21751072.5134
       183.0004        183.0004
  -1771811.28647  -1224567.42345  23543441.136    23543440.9844   23543445.2694
       155.0004        156.0004
 -11837227.50248  -9205919.84946  21812083.354    21812084.3874   21812093.2854
       181.0004        182.0004
  -4504173.32447  -3493218.31545  23710606.448    23710607.0924   23710612.8654
       155.0004        158.0004
 -17530137.52249 -13643157.16647  21189467.055    21189467.3304   21189474.3844
       209.0004        208.0004
 -15668459.77249 -12187448.44048  21755370.270    21755370.6644   21755378.6204
       220.0004        220.0004
 -16929208.40249 -13174804.64347  21559164.551    21559164.7904   21559168.6874
       197.0004        198.0004
 21  2  2  0 26 30.0000000  0  9G30G04G21G14G01G17G09G08G07
  -6444222.52647  -4994749.01646  23385707.290    23385708.1564   23385715.8794
       163.0004        165.0004
 -10788588.15148  -8378210.97846  22509680.430    22509681.1194   22509689.6234
       175.0004        176.0004
 -13214865.01548  -9920721.01246  21750647.627    21750647.2714   21750652.7924
       185.0004        187.0004
  -1798467.58647  -1245338.55245  23538367.445    23538367.7324   23538372.7814
       154.0004        157.0004
 -11904701.21748  -9258496.74846  21799244.271    21799244.5594   21799253.6464
       183.0004        184.0004
  -4594332.14847  -3563471.86645  23693450.575    23693451.8054   23693457.4994
       159.0004        161.0004
 -17483125.46949 -13606524.40547  21198413.609    21198413.8074   21198420.2584
       208.0004        208.0004
 -15584393.93849 -12121942.60248  21771368.251    21771368.2954   21771375.6654
       221.0004        221.0004
 -16998680.37749 -13228938.64847  21545943.391    21545944.0214   21545948.8484
       197.0004        197.0004
 21  2  2  0 27  0.0000000  0  9G30G04G21G14G01G17G09G08G07
  -6532119.40747  -5063240.10245  23368980.699    23368981.0704   23368988.1574
       162.0004        162.0004
 -10694512.35048  -8304905.16446  22527582.588    22527583.1364   22527591.1554
       175.0004        176.0004
 -13216608.08748  -9922079.23646  21750315.600    21750314.6364   21750321.3034
       186.0004        186.0004
  -1825081.21947  -1266076.42045  23533302.065    23533303.3514   23533309.4724
       157.0004        161.0004
 -11971914.24148  -9310870.51446  21786453.825    21786454.9974   21786463.6874
       183.0004        184.0004
  -4684209.81747  -3633506.37245  23676349.051    23676349.3204   23676353.6114
       159.0004        161.0004
 -17435682.73649 -13569556.04447  21207441.719    21207441.6784   21207448.5264
       208.0004        208.0004
 -15500086.64049 -12056248.60548  21787411.944    21787412.0284   21787418.2994
       221.0004        220.0004
 -17067979.67549 -13282938.09547  21532756.279    21532756.7924   21532761.5674
       197.0004        197.0004
 21  2  2  0 27 30.0000000  0  9G30G04G21G14G01G17G09G08G07
  -6620033.42847  -5131744.53046  23352251.579    23352252.5694   23352259.8974
       161.0004        164.0004
 -10600281.08948  -8231478.22146  22545515.132    22545515.7134   22545521.7284
       175.0004        175.0004
 -13217883.87848  -9923073.35346  21750072.663    21750071.7604   21750079.3894
       186.0004        187.0004
  -1851653.61547  -1286782.16946  23528246.324    23528247.0284   23528252.0774
       162.0004        164.0004
 -12038863.51648  -9363038.74946  21773713.658    21773714.5994   21773723.3214
       184.0004        184.0004
  -4773804.31647  -3703320.20645  23659298.212    23659298.2854   23659302.9924
       156.0004        157.0004
 -17387811.99049 -13532254.17447  21216551.093    21216551.4604   21216558.0264
       208.0004        208.0004
 -15415541.09149 -11990368.95248  21803500.618    21803500.6214   21803506.8164
       221.0004        220.0004
 -17137104.01349 -13336801.21247  21519603.244    21519604.0024   21519607.7144
       198.0004        198.0004
 21  2  2  0 28  0.0000000  0  9G30G04G21G14G01G17G09G08G07
  -6707962.49847  -5200260.64246  23335519.728    23335520.5484   23335527.9494
       164.0004        167.0004
 -10505897.42148  -8157932.48546  22563475.819    22563476.2354   22563482.1034
       175.0004        175.0004
 -13218690.99048  -9923702.23146  21749919.171    21749918.9714   21749925.9654
       187.0004        187.0004
  -1878186.02948  -1307456.77846  23523197.191    23523198.0834   23523203.8664
       165.0004        167.0004
 -12105545.76148  -9414998.90446  21761023.825    21761024.4654   21761033.6944
       183.0004        183.0004
  -4863113.34247  -3772911.60545  23642302.909    23642303.8644   23642309.2014
       155.0004        157.0004
 -17339515.66549 -13494620.67847  21225741.212    21225741.4564   21225748.2424
       207.0004        207.0004
 -15330760.42249 -11924306.09048  21819633.060    21819633.3274   21819640.0414
       220.0004        218.0004
 -17206050.83649 -13390526.01047  21506483.223    21506482.7604   21506487.2154
       198.0004        198.0004
 21  2  2  0 28 30.0000000  0  9G30G04G21G14G01G17G09G08G07
  -6795904.24448  -5268786.65946  23318784.308    23318785.0094   23318793.1014
       165.0004        165.0004
 -10411363.81048  -8084269.94846  22581464.071    22581464.8914   22581471.7594
       175.0004        175.0004
 -13219028.04748  -9923964.83847  21749855.045    21749854.9984   21749861.7974
       187.0004        188.0004
  -1904679.21348  -1328100.79746  23518156.031    23518156.7524   23518162.3194
       165.0004        165.0004
 -12171957.23948  -9466748.09546  21748387.178    21748388.1434   21748396.6374
       183.0004        185.0004
  -4952134.69247  -3842278.80945  23625361.685    23625361.9364   23625367.7914
       155.0004        157.0004
 -17290795.75349 -13456657.11647  21235011.754    21235012.3824   21235019.8294
       207.0004        207.0004
 -15245746.92649 -11858061.81748  21835810.288    21835810.4854   21835817.6064
       219.0004        218.0004
 -17274816.59949 -13444109.72847  21493397.081    21493397.7344   21493401.8074
       198.0004        199.0004
 21  2  2  0 29  0.0000000  0  9G30G04G21G14G01G17G09G08G07
  -6883857.35948  -5337321.52946  23302046.942    23302047.5194   23302056.5014
       165.0004        166.0004
 -10316683.92748  -8010493.43346  22599481.231    22599481.8814   22599488.5994
       175.0004        176.0004
 -13218894.87848  -9923861.04347  21749878.986    21749879.0954   21749887.2784
       187.0004        188.0004
  -1931135.11647  -1348715.78346  23513121.730    23513122.5694   23513128.0544
       164.0004        164.0004
 -12238095.25048  -9518284.19846  21735801.475    21735802.1974   21735810.3934
       184.0004        184.0004
  -5040867.04147  -3911420.81245  23608476.987    23608477.0504   23608481.7754
       155.0004        156.0004
 -17241655.37549 -13418365.90447  21244362.768    21244363.3634   21244371.0894
       207.0004        207.0004
 -15160503.81849 -11791638.61248  21852031.245    21852031.7454   21852039.1344
       219.0004        218.0004
 -17343399.34149 -13497550.81947  21480345.625    21480346.4394   21480350.9164
       198.0004        198.0004
 21  2  2  0 29 30.0000000  0  9G30G04G21G14G01G17G09G08G07
  -6971819.26348  -5405863.25746  23285308.310    23285308.9564   23285317.1874
       165.0004        166.0004
 -10221860.17948  -7936604.82846  22617526.588    22617527.6154   22617533.2084
       175.0004        175.0004
 -13218289.56448  -9923389.34446  21749994.263    21749994.5944   21750002.3934
       187.0004        187.0004
  -1957554.34847  -1369302.18145  23508094.233    23508094.1794   23508100.6984
       162.0004        162.0004
 -12303956.04548  -9569604.28546  21723266.437    21723268.3394   21723277.3574
       183.0004        183.0004
  -5129308.08347  -3980335.85745  23591647.320    23591648.2224   23591652.1314
       154.0004        155.0004
 -17192096.46949 -13379748.59647  21253794.159    21253794.5414   21253801.3384
       207.0004        207.0004
 -15075033.91749 -11725038.69848  21868296.386    21868296.5654   21868303.5904
       219.0004        219.0004
 -17411796.04149 -13550846.94547  21467329.660    21467330.7414   21467335.2534
       198.0004        198.0004
 21  2  2  0 30  0.0000000  0  9G30G04G21G14G01G17G09G08G07
  -7059788.05548  -5474410.32846  23268569.879    23268568.9914   23268577.2464
       165.0004        166.0004
 -10126895.52748  -7862606.40846  22635597.730    22635597.4924   22635604.5604
       174.0004        173.0004
 -13217211.10248  -9922548.95746  21750199.481    21750199.5434   21750206.9004
       186.0004        185.0004
  -1983938.30147  -1389861.07846  23503074.062    23503074.5504   23503079.7974
       162.0004        165.0004
 -12369536.31948  -9620705.77546  21710789.038    21710789.9144   21710797.5424
       183.0004        184.0004
  -5217455.75347  -4049022.28345  23574872.195    23574873.8634   23574879.2544
       153.0004        155.0004
 -17142121.55549 -13340807.11647  21263303.194    21263303.9864   21263311.5154
       206.0004        206.0004
 -14989340.04249 -11658264.25648  21884603.669    21884603.7954   21884610.5324
       219.0004        218.0004
 -17480003.75849 -13603995.81847  21454351.137    21454351.2984   21454355.8034
       198.0004        198.0004
 21  2  2  0 30 30.0000000  0  9G30G04G21G14G01G17G09G08G07
  -7147762.65348  -5542961.95046  23251827.309    23251828.5794   23251835.7854
       167.0004        169.0004
 -10031793.95948  -7788501.30546  22653694.621    22653695.5804   22653701.4104
       173.0004        173.0004
 -13215659.55448  -9921339.93946  21750495.320    21750495.1574   21750501.5224
       185.0004        184.0004
  -2010288.89447  -1410393.98546  23498058.691    23498058.8824   23498065.6984
       164.0004        165.0004
 -12434833.73348  -9671586.87046  21698363.595    21698364.1294   21698372.5434
       184.0004        185.0004
  -5305309.02947  -4117479.32745  23558156.391    23558156.4224   23558159.8894
       155.0004        158.0004
 -17091734.11449 -13301544.17747  21272892.108    21272892.4104   21272900.2594
       206.0004        206.0004
 -14903425.79449 -11591318.08448  21900952.752    21900952.6224   21900959.6374
       219.0004        217.0004
 -17548020.88049 -13656996.16647  21441407.392    21441408.0434   21441412.7594
       198.0004        198.0004
 21  2  2  0 31  0.0000000  0  9G30G04G21G14G01G17G09G08G07
  -7235740.27148  -5611515.90246  23235085.232    23235086.4634   23235094.4364
       167.0004        169.0004
  -9936557.67448  -7714291.21746  22671817.759    22671817.7294   22671823.9874
       173.0004        174.0004
 -13213632.99648  -9919760.78246  21750881.391    21750880.4464   21750886.7084
       184.0004        185.0004
  -2036606.72247  -1430901.36846  23493050.880    23493051.4454   23493056.6014
       163.0004        164.0004
 -12499844.35048  -9722244.47446  21685992.771    21685992.5774   21686001.1554
       184.0004        186.0004
  -5392865.29747  -4185704.92545  23541493.106    23541494.6014   23541499.5164
       156.0004        159.0004
 -17040935.91349 -13261961.16447  21282558.894    21282559.4034   21282566.7004
       207.0004        207.0004
 -14817293.68149 -11524202.15548  21917342.417    21917342.8884   21917349.4404
       218.0004        217.0004
 -17615843.98349 -13709845.32547  21428501.057    21428501.5274   21428506.0234
       198.0004        199.0004
 21  2  2  0 31 30.0000000  0  9G30G04G21G14G01G17G09G08G07
  -7323718.98948  -5680070.73146  23218343.469    23218344.7834   23218351.4274
       166.0004        165.0004
  -9841189.62048  -7639978.46346  22689965.229    22689965.6784   22689972.0114
       172.0004        172.0004
 -13211130.53948  -9917810.78346  21751357.006    21751357.0474   21751362.6744
       184.0004        184.0004
  -2062893.04047  -1451384.19046  23488048.575    23488049.3634   23488055.0644
       163.0004        165.0004
 -12564564.86148  -9772676.01546  21673675.141    21673675.9614   21673685.1444
       185.0004        186.0004
  -5480122.60147  -4253697.56445  23524890.160    23524890.3354   23524896.5054
       158.0004        161.0004
 -16989729.51049 -13222060.07047  21292303.323    21292303.3434   21292310.7084
       206.0004        206.0004
 -14730946.25849 -11456918.45148  21933774.580    21933774.3514   21933780.8414
       218.0004        217.0004
 -17683469.94049 -13762540.86447  21415632.321    21415632.9894   21415637.1844
       198.0004        198.0004
 21  2  2  0 32  0.0000000  0  9G30G04G21G14G01G17G09G08G07
  -7411695.99648  -5748624.23446  23201603.229    23201603.5424   23201611.2444
       167.0004        169.0004
  -9745692.10048  -7565564.83646  22708136.966    22708138.1394   22708144.2714
       170.0004        169.0004
 -13208150.45848  -9915488.61746  21751924.160    21751924.2174   21751928.9084
       183.0004        183.0004
  -2089148.38248  -1471842.85346  23483053.462    23483053.6904   23483058.6984
       165.0004        166.0004
 -12628991.33048  -9822878.44846  21661415.852    21661416.7964   21661424.9314
       185.0004        185.0004
  -5567078.52447  -4321455.38445  23508342.900    23508343.1364   23508348.2914
       157.0004        157.0004
 -16938116.78249 -13181842.36447  21302124.269    21302124.7834   21302131.9894
       205.0004        205.0004
 -14644386.23749 -11389469.08548  21950245.979    21950246.4414   21950252.6794
       218.0004        217.0004
 -17750895.74349 -13815080.45447  21402801.733    21402802.3784   21402806.3834
       198.0004        199.0004
 21  2  2  0 32 30.0000000  0  9G30G04G21G14G01G17G09G08G07
  -7499670.50248  -5817175.77146  23184862.765    23184862.6584   23184869.8004
       169.0004        171.0004
  -9650069.27048  -7491053.56546  22726334.931    22726334.5074   22726341.3294
       169.0004        169.0004
 -13204692.73448  -9912794.29046  21752582.254    21752581.8744   21752586.4774
       182.0004        182.0004
  -2115375.12547  -1492279.25446  23478060.612    23478062.1194   23478068.4284
       164.0004        164.0004
 -12693121.65948  -9872850.12346  21649212.744    21649213.2284   21649221.7034
       185.0004        185.0004
  -5653732.36147  -4388977.79845  23491850.471    23491852.5534   23491859.5404
       155.0004        157.0004
 -16886101.44649 -13141310.95447  21312022.553    21312023.2084   21312030.5244
       205.0004        205.0004
 -14557617.33049 -11321856.95248  21966756.886    21966757.5444   21966764.7864
       218.0004        216.0004
 -17818119.81049 -13867462.84547  21390009.288    21390009.6644   21390014.7984
       199.0004        199.0004
 21  2  2  0 33  0.0000000  0  9G30G04G21G14G01G17G09G08G07
  -7587639.49748  -5885723.05046  23168124.225    23168123.4804   23168129.6694
       169.0004        170.0004
  -9554323.15448  -7416446.22346  22744554.007    22744554.5734   22744561.5674
       169.0004        170.0004
 -13200756.00348  -9909726.69746  21753330.833    21753331.2394   21753335.0404
       182.0004        182.0004
  -2141573.52947  -1512693.56346  23473075.170    23473076.3464   23473082.4024
       162.0004        163.0004
 -12756951.66348  -9922587.77746  21637065.630    21637066.5914   21637075.1844
       185.0004        186.0004
  -5740081.12147  -4456262.46345  23475421.330    23475421.9084   23475427.1754
       157.0004        161.0004
 -16833685.20249 -13100467.14147  21321997.110    21321997.6734   21322004.7514
       205.0004        205.0004
 -14470641.52449 -11254083.59348  21983308.095    21983308.1954   21983316.1994
       217.0004        217.0004
 -17885138.14249 -13919684.91347  21377256.200    21377256.7244   21377260.9734
       199.0004        199.0004
 21  2  2  0 33 30.0000000  0  9G30G04G21G14G01G17G09G08G07
  -7675601.42248  -5954264.80946  23151384.245    23151384.2134   23151391.1234
       170.0004        171.0004
  -9458457.19048  -7341745.48946  22762797.547    22762797.3964   22762804.0884
       169.0004        170.0004
 -13196339.74048  -9906285.44146  21754172.868    21754172.1404   21754176.1974
       182.0004        181.0004
  -2167745.24447  -1533087.11946  23468097.262    23468097.4474   23468101.4484
       162.0004        163.0004
 -12820478.62748  -9972089.29346  21624975.851    21624977.7624   21624986.4384
       185.0004        186.0004
  -5826123.64847  -4523308.51945  23459046.922    23459046.9704   23459053.0794
       156.0004        156.0004
 -16780871.09549 -13059313.29747  21332046.892    21332047.6504   21332055.7314
       205.0004        206.0004
 -14383462.19849 -11186151.66248  21999898.303    21999898.1804   21999905.2824
       217.0004        216.0004
 -17951949.06749 -13971745.37047  21364543.044    21364543.6404   21364547.4224
       199.0004        200.0004
 21  2  2  0 34  0.0000000  0  9G30G04G21G14G01G17G09G08G07
  -7763554.72048  -6022799.82046  23134645.832    23134646.6174   23134654.9984
       170.0004        170.0004
  -9362474.80648  -7266954.03646  22781061.774    22781061.9304   22781068.7814
       169.0004        170.0004
 -13191443.43248  -9902470.12246  21755104.274    21755103.5984   21755107.6884
       182.0004        181.0004
  -2193892.06647  -1553461.24046  23463121.422    23463121.3854   23463125.9724
       162.0004        164.0004
 -12883699.74948 -10021352.48046  21612947.197    21612947.4614   21612955.8484
       185.0004        186.0004
  -5911858.64047  -4590114.92945  23442733.713    23442733.2434   23442737.9124
       156.0004        158.0004
 -16727662.23049 -13017851.85047  21342172.880    21342173.3434   21342180.8624
       205.0004        206.0004
 -14296082.74149 -11118063.77448  22016525.052    22016525.9584   22016532.7954
       217.0004        216.0004
 -18018550.09449 -14023642.28147  21351869.469    21351869.5814   21351873.9584
       200.0004        200.0004
 21  2  2  0 34 30.0000000  0  9G30G04G21G14G01G17G09G08G07
  -7851495.72048  -6091325.25546  23117911.886    23117912.4774   23117920.0334
       170.0004        172.0004
  -9266377.46348  -7192073.00446  22799347.381    22799348.3944   22799355.2844
       168.0004        169.0004
 -13186064.71048  -9898278.89846  21756126.352    21756126.8314   21756131.2494
       181.0004        181.0004
  -2220013.60547  -1573815.63746  23458150.266    23458150.5954   23458155.5344
       162.0004        164.0004
 -12946610.31648 -10070373.68346  21600975.279    21600975.8484   21600984.5034
       186.0004        186.0004
  -5997282.45047  -4656678.85445  23426477.161    23426476.7664   23426481.6064
       158.0004        160.0004
 -16674059.71649 -12976083.66447  21352373.457    21352373.6944   21352380.6604
       205.0004        205.0004
 -14208504.80049 -11049821.22748  22033191.918    22033191.6084   22033197.9574
       217.0004        216.0004
 -18084936.98249 -14075372.32147  21339235.430    21339236.5714   21339240.9394
       200.0004        201.0004
 21  2  2  0 35  0.0000000  0  9G30G04G21G14G01G17G09G08G07
  -7939422.98648  -6159839.98446  23101179.827    23101179.9184   23101187.6404
       170.0004        171.0004
  -9170168.68848  -7117105.16446  22817655.875    22817656.1524   22817664.1734
       167.0004        167.0004
 -13180203.34048  -9893711.59546  21757241.962    21757242.7694   21757246.0494
       181.0004        181.0004
  -2246111.67647  -1594151.79046  23453182.940    23453183.7454   23453189.7574
       162.0004        164.0004
 -13009207.71248 -10119150.87846  21589063.447    21589064.2694   21589073.0214
       186.0004        187.0004
  -6082394.16747  -4722999.63145  23410280.756    23410280.7134   23410284.2684
       158.0004        160.0004
 -16620066.78749 -12934011.25747  21362647.461    21362648.0454   21362655.2404
       204.0004        204.0004
 -14120731.56349 -10981426.51048  22049893.520    22049894.0954   22049900.6584
       216.0004        215.0004
 -18151107.37049 -14126933.67547  21326644.604    21326644.8654   21326648.8934
       201.0004        201.0004
 21  2  2  0 35 30.0000000  0  9G30G04G21G14G01G17G09G08G07
  -8027334.45448  -6228342.43546  23084450.572    23084451.4864   23084457.4624
       168.0004        168.0004
  -9073851.47548  -7042052.79546  22835984.458    22835985.4074   22835991.9094
       166.0004        168.0004
 -13173858.71148  -9888767.71246  21758450.617    21758449.3214   21758454.7514
       181.0004        182.0004
  -2272187.51047  -1614470.62245  23448221.465    23448222.0044   23448227.5304
       161.0004        161.0004
 -13071488.70948 -10167681.51547  21577212.653    21577212.9824   21577221.0444
       187.0004        188.0004
  -6167191.88047  -4789075.71046  23394145.379    23394144.4524   23394149.4274
       161.0004        164.0004
 -16565686.15649 -12891636.75047  21372995.576    21372995.9584   21373003.4314
       204.0004        203.0004
 -14032765.83449 -10912881.79348  22066632.668    22066633.0444   22066640.5424
       215.0004        213.0004
 -18217058.58849 -14178324.23647  21314094.488    21314094.6874   21314099.2214
       200.0004        200.0004
 21  2  2  0 36  0.0000000  0  9G30G04G21G14G01G17G09G08G07
  -8115228.09648  -6296830.97146  23067725.126    23067725.5074   23067733.5794
       169.0004        171.0004
  -8977428.93248  -6966918.34246  22854334.262    22854334.3334   22854340.7744
       167.0004        168.0004
 -13167030.31548  -9883446.85946  21759748.442    21759749.1234   21759754.2104
       182.0004        181.0004
  -2298242.45147  -1634773.14745  23443262.786    23443263.4374   23443269.3594
       158.0004        159.0004
 -13133450.20748 -10215963.19746  21565420.824    21565421.4594   21565429.2534
       187.0004        186.0004
  -6251673.76347  -4854905.67946  23378066.221    23378067.6564   23378073.0784
       162.0004        164.0004
 -16510920.55149 -12848962.25047  21383417.505    21383417.7634   21383425.4394
       203.0004        204.0004
 -13944610.94949 -10844189.66248  22083407.804    22083408.2184   22083416.3594
       214.0004        214.0004
 -18282788.22049 -14229542.11647  21301585.508    21301586.3334   21301591.2374
       200.0004        201.0004
 21  2  2  0 36 30.0000000  0  9G30G04G21G14G01G17G09G08G07
  -8203102.31348  -6365304.36346  23051003.958    23051003.7584   23051011.9364
       171.0004        172.0004
  -8880904.35548  -6891704.40746  22872702.380    22872702.4324   22872709.1434
       167.0004        168.0004
 -13159717.38648  -9877748.46446  21761140.458    21761140.2714   21761146.2234
       182.0004        181.0004
  -2324278.15547  -1655060.65445  23438307.835    23438308.8794   23438314.2784
       157.0004        159.0004
 -13195089.51548 -10263993.80346  21553690.689    21553691.9284   21553699.6574
       186.0004        186.0004
  -6335838.91847  -4920488.86246  23362053.421    23362052.3634   23362057.6514
       163.0004        165.0004
 -16455773.13249 -12805990.24547  21393912.753    21393912.6744   21393919.0254
       203.0004        203.0004
 -13856270.06749 -10775352.61748  22100220.240    22100219.6764   22100226.9174
       215.0004        214.0004
 -18348293.95949 -14280585.54847  21289120.726    21289121.2344   21289125.9574
       201.0004        201.0004
 21  2  2  0 37  0.0000000  0  9G30G04G21G14G01G17G09G08G07
  -8290954.81348  -6433760.82746  23034285.348    23034285.7374   23034293.7534
       171.0004        172.0004
  -8784280.61548  -6816413.20046  22891088.948    22891089.4334   22891096.4554
       168.0004        169.0004
 -13151919.27148  -9871671.99846  21762624.973    21762624.1754   21762630.1734
       182.0004        183.0004
  -2350295.59847  -1675333.97945  23433356.284    23433357.6374   23433363.2254
       157.0004        159.0004
 -13256403.19048 -10311770.66846  21542024.671    21542024.6364   21542032.4714
       186.0004        187.0004
  -6419685.25547  -4985823.59946  23346095.739    23346095.9964   23346102.2274
       163.0004        165.0004
 -16400246.43549 -12762722.68947  21404477.913    21404478.2374   21404485.5994
       203.0004        202.0004
 -13767745.83149 -10706372.69348  22117064.329    22117065.3374   22117072.6154
       215.0004        214.0004
 -18413572.78549 -14331452.16147  21276699.100    21276698.8434   21276703.5864
       200.0004        200.0004
 21  2  2  0 37 30.0000000  0  9G30G04G21G14G01G17G09G08G07
  -8378783.08948  -6502198.45246  23017573.698    23017574.0184   23017580.2034
       171.0004        171.0004
  -8687560.27548  -6741046.72746  22909493.366    22909493.4424   22909500.6364
       168.0004        168.0004
 -13143635.16748  -9865216.84846  21764201.012    21764200.2224   21764205.6654
       182.0004        182.0004
  -2376295.67147  -1695593.74745  23428409.547    23428410.5554   23428416.1314
       157.0004        159.0004
 -13317387.74548 -10359291.07646  21530419.091    21530419.9564   21530427.7754
       186.0004        186.0004
  -6503210.43447  -5050908.06846  23330201.565    23330202.2094   23330207.3044
       163.0004        165.0004
 -16344342.82949 -12719161.45147  21415115.929    21415116.5424   21415123.4714
       202.0004        202.0004
 -13679040.63449 -10637251.76647  22133945.028    22133944.9634   22133952.5054
       214.0004        212.0004
 -18478621.42649 -14382139.42547  21264320.306    21264320.8384   21264325.2734
       201.0004        201.0004
 21  2  2  0 38  0.0000000  0  9G30G04G21G14G01G17G09G08G07
  -8466585.01348  -6570615.52746  23000865.204    23000865.7634   23000872.3644
       171.0004        172.0004
  -8590746.22748  -6665607.21646  22927916.914    22927917.2344   22927924.3154
       167.0004        168.0004
 -13134863.96848  -9858382.12146  21765870.109    21765869.4884   21765875.7624
       183.0004        183.0004
  -2402279.51747  -1715840.86545  23423465.258    23423465.9444   23423471.8574
       158.0004        160.0004
 -13378039.99248 -10406552.53846  21518877.978    21518877.3204   21518885.6504
       187.0004        187.0004
  -6586412.61947  -5115740.85946  23314367.861    23314368.9294   23314375.0874
       164.0004        166.0004
 -16288064.95449 -12675308.57347  21425825.879    21425826.3684   21425832.6564
       202.0004        202.0004
 -13590157.60649 -10567992.28247  22150857.467    22150858.4404   22150865.8944
       212.0004        211.0004
 -18543437.27649 -14432645.27547  21251986.262    21251986.6554   21251991.5024
       201.0004        201.0004
 21  2  2  0 38 30.0000000  0  9G30G04G21G14G01G17G09G08G07
  -8554358.34948  -6639010.33046  22984162.005    22984161.8274   22984168.7474
       170.0004        171.0004
  -8493841.30848  -6590096.90846  22946357.509    22946357.5684   22946364.7504
       166.0004        168.0004
 -13125605.02248  -9851167.34046  21767632.836    21767632.1564   21767637.7194
       184.0004        184.0004
  -2428248.19047  -1736076.14945  23418523.194    23418524.1424   23418529.3594
       159.0004        161.0004
 -13438356.67448 -10453552.52446  21507398.007    21507398.1954   21507407.9564
       186.0004        186.0004
  -6669290.35748  -5180320.84746  23298596.987    23298597.2844   23298604.1174
       165.0004        168.0004
 -16231415.46749 -12631166.12447  21436605.065    21436605.4644   21436613.2424
       202.0004        202.0004
 -13501099.21049 -10498596.14447  22167804.358    22167805.2224   22167812.4664
       211.0004        210.0004
 -18608017.38549 -14482967.43947  21239696.455    21239697.5324   21239701.7024
       201.0004        201.0004
 21  2  2  0 39  0.0000000  0  9G30G04G21G14G01G17G09G08G07
  -8642101.45348  -6707381.56646  22967465.343    22967465.2234   22967472.7724
       171.0004        174.0004
  -8396849.04748  -6514518.51646  22964813.764    22964814.6274   22964821.5164
       167.0004        167.0004
 -13115858.43648  -9843572.57946  21769486.689    21769486.0514   21769491.7224
       184.0004        184.0004
  -2454203.47447  -1756301.01745  23413584.768    23413584.6844   23413590.0084
       159.0004        161.0004
 -13498335.19048 -10500288.99947  21495984.723    21495985.2964   21495994.9634
       186.0004        188.0004
  -6751842.47248  -5244647.09346  23282889.026    23282888.7114   23282895.1764
       166.0004        168.0004
 -16174397.67949 -12586736.67947  21447455.711    21447456.2504   21447463.7794
       202.0004        203.0004
 -13411869.22449 -10429066.29347  22184785.373    22184785.4294   22184792.4924
       211.0004        210.0004
 -18672359.77449 -14533104.36347  21227453.868    21227453.6644   21227457.5794
       201.0004        201.0004
 21  2  2  0 39 30.0000000  0  9G30G04G21G14G01G17G09G08G07
  -8729811.76648  -6775727.24446  22950773.868    22950773.4964   22950781.4634
       171.0004        169.0004
  -8299771.92748  -6438874.00846  22983288.467    22983288.8924   22983294.0034
       166.0004        167.0004
 -13105623.19448  -9835597.03946  21771433.673    21771434.1574   21771440.2924
       184.0004        185.0004
  -2480146.05447  -1776516.01445  23408648.659    23408648.4254   23408653.9764
       159.0004        160.0004
 -13557971.88248 -10546759.14247  21484638.871    21484639.0924   21484646.7564
       190.0004        192.0004
  -6834066.86748  -5308718.01546  23267242.324    23267242.2114   23267248.9144
       167.0004        167.0004
 -16117013.91849 -12542022.06347  21458374.889    21458375.3344   21458383.1114
       201.0004        201.0004
 -13322469.96549 -10359404.54247  22201796.495    22201797.3024   22201805.1234
       210.0004        210.0004
 -18736461.18649 -14583053.51047  21215254.706    21215255.1474   21215260.4014
       201.0004        201.0004
 21  2  2  0 40  0.0000000  0  9G30G04G21G14G01G17G09G08G07
  -8817487.33648  -6844045.84546  22934089.246    22934089.5484   22934097.3454
       169.0004        170.0004
  -8202613.03248  -6363165.78746  23001775.089    23001775.3704   23001783.4084
       166.0004        166.0004
 -13094898.75548  -9827240.31246  21773474.553    21773474.7324   21773480.8414
       184.0004        184.0004
  -2506077.34047  -1796722.18645  23403713.263    23403713.3914   23403720.0344
       157.0004        159.0004
 -13617263.79448 -10592960.63347  21473356.398    21473356.3744   21473363.4254
       193.0004        193.0004
  -6915961.98247  -5372532.31946  23251656.014    23251657.5904   23251663.0484
       164.0004        165.0004
 -16059267.08749 -12497024.54347  21469363.316    21469363.8464   21469371.7614
       200.0004        201.0004
 -13232904.53249 -10289613.30147  22218841.154    22218841.3844   22218849.1954
       211.0004        211.0004
 -18800319.09549 -14632812.91847  21203102.679    21203102.9414   21203107.9704
       201.0004        201.0004
 21  2  2  0 40 30.0000000  0  9G30G04G21G14G01G17G09G08G07
  -8905126.49448  -6912336.06946  22917412.278    22917412.4174   22917420.5844
       169.0004        169.0004
  -8105375.84848  -6287396.56646  23020279.580    23020280.2514   23020287.2544
       167.0004        169.0004
 -13083685.00648  -9818502.31946  21775609.376    21775609.4044   21775614.2274
       185.0004        185.0004
  -2531999.06747  -1816920.91245  23398778.745    23398779.7444   23398786.0894
       156.0004        157.0004
 -13676208.46748 -10638891.54547  21462137.263    21462138.2284   21462145.6344
       191.0004        189.0004
  -6997526.79647  -5436089.26346  23236136.785    23236136.9554   23236141.7364
       164.0004        166.0004
 -16001160.55949 -12451746.74347  21480421.926    21480421.7114   21480429.1314
       201.0004        201.0004
 -13143175.88449 -10219694.89047  22235916.670    22235916.6274   22235923.9354
       210.0004        210.0004
 -18863931.18949 -14682380.79147  21190998.243    21190998.7244   21191002.9204
       201.0004        202.0004
 21  2  2  0 41  0.0000000  0  9G30G04G21G14G01G17G09G08G07
  -8992725.21948  -6980594.80546  22900742.355    22900742.5734   22900750.5234
       168.0004        169.0004
  -8008061.45648  -6211567.18446  23038797.465    23038797.9994   23038804.6724
       167.0004        167.0004
 -13071979.81248  -9809381.37246  21777836.593    21777836.8844   21777842.0324
       185.0004        186.0004
  -2557910.53947  -1837111.66845  23393850.207    23393850.2194   23393856.1764
       155.0004        156.0004
 -13734800.81648 -10684547.88146  21450985.303    21450986.4504   21450996.2884
       188.0004        186.0004
  -7078757.69248  -5499386.01946  23220679.345    23220679.3864   23220683.9784
       165.0004        165.0004
 -15942695.26749 -12406189.37847  21491547.167    21491547.5624   21491554.6554
       200.0004        201.0004
 -13053285.41849 -10149650.38247  22253021.635    22253021.3274   22253029.8354
       210.0004        209.0004
 -18927292.90549 -14731753.56247  21178941.665    21178941.6984   21178945.5364
       202.0004        202.0004
 21  2  2  0 41 30.0000000  0  9G30G04G21G14G01G17G09G08G07
  -9080282.09148  -7048820.94346  22884079.764    22884080.7304   22884090.3474
       169.0004        171.0004
  -7910673.53848  -6135680.49946  23057330.979    23057331.4524   23057336.6334
       166.0004        167.0004
 -13059783.29948  -9799877.56446  21780157.641    21780157.4414   21780163.3534
       185.0004        186.0004
  -2583813.69447  -1857295.95245  23388920.788    23388920.5804   23388926.6674
       155.0004        157.0004
 -13793038.56148 -10729927.89746  21439903.079    21439904.1434   21439914.0154
       186.0004        186.0004
  -7159653.77047  -5562421.86446  23205284.817    23205285.4944   23205288.3264
       163.0004        163.0004
 -15883874.77949 -12360355.24647  21502739.680    21502740.2794   21502748.0764
       201.0004        202.0004
 -12963236.79749 -10079482.62947  22270156.285    22270156.9544   22270165.6734
       210.0004        210.0004
 -18990402.35049 -14780929.74847  21166931.075    21166931.8534   21166936.5244
       202.0004        202.0004
 21  2  2  0 42  0.0000000  0  9G30G04G21G14G01G17G09G08G07
  -9167795.21548  -7117012.95746  22867427.722    22867428.2164   22867436.1474
       170.0004        172.0004
  -7813215.36248  -6059739.06646  23075876.673    23075876.9334   23075883.1144
       166.0004        166.0004
 -13047095.37048  -9789990.85146  21782571.831    21782571.4604   21782577.4154
       185.0004        185.0004
  -2609710.04547  -1877474.91145  23383993.060    23383993.0824   23383998.2174
       154.0004        156.0004
 -13850918.87748 -10775029.41547  21428890.526    21428891.2704   21428899.8854
       187.0004        189.0004
  -7240213.88547  -5625195.93645  23189954.427    23189954.3024   23189957.8824
       161.0004        161.0004
 -15824702.23349 -12314246.77447  21514001.271    21514001.0114   21514008.4134
       201.0004        202.0004
 -12873032.99249 -10009193.96447  22287322.146    22287322.4824   22287330.5124
       210.0004        210.0004
 -19053257.08649 -14829907.46347  21154970.094    21154971.2354   21154975.5074
       202.0004        202.0004
 21  2  2  0 42 30.0000000  0 10G30G04G21G14G01G17G28G09G08G07
  -9255262.51648  -7185169.26646  22850782.317    22850783.0714   22850791.9124
       170.0004        172.0004
  -7715689.89648  -5983745.22846  23094434.425    23094435.2774   23094440.8134
       165.0004        165.0004
 -13033915.69948  -9779720.95746  21785080.371    21785080.2524   21785085.8094
       186.0004        186.0004
  -2635600.77647  -1897649.51245  23379065.954    23379066.4044   23379071.3564
       153.0004        154.0004
 -13908438.78648 -10819850.12247  21417945.620    21417945.9604   21417954.1174
       189.0004        191.0004
  -7320436.48747  -5687707.05045  23174688.267    23174689.5234   23174688.5074
       158.0004        157.0004
  -1502274.57954  -1161413.773 5                                  23693036.090
        74.0004        135.000
 -15765180.51549 -12267866.22747  21525326.875    21525327.3694   21525334.5824
       201.0004        201.0004
 -12782676.93249  -9938786.66247  22304515.862    22304516.9354   22304524.2194
       209.0004        208.0004
 -19115854.33649 -14878684.54447  21143059.330    21143059.5304   21143063.8124
       202.0004        202.0004
 21  2  2  0 43  0.0000000  0 10G30G04G21G14G01G17G28G09G08G07
  -9342680.98648  -7253287.53546  22834149.512    22834149.5474   22834156.3434
       171.0004        173.0004
  -7618099.33347  -5907700.64146  23113004.932    23113005.6554   23113013.0454
       163.0004        163.0004
 -13020243.17648  -9769067.02746  21787682.073    21787681.6154   21787687.1464
       186.0004        186.0004
  -2661486.43147  -1917820.13345  23374139.789    23374140.4454   23374147.0184
       153.0004        155.0004
 -13965594.52548 -10864387.06047  21407069.398    21407070.0574   21407077.9794
       191.0004        192.0004
  -7400319.28647  -5749953.36045  23159486.244    23159486.5194   23159488.3554
       155.0004        157.0004
  -1523828.59246  -1178209.19745  23688924.967                    23688929.3524
       123.0004        141.0004
 -15705311.78849 -12221215.27047  21536720.686    21536720.8114   21536727.4454
       202.0004        203.0004
 -12692170.36449  -9868262.07247  22321738.854    22321739.2854   22321747.1914
       208.0004        207.0004
 -19178190.70049 -14927258.32347  21131195.963    21131196.6214   21131201.5794
       202.0004        202.0004
 21  2  2  0 43 30.0000000  0 10G30G04G21G14G01G17G28G09G08G07
  -9430050.75648  -7321367.87046  22817522.424    22817523.1084   22817529.6324
       170.0004        171.0004
  -7520448.85947  -5831609.37446  23131587.538    23131587.8644   23131594.5244
       162.0004        163.0004
 -13006079.46948  -9758030.35346  21790376.288    21790375.7464   21790382.5194
       186.0004        185.0004
  -2687370.39247  -1937989.40745  23369214.813    23369215.2784   23369220.5504
       154.0004        157.0004
 -14022385.22348 -10908639.54747  21396262.834    21396262.9974   21396270.8554
       192.0004        192.0004
  -7479862.92847  -5811935.40345  23144349.848    23144349.6344   23144353.6024
       156.0004        158.0004
  -1538844.25646  -1189909.68845  23686067.171    23686066.7694   23686071.8224
       134.0004        142.0004
 -15645101.13149 -12174297.88147  21548177.943    21548178.2164   21548185.3774
       202.0004        202.0004
 -12601519.01649  -9797624.67147  22338988.295    22338989.7134   22338997.6364
       207.0004        206.0004
 -19240265.87249 -14975628.59647  21119384.026    21119384.5604   21119388.9494
       202.0004        203.0004
 21  2  2  0 44  0.0000000  0 10G30G04G21G14G01G17G28G09G08G07
  -9517369.64848  -7389408.57646  22800907.474    22800907.3914   22800913.9224
       174.0004        177.0004
  -7422741.44647  -5755473.75245  23150180.081    23150181.8574   23150187.8934
       161.0004        162.0004
 -12991424.37148  -9746610.77446  21793165.173    21793164.8884   21793171.3224
       185.0004        186.0004
  -2713253.92847  -1958158.36645  23364288.752    23364289.6484   23364295.0144
       155.0004        159.0004
 -14078807.96948 -10952605.33247  21385525.858    21385525.8094   21385534.3334
       192.0004        192.0004
  -7559066.18847  -5873652.17745  23129278.162    23129277.9824   23129283.6384
       158.0004        162.0004
  -1553843.89347  -1201597.71345  23683210.894    23683211.2264   23683217.1104
       136.0004        141.0004
 -15584551.50249 -12127116.36747  21559700.170    21559700.3834   21559707.2584
       202.0004        202.0004
 -12510725.70049  -9726876.64747  22356267.273    22356267.3254   22356274.6174
       207.0004        206.0004
 -19302076.73149 -15023792.90747  21107621.987    21107622.0644   21107626.9354
       202.0004        202.0004
 21  2  2  0 44 30.0000000  0 10G30G04G21G14G01G17G28G09G08G07
  -9604633.87748  -7457406.65146  22784300.763    22784301.3194   22784308.5414
       175.0004        176.0004
  -7324978.41847  -5679294.78845  23168784.357    23168784.9184   23168791.7514
       160.0004        162.0004
 -12976276.00448  -9734806.83446  21796047.711    21796048.2064   21796053.4824
       185.0004        185.0004
  -2739136.55047  -1978326.61845  23359363.649    23359363.7424   23359369.2604
       157.0004        161.0004
 -14134858.09748 -10996280.74547  21374859.460    21374859.8464   21374867.9434
       191.0004        191.0004
  -7637925.66947  -5935101.07946  23114272.336    23114271.8704   23114278.5794
       162.0004        166.0004
  -1568827.65447  -1213273.33145  23680360.342    23680360.5764   23680365.9444
       137.0004        141.0004
 -15523664.16549 -12079671.68647  21571286.386    21571286.8174   21571294.1264
       202.0004        203.0004
 -12419791.21649  -9656018.61447  22373571.955    22373571.9354   22373579.2004
       207.0004        207.0004
 -19363619.53449 -15071748.32847  21095909.917    21095910.6584   21095915.5524
       202.0004        201.0004
 21  2  2  0 45  0.0000000  0 10G30G04G21G14G01G17G28G09G08G07
  -9691841.37948  -7525360.54546  22767705.865    22767706.4274   22767712.8454
       176.0004        178.0004
  -7227162.90747  -5603074.94246  23187399.479    23187399.2924   23187405.9694
       162.0004        164.0004
 -12960634.27148  -9722618.45846  21799024.770    21799024.2264   21799029.5224
       185.0004        185.0004
  -2765019.71447  -1998495.27945  23354437.081    23354438.2274   23354444.2314
       158.0004        160.0004
 -14190532.80048 -11039663.61247  21364264.782    21364264.7774   21364273.4744
       190.0004        189.0004
  -7716440.11948  -5996281.11246  23099329.530    23099330.2654   23099338.5274
       165.0004        168.0004
  -1583797.17947  -1224937.87245  23677511.828    23677511.9354   23677516.3164
       137.0004        142.0004
 -15462442.28049 -12031966.32447  21582936.482    21582936.7784   21582944.1884
       203.0004        203.0004
 -12328719.19149  -9585053.41347  22390902.120    22390901.9854   22390910.0644
       206.0004        206.0004
 -19424891.28649 -15119492.54747  21084250.880    21084251.4284   21084255.7344
       202.0004        202.0004
 21  2  2  0 45 30.0000000  0 10G30G04G21G14G01G17G28G09G08G07
  -9778987.06948  -7593266.26446  22751122.074    22751123.2364   22751130.0904
       177.0004        179.0004
  -7129294.87947  -5526814.17446  23206022.737    23206023.0364   23206030.0924
       162.0004        164.0004
 -12944496.01448  -9710043.18746  21802095.483    21802095.2384   21802100.7344
       184.0004        184.0004
  -2790901.58547  -2018662.96945  23349511.967    23349513.0434   23349518.7134
       157.0004        158.0004
 -14245826.17248 -11082749.34047  21353742.520    21353743.0854   21353751.6164
       189.0004        189.0004
  -7794605.30848  -6057189.02146  23084455.908    23084456.9974   23084464.0684
       168.0004        170.0004
  -1598751.22247  -1236590.36445  23674667.728    23674667.1664   23674673.0004
       139.0004        144.0004
 -15400885.77149 -11984000.22147  21594650.298    21594650.6794   21594657.9634
       202.0004        203.0004
 -12237508.97649  -9513980.54047  22408258.033    22408257.7144   22408266.9764
       205.0004        205.0004
 -19485886.37549 -15167021.20847  21072644.796    21072644.9194   21072648.5374
       202.0004        203.0004
 21  2  2  0 46  0.0000000  0 10G30G04G21G14G01G17G28G09G08G07
  -9866069.23048  -7661122.50346  22734552.593    22734552.6364   22734559.4024
       179.0004        180.0004
  -7031377.81647  -5450515.20446  23224656.693    23224656.2724   23224662.9784
       162.0004        163.0004
 -12927861.52448  -9697081.24746  21805262.293    21805261.1844   21805266.3604
       185.0004        185.0004
  -2816783.94347  -2038831.02645  23344587.055    23344587.3124   23344593.4494
       156.0004        158.0004
 -14300735.77048 -11125536.02547  21343293.372    21343293.7844   21343302.1784
       189.0004        189.0004
  -7872420.69548  -6117824.35346  23069649.010    23069649.1944   23069656.3114
       170.0004        172.0004
  -1613692.07747  -1248232.57245  23671823.251    23671823.1964   23671828.3524
       142.0004        147.0004
 -15338998.18749 -11935776.15247  21606427.570    21606427.8544   21606434.5144
       202.0004        202.0004
 -12146164.33049  -9442802.91347  22425639.810    22425640.4404   22425649.1734
       204.0004        204.0004
 -19546603.10449 -15214332.94847  21061089.578    21061090.3634   21061095.1054
       202.0004        203.0004
 21  2  2  0 46 30.0000000  0 10G30G04G21G14G01G17G28G09G08G07
  -9953087.39848  -7728928.83746  22717993.926    22717993.6834   22718000.5754
       180.0004        182.0004
  -6933416.39847  -5374181.64345  23243297.248    23243296.9124   23243303.2414
       160.0004        160.0004
 -12910732.13148  -9683733.64046  21808520.912    21808520.2854   21808526.3974
       185.0004        185.0004
  -2842669.65847  -2059001.68445  23339662.027    23339662.9174   23339667.9364
       158.0004        161.0004
 -14355260.44448 -11168022.76247  21332917.078    21332917.8094   21332926.7524
       189.0004        189.0004
  -7949886.06848  -6178186.91446  23054907.809    23054908.3914   23054914.7684
       171.0004        173.0004
  -1628622.96647  -1259867.02645  23668981.652    23668981.7254   23668987.9054
       142.0004        146.0004
 -15276784.17449 -11887297.69647  21618265.972    21618266.3054   21618273.5904
       201.0004        201.0004
 -12054689.48649  -9371523.82547  22443048.735    22443048.3984   22443056.1304
       205.0004        205.0004
 -19607040.25249 -15261426.81347  21049589.562    21049589.7454   21049593.8224
       202.0004        202.0004
 21  2  2  0 47  0.0000000  0 10G30G04G21G14G01G17G28G09G08G07
 -10040038.51548  -7796682.94246  22701447.058    22701447.2904   22701453.1524
       180.0004        180.0004
  -6835412.78347  -5297815.17145  23261945.201    23261946.4024   23261952.8164
       159.0004        161.0004
 -12893106.95848  -9669999.71946  21811874.947    21811874.5124   21811879.6374
       185.0004        185.0004
  -2868559.15747  -2079175.29445  23334734.535    23334735.6724   23334740.5214
       159.0004        160.0004
 -14409396.40948 -11210206.59647  21322615.231    21322616.0334   21322624.9214
       189.0004        190.0004
  -8026999.47848  -6238275.21546  23040234.759    23040234.4684   23040239.7224
       172.0004        174.0004
  -1643544.59347  -1271494.22645  23666143.053    23666142.8144   23666147.2004
       145.0004        149.0004
 -15214245.89749 -11838566.56747  21630165.939    21630166.6334   21630174.5624
       200.0004        200.0004
 -11963086.81349  -9300145.12047  22460479.080    22460479.7344   22460487.7654
       206.0004        206.0004
 -19667193.99949 -15308299.86347  21038142.452    21038143.2624   21038146.7044
       203.0004        203.0004
 21  2  2  0 47 30.0000000  0 10G30G04G21G14G01G17G28G09G08G07
 -10126920.36248  -7864383.08346  22684913.698    22684913.8684   22684920.1574
       179.0004        179.0004
  -6737369.77847  -5221418.05245  23280603.323    23280603.1584   23280610.0404
       159.0004        161.0004
 -12874985.93848  -9655879.42046  21815322.300    21815322.9144   21815327.5484
       184.0004        183.0004
  -2894453.59147  -2099352.76345  23329808.100    23329808.4104   23329812.6864
       160.0004        162.0004
 -14463140.68648 -11252085.24547  21312388.805    21312389.8404   21312398.1794
       190.0004        191.0004
  -8103759.12948  -6298087.88746  23025626.452    23025626.5374   23025633.7354
       171.0004        171.0004
  -1658458.86247  -1283115.71645  23663304.827    23663304.9304   23663309.8054
       147.0004        151.0004
 -15151386.29549 -11789585.07047  21642128.299    21642128.7404   21642135.7714
       199.0004        200.0004
 -11871358.75849  -9228668.73047  22477934.470    22477934.3354   22477942.8054
       205.0004        204.0004
 -19727061.97249 -15354950.23347  21026750.218    21026750.3184   21026754.8574
       203.0004        203.0004
 21  2  2  0 48  0.0000000  0 10G30G04G21G14G01G17G28G09G08G07
 -10213730.47148  -7932027.32346  22668392.682    22668393.7514   22668400.2924
       177.0004        177.0004
  -6639290.11347  -5144992.35545  23299266.776    23299267.1704   23299275.1004
       161.0004        162.0004
 -12856368.85248  -9641372.57846  21818865.503    21818865.0414   21818870.8224
       183.0004        184.0004
  -2920353.87147  -2119534.78345  23324879.185    23324879.6554   23324884.1704
       160.0004        161.0004
 -14516490.14548 -11293656.24347  21302236.148    21302237.0624   21302246.0784
       191.0004        191.0004
  -8180164.00548  -6357624.11846  23011087.470    23011088.1714   23011092.8504
       171.0004        172.0004
  -1673366.99947  -1294732.42545  23660467.155    23660467.2824   23660473.0814
       147.0004        151.0004
 -15088208.09549 -11740355.31847  21654149.944    21654150.9764   21654158.2334
       198.0004        198.0004
 -11779508.21349  -9157096.89847  22495412.799    22495413.1904   22495421.3644
       204.0004        204.0004
 -19786641.32649 -15401375.70047  21015412.286    21015412.8304   21015417.2154
       203.0004        204.0004
 21  2  2  0 48 30.0000000  0 10G30G04G21G14G01G17G28G09G08G07
 -10300466.74548  -7999614.05646  22651888.938    22651888.8134   22651894.8474
       178.0004        180.0004
  -6541176.89447  -5068540.51546  23317935.947    23317937.4684   23317945.0564
       161.0004        163.0004
 -12837255.59148  -9626479.11946  21822502.336    21822501.9714   21822508.3124
       184.0004        185.0004
  -2946261.41647  -2139722.45845  23319949.364    23319949.9274   23319953.7694
       158.0004        158.0004
 -14569442.08548 -11334917.49147  21292160.200    21292160.5574   21292169.3054
       191.0004        192.0004
  -8256212.66348  -6416882.78446  22996616.545    22996616.0274   22996621.6204
       170.0004        171.0004
  -1688270.69047  -1306345.66645  23657631.324    23657631.1784   23657636.5654
       148.0004        151.0004
 -15024714.55649 -11690879.85147  21666232.563    21666233.1904   21666240.9734
       198.0004        198.0004
 -11687538.04449  -9085431.84747  22512913.719    22512914.0384   22512922.2174
       203.0004        202.0004
 -19845929.39049 -15447574.19847  21004130.344    21004130.6434   21004135.1194
       203.0004        203.0004
 21  2  2  0 49  0.0000000  0 10G30G04G21G14G01G17G28G09G08G07
 -10387126.49648  -8067141.10646  22635397.751    22635397.9644   22635405.2924
       180.0004        181.0004
  -6443032.54647  -4992064.43245  23336612.696    23336613.7994   23336620.8574
       161.0004        162.0004
 -12817645.40448  -9611198.43146  21826234.554    21826233.9524   21826240.0444
       184.0004        183.0004
  -2972176.88747  -2159916.30845  23315017.353    23315017.7154   23315023.7874
       156.0004        157.0004
 -14621993.16748 -11375866.37547  21282160.037    21282160.8164   21282169.9874
       193.0004        193.0004
  -8331903.10948  -6475862.32346  22982211.858    22982212.3394   22982217.4274
       170.0004        170.0004
  -1703171.32547  -1317956.53845  23654796.690    23654795.8824   23654800.5164
       150.0004        153.0004
 -14960908.14049 -11641160.57547  21678374.369    21678375.3604   21678381.8484
       197.0004        197.0004
 -11595450.55349  -9013675.36747  22530437.324    22530437.2894   22530446.4294
       202.0004        201.0004
 -19904923.23849 -15493543.43647  20992903.473    20992904.5374   20992908.5104
       203.0004        203.0004
 21  2  2  0 49 30.0000000  0 10G30G04G21G14G01G17G28G09G08G07
 -10473707.79248  -8134607.03146  22618922.155    22618922.2124   22618928.8484
       180.0004        180.0004
  -6344860.28847  -4915566.57745  23355295.436    23355295.3044   23355302.4404
       160.0004        161.0004
 -12797538.73548  -9595530.87146  21830060.600    21830060.2604   21830066.2654
       184.0004        184.0004
  -2998101.82747  -2180117.55145  23310083.892    23310085.0774   23310090.1304
       156.0004        158.0004
 -14674140.78248 -11416500.86147  21272237.421    21272238.0244   21272246.4204
       193.0004        194.0004
  -8407234.48448  -6534562.05846  22967877.554    22967877.8184   22967881.5154
       171.0004        171.0004
  -1718070.46447  -1329566.24445  23651960.233    23651959.8744   23651965.5994
       150.0004        153.0004
 -14896792.18649 -11591200.10847  21690575.389    21690576.0634   21690584.1464
       197.0004        198.0004
 -11503249.15849  -8941830.13847  22547982.280    22547982.7704   22547991.8744
       201.0004        201.0004
 -19963620.53849 -15539281.58447  20981734.737    20981735.0894   20981739.2254
       203.0004        204.0004
 21  2  2  0 50  0.0000000  0 10G30G04G21G14G01G17G28G09G08G07
 -10560208.92848  -8202010.50146  22602461.716    22602461.9414   22602469.1424
       180.0004        180.0004
  -6246663.66147  -4839049.75345  23373982.568    23373982.8154   23373988.2274
       160.0004        161.0004
 -12776936.27448  -9579476.99146  21833980.264    21833980.6674   21833986.3354
       184.0004        184.0004
  -3024037.84747  -2200327.45545  23305148.902    23305149.3984   23305153.7164
       157.0004        158.0004
 -14725882.69948 -11456819.24047  21262390.846    21262391.7424   21262399.6074
       194.0004        193.0004
  -8482206.06548  -6592981.45146  22953609.109    22953610.1144   22953614.4934
       168.0004        168.0004
  -1732970.57847  -1341176.70745  23649125.110    23649124.6564   23649130.4604
       150.0004        153.0004
 -14832370.32249 -11541001.26747  21702834.609    21702835.3454   21702842.4264
       197.0004        198.0004
 -11410936.86549  -8869898.49447  22565549.655    22565549.6234   22565558.4564
       202.0004        202.0004
 -20022018.90049 -15584786.81147  20970621.683    20970621.7014   20970626.1064
       203.0004        203.0004
 21  2  2  0 50 30.0000000  0 10G30G04G21G14G01G17G28G09G08G07
 -10646626.18748  -8269348.62946  22586016.681    22586016.3324   22586023.3374
       179.0004        180.0004
  -6148444.03347  -4762514.98645  23392672.437    23392673.2564   23392679.9074
       160.0004        161.0004
 -12755836.53148  -9563035.62346  21837996.050    21837996.2134   21838001.6574
       184.0004        184.0004
  -3049984.76647  -2220545.81445  23300210.086    23300211.3984   23300217.4594
       156.0004        157.0004
 -14777214.62748 -11496818.13947  21252623.012    21252623.3314   21252631.5364
       194.0004        193.0004
  -8556815.02848  -6651118.28446  22939413.150    22939413.6674   22939416.2314
       168.0004        169.0004
  -1747871.52247  -1352787.83045  23646290.399    23646290.2594   23646294.6664
       152.0004        155.0004
 -14767644.10149 -11490565.25747  21715152.282    21715152.4114   21715159.9774
       198.0004        198.0004
 -11318515.47749  -8797881.85247  22583135.584    22583136.6984   22583145.6674
       202.0004        202.0004
 -20080114.28149 -15630055.93847  20959566.397    20959566.8814   20959571.0974
       203.0004        203.0004
 21  2  2  0 51  0.0000000  0 10G30G04G21G14G01G17G28G09G08G07
 -10732957.93248  -8336620.11246  22569587.436    22569588.4664   22569595.1824
       180.0004        180.0004
  -6050204.94347  -4685965.05345  23411366.741    23411366.5254   23411373.6884
       159.0004        160.0004
 -12734240.16448  -9546207.27546  21842106.525    21842105.5494   21842111.0654
       184.0004        184.0004
  -3075944.26847  -2240773.98745  23295272.022    23295271.8084   23295276.5244
       158.0004        160.0004
 -14828134.33048 -11536495.82147  21242932.932    21242933.2044   21242941.5174
       193.0004        193.0004
  -8631061.25248  -6708972.46346  22925285.050    22925284.5404   22925289.0834
       169.0004        171.0004
  -1762775.65347  -1364401.42045  23643453.753    23643452.9564   23643457.9704
       151.0004        153.0004
 -14702617.12749 -11439894.90147  21727526.959    21727526.9594   21727534.5394
       198.0004        199.0004
 -11225988.09849  -8725782.60747  22600742.683    22600743.7404   22600752.8844
       201.0004        200.0004
 -20137904.53149 -15675087.30347  20948568.939    20948569.6584   20948573.9224
       203.0004        204.0004
 21  2  2  0 51 30.0000000  0 10G30G04G21G14G01G17G28G09G08G07
 -10819201.73948  -8403823.07246  22553176.189    22553177.0484   22553183.3324
       179.0004        178.0004
  -5951949.15147  -4609402.09645  23430062.829    23430063.7194   23430070.6784
       158.0004        158.0004
 -12712146.96848  -9528991.78346  21846311.143    21846309.5914   21846316.0934
       184.0004        184.0004
  -3101917.52447  -2261012.86645  23290328.596    23290328.8384   23290333.2624
       158.0004        159.0004
 -14878638.89548 -11575850.01347  21233322.258    21233322.6114   21233331.0334
       193.0004        193.0004
  -8704943.01648  -6766542.62746  22911223.721    22911224.2634   22911229.7864
       170.0004        170.0004
  -1777684.51647  -1376018.65845  23640617.290    23640616.8964   23640621.3974
       151.0004        154.0004
 -14637292.40349 -11388992.52047  21739957.325    21739957.3954   21739965.3894
       198.0004        198.0004
 -11133357.15549  -8653602.67647  22618372.099    22618371.5034   22618379.9404
       200.0004        199.0004
 -20195387.31449 -15719879.07247  20937630.971    20937631.1074   20937635.7824
       203.0004        204.0004
 21  2  2  0 52  0.0000000  0 10G30G04G21G14G01G17G28G09G08G07
 -10905354.93648  -8470955.40446  22536782.066    22536782.3534   22536789.5224
       178.0004        178.0004
  -5853679.11047  -4532828.06045  23448764.427    23448763.8524   23448770.3834
       157.0004        158.0004
 -12689556.55348  -9511388.84146  21850608.166    21850608.6124   21850614.5354
       183.0004        183.0004
  -3127905.15747  -2281262.96145  23285382.902    23285382.8564   23285389.1054
       158.0004        161.0004
 -14928725.24648 -11614878.32147  21223791.586    21223791.8504   21223800.4584
       193.0004        193.0004
  -8778458.93048  -6823827.74146  22897235.700    22897235.7104   22897239.9694
       170.0004        171.0004
  -1792599.12147  -1387640.39345  23637778.401    23637778.6704   23637782.9784
       151.0004        153.0004
 -14571672.51549 -11337860.15347  21752444.446    21752444.6754   21752451.9924
       198.0004        198.0004
 -11040625.05949  -8581343.92547  22636017.915    22636017.9534   22636026.3954
       200.0004        200.0004
 -20252559.25849 -15764428.63847  20926750.943    20926751.8924   20926756.1604
       204.0004        205.0004
 21  2  2  0 52 30.0000000  0 10G30G04G21G14G01G17G28G09G08G07
 -10991416.01448  -8538015.97946  22520405.142    22520404.8554   22520411.3214
       177.0004        176.0004
  -5755398.51147  -4456245.81045  23467466.593    23467467.0294   23467473.0494
       157.0004        158.0004
 -12666469.97048  -9493399.28446  21855002.452    21855001.5224   21855007.2544
       184.0004        184.0004
  -3153909.06547  -2301525.74246  23280434.979    23280435.5994   23280440.0784
       160.0004        163.0004
 -14978391.11848 -11653578.97947  21214339.836    21214340.6854   21214348.6344
       192.0004        192.0004
  -8851608.44548  -6880827.32846  22883315.643    22883315.7024   22883320.3334
       170.0004        170.0004
  -1807521.89447  -1399268.51745  23634937.614    23634938.2034   23634943.5014
       149.0004        150.0004
 -14505761.30249 -11286500.77447  21764986.303    21764986.6784   21764994.2594
       197.0004        197.0004
 -10947795.53349  -8509009.23847  22653681.651    22653682.6714   22653691.6584
       200.0004        201.0004
 -20309418.50149 -15808734.54247  20915931.418    20915931.4114   20915936.3314
       205.0004        205.0004
 21  2  2  0 53  0.0000000  0 10G30G04G21G14G01G17G28G09G08G07
 -11077381.39348  -8605001.99746  22504046.917    22504046.7284   22504053.7874
       177.0004        179.0004
  -5657108.95147  -4379656.55945  23486170.806    23486170.0944   23486176.0644
       155.0004        156.0004
 -12642886.12348  -9475022.24946  21859489.629    21859489.7914   21859495.3454
       184.0004        184.0004
  -3179929.19847  -2321801.12546  23275483.392    23275483.6294   23275488.8554
       161.0004        163.0004
 -15027632.64848 -11691949.00547  21204968.628    21204969.4254   21204978.3704
       192.0004        191.0004
  -8924388.69048  -6937539.16746  22869464.972    22869466.1234   22869471.7874
       171.0004        173.0004
  -1822453.48947  -1410903.52645  23632097.275    23632097.0974   23632102.0074
       147.0004        150.0004
 -14439560.56749 -11234915.79647  21777583.799    21777584.2924   21777592.4304
       197.0004        197.0004
 -10854870.38949  -8436600.04947  22671365.491    22671365.0034   22671373.9184
       200.0004        199.0004
 -20365961.29649 -15852793.86347  20905171.073    20905171.5304   20905176.1134
       204.0004        204.0004
 21  2  2  0 53 30.0000000  0 10G30G04G21G14G01G17G28G09G08G07
 -11163249.30148  -8671912.06046  22487707.327    22487707.0114   22487712.9554
       178.0004        179.0004
  -5558813.86847  -4303062.99445  23504874.180    23504875.1394   23504882.1054
       153.0004        154.0004
 -12618805.82048  -9456258.36246  21864072.517    21864071.9994   21864077.2984
       184.0004        183.0004
  -3205967.26147  -2342090.51245  23270527.997    23270528.4934   23270532.9824
       160.0004        160.0004
 -15076447.57348 -11729986.60947  21195680.224    21195681.0574   21195688.7794
       192.0004        193.0004
  -8996799.18848  -6993962.92046  22855686.018    22855686.1474   22855692.3924
       172.0004        172.0004
  -1837395.71347  -1422546.80745  23629253.329    23629253.2294   23629258.2204
       148.0004        151.0004
 -14373073.96549 -11183108.07847  21790236.713    21790237.0464   21790244.0144
       197.0004        197.0004
 -10761852.32149  -8364118.46047  22689064.474    22689065.2894   22689075.0294
       198.0004        198.0004
 -20422185.30849 -15896604.79047  20894472.874    20894472.9814   20894477.2134
       204.0004        205.0004
 21  2  2  0 54  0.0000000  0 10G30G04G21G14G01G17G28G09G08G07
 -11249016.03248  -8738743.27146  22471385.481    22471386.2154   22471392.1824
       179.0004        180.0004
  -5460514.71447  -4226466.25245  23523580.171    23523580.3494   23523587.4544
       152.0004        154.0004
 -12594227.50448  -9437106.41146  21868749.334    21868749.1664   21868754.7914
       184.0004        184.0004
  -3232022.90347  -2362393.62745  23265570.794    23265570.6874   23265575.1804
       159.0004        161.0004
 -15124831.75248 -11767688.53447  21186473.044    21186473.2744   21186482.3454
       193.0004        193.0004
  -9068838.03848  -7050097.05546  22841978.281    22841978.1364   22841984.1314
       171.0004        173.0004
  -1852348.44447  -1434198.28145  23626408.642    23626407.8864   23626413.1964
       150.0004        152.0004
 -14306303.16449 -11131078.88247  21802942.456    21802943.0994   21802949.5654
       197.0004        197.0004
 -10668743.38049  -8291566.05847  22706783.460    22706783.3934   22706793.2584
       197.0004        197.0004
 -20478086.77849 -15940164.39647  20883834.441    20883835.2584   20883839.3354
       204.0004        205.0004
 21  2  2  0 54 30.0000000  0 10G30G04G21G14G01G17G28G09G08G07
 -11334680.47148  -8805494.77346  22455083.128    22455083.2024   22455091.1904
       178.0004        178.0004
  -5362215.48947  -4149869.48245  23542286.695    23542286.8634   23542292.2294
       152.0004        155.0004
 -12569152.77048  -9417567.63446  21873521.938    21873521.0654   21873526.5864
       184.0004        184.0004
  -3258098.42747  -2382712.22246  23260608.304    23260608.7364   23260613.3064
       161.0004        163.0004
 -15172783.66548 -11805053.64347  21177347.877    21177348.1774   21177357.3474
       193.0004        194.0004
  -9140504.78148  -7105941.21346  22828340.940    22828341.1474   22828346.4164
       174.0004        176.0004
  -1867314.81947  -1445860.38445  23623560.445    23623560.6674   23623564.6744
       149.0004        153.0004
 -14239252.37249 -11078831.51547  21815702.518    21815702.9204   21815708.9904
       197.0004        197.0004
 -10575547.12849  -8218945.62047  22724517.972    22724518.8374   22724528.2864
       197.0004        198.0004
 -20533664.07449 -15983471.38147  20873258.542    20873258.7714   20873263.3034
       204.0004        205.0004
 21  2  2  0 55  0.0000000  0 10G30G04G21G14G01G17G28G09G08G07
 -11420240.58248  -8872164.96846  22438802.245    22438802.2064   22438810.1084
       179.0004        179.0004
  -5263919.36247  -4073275.12745  23560991.480    23560992.4114   23560997.9204
       153.0004        155.0004
 -12543582.06448  -9397642.39446  21878386.812    21878386.6174   21878392.2984
       184.0004        185.0004
  -3284195.31447  -2403047.46646  23255642.483    23255643.1034   23255647.6674
       163.0004        166.0004
 -15220300.96048 -11842080.08347  21168305.096    21168306.4394   21168315.3444
       193.0004        194.0004
  -9211798.70648  -7161494.90346  22814772.373    22814773.4324   22814779.2454
       174.0004        174.0004
  -1882296.72147  -1457534.56845  23620709.856    23620709.1434   23620714.3764
       148.0004        151.0004
 -14171925.02149 -11026368.65447  21828515.006    21828514.8124   21828521.4114
       197.0004        197.0004
 -10482266.45049  -8146259.39047  22742269.694    22742269.2534   22742279.0554
       198.0004        198.0004
 -20588915.03849 -16026524.08347  20862744.494    20862744.7794   20862749.3734
       204.0004        205.0004
 21  2  2  0 55 30.0000000  0 10G30G04G21G14G01G17G28G09G08G07
 -11505692.65848  -8938750.99446  22422540.672    22422541.0824   22422548.7374
       178.0004        179.0004
  -5165627.80447  -3996684.30645  23579695.234    23579696.5234   23579702.6264
       153.0004        156.0004
 -12517514.10248  -9377329.67146  21883348.653    21883347.6754   21883351.9054
       184.0004        184.0004
  -3310313.30847  -2423399.10746  23250671.708    23250672.7304   23250677.3514
       164.0004        166.0004
 -15267379.50248 -11878764.64447  21159347.612    21159348.1274   21159356.6864
       194.0004        195.0004
  -9282717.13848  -7216755.97246  22801277.943    22801278.4364   22801283.5594
       174.0004        174.0004
  -1897294.41847  -1469221.07945  23617855.160    23617855.3614   23617860.5584
       149.0004        154.0004
 -14104322.85349 -10973691.63347  21841378.269    21841378.4144   21841385.9144
       197.0004        196.0004
 -10388902.88749  -8073508.56747  22760034.700    22760035.4634   22760045.0914
       198.0004        198.0004
 -20643835.37849 -16069319.15547  20852294.056    20852294.4424   20852298.4814
       205.0004        205.0004
 21  2  2  0 56  0.0000000  0 10G30G04G21G14G01G17G28G09G08G07
 -11591034.48948  -9005251.13146  22406301.468    22406301.4364   22406308.7694
       179.0004        180.0004
  -5067343.77147  -3920099.37445  23598398.135    23598398.4374   23598405.4844
       153.0004        155.0004
 -12490949.56448  -9356630.02146  21888402.908    21888402.2034   21888407.2404
       184.0004        184.0004
  -3336453.58248  -2443768.12746  23245697.366    23245698.0144   23245703.6964
       165.0004        166.0004
 -15314016.75149 -11915105.35147  21150472.549    21150472.9504   21150481.3244
       195.0004        195.0004
  -9353259.40748  -7271723.94846  22787853.995    22787854.5464   22787859.0654
       173.0004        173.0004
  -1912308.84647  -1480920.61545  23614997.374    23614997.8694   23615003.3814
       151.0004        155.0004
 -14036449.07449 -10920802.98347  21854293.780    21854294.0444   21854301.7734
       195.0004        195.0004
 -10295459.32849  -8000695.41947  22777816.196    22777817.0844   22777826.6764
       196.0004        195.0004
 -20698422.87449 -16111854.88147  20841906.391    20841906.3174   20841910.7694
       205.0004        205.0004
 21  2  2  0 56 30.0000000  0 10G30G04G21G14G01G17G28G09G08G07
 -11676263.52948  -9071663.36646  22390083.214    22390082.5474   22390089.9424
       180.0004        180.0004
  -4969069.90447  -3843522.36845  23617099.171    23617099.4024   23617106.3524
       151.0004        153.0004
 -12463888.49548  -9335543.45446  21893551.286    21893551.4284   21893557.5204
       184.0004        184.0004
  -3362617.01948  -2464155.22646  23240719.788    23240720.7254   23240725.3214
       165.0004        168.0004
 -15360209.91749 -11951100.01447  21141681.915    21141683.0514   21141691.0914
       195.0004        195.0004
  -9423424.22048  -7326397.78746  22774501.671    22774502.3134   22774507.4864
       171.0004        172.0004
  -1927342.36247  -1492635.02945  23612137.864    23612138.1914   23612142.0554
       152.0004        155.0004
 -13968306.57648 -10867704.94647  21867260.770    21867261.0484   21867269.1664
       194.0004        194.0004
 -10201938.31948  -7927821.91747  22795613.241    22795613.6124   22795623.6234
       194.0004        194.0004
 -20752674.59249 -16154128.95947  20831581.729    20831582.7154   20831587.2624
       205.0004        205.0004
 21  2  2  0 57  0.0000000  0 10G30G04G21G14G01G17G28G09G08G07
 -11761378.38448  -9137986.62846  22373886.442    22373886.4384   22373893.3554
       180.0004        181.0004
  -4870809.97147  -3766956.22345  23635797.700    23635798.2624   23635804.7184
       151.0004        154.0004
 -12436331.97148  -9314070.83146  21898795.327    21898795.8744   21898801.4594
       183.0004        184.0004
  -3388805.80048  -2484562.05346  23235736.203    23235735.9164   23235741.8294
       166.0004        167.0004
 -15405957.24249 -11986747.27847  21132976.001    21132977.5724   21132985.6644
       196.0004        196.0004
  -9493211.40348  -7380777.38746  22761222.760    22761222.6164   22761227.2604
       172.0004        174.0004
  -1942397.25147  -1504366.07545  23609273.504    23609272.7594   23609278.0304
       153.0004        156.0004
 -13899899.43148 -10814400.68947  21880277.237    21880277.6994   21880287.1704
       193.0004        194.0004
 -10108343.20548  -7854890.68147  22813423.754    22813424.3024   22813433.8914
       193.0004        193.0004
 -20806589.00049 -16196140.19647  20821322.704    20821323.3274   20821327.9334
       205.0004        206.0004
 21  2  2  0 57 30.0000000  0 10G30G04G21G14G01G17G28G09G08G07
 -11846376.41248  -9204218.84846  22357711.270    22357711.8064   22357718.9374
       182.0004        183.0004
  -4772566.47547  -3690402.88745  23654493.714    23654493.7434   23654501.2524
       153.0004        156.0004
 -12408280.25648  -9292212.33746  21904134.336    21904134.0084   21904139.1484
       183.0004        184.0004
  -3415020.61048  -2504989.17446  23230747.826    23230748.6944   23230752.9234
       168.0004        169.0004
 -15451255.87749 -12022044.90247  21124356.968    21124357.2554   21124366.0344
       196.0004        197.0004
  -9562619.74048  -7434861.77946  22748014.633    22748014.6254   22748019.9844
       173.0004        174.0004
  -1957474.57547  -1516114.61445  23606403.483    23606403.2214   23606408.9104
       153.0004        155.0004
 -13831230.49948 -10760892.44147  21893344.723    21893344.5534   21893353.2084
       192.0004        191.0004
 -10014676.48248  -7781903.63947  22831249.992    22831249.8824   22831257.4474
       194.0004        195.0004
 -20860163.18949 -16237886.32247  20811129.076    20811128.6734   20811132.9674
       206.0004        206.0004
 21  2  2  0 58  0.0000000  0 10G30G04G21G14G01G17G28G09G08G07
 -11931254.89748  -9270357.91846  22341560.066    22341559.9134   22341566.7184
       184.0004        184.0004
  -4674341.96847  -3613864.33445  23673183.900    23673185.3644   23673192.2544
       153.0004        156.0004
 -12379733.21148  -9269967.85746  21909566.207    21909565.5704   21909571.4484
       183.0004        183.0004
  -3441262.18048  -2525437.14846  23225753.831    23225753.7804   23225758.3664
       167.0004        167.0004
 -15496102.80349 -12056990.54447  21115822.278    21115822.6834   21115831.4024
       196.0004        196.0004
  -9631647.56648  -7488649.67346  22734878.898    22734879.4744   22734884.2064
       173.0004        173.0004
  -1972575.38147  -1527881.46245  23603529.643    23603529.6754   23603535.1944
       153.0004        155.0004
 -13762302.45948 -10707182.31547  21906460.352    21906461.2974   21906469.6964
       191.0004        191.0004
  -9920940.49749  -7708862.61047  22849086.905    22849086.7204   22849095.0214
       195.0004        195.0004
 -20913394.14349 -16279364.99447  20800997.861    20800998.6514   20801003.4284
       206.0004        206.0004
 21  2  2  0 58 30.0000000  0 10G30G04G21G14G01G17G28G09G08G07
 -12016011.17948  -9336401.76446  22325430.917    22325430.9354   22325437.4374
       184.0004        184.0004
  -4576138.90147  -3537342.48645  23691870.730    23691872.2784   23691879.3884
       154.0004        157.0004
 -12350691.25248  -9247337.74946  21915092.692    21915092.2994   21915097.9364
       183.0004        183.0004
  -3467531.40947  -2545906.67945  23220753.901    23220753.9474   23220759.1624
       164.0004        162.0004
 -15540495.15849 -12091581.97347  21107374.491    21107375.4784   21107384.3764
       196.0004        197.0004
  -9700293.78348  -7542140.19346  22721815.440    22721815.7574   22721821.2354
       172.0004        171.0004
  -1987700.82047  -1539667.50245  23600651.783    23600652.1984   23600656.6354
       153.0004        155.0004
 -13693118.29448 -10653272.59247  21919627.148    21919627.3034   21919635.6644
       191.0004        192.0004
  -9827137.83749  -7635769.64547  22866936.423    22866936.4924   22866946.0714
       195.0004        195.0004
 -20966278.92349 -16320573.91647  20790934.794    20790935.1624   20790939.8584
       205.0004        206.0004
 21  2  2  0 59  0.0000000  0 10G30G04G21G14G01G17G28G09G08G07
 -12100641.30248  -9402347.30546  22309326.523    22309327.0304   22309333.5854
       185.0004        185.0004
  -4477958.53247  -3460838.31745  23710553.880    23710554.8964   23710564.1034
       155.0004        157.0004
 -12321153.07248  -9224320.96246  21920714.079    21920713.1514   21920718.8394
       182.0004        182.0004
  -3493827.63647  -2566397.24346  23215750.447    23215750.5214   23215756.4364
       161.0004        163.0004
 -15584428.79949 -12125815.95747  21099015.011    21099015.3924   21099023.7264
       197.0004        197.0004
  -9768556.08048  -7595331.59746  22708825.582    22708825.5284   22708830.4734
       170.0004        171.0004
  -2002851.17947  -1551472.93745  23597769.251    23597768.8274   23597773.5504
       152.0004        154.0004
 -13623679.43748 -10599164.39147  21932842.493    21932842.7084   21932849.5234
       193.0004        195.0004
  -9733269.46848  -7562625.48247  22884797.692    22884798.1824   22884807.9994
       193.0004        192.0004
 -21018813.33149 -16361509.82147  20780938.297    20780938.4094   20780942.9714
       206.0004        206.0004
 21  2  2  0 59 30.0000000  0 10G30G04G21G14G01G17G28G09G08G07
 -12185143.00648  -9468192.76946  22293246.551    22293246.0044   22293253.5884
       184.0004        185.0004
  -4379803.66247  -3384354.06045  23729232.780    23729234.0714   23729242.0844
       155.0004        157.0004
 -12291119.15148  -9200917.88246  21926429.985    21926428.8054   21926434.7624
       183.0004        183.0004
  -3520152.15747  -2586909.84146  23210741.495    23210742.7574   23210746.8914
       163.0004        165.0004
 -15627901.26649 -12159690.60147  21090742.115    21090742.5964   21090751.2004
       196.0004        197.0004
  -9836433.58348  -7648223.12646  22695909.460    22695909.4234   22695914.2884
       171.0004        173.0004
  -2018028.20347  -1563299.16045  23594880.823    23594880.6864   23594885.2214
       151.0004        153.0004
 -13553989.14249 -10544860.27947  21946104.536    21946104.4584   21946110.2634
       195.0004        196.0004
  -9639338.01248  -7489432.15847  22902673.840    22902673.4284   22902682.2694
       192.0004        192.0004
 -21070995.02949 -16402170.89147  20771007.393    20771008.3984   20771013.0854
       206.0004        206.0004
 21  2  2  1  0  0.0000000  0 10G30G04G21G14G01G17G28G09G08G07
 -12269515.76248  -9533937.74846  22277190.891    22277190.8764   22277197.4264
       185.0004        185.0004
  -4281678.99847  -3307893.33345  23747905.569    23747906.3514   23747913.7264
       155.0004        157.0004
 -12260591.81448  -9177130.33646  21932237.697    21932237.7284   21932243.9264
       183.0004        183.0004
  -3546507.85247  -2607446.72946  23205725.635    23205726.3434   23205730.9204
       164.0004        166.0004
 -15670911.86449 -12193205.34847  21082557.262    21082558.2114   21082566.4394
       196.0004        196.0004
  -9903926.86148  -7700815.27146  22683064.309    22683065.7384   22683070.6944
       171.0004        172.0004
  -2033234.79747  -1575148.44845  23591986.922    23591987.4134   23591991.6144
       152.0004        156.0004
 -13484052.45149 -10490364.15547  21959413.068    21959413.2684   21959419.1794
       196.0004        197.0004
  -9545348.58148  -7416193.65647  22920558.874    22920558.5224   22920568.1544
       192.0004        192.0004
 -21122823.57049 -16442556.77947  20761145.572    20761145.6244   20761150.3324
       206.0004        206.0004
 21  2  2  1  0 30.0000000  0 10G30G04G21G14G01G17G28G09G08G07
 -12353755.08748  -9599578.79746  22261160.498    22261161.2484   22261167.4234
       186.0004        187.0004
  -4183585.25947  -3231456.68145  23766571.612    23766572.7824   23766579.3064
       154.0004        155.0004
 -12229569.43848  -9152957.03346  21938140.910    21938140.4884   21938146.7354
       182.0004        182.0004
  -3572893.75547  -2628007.14545  23200703.372    23200703.0714   23200710.6054
       163.0004        162.0004
 -15713456.09249 -12226356.67847  21074461.117    21074462.4064   21074470.6754
       196.0004        196.0004
  -9971033.29648  -7753105.96146  22670295.345    22670296.0234   22670300.8194
       171.0004        174.0004
  -2048470.65347  -1587020.53245  23589087.459    23589087.9574   23589091.6444
       152.0004        155.0004
 -13413870.42549 -10435676.86347  21972768.723    21972768.8964   21972774.9614
       198.0004        198.0004
  -9451301.34948  -7342910.09847  22938455.498    22938454.7804   22938464.2714
       191.0004        191.0004
 -21174293.91049 -16482663.54047  20751350.867    20751351.2304   20751356.1514
       206.0004        206.0004
 21  2  2  1  1  0.0000000  0 10G30G04G21G14G01G17G28G09G08G07
 -12437859.16148  -9665114.42146  22245155.700    22245156.0044   22245163.2724
       186.0004        186.0004
  -4085525.74847  -3155046.70945  23785231.356    23785232.4734   23785238.7964
       154.0004        156.0004
 -12198053.07748  -9128398.82246  21944137.822    21944138.1494   21944143.7844
       182.0004        183.0004
  -3599311.41747  -2648592.32145  23195677.949    23195677.8024   23195683.2804
       161.0004        161.0004
 -15755531.91649 -12259143.01447  21066453.353    21066455.0304   21066463.8374
       196.0004        196.0004
 -10037752.18448  -7805094.67646  22657598.576    22657599.7784   22657603.5314
       173.0004        173.0004
  -2063737.89347  -1598917.05545  23586181.859    23586181.5564   23586186.6364
       152.0004        154.0004
 -13343446.72349 -10380801.26147  21986168.481    21986169.0394   21986175.8394
       196.0004        195.0004
  -9357199.44348  -7269583.96547  22956363.938    22956363.0344   22956371.7744
       192.0004        193.0004
 -21225404.05349 -16522489.63547  20741625.109    20741625.5474   20741629.9994
       206.0004        207.0004
 21  2  2  1  1 30.0000000  0 10G30G04G21G14G01G17G28G09G08G07
 -12521825.71948  -9730542.89147  22229179.138    22229178.2674   22229185.5084
       187.0004        189.0004
  -3987503.34847  -3078665.66145  23803884.215    23803885.6674   23803893.0694
       153.0004        155.0004
 -12166043.54748  -9103456.31946  21950229.728    21950229.3374   21950235.1404
       182.0004        183.0004
  -3625761.97347  -2669203.16246  23190644.946    23190644.9574   23190649.0734
       161.0004        163.0004
 -15797136.98949 -12291562.53447  21058537.357    21058538.3224   21058545.9894
       196.0004        195.0004
 -10104083.07048  -7856781.06146  22644977.951    22644977.8004   22644981.5344
       173.0004        174.0004
  -2079038.01247  -1610839.23645  23583270.042    23583271.3764   23583275.1124
       150.0004        152.0004
 -13272784.65249 -10325739.90547  21999614.526    21999614.7204   21999622.5884
       196.0004        195.0004
  -9263045.61048  -7196217.36947  22974279.701    22974279.8714   22974289.0124
       192.0004        191.0004
 -21276151.81549 -16562033.35347  20731967.569    20731968.2714   20731973.0194
       206.0004        207.0004
 21  2  2  1  2  0.0000000  0 10G30G04G21G14G01G17G28G09G08G07
 -12605652.65748  -9795862.57847  22213226.074    22213226.4714   22213233.6624
       190.0004        190.0004
  -3889521.15947  -3002315.94145  23822531.666    23822531.9284   23822538.2254
       154.0004        156.0004
 -12133541.56348  -9078130.09346  21956415.207    21956414.6354   21956420.4234
       182.0004        182.0004
  -3652246.84947  -2689840.74246  23185604.671    23185604.7374   23185609.0814
       161.0004        163.0004
 -15838269.16449 -12323613.54447  21050709.833    21050710.4084   21050719.1954
       195.0004        195.0004
 -10170025.36648  -7908164.64046  22632428.282    22632428.6964   22632432.6104
       173.0004        174.0004
  -2094372.96247  -1622788.54745  23580352.204    23580350.9534   23580357.2094
       147.0004        148.0004
 -13201887.64648 -10270495.50347  22013104.855    22013105.0604   22013113.9714
       194.0004        193.0004
  -9168843.04448  -7122812.79247  22992206.714    22992205.8054   22992215.1274
       191.0004        191.0004
 -21326535.07249 -16601293.04547  20722380.398    20722380.7354   20722385.3614
       207.0004        207.0004
 21  2  2  1  2 30.0000000  0 10G30G04G21G14G01G17G28G09G08G07
 -12689337.31948  -9861071.39547  22197300.633    22197301.6104   22197308.5134
       189.0004        189.0004
  -3791581.65047  -2925999.47245  23841169.750    23841168.9024   23841176.1384
       154.0004        157.0004
 -12100547.94848  -9052420.77846  21962693.673    21962693.4104   21962697.9714
       182.0004        182.0004
  -3678766.75847  -2710505.60646  23180557.335    23180558.2184   23180564.0064
       163.0004        165.0004
 -15878925.75548 -12355293.97447  21042973.403    21042973.6814   21042982.1394
       194.0004        195.0004
 -10235577.96448  -7959244.56146  22619954.932    22619954.1374   22619959.5044
       174.0004        176.0004
  -2109744.15547  -1634766.08245  23577427.451    23577427.8164   23577432.1814
       146.0004        150.0004
 -13130758.60048 -10215070.29847  22026640.680    22026641.1134   22026648.6284
       192.0004        191.0004
  -9074593.63848  -7049371.73047  23010140.427    23010140.4794   23010150.3374
       191.0004        191.0004
 -21376550.75749 -16640266.32047  20712863.004    20712863.1354   20712867.5204
       207.0004        207.0004
 21  2  2  1  3  0.0000000  0 10G30G04G21G14G01G17G28G09G08G07
 -12772876.54748  -9926166.88847  22181404.943    22181404.5784   22181411.2114
       188.0004        188.0004
  -3693686.83147  -2849717.83645  23859796.814    23859797.9824   23859804.3264
       154.0004        156.0004
 -12067061.90948  -9026327.73746  21969065.453    21969065.4904   21969070.6584
       182.0004        182.0004
  -3705322.04648  -2731198.01146  23175505.837    23175506.2284   23175510.0484
       165.0004        168.0004
 -15919103.60248 -12386601.34247  21035327.237    21035327.8774   21035337.2044
       194.0004        195.0004
 -10300739.26148  -8010019.59146  22607553.533    22607554.7274   22607559.0504
       174.0004        174.0004
  -2125152.33247  -1646772.44145  23574494.630    23574494.0594   23574500.3454
       146.0004        149.0004
 -13059399.97848 -10159466.18147  22040219.942    22040220.1174   22040228.4464
       192.0004        192.0004
  -8980299.61148  -6975895.87747  23028085.440    23028085.0334   23028093.7124
       192.0004        192.0004
 -21426195.55349 -16678950.58647  20703415.965    20703416.1504   20703420.7314
       207.0004        208.0004
 21  2  2  1  3 30.0000000  0 10G30G04G21G14G01G17G28G09G08G07
 -12856268.27248  -9991147.45747  22165536.503    22165536.3084   22165542.8324
       188.0004        189.0004
  -3595839.78347  -2773473.42845  23878418.908    23878417.8374   23878424.9004
       152.0004        155.0004
 -12033084.70648  -8999851.96146  21975530.947    21975530.2384   21975535.9954
       183.0004        184.0004
  -3731914.09648  -2751919.04346  23170446.563    23170446.9854   23170449.6514
       168.0004        171.0004
 -15958800.66248 -12417534.08647  21027773.056    21027773.4984   21027782.7274
       194.0004        195.0004
 -10365508.88848  -8060489.42146  22595229.089    22595229.5774   22595234.4034
       174.0004        175.0004
  -2140598.79447  -1658808.64645  23571555.700    23571555.1104   23571560.1884
       143.0004        145.0004
 -12987815.28748 -10103685.91347  22053841.641    22053842.3704   22053849.8214
       191.0004        190.0004
  -8885964.05248  -6902387.66747  23046036.208    23046036.3544   23046044.9574
       192.0004        192.0004
 -21475467.50649 -16717344.31847  20694039.362    20694039.8344   20694044.3474
       207.0004        208.0004
 21  2  2  1  4  0.0000000  0 10G30G04G21G14G01G17G28G09G08G07
 -12939509.44348 -10056010.69746  22149695.257    22149695.0624   22149701.7834
       187.0004        186.0004
  -3498042.67647  -2697267.92845  23897027.936    23897028.0804   23897034.6524
       151.0004        153.0004
 -11998616.51648  -8972993.61146  21982089.574    21982089.2374   21982095.2084
       182.0004        181.0004
  -3758543.27848  -2772669.02446  23165377.125    23165377.8394   23165382.3264
       169.0004        168.0004
 -15998013.93848 -12448089.85147  21020310.948    21020312.0924   21020320.5194
       194.0004        195.0004
 -10429885.34648  -8110652.87546  22582981.023    22582980.3014   22582983.4934
       176.0004        177.0004
  -2156084.86147  -1670875.67745  23568610.313    23568609.3214   23568614.5354
       143.0004        147.0004
 -12916007.10348 -10047731.50347  22067507.372    22067507.6094   22067514.5424
       191.0004        193.0004
  -8791588.49248  -6828848.29247  23063996.369    23063995.7194   23064004.3764
       193.0004        193.0004
 -21524363.35949 -16755444.99347  20684735.404    20684735.4154   20684739.8144
       207.0004        208.0004
 21  2  2  1  4 30.0000000  0 10G30G04G21G14G01G17G28G09G08G07
 -13022597.42948 -10120754.57346  22133884.322    22133884.2614   22133891.2914
       186.0004        187.0004
  -3400297.94147  -2621103.24245  23915628.162    23915628.9734   23915634.6134
       151.0004        153.0004
 -11963657.80748  -8945753.05746  21988742.555    21988742.7824   21988748.3354
       182.0004        182.0004
  -3785210.25348  -2793448.50146  23160299.734    23160300.3984   23160308.3304
       165.0004        163.0004
 -16036740.80549 -12478266.59847  21012940.926    21012941.9004   21012951.3624
       195.0004        195.0004
 -10493867.87148  -8160509.34646  22570802.349    22570803.7824   22570808.9824
       176.0004        177.0004
  -2171611.70747  -1682974.50045  23565654.329    23565653.7784   23565658.6204
       144.0004        148.0004
 -12843978.28748  -9991605.16747  22081213.221    22081213.8894   22081222.0714
       191.0004        192.0004
  -8697175.50748  -6755279.75947  23081961.457    23081961.5344   23081970.2074
       192.0004        192.0004
 -21572880.52549 -16793250.59147  20675502.271    20675502.9004   20675507.4984
       208.0004        208.0004
 21  2  2  1  5  0.0000000  0 10G30G04G21G14G01G17G28G09G08G07
 -13105528.53548 -10185376.21546  22118103.065    22118103.1044   22118109.8234
       186.0004        187.0004
  -3302607.01547  -2544980.47045  23934216.910    23934218.2114   23934224.6804
       149.0004        151.0004
 -11928207.73648  -8918129.62046  21995489.932    21995489.1304   21995493.5234
       182.0004        182.0004
  -3811914.92447  -2814257.35546  23155217.097    23155219.7024   23155226.3264
       163.0004        163.0004
 -16074977.77849 -12508061.63447  21005665.399    21005666.2374   21005675.1924
       195.0004        195.0004
 -10557454.27048  -8210057.18546  22558702.798    22558703.3394   22558708.5634
       177.0004        178.0004
  -2187179.62247  -1695105.32445  23562690.882    23562691.2744   23562697.0624
       147.0004        151.0004
 -12771730.85048  -9935308.46647  22094962.467    22094962.8444   22094969.9224
       192.0004        193.0004
  -8602726.48748  -6681683.15347  23099934.992    23099934.8074   23099943.7594
       191.0004        191.0004
 -21621015.20949 -16830758.13547  20666343.254    20666343.4394   20666347.4894
       208.0004        209.0004
 21  2  2  1  5 30.0000000  0 10G30G04G21G14G01G17G28G09G08G07
 -13188300.28448 -10249873.67047  22102351.771    22102352.0784   22102359.1254
       187.0004        188.0004
  -3204972.64347  -2468901.78445  23952796.884    23952796.9274   23952804.8214
       149.0004        152.0004
 -11892267.04148  -8890123.87146  22002327.752    22002327.2424   22002332.5514
       182.0004        182.0004
  -3838658.27747  -2835096.32746  23150132.488    23150132.8914   23150136.8494
       163.0004        166.0004
 -16112722.41649 -12537473.04247  20998482.643    20998483.3724   20998492.3624
       195.0004        195.0004
 -10620643.82548  -8259295.78546  22546679.273    22546679.0344   22546684.0654
       178.0004        179.0004
  -2202789.62647  -1707268.96645  23559719.296    23559719.5894   23559725.5324
       148.0004        152.0004
 -12699267.86348  -9878843.80547  22108751.080    22108751.6034   22108759.3524
       192.0004        192.0004
  -8508244.09848  -6608060.53647  23117913.953    23117914.0134   23117923.1564
       191.0004        191.0004
 -21668764.71349 -16867965.55147  20657256.377    20657256.8834   20657261.2414
       208.0004        208.0004
 21  2  2  1  6  0.0000000  0 10G30G04G21G14G01G17G28G09G08G07
 -13270911.39348 -10314245.95547  22086631.899    22086631.8094   22086638.4564
       187.0004        189.0004
  -3107398.61447  -2392870.11445  23971364.448    23971364.6534   23971371.6444
       148.0004        150.0004
 -11855838.01248  -8861737.59646  22009259.717    22009259.6974   22009265.3114
       182.0004        183.0004
  -3865442.37148  -2855967.00846  23145037.132    23145036.2934   23145040.5894
       166.0004        167.0004
 -16149973.68949 -12566500.01947  20991394.303    20991395.2574   20991403.7404
       195.0004        196.0004
 -10683436.80348  -8308225.36946  22534729.309    22534729.2964   22534735.2584
       178.0004        179.0004
  -2218444.66847  -1719467.68345  23556742.244    23556742.1294   23556746.7714
       148.0004        151.0004
 -12626593.68048  -9822214.57447  22122580.430    22122581.1114   22122588.5904
       191.0004        191.0004
  -8413731.90348  -6534414.68147  23135899.146    23135898.2484   23135909.3484
       191.0004        191.0004
 -21716128.07349 -16904872.08047  20648243.839    20648244.1054   20648248.4254
       208.0004        209.0004
 21  2  2  1  6 30.0000000  0 10G30G04G21G14G01G17G28G09G08G07
 -13353359.04648 -10378490.87046  22070942.352    22070942.1664   22070949.4484
       187.0004        187.0004
  -3009887.33647  -2316887.35245  23989921.381    23989921.2254   23989927.7474
       147.0004        150.0004
 -11818920.76448  -8832970.89146  22016285.652    22016284.8004   22016290.1504
       182.0004        182.0004
  -3892267.88647  -2876869.97746  23139930.375    23139929.7764   23139934.5324
       164.0004        164.0004
 -16186728.73549 -12595140.31047  20984400.748    20984401.3124   20984409.2114
       195.0004        197.0004
 -10745832.16248  -8356845.12346  22522855.603    22522856.4274   22522861.5264
       179.0004        181.0004
  -2234145.92547  -1731702.40245  23553755.954    23553754.8274   23553758.1954
       148.0004        151.0004
 -12553711.12648  -9765422.98847  22136450.355    22136450.0744   22136457.6624
       191.0004        191.0004
  -8319191.84848  -6460747.11547  23153887.562    23153888.7584   23153898.9464
       191.0004        192.0004
 -21763102.40949 -16941475.46047  20639304.256    20639304.8574   20639309.6044
       208.0004        209.0004
 21  2  2  1  7  0.0000000  0 10G30G04G21G14G01G17G28G09G08G07
 -13435641.10248 -10442606.73946  22055283.651    22055283.4014   22055291.4874
       186.0004        186.0004
  -2912441.73247  -2240955.76345  24008463.567    24008463.6654   24008469.9854
       146.0004        148.0004
 -11781516.39648  -8803824.62046  22023402.604    22023402.3114   22023407.9794
       182.0004        182.0004
  -3919135.96547  -2897806.16846  23134815.705    23134816.6104   23134822.1064
       162.0004        163.0004
 -16222985.65349 -12623392.45247  20977502.234    20977502.0704   20977510.1434
       196.0004        197.0004
 -10807829.82048  -8405154.96046  22511059.405    22511058.8414   22511063.3844
       179.0004        181.0004
  -2249894.85847  -1743974.28945  23550756.455    23550755.7724   23550762.1584
       146.0004        149.0004
 -12480623.64548  -9708471.71747  22150358.469    22150358.9134   22150366.0574
       191.0004        192.0004
  -8224627.23848  -6387060.41247  23171883.028    23171884.1934   23171893.7474
       191.0004        191.0004
 -21809685.35549 -16977773.87347  20630440.447    20630440.8954   20630445.0254
       209.0004        209.0004
 21  2  2  1  7 30.0000000  0 10G30G04G21G14G01G17G28G09G08G07
 -13517753.40548 -10506590.34346  22039658.644    22039659.0924   22039666.2854
       186.0004        187.0004
  -2815062.81947  -2165076.11345  24026992.926    24026994.4584   24027002.3334
       144.0004        147.0004
 -11743624.07948  -8774298.12846  22030613.504    22030613.5764   22030618.0784
       182.0004        181.0004
  -3946045.96247  -2918774.98746  23129695.101    23129696.0174   23129701.7414
       164.0004        166.0004
 -16258740.50049 -12651253.34547  20970697.116    20970697.8294   20970705.7114
       196.0004        196.0004
 -10869427.32548  -8453152.98446  22499336.881    22499337.1604   22499342.4464
       180.0004        180.0004
  -2265691.40847  -1756283.28045  23547751.483    23547751.6694   23547756.0854
       147.0004        150.0004
 -12407332.76448  -9651361.94147  22164304.606    22164305.2154   22164312.8694
       191.0004        191.0004
  -8130038.48148  -6313354.90947  23189883.467    23189884.0974   23189893.1204
       189.0004        189.0004
 -21855872.85849 -17013764.14247  20621651.296    20621651.5214   20621656.2114
       209.0004        209.0004
 21  2  2  1  8  0.0000000  0 10G30G04G21G14G01G17G28G09G08G07
 -13599693.63248 -10570439.86946  22024066.248    22024066.1684   22024072.4684
       186.0004        186.0004
  -2717753.33947  -2089250.58645  24045512.330    24045511.8934   24045519.0424
       144.0004        147.0004
 -11705245.07348  -8744392.39746  22037915.733    22037916.2794   22037922.2274
       182.0004        182.0004
  -3972999.01947  -2939777.34846  23124565.965    23124567.2384   23124573.0134
       164.0004        165.0004
 -16293991.22349 -12678721.40647  20963987.832    20963989.2254   20963997.7744
       196.0004        197.0004
 -10930624.26748  -8500838.91146  22487690.707    22487691.3424   22487696.0614
       179.0004        179.0004
  -2281537.14947  -1768630.57745  23544735.678    23544735.7014   23544742.0034
       147.0004        149.0004
 -12333841.78248  -9594096.25447  22178290.274    22178290.4874   22178297.7164
       192.0004        192.0004
  -8035428.24148  -6239632.66347  23207887.369    23207887.7344   23207897.3294
       189.0004        189.0004
 -21901662.81349 -17049444.64047  20612937.538    20612938.0154   20612942.3414
       209.0004        209.0004
 21  2  2  1  8 30.0000000  0 10G30G04G21G14G01G17G28G09G08G07
 -13681460.73548 -10634154.49946  22008505.738    22008505.8224   22008512.9644
       186.0004        186.0004
  -2620517.43847  -2013482.40845  24064017.521    24064016.7134   24064022.2784
       143.0004        146.0004
 -11666381.12948  -8714108.80946  22045312.017    22045312.0844   22045317.4844
       182.0004        182.0004
  -3999997.47547  -2960815.09545  23119428.823    23119428.6504   23119434.8174
       162.0004        161.0004
 -16328737.08649 -12705796.08547  20957376.516    20957377.5714   20957385.8764
       196.0004        197.0004
 -10991421.43548  -8548213.30946  22476121.559    22476121.9794   22476127.6114
       180.0004        181.0004
  -2297434.87647  -1781018.42745  23541710.333    23541710.3794   23541715.5644
       148.0004        151.0004
 -12260155.26848  -9536678.21147  22192311.910    22192312.4944   22192319.7174
       190.0004        189.0004
  -7940800.79148  -6165897.02247  23225896.733    23225895.6594   23225903.7974
       189.0004        188.0004
 -21947054.06349 -17084814.46347  20604300.127    20604300.3564   20604304.6734
       209.0004        209.0004
 21  2  2  1  9  0.0000000  0 10G30G04G21G14G01G17G28G09G08G07
 -13763052.25448 -10697732.28547  21992979.271    21992979.7564   21992986.8074
       187.0004        188.0004
  -2523357.67447  -1937773.55545  24082504.948    24082505.8404   24082510.2954
       142.0004        145.0004
 -11627033.28948  -8683448.12846  22052799.822    22052799.5144   22052805.1584
       181.0004        180.0004
  -4027042.22347  -2981888.90545  23114283.138    23114283.2784   23114287.8684
       160.0004        162.0004
 -16362975.89149 -12732475.65147  20950861.983    20950862.3464   20950870.8364
       197.0004        197.0004
 -11051818.22448  -8595275.72046  22464628.074    22464628.3864   22464635.0554
       180.0004        181.0004
  -2313385.91047  -1793447.76845  23538675.262    23538674.9574   23538680.0294
       149.0004        153.0004
 -12186276.44548  -9479110.29447  22206369.343    22206370.0114   22206377.7004
       188.0004        188.0004
  -7846158.33248  -6092149.66147  23243906.095    23243905.8264   23243913.2684
       188.0004        188.0004
 -21992043.90749 -17119871.48347  20595737.927    20595738.8184   20595743.3994
       209.0004        209.0004
 21  2  2  1  9 30.0000000  0 10G30G04G21G14G01G17G28G09G08G07
 -13844464.99848 -10761170.77147  21977488.371    21977487.7844   21977495.1094
       187.0004        188.0004
  -2426276.09847  -1862125.63345  24100978.190    24100978.6244   24100985.9014
       144.0004        148.0004
 -11587201.93048  -8652410.68346  22060379.713    22060378.4724   22060385.1034
       181.0004        181.0004
  -4054133.54747  -3002999.01145  23109125.461    23109127.3154   23109133.7074
       160.0004        162.0004
 -16396704.79649 -12758757.92047  20944443.478    20944443.6014   20944451.9144
       197.0004        197.0004
 -11111813.05048  -8642024.90246  22453212.200    22453212.3244   22453217.9764
       180.0004        182.0004
  -2329391.16847  -1805919.38945  23535629.989    23535630.2854   23535634.0144
       151.0004        154.0004
 -12112207.80148  -9421394.46047  22220465.675    22220465.9084   22220472.6834
       189.0004        189.0004
  -7751502.70148  -6018392.05547  23261918.630    23261918.0804   23261925.9574
       188.0004        188.0004
 -22036629.61149 -17154613.59447  20587254.552    20587254.6204   20587258.9894
       209.0004        209.0004
 21  2  2  1 10  0.0000000  0 10G30G04G21G14G01G17G28G09G08G07
 -13925697.87048 -10824469.11247  21962030.348    21962030.0824   21962036.6724
       188.0004        188.0004
  -2329276.65047  -1786541.69445  24119438.490    24119438.6684   24119443.7134
       146.0004        150.0004
 -11546889.52648  -8620998.41546  22068049.906    22068049.8044   22068056.2834
       180.0004        179.0004
  -4081273.67247  -3024147.14846  23103961.436    23103962.1114   23103968.7884
       162.0004        164.0004
 -16429922.97949 -12784642.22047  20938122.287    20938122.7594   20938130.8384
       197.0004        198.0004
 -11171406.94748  -8688461.70446  22441871.964    22441871.5784   22441876.0704
       180.0004        180.0004
  -2345453.27747  -1818435.31945  23532574.421    23532573.4004   23532577.2574
       150.0004        152.0004
 -12037953.80848  -9363534.22347  22234595.229    22234595.2814   22234603.3004
       188.0004        188.0004
  -7656838.06948  -5944627.41446  23279928.847    23279930.0494   23279940.6514
       187.0004        187.0004
 -22080810.10049 -17189039.95747  20578846.752    20578847.2874   20578851.7974
       208.0004        209.0004
 21  2  2  1 10 30.0000000  0 10G30G04G21G14G01G17G28G09G08G07
 -14006744.84848 -10887622.60147  21946606.883    21946606.7644   21946613.4604
       188.0004        189.0004
  -2232358.47047  -1711021.07445  24137879.138    24137880.0574   24137887.0914
       147.0004        149.0004
 -11506093.09248  -8589208.97646  22075814.075    22075814.0854   22075819.1474
       180.0004        181.0004
  -4108460.03448  -3045331.31546  23098790.187    23098790.2704   23098795.5444
       165.0004        168.0004
 -16462624.82949 -12810124.18047  20931899.321    20931899.7554   20931908.0754
       198.0004        198.0004
 -11230596.04148  -8734583.06046  22430608.271    22430608.9994   22430613.6334
       180.0004        182.0004
  -2361570.29347  -1830994.01245  23529506.045    23529505.7124   23529510.5724
       147.0004        148.0004
 -11963514.17748  -9305529.33247  22248761.065    22248761.2454   22248768.6074
       189.0004        189.0004
  -7562162.84848  -5870854.51246  23297946.718    23297946.3854   23297956.5644
       186.0004        186.0004
 -22124579.29249 -17223145.82347  20570517.864    20570518.5894   20570522.7394
       209.0004        209.0004
 21  2  2  1 11  0.0000000  0 10G30G04G21G14G01G17G28G09G08G07
 -14087603.05748 -10950628.99647  21931220.831    21931220.4444   21931227.5194
       189.0004        191.0004
  -2135523.73347  -1635565.50345  24156307.368    24156307.0074   24156313.5774
       146.0004        148.0004
 -11464813.21748  -8557042.82946  22083669.901    22083669.2314   22083673.9514
       180.0004        180.0004
  -4135693.18948  -3066551.92846  23093607.735    23093607.7404   23093612.8204
       166.0004        166.0004
 -16494807.82249 -12835201.84147  20925775.156    20925775.4804   20925783.9234
       198.0004        199.0004
 -11289379.27448  -8780388.16346  22419422.333    22419422.4344   22419428.0854
       181.0004        181.0004
  -2377743.03447  -1843596.14145  23526427.563    23526428.8884   23526433.3644
       145.0004        147.0004
 -11888891.69248  -9247381.94446  22262960.864    22262960.9954   22262968.1924
       188.0004        187.0004
  -7467479.48948  -5797075.27946  23315962.057    23315963.8854   23315973.9514
       186.0004        185.0004
 -22167934.57249 -17256929.17247  20562267.753    20562268.1914   20562272.3244
       209.0004        209.0004
 21  2  2  1 11 30.0000000  0 10G30G04G21G14G01G17G28G09G08G07
 -14168270.61148 -11013486.82947  21915869.644    21915869.6024   21915876.9104
       190.0004        190.0004
  -2038775.61847  -1560177.43945  24174717.222    24174716.7294   24174723.5174
       144.0004        148.0004
 -11423051.64348  -8524501.33746  22091616.560    22091616.2024   22091621.4764
       180.0004        180.0004
  -4162974.55947  -3087810.08346  23088414.471    23088415.9994   23088421.1594
       164.0004        164.0004
 -16526470.39849 -12859873.97447  20919749.748    20919750.5474   20919758.9354
       199.0004        199.0004
 -11347756.70948  -8825877.05546  22408314.007    22408314.1294   22408319.2594
       182.0004        183.0004
  -2393973.53347  -1856243.24145  23523341.137    23523340.2134   23523344.1894
       146.0004        150.0004
 -11814090.03948  -9189094.94546  22277194.824    22277195.4744   22277202.2834
       186.0004        186.0004
  -7372790.42448  -5723291.61346  23333981.324    23333982.8134   23333992.0084
       184.0004        183.0004
 -22210874.14749 -17290388.58147  20554096.539    20554097.0124   20554101.2504
       209.0004        209.0004
 21  2  2  1 12  0.0000000  0 10G30G04G21G14G01G17G28G09G08G07
 -14248745.30748 -11076194.38147  21900555.144    21900555.9434   21900562.9724
       190.0004        191.0004
  -1942117.03947  -1484859.15145  24193111.486    24193111.4254   24193117.6934
       144.0004        148.0004
 -11380809.72648  -8491585.54446  22099654.378    22099654.1214   22099659.2364
       180.0004        180.0004
  -4190305.40948  -3109106.84446  23083215.306    23083215.7124   23083219.9574
       165.0004        166.0004
 -16557611.01049 -12884139.37147  20913824.319    20913824.4594   20913832.6894
       199.0004        199.0004
 -11405728.27548  -8871049.68846  22397282.594    22397282.3154   22397287.5274
       183.0004        184.0004
  -2410263.41147  -1868936.63445  23520239.367    23520239.9094   23520245.9244
       147.0004        151.0004
 -11739112.86448  -9130671.19246  22291462.353    22291462.9154   22291470.2634
       185.0004        185.0004
  -7278099.34848  -5649506.36846  23352003.654    23352003.2354   23352011.8724
       184.0004        184.0004
 -22253395.91749 -17323522.43747  20546005.216    20546005.4994   20546009.5184
       209.0004        210.0004
 21  2  2  1 12 30.0000000  0 10G30G04G21G14G01G17G28G09G08G07
 -14329025.15948 -11138750.10747  21885279.599    21885279.4844   21885286.4264
       192.0004        193.0004
  -1845551.13447  -1409613.06045  24211485.922    24211486.5734   24211493.7304
       145.0004        149.0004
 -11338088.89848  -8458296.58446  22107783.089    22107783.5894   22107788.8454
       179.0004        180.0004
  -4217687.11448  -3130443.23346  23078003.951    23078004.8324   23078009.8134
       166.0004        167.0004
 -16588228.00349 -12907996.75047  20907997.895    20907998.5214   20908006.5484
       199.0004        199.0004
 -11463293.72748  -8915905.87846  22386327.093    22386328.3654   22386332.5134
       183.0004        184.0004
  -2426614.71547  -1881677.88245  23517128.481    23517128.1144   23517133.3844
       147.0004        149.0004
 -11663963.73848  -9072113.43246  22305763.115    22305762.4694   22305771.4604
       185.0004        185.0004
  -7183408.65648  -5575721.43046  23370024.754    23370023.2204   23370030.9734
       185.0004        186.0004
 -22295498.09949 -17356329.33547  20537993.207    20537993.6174   20537998.0624
       209.0004        210.0004
 21  2  2  1 13  0.0000000  0 10G30G04G21G14G01G17G28G09G08G07
 -14409107.89248 -11201152.23347  21870039.959    21870040.2534   21870047.1734
       193.0004        194.0004
  -1749080.70547  -1334441.34245  24229843.609    24229844.6154   24229851.5234
       147.0004        151.0004
 -11294890.67848  -8424635.61046  22116004.708    22116003.9544   22116009.5594
       179.0004        180.0004
  -4245120.84648  -3151820.12446  23072782.912    23072783.5284   23072790.1854
       165.0004        165.0004
 -16618319.70549 -12931444.81847  20902271.853    20902272.2304   20902280.2374
       199.0004        199.0004
 -11520453.31948  -8960445.81946  22375451.300    22375450.8154   22375456.1604
       182.0004        182.0004
  -2443028.82747  -1894468.09545  23514005.443    23514005.8434   23514009.4084
       147.0004        150.0004
 -11588646.14548  -9013424.41846  22320095.664    22320095.6974   22320102.9804
       185.0004        186.0004
  -7088720.99848  -5501938.87246  23388044.540    23388042.9204   23388048.7024
       185.0004        186.0004
 -22337178.90549 -17388807.88747  20530061.186    20530061.8194   20530066.5224
       209.0004        210.0004
 21  2  2  1 13 30.0000000  0 10G30G04G21G14G01G17G28G09G08G07
 -14488990.54348 -11263398.43847  21854837.942    21854838.8324   21854845.5384
       193.0004        193.0004
  -1652707.84947  -1259345.68745  24248182.703    24248182.8664   24248190.9064
       148.0004        151.0004
 -11251215.69348  -8390603.16346  22124315.657    22124315.7024   22124320.7354
       179.0004        180.0004
  -4272606.96548  -3173237.86446  23067554.152    23067553.8024   23067558.6294
       165.0004        166.0004
 -16647883.63549 -12954481.63547  20896645.460    20896646.1334   20896654.5574
       199.0004        199.0004
 -11577206.01248  -9004668.67846  22364650.754    22364650.4844   22364654.8634
       181.0004        180.0004
  -2459506.87247  -1907308.11045  23510870.331    23510869.9354   23510874.3664
       150.0004        154.0004
 -11513162.75948  -8954606.20946  22334459.392    22334459.6234   22334466.9614
       185.0004        185.0004
  -6994038.32048  -5428160.16946  23406059.683    23406059.7934   23406065.9474
       186.0004        185.0004
 -22378434.66949 -17420955.24647  20522211.322    20522211.4364   20522215.4764
       209.0004        210.0004
 21  2  2  1 14  0.0000000  0 10G30G04G21G14G01G17G28G09G08G07
 -14568669.24748 -11325485.74047  21839676.840    21839676.4224   21839683.5614
       193.0004        193.0004
  -1556433.72347  -1184326.93345  24266503.019    24266504.4034   24266511.6824
       147.0004        151.0004
 -11207063.50048  -8356198.84146  22132718.616    22132718.0914   22132722.5834
       179.0004        179.0004
  -4300144.93147  -3194695.97846  23062312.387    23062313.3124   23062318.3044
       164.0004        165.0004
 -16676916.38449 -12977104.53847  20891121.004    20891121.1354   20891130.0434
       199.0004        199.0004
 -11633549.90248  -9048572.97046  22353928.923    22353929.0314   22353932.8744
       180.0004        180.0004
  -2476048.67947  -1920197.81745  23507720.314    23507720.3844   23507724.9064
       147.0004        149.0004
 -11437515.41748  -8895660.23046  22348854.549    22348855.1514   22348861.8464
       184.0004        184.0004
  -6899361.70048  -5354386.18546  23424075.392    23424075.1734   23424083.5334
       185.0004        186.0004
 -22419262.35349 -17452769.02847  20514441.976    20514442.1094   20514446.2674
       209.0004        210.0004
 21  2  2  1 14 30.0000000  0 10G30G04G21G14G01G17G28G09G08G07
 -14648141.03748 -11387411.80647  21824553.115    21824553.0604   21824561.0224
       193.0004        194.0004
  -1460260.49147  -1109386.84945  24284805.175    24284804.7624   24284813.5764
       146.0004        149.0004
 -11162434.94248  -8321423.31446  22141210.068    22141210.1614   22141214.6304
       179.0004        180.0004
  -4327735.19348  -3216194.85446  23057062.160    23057063.1044   23057068.7494
       165.0004        167.0004
 -16705415.65549 -12999311.72847  20885697.736    20885698.2314   20885706.3674
       199.0004        199.0004
 -11689484.48548  -9092158.35246  22343284.846    22343284.9884   22343290.1454
       180.0004        180.0004
  -2492655.13347  -1933137.89045  23504560.761    23504560.6764   23504566.0494
       147.0004        150.0004
 -11361706.82948  -8836588.60846  22363280.827    22363281.1074   22363288.9904
       184.0004        185.0004
  -6804692.76448  -5280618.21546  23442090.301    23442090.1004   23442098.0274
       184.0004        183.0004
 -22459659.09349 -17484247.00747  20506754.355    20506754.6314   20506759.6454
       210.0004        211.0004
 21  2  2  1 15  0.0000000  0 12G30G04G03G22G21G14G01G17G28G09G08G07
 -14727403.82148 -11449174.99047  21809469.819    21809470.1764   21809477.3884
       193.0004        194.0004
  -1364191.08147  -1034527.64645  24303084.644    24303086.0284   24303093.7494
       144.0004        147.0004
  -2276002.91954
        74.0004
   2253552.17154   1773071.624 3                                  24793708.586
        74.0004         74.000
 -11117331.37548  -8286277.67246  22149792.295    22149792.4054   22149797.6034
       179.0004        179.0004
  -4355378.92348  -3237735.38846  23051801.628    23051802.9464   23051808.6654
       166.0004        168.0004
 -16733379.96449 -13021102.08147  20880376.203    20880376.8364   20880384.9574
       198.0004        198.0004
 -11745009.41648  -9135424.49046  22332719.042    22332719.5114   22332723.6034
       180.0004        182.0004
  -2509327.95947  -1946129.67245  23501389.887    23501389.3434   23501393.7974
       148.0004        152.0004
 -11285740.57248  -8777394.11446  22377736.572    22377736.7504   22377743.2864
       184.0004        184.0004
  -6710034.95448  -5206858.87046  23460101.973    23460102.4604   23460110.7494
       183.0004        183.0004
 -22499623.19049 -17515387.86147  20499149.402    20499149.9184   20499154.3104
       210.0004        211.0004
 21  2  2  1 15 30.0000000  0 11G30G04G22G21G14G01G17G28G09G08G07
 -14806454.84748 -11510773.18747  21794427.339    21794427.4474   21794433.8354
       194.0004        194.0004
  -1268227.75147   -959751.08945  24321346.262    24321347.8984   24321354.6354
       144.0004        148.0004
   2253552.17144   1773071.624 4                                  24793708.586
        74.0004        107.000
 -11071753.63048  -8250762.53446  22158466.403    22158466.1764   22158470.7524
       179.0004        179.0004
  -4383076.84048  -3259318.15346  23046530.186    23046531.2974   23046537.3624
       166.0004        167.0004
 -16760807.14049 -13042473.87947  20875157.092    20875157.1714   20875165.3694
       198.0004        197.0004
 -11800124.03248  -9178370.93446  22322230.389    22322230.6304   22322235.4254
       180.0004        180.0004
  -2526068.42447  -1959174.17045  23498202.576    23498202.4704   23498207.9594
       148.0004        151.0004
 -11209619.58448  -8718079.07446  22392222.250    22392222.3614   22392229.6484
       184.0004        184.0004
  -6615389.96148  -5133109.53546  23478110.617    23478111.0444   23478121.2364
       181.0004        181.0004
 -22539152.09149 -17546189.60447  20491627.431    20491627.7164   20491632.0974
       210.0004        211.0004
 21  2  2  1 16  0.0000000  0 11G30G04G22G21G14G01G17G28G09G08G07
 -14885291.16548 -11572204.08247  21779425.734    21779425.7184   21779431.9994
       194.0004        194.0004
  -1172372.66747   -885058.87345  24339587.372    24339589.2254   24339595.6784
       143.0004        147.0004
   2253552.17144   1773071.624 4                                  24793708.586
        74.0004        128.000
 -11025702.71248  -8214878.67746  22167228.945    22167229.3564   22167234.2344
       179.0004        179.0004
  -4410829.25548  -3280943.40546  23041250.356    23041250.9644   23041255.5174
       166.0004        167.0004
 -16787694.94249 -13063425.40647  20870039.019    20870040.3364   20870049.0584
       197.0004        198.0004
 -11854827.81348  -9220997.25446  22311820.696    22311820.9184   22311826.3914
       180.0004        182.0004
  -2542877.18647  -1972271.87845  23495003.155    23495003.5094   23495008.5344
       147.0004        151.0004
 -11133346.59748  -8658645.60446  22406735.780    22406736.4224   22406743.9934
       183.0004        183.0004
  -6520759.70848  -5059371.67146  23496118.542    23496119.7074   23496128.3064
       182.0004        183.0004
 -22578242.97149 -17576650.04347  20484188.190    20484188.9694   20484193.3944
       210.0004        211.0004
 21  2  2  1 16 30.0000000  0 12G30G04G19G22G21G14G01G17G28G09G08G07
 -14963910.89448 -11633466.20447  21764463.817    21764464.2754   21764470.7584
       194.0004        194.0004
  -1076628.91247   -810453.42145  24357806.628    24357808.1874   24357815.1964
       143.0004        147.0004
   -935886.49654   -699560.00645  24510854.989
        74.0004        151.0004
   2253552.17154
        74.0004
 -10979180.26248  -8178627.40546  22176082.293    22176081.9884   22176086.9964
       178.0004        178.0004
  -4438637.70148  -3302612.29646  23035957.883    23035958.6304   23035964.9074
       166.0004        168.0004
 -16814042.15349 -13083955.70047  20865025.967    20865027.2284   20865035.4844
       198.0004        198.0004
 -11909120.91448  -9263303.55946  22301490.363    22301490.3204   22301494.0314
       181.0004        183.0004
  -2559756.29947  -1985424.42745  23491791.059    23491791.5924   23491797.5844
       151.0004        155.0004
 -11056925.43148  -8599096.65446  22421278.790    22421280.0154   22421286.1634
       183.0004        184.0004
  -6426146.88148  -4985647.38746  23514123.845    23514123.7394   23514132.6904
       182.0004        183.0004
 -22616894.19749 -17606767.88447  20476833.994    20476833.9064   20476838.4644
       210.0004        211.0004
 21  2  2  1 17  0.0000000  0 12G30G04G19G22G21G14G01G17G28G09G08G07
 -15042311.39348 -11694557.49047  21749545.433    21749545.2834   21749552.2624
       194.0004        194.0004
   -980998.98547   -735936.65345  24376005.648    24376006.0734   24376013.2154
       143.0004        146.0004
  -1023274.53147   -767654.52545  24494225.846                    24494230.0594
       136.0004        151.0004
   2253552.17144
        74.0004
 -10932187.68048  -8142009.79046  22185024.672    22185024.6524   22185029.4074
       178.0004        178.0004
  -4466502.85548  -3324325.35246  23030654.221    23030656.0134   23030662.2794
       166.0004        168.0004
 -16839846.82849 -13104063.22547  20860115.424    20860116.1564   20860125.2324
       198.0004        198.0004
 -11963003.22448  -9305289.74646  22291235.836    22291235.7174   22291240.6354
       182.0004        181.0004
  -2576706.84247  -1998632.62245  23488568.302    23488567.8574   23488571.7524
       155.0004        158.0004
 -10980359.13448  -8539434.61046  22435849.197    22435849.4494   22435856.7334
       183.0004        184.0004
  -6331554.39948  -4911938.98846  23532124.427    23532124.8364   23532133.9644
       184.0004        185.0004
 -22655103.66249 -17636541.49647  20469562.830    20469563.0314   20469567.5354
       210.0004        211.0004
 21  2  2  1 17 30.0000000  0 12G30G04G19G22G21G14G01G17G28G09G08G07
 -15120491.04948 -11755476.70147  21734667.817    21734668.4114   21734675.3894
       194.0004        195.0004
   -885486.08747   -661511.05345  24394179.995    24394180.4624   24394188.5504
       141.0004        144.0004
  -1110428.00047   -835566.25445  24477641.411    24477640.6984   24477645.2184
       148.0004        153.0004
   2253552.17144
        74.0004
 -10884727.27948  -8105027.64346  22194056.744    22194055.8984   22194060.9284
       178.0004        178.0004
  -4494426.38148  -3346083.94346  23025343.096    23025343.5614   23025347.2594
       167.0004        168.0004
 -16865108.06349 -13123747.28747  20855308.777    20855309.6594   20855317.9824
       197.0004        198.0004
 -12016475.24848  -9346956.23646  22281059.581    22281060.2514   22281065.8684
       181.0004        181.0004
  -2593731.18347  -2011898.28645  23485328.669    23485328.1064   23485332.2924
       156.0004        158.0004
 -10903651.80748  -8479662.65646  22450445.271    22450446.6404   22450454.0664
       183.0004        183.0004
  -6236985.28648  -4838248.77046  23550120.233    23550121.2094   23550129.4664
       184.0004        184.0004
 -22692869.74549 -17665969.62447  20462375.591    20462376.1154   20462380.6454
       210.0004        211.0004
 21  2  2  1 18  0.0000000  0 11G30G04G19G21G14G01G17G28G09G08G07
 -15198447.85349 -11816222.24747  21719833.851    21719833.8044   21719840.6384
       195.0004        196.0004
   -790093.35747   -587179.12145  24412333.079    24412334.3794   24412342.4594
       137.0004        141.0004
  -1197346.57947   -903294.94145  24461099.891    24461099.7474   24461104.9614
       149.0004        151.0004
 -10836800.16448  -8067681.81146  22203176.432    22203176.2584   22203181.4844
       178.0004        178.0004
  -4522409.70448  -3367889.10646  23020017.541    23020017.4664   23020023.4804
       167.0004        169.0004
 -16889824.66049 -13143006.95047  20850604.841    20850606.1704   20850614.3114
       197.0004        198.0004
 -12069537.43648  -9388303.38246  22270962.920    22270963.1104   22270967.7494
       181.0004        183.0004
  -2610831.22747  -2025222.97045  23482073.324    23482073.7774   23482077.5834
       154.0004        156.0004
 -10826807.10648  -8419783.67746  22465070.031    22465069.9824   22465076.7594
       183.0004        183.0004
  -6142442.13848  -4764578.78746  23568113.424    23568113.1344   23568120.6984
       184.0004        185.0004
 -22730191.20649 -17695051.28247  20455273.553    20455274.0544   20455278.8884
       210.0004        211.0004
 21  2  2  1 18 30.0000000  0 11G30G04G19G21G14G01G17G28G09G08G07
 -15276177.62249 -11876790.88747  21705041.991    21705042.3824   21705049.5394
       196.0004        196.0004
   -694821.62947   -512941.52245  24430464.110    24430464.0614   24430471.5214
       135.0004        139.0004
  -1284026.92047   -970838.02145  24444605.662    24444604.7394   24444609.9084
       148.0004        150.0004
 -10788406.40848  -8029972.38146  22212385.870    22212385.0674   22212390.6124
       178.0004        178.0004
  -4550451.84448  -3389740.07946  23014680.147    23014680.7094   23014686.9024
       168.0004        168.0004
 -16913993.18649 -13161839.54647  20846006.534    20846007.1384   20846015.5134
       198.0004        198.0004
 -12122187.92948  -9429329.70946  22260944.227    22260944.5854   22260949.7124
       183.0004        185.0004
  -2628006.48147  -2038606.23945  23478806.632    23478806.7234   23478809.7814
       155.0004        158.0004
 -10749826.54648  -8359798.82846  22479717.734    22479717.9374   22479725.7244
       182.0004        182.0004
  -6047925.78848  -4690929.70746  23586098.737    23586098.8154   23586105.6364
       184.0004        184.0004
 -22767063.72149 -17723783.11747  20448257.284    20448257.5284   20448262.1434
       210.0004        211.0004
 21  2  2  1 19  0.0000000  0 11G30G04G19G21G14G01G17G28G09G08G07
 -15353677.17449 -11937180.14547  21690294.762    21690294.1224   21690301.6964
       196.0004        196.0004
   -599672.70447   -438799.58145  24448569.036    24448570.5984   24448577.0484
       136.0004        142.0004
  -1370467.27147  -1038194.08045  24428156.183    24428156.3714   24428160.3254
       148.0004        151.0004
 -10739546.58448  -7991899.78246  22221682.654    22221682.4984   22221687.1924
       177.0004        178.0004
  -4578552.99848  -3411637.07546  23009334.708    23009334.4284   23009337.8664
       165.0004        166.0004
 -16937611.25749 -13180243.22447  20841511.286    20841512.1114   20841521.0554
       198.0004        198.0004
 -12174425.66348  -9470034.42446  22251003.505    22251004.3294   22251008.5214
       184.0004        185.0004
  -2645257.43147  -2052048.50045  23475523.501    23475522.6844   23475526.9244
       153.0004        154.0004
 -10672712.58748  -8299710.04746  22494390.700    22494391.7024   22494399.7034
       181.0004        180.0004
  -5953437.58748  -4617302.54846  23604078.383    23604077.6184   23604086.3844
       182.0004        182.0004
 -22803484.58449 -17752163.02447  20441326.355    20441326.8084   20441331.2324
       210.0004        211.0004
 21  2  2  1 19 30.0000000  0 11G30G04G19G21G14G01G17G28G09G08G07
 -15430942.14549 -11997386.60647  21675590.656    21675591.1104   21675598.6104
       196.0004        195.0004
   -504647.18047   -364753.78045  24466651.779    24466650.9754   24466661.6554
       136.0004        141.0004
  -1456664.50247  -1105360.65145  24411753.950    24411753.2844   24411758.2474
       147.0004        150.0004
 -10690220.31848  -7953463.71946  22231069.548    22231069.2844   22231074.6704
       178.0004        179.0004
  -4606712.09947  -3433579.22046  23003975.893    23003975.5744   23003979.7754
       164.0004        165.0004
 -16960675.39849 -13198215.26347  20837122.810    20837123.3324   20837131.8134
       197.0004        197.0004
 -12226248.70148  -9510415.99746  22241142.113    22241142.5764   22241147.5184
       185.0004        185.0004
  -2662583.66447  -2065549.43745  23472224.632    23472224.6654   23472230.3344
       149.0004        150.0004
 -10595466.61948  -8239518.39246  22509090.924    22509091.8204   22509099.0174
       180.0004        180.0004
  -5858978.12948  -4543697.79746  23622051.600    23622052.3734   23622061.7474
       180.0004        180.0004
 -22839449.98749 -17780188.02547  20434482.948    20434483.0874   20434487.2444
       210.0004        212.0004
 21  2  2  1 20  0.0000000  0 11G30G04G19G21G14G01G17G28G09G08G07
 -15507969.50549 -12057407.93047  21660933.018    21660933.9204   21660940.3804
       195.0004        195.0004
   -409747.06847   -290805.69945  24484711.168    24484712.7614   24484719.6064
       137.0004        143.0004
  -1542617.01247  -1172336.61645  24395398.355    24395397.5674   24395401.6854
       148.0004        152.0004
 -10640428.31148  -7914664.72346  22240545.376    22240544.8914   22240549.1614
       178.0004        178.0004
  -4634929.33948  -3455566.66146  22998604.639    22998605.7914   22998610.2604
       166.0004        168.0004
 -16983183.47049 -13215753.99647  20832839.071    20832840.0984   20832848.8944
       197.0004        197.0004
 -12277656.09448  -9550473.69446  22231357.799    22231359.0444   22231364.9214
       184.0004        184.0004
  -2679985.94547  -2079109.66245  23468909.560    23468910.2594   23468918.6324
       147.0004        150.0004
 -10518091.31248  -8179225.95346  22523816.523    22523815.8804   22523823.3904
       181.0004        182.0004
  -5764549.35948  -4470116.95046  23640018.450    23640020.7134   23640031.0564
       180.0004        181.0004
 -22874957.19749 -17807855.98647  20427725.508    20427725.9334   20427730.8644
       211.0004        212.0004
 21  2  2  1 20 30.0000000  0 11G30G04G19G21G14G01G17G28G09G08G07
 -15584758.04949 -12117243.14647  21646321.170    21646321.3084   21646328.3444
       195.0004        195.0004
   -314976.06347   -216958.24145  24502745.754    24502745.1154   24502754.8144
       138.0004        144.0004
  -1628324.69047  -1239121.79245  24379089.693    24379088.6554   24379091.1744
       148.0004        152.0004
 -10590173.21448  -7875504.88346  22250107.685    22250107.2234   22250113.0404
       178.0004        177.0004
  -4663206.82548  -3477601.02246  22993224.011    22993224.6034   22993230.1914
       167.0004        168.0004
 -17005135.12449 -13232859.15647  20828662.921    20828663.4674   20828671.4354
       198.0004        199.0004
 -12328649.46648  -9590208.78746  22221655.486    22221655.0864   22221660.1834
       183.0004        184.0004
  -2697466.69547  -2092731.02445  23465586.550    23465586.8724   23465591.9144
       148.0004        153.0004
 -10440591.08848  -8118836.17546  22538564.488    22538564.2494   22538571.7544
       182.0004        183.0004
  -5670154.32848  -4396562.37046  23657985.469    23657985.0184   23657993.4124
       179.0004        180.0004
 -22910005.43649 -17835166.30147  20421056.359    20421056.9234   20421061.2014
       211.0004        212.0004
 21  2  2  1 21  0.0000000  0 11G30G04G19G21G14G01G17G28G09G08G07
 -15661305.90949 -12176890.81047  21631753.311    21631753.7034   21631761.3464
       195.0004        194.0004
   -220337.33947   -143213.84945  24520753.889    24520754.9774   24520764.2624
       138.0004        143.0004
  -1713786.96847  -1305715.72245  24362825.491    24362824.5934   24362828.5624
       149.0004        152.0004
 -10539457.22448  -7835985.90646  22259758.316    22259757.5494   22259764.5444
       177.0004        178.0004
  -4691545.95148  -3499683.43446  22987831.774    22987831.8524   22987836.8634
       166.0004        167.0004
 -17026529.38949 -13249529.99247  20824590.565    20824591.5254   20824599.9074
       197.0004        197.0004
 -12379228.90948  -9629621.30146  22212030.160    22212030.5234   22212035.8174
       184.0004        185.0004
  -2715027.95847  -2106415.05845  23462247.404    23462246.3374   23462249.8444
       152.0004        156.0004
 -10362969.76248  -8058352.03546  22553334.449    22553334.8474   22553341.2574
       182.0004        182.0004
  -5575796.48648  -4323036.79946  23675940.757    23675941.4344   23675948.7564
       179.0004        180.0004
 -22944593.05849 -17862117.70247  20414474.759    20414474.8894   20414479.1684
       211.0004        211.0004
 21  2  2  1 21 30.0000000  0 11G30G04G19G21G14G01G17G28G09G08G07
 -15737610.73549 -12236349.10947  21617234.068    21617233.6774   21617241.2674
       195.0004        195.0004
   -125833.47947    -69574.59045  24538738.384    24538739.5414   24538747.8704
       139.0004        144.0004
  -1799002.83847  -1372117.62545  24346609.792    24346609.2524   24346612.1764
       151.0004        154.0004
 -10488281.78548  -7796108.93246  22269497.401    22269496.7094   22269502.7014
       177.0004        178.0004
  -4719947.66448  -3521814.63146  22982427.782    22982428.2914   22982431.7564
       167.0004        169.0004
 -17047364.95149 -13265765.47447  20820625.624    20820626.5794   20820635.3754
       197.0004        197.0004
 -12429395.06548  -9668711.78346  22202484.334    22202484.8824   22202489.6554
       185.0004        186.0004
  -2732671.20447  -2120163.02145  23458889.832    23458888.0314   23458892.1504
       153.0004        155.0004
 -10285230.75548  -7997776.18746  22568127.749    22568128.3314   22568134.6624
       182.0004        181.0004
  -5481478.03048  -4249541.91646  23693890.947    23693889.4834   23693898.1754
       180.0004        180.0004
 -22978718.26649 -17888708.77347  20407980.675    20407981.4314   20407985.6684
       211.0004        212.0004
 21  2  2  1 22  0.0000000  0 11G30G04G19G21G14G01G17G28G09G08G07
 -15813669.07749 -12295615.35347  21602760.489    21602760.4754   21602767.3764
       195.0004        196.0004
    -31466.01147      3958.38545  24556694.696    24556696.2854   24556705.3244
       139.0004        144.0004
  -1883970.39447  -1438326.05645  24330439.423    24330439.5834   24330444.1654
       151.0004        154.0004
 -10436647.59348  -7755874.48646  22279321.889    22279321.6054   22279327.8604
       177.0004        177.0004
  -4748411.80848  -3543994.47246  22977010.926    22977010.8844   22977016.7374
       169.0004        170.0004
 -17067639.24049 -13281563.60647  20816768.753    20816769.1514   20816777.3794
       197.0004        197.0004
 -12479146.81848  -9707479.37046  22193016.120    22193016.2994   22193022.7974
       185.0004        186.0004
  -2750396.53047  -2133974.93145  23455513.559    23455513.7324   23455520.6784
       151.0004        154.0004
 -10207376.19048  -7937110.30446  22582942.473    22582942.7614   22582951.1084
       181.0004        181.0004
  -5387200.28948  -4176078.77046  23711829.344    23711829.5234   23711837.7864
       178.0004        178.0004
 -23012378.16649 -17914937.27047  20401575.556    20401575.8814   20401580.2234
       211.0004        212.0004
 21  2  2  1 22 30.0000000  0 11G30G04G19G21G14G01G17G28G09G08G07
 -15889476.91049 -12354686.37947  21588335.002    21588334.9304   21588341.8294
       196.0004        196.0004
     62764.30647     77384.51445  24574626.640    24574627.3574   24574636.6854
       139.0004        143.0004
  -1968686.48947  -1504338.52345  24314318.749    24314318.9304   24314322.7684
       152.0004        154.0004
 -10384554.71148  -7715282.60646  22289235.467    22289235.1484   22289241.3384
       176.0004        177.0004
  -4776937.57648  -3566222.31146  22971581.672    22971582.2924   22971587.3244
       170.0004        170.0004
 -17087349.28949 -13296922.06147  20813017.363    20813018.2154   20813026.5754
       197.0004        198.0004
 -12528482.07748  -9745922.41246  22183628.806    22183628.7194   22183634.3304
       185.0004        185.0004
  -2768203.83647  -2147850.73245  23452124.424    23452124.7454   23452130.5424
       149.0004        152.0004
 -10129407.77048  -7876355.70146  22597779.062    22597779.8844   22597787.6304
       181.0004        182.0004
  -5292963.79548  -4102647.74446  23729758.690    23729759.9874   23729770.2394
       177.0004        176.0004
 -23045569.02349 -17940800.27147  20395259.557    20395259.8804   20395264.0924
       211.0004        212.0004
 21  2  2  1 23  0.0000000  0 11G30G04G19G21G14G01G17G28G09G08G07
 -15965031.90949 -12413560.39847  21573957.166    21573957.3124   21573964.1904
       196.0004        196.0004
    156854.73447    150701.65445  24592531.206    24592532.3074   24592540.1834
       136.0004        140.0004
  -2053150.28147  -1570154.41945  24298246.548    24298246.0654   24298250.4974
       153.0004        156.0004
 -10332004.42948  -7674334.31746  22299234.979    22299234.6284   22299240.9724
       176.0004        176.0004
  -4805525.88348  -3588498.89946  22966142.074    22966142.3904   22966147.5004
       169.0004        170.0004
 -17106493.77349 -13311839.81547  20809374.071    20809374.7804   20809383.3274
       198.0004        198.0004
 -12577401.31748  -9784041.29046  22174319.789    22174320.0264   22174324.5024
       184.0004        184.0004
  -2786094.70247  -2161791.63845  23448721.215    23448721.2744   23448724.9964
       149.0004        152.0004
 -10051328.82848  -7815514.97246  22612638.025    22612638.0104   22612645.6974
       181.0004        183.0004
  -5198771.29448  -4029251.02246  23747682.462    23747683.7394   23747694.3424
       175.0004        175.0004
 -23078289.06249 -17966296.42047  20389033.818    20389033.8704   20389037.8044
       211.0004        212.0004
 21  2  2  1 23 30.0000000  0 11G30G04G19G21G14G01G17G28G09G08G07
 -16040331.53849 -12472235.43547  21559628.041    21559628.3694   21559635.0234
       195.0004        196.0004
    250802.89046    223907.91345  24610410.842    24610410.5644   24610417.1064
       134.0004        138.0004
  -2137360.73647  -1635772.90745  24282220.473    24282220.5814   24282226.2314
       153.0004        156.0004
 -10278998.47848  -7633030.94746  22309322.631    22309321.7774   22309327.5164
       176.0004        176.0004
  -4834177.49048  -3610824.79946  22960689.634    22960690.2494   22960695.7934
       169.0004        170.0004
 -17125071.22649 -13326315.72547  20805837.981    20805839.4614   20805848.2714
       198.0004        198.0004
 -12625904.80148  -9821836.18846  22165089.736    22165090.0614   22165094.4154
       183.0004        183.0004
  -2804069.98447  -2175798.34345  23445302.189    23445301.4574   23445305.4764
       151.0004        155.0004
  -9973142.53748  -7754590.58246  22627516.065    22627516.3894   22627523.4414
       182.0004        181.0004
  -5104624.89948  -3955890.22546  23765600.614    23765600.5884   23765610.5104
       176.0004        177.0004
 -23110536.55449 -17991424.33347  20382896.350    20382896.8334   20382901.2604
       211.0004        212.0004
 21  2  2  1 24  0.0000000  0 11G30G04G19G21G14G01G17G28G09G08G07
 -16115375.42649 -12530711.19647  21545347.670    21545347.2464   21545355.1974
       196.0004        197.0004
    344604.40746    296999.92345  24628260.633    24628261.6324   24628267.9854
       134.0004        141.0004
  -2221318.85247  -1701194.75445  24266244.542    24266243.6034   24266249.0234
       150.0004        151.0004
 -10225540.55948  -7591375.42646  22319495.137    22319494.7074   22319500.6114
       175.0004        176.0004
  -4862895.15348  -3633202.19046  22955225.633    22955225.7064   22955229.3614
       169.0004        169.0004
 -17143082.35549 -13340350.35747  20802412.124    20802412.5954   20802420.9514
       198.0004        198.0004
 -12673994.03948  -9859308.32546  22155938.494    22155939.1154   22155943.9854
       184.0004        184.0004
  -2822133.25247  -2189873.57545  23441862.678    23441863.5414   23441868.1084
       153.0004        156.0004
  -9894854.13048  -7693586.64146  22642413.992    22642414.3724   22642421.0164
       181.0004        182.0004
  -5010529.08748  -3882568.85746  23783506.823    23783507.2534   23783515.7294
       175.0004        175.0004
 -23142311.23249 -18016183.83247  20376849.612    20376850.2134   20376854.9424
       211.0004        212.0004
 21  2  2  1 24 30.0000000  0 11G30G04G19G21G14G01G17G28G09G08G07
 -16190159.34449 -12588984.36647  21531116.651    21531117.0384   21531124.0294
       196.0004        197.0004
    438258.25347    369976.87945  24646082.522    24646083.0104   24646090.7294
       138.0004        143.0004
  -2305021.68247  -1766417.70845  24250316.854    24250316.4114   24250320.6904
       146.0004        149.0004
 -10171630.43248  -7549367.50946  22329754.449    22329753.7284   22329758.4294
       175.0004        176.0004
  -4891677.96548  -3655630.35846  22949747.356    22949748.1244   22949752.5404
       168.0004        169.0004
 -17160524.08549 -13353941.28147  20799092.072    20799092.7634   20799101.6524
       197.0004        197.0004
 -12721667.96848  -9896456.81446  22146866.780    22146866.8394   22146872.2344
       184.0004        184.0004
  -2840283.93547  -2204016.94745  23438409.672    23438410.0414   23438414.3354
       154.0004        157.0004
  -9816465.12448  -7632504.30346  22657330.013    22657330.7674   22657338.7054
       181.0004        181.0004
  -4916484.13848  -3809287.07046  23801403.241    23801403.7384   23801413.5364
       176.0004        177.0004
 -23173609.41149 -18040572.02847  20370893.860    20370894.2434   20370899.0374
       211.0004        212.0004
 21  2  2  1 25  0.0000000  0 11G30G04G19G21G14G01G17G28G09G08G07
 -16264680.82149 -12647053.04347  21516935.827    21516936.3654   21516942.8594
       197.0004        198.0004
    531762.28447    442837.08545  24663875.942    24663876.2534   24663883.3394
       139.0004        144.0004
  -2388468.21447  -1831440.92445  24234437.536    24234436.4454   24234442.1484
       146.0004        150.0004
 -10117269.65548  -7507008.44246  22340098.338    22340097.2574   22340103.8204
       175.0004        174.0004
  -4920526.67748  -3678109.85846  22944257.962    22944257.9824   22944263.4844
       169.0004        169.0004
 -17177395.06549 -13367087.47547  20795881.936    20795882.7794   20795891.1414
       197.0004        198.0004
 -12768926.31248  -9933281.48746  22137873.275    22137873.6664   22137878.3804
       184.0004        185.0004
  -2858523.41547  -2218229.49445  23434939.665    23434939.1854   23434942.3114
       154.0004        156.0004
  -9737978.69248  -7571346.04046  22672265.714    22672266.3314   22672274.6404
       181.0004        182.0004
  -4822491.91748  -3736046.40446  23819290.045    23819290.7194   23819298.8064
       176.0004        177.0004
 -23204429.32849 -18064587.55547  20365029.068    20365029.5634   20365033.8764
       211.0004        212.0004
 21  2  2  1 25 30.0000000  0 11G30G04G19G21G14G01G17G28G09G08G07
 -16338936.93049 -12704914.94347  21502805.809    21502805.4274   21502812.8584
       198.0004        199.0004
    625114.48347    515578.97645  24681638.907    24681640.5114   24681647.3734
       139.0004        143.0004
  -2471656.98547  -1896263.30845  24218606.959    24218606.2964   24218610.5004
       147.0004        151.0004
 -10062459.30848  -7464299.05346  22350527.763    22350527.3244   22350533.0434
       175.0004        175.0004
  -4949441.46248  -3700640.83246  22938755.770    22938756.3194   22938761.4164
       170.0004        172.0004
 -17193693.52849 -13379787.54847  20792780.291    20792781.1134   20792789.7404
       198.0004        198.0004
 -12815768.93048  -9969782.21147  22128960.044    22128960.1364   22128965.2564
       186.0004        188.0004
  -2876852.21947  -2232511.66845  23431451.679    23431451.0924   23431454.6564
       154.0004        155.0004
  -9659397.52048  -7510113.95746  22687219.804    22687220.0514   22687226.9724
       181.0004        180.0004
  -4728555.17948  -3662848.98146  23837166.677    23837166.0034   23837174.1534
       175.0004        175.0004
 -23234769.06549 -18088228.91247  20359255.585    20359256.2514   20359260.8124
       211.0004        212.0004
 21  2  2  1 26  0.0000000  0 11G30G04G19G21G14G01G17G28G09G08G07
 -16412924.58749 -12762567.64947  21488725.951    21488726.1334   21488733.4304
       199.0004        199.0004
    718313.08447    588201.16445  24699374.367    24699375.1554   24699382.4294
       137.0004        142.0004
  -2554585.97347  -1960883.27445  24202827.429    24202827.0464   24202830.0044
       148.0004        151.0004
 -10007200.49948  -7421240.22546  22361042.980    22361043.5974   22361048.4894
       175.0004        175.0004
  -4978422.47248  -3723223.43146  22933241.359    22933241.0104   22933245.9884
       171.0004        172.0004
 -17209417.54449 -13392039.99747  20789788.905    20789789.3294   20789797.9304
       198.0004        199.0004
 -12862195.69448 -10005958.88447  22120125.444    22120125.3224   22120130.6864
       187.0004        188.0004
  -2895271.02147  -2246863.96745  23427946.578    23427946.6184   23427951.2754
       155.0004        158.0004
  -9580724.19948  -7448810.09146  22702190.753    22702190.9414   22702198.4934
       179.0004        180.0004
  -4634674.24548  -3589695.02146  23855029.670    23855030.5534   23855038.7184
       173.0004        174.0004
 -23264625.38449 -18111493.58247  20353573.762    20353574.3324   20353579.2954
       211.0004        212.0004
 21  2  2  1 26 30.0000000  0 11G30G04G19G21G14G01G17G28G09G08G07
 -16486641.94749 -12820009.74347  21474697.954    21474698.0954   21474704.8434
       199.0004        199.0004
    811355.00347    660701.24845  24717078.855    24717078.2474   24717086.6954
       135.0004        139.0004
  -2637255.14047  -2025300.78245  24187094.758    24187094.0084   24187098.4264
       150.0004        153.0004
  -9951495.79048  -7377833.94046  22371643.121    22371642.4964   22371649.0114
       174.0004        175.0004
  -5007471.05548  -3745858.69146  22927712.277    22927713.0304   22927718.0684
       170.0004        170.0004
 -17224566.54649 -13403844.37447  20786905.288    20786906.3794   20786914.8244
       198.0004        198.0004
 -12908206.96548 -10041811.80346  22111369.189    22111369.3184   22111374.7594
       187.0004        187.0004
  -2913781.82947  -2261287.97445  23424424.553    23424424.5254   23424426.1494
       155.0004        157.0004
  -9501962.54948  -7387437.38246  22717178.530    22717178.7304   22717186.2394
       179.0004        180.0004
  -4540852.77448  -3516587.38746  23872884.583    23872884.0634   23872892.9774
       172.0004        173.0004
 -23293997.23149 -18134380.74548  20347984.759    20347985.5514   20347989.7194
       211.0004        213.0004
 21  2  2  1 27  0.0000000  0 11G30G04G19G21G14G01G17G28G09G08G07
 -16560084.18949 -12877237.46247  21460722.697    21460722.7364   21460728.9364
       199.0004        199.0004
    904240.29646    733079.28145  24734755.818    24734757.4824   24734762.7734
       134.0004        140.0004
  -2719661.02847  -2089513.11445  24171412.928    24171412.4474   24171417.7184
       153.0004        156.0004
  -9895344.50648  -7334079.65946  22382329.238    22382328.6584   22382334.0184
       174.0004        175.0004
  -5036585.56148  -3768545.29946  22922173.108    22922173.1614   22922177.7774
       170.0004        171.0004
 -17239136.94949 -13415197.89647  20784132.207    20784133.5214   20784142.2934
       198.0004        199.0004
 -12953800.61248 -10077339.31947  22102694.075    22102693.7824   22102698.2624
       188.0004        189.0004
  -2932383.54247  -2275782.79245  23420883.892    23420884.1174   23420887.3954
       155.0004        158.0004
  -9423113.38148  -7325996.47146  22732182.712    22732183.5524   22732191.4544
       178.0004        179.0004
  -4447090.58348  -3443525.98646  23890726.691    23890726.3224   23890734.6284
       174.0004        175.0004
 -23322880.42649 -18156887.13348  20342488.867    20342489.4764   20342493.6754
       212.0004        213.0004
 21  2  2  1 27 30.0000000  0 10G30G19G21G14G01G17G28G09G08G07
 -16633247.53049 -12934247.85847  21446799.342    21446799.6564   21446807.2584
       199.0004        200.0004
  -2801801.03847  -2153518.25845  24155781.408    24155780.8064   24155785.7424
       153.0004        155.0004
  -9838747.39048  -7289977.99146  22393099.054    22393098.6354   22393103.6354
       174.0004        173.0004
  -5065765.34548  -3791282.78246  22916619.414    22916619.8804   22916625.2614
       169.0004        169.0004
 -17253126.24549 -13426098.62047  20781470.892    20781471.3654   20781479.8934
       198.0004        198.0004
 -12998975.34748 -10112540.39346  22094096.577    22094096.8814   22094101.8294
       188.0004        187.0004
  -2951075.76347  -2290348.11945  23417326.995    23417326.7794   23417330.9694
       155.0004        157.0004
  -9344178.53748  -7264488.80746  22747203.507    22747203.5884   22747211.4094
       178.0004        177.0004
  -4353387.88148  -3370510.88346  23908556.905    23908557.7504   23908566.4104
       177.0004        179.0004
 -23351271.66549 -18179010.18248  20337085.894    20337086.3214   20337091.0514
       212.0004        213.0004
 21  2  2  1 28  0.0000000  0 10G30G19G21G14G01G17G28G09G08G07
 -16706131.59849 -12991040.63547  21432930.895    21432930.9434   21432937.9094
       200.0004        200.0004
  -2883676.45747  -2217317.25645  24140201.633    24140201.5874   24140207.1754
       154.0004        157.0004
  -9781707.03248  -7245530.94446  22403953.705    22403953.0084   22403957.8694
       173.0004        174.0004
  -5095013.18348  -3814073.30046  22911053.747    22911054.3364   22911060.4104
       168.0004        170.0004
 -17266535.35549 -13436547.25347  20778918.716    20778919.5194   20778928.3864
       198.0004        198.0004
 -13043734.13548 -10147417.34547  22085578.848    22085580.0534   22085584.2454
       187.0004        188.0004
  -2969862.02147  -2304986.75045  23413751.959    23413752.2854   23413756.3244
       155.0004        158.0004
  -9265163.28648  -7202918.48646  22762240.686    22762240.1494   22762247.5504
       177.0004        178.0004
  -4259749.41948  -3297545.88346  23926376.835    23926376.6294   23926385.6944
       177.0004        177.0004
 -23379171.73049 -18200750.50048  20331777.261    20331777.6284   20331781.8994
       212.0004        214.0004
 21  2  2  1 28 30.0000000  0 10G30G19G21G14G01G17G28G09G08G07
 -16778734.02549 -13047613.94647  21419115.114    21419114.9004   21419121.6654
       200.0004        200.0004
  -2965286.42447  -2280909.40845  24124670.796    24124670.6324   24124676.3204
       153.0004        155.0004
  -9724226.12748  -7200740.61446  22414892.408    22414891.8074   22414896.4134
       174.0004        174.0004
  -5124329.83848  -3836917.42246  22905474.916    22905475.8144   22905481.3104
       169.0004        171.0004
 -17279363.27549 -13446543.01047  20776478.638    20776478.9454   20776487.2064
       198.0004        198.0004
 -13088076.75848 -10181970.02447  22077141.800    22077141.9264   22077147.2164
       189.0004        190.0004
  -2988743.30947  -2319699.43745  23410159.667    23410158.8094   23410163.2674
       156.0004        158.0004
  -9186070.84348  -7141288.03546  22777290.321    22777291.5714   22777298.8464
       177.0004        178.0004
  -4166177.48248  -3224632.67046  23944182.943    23944182.8164   23944191.2544
       176.0004        177.0004
 -23406578.60449 -18222106.51548  20326561.944    20326561.9224   20326566.4794
       213.0004        213.0004
 21  2  2  1 29  0.0000000  0 10G30G19G21G14G01G17G28G09G08G07
 -16851052.73549 -13103966.18447  21405352.982    21405353.1654   21405360.1114
       200.0004        201.0004
  -3046630.36547  -2344294.26545  24109193.119    24109192.0594   24109197.1234
       153.0004        156.0004
  -9666306.44948  -7155608.37846  22425913.479    22425912.7404   22425917.5054
       173.0004        172.0004
  -5153716.40948  -3859816.04346  22899883.221    22899883.9374   22899889.0344
       168.0004        169.0004
 -17291609.23749 -13456085.29047  20774147.731    20774148.2004   20774156.4444
       198.0004        198.0004
 -13132003.89548 -10216198.94047  22068781.288    22068781.8544   22068787.8054
       189.0004        189.0004
  -3007721.56647  -2334487.65845  23406547.922    23406547.3714   23406551.9464
       156.0004        157.0004
  -9106904.88248  -7079600.27946  22792354.624    22792355.2864   22792363.0924
       177.0004        177.0004
  -4072674.38448  -3151773.14146  23961975.352    23961976.0524   23961984.7124
       177.0004        177.0004
 -23433490.93249 -18243077.16748  20321440.407    20321440.9884   20321445.1854
       213.0004        214.0004
 21  2  2  1 29 30.0000000  0 10G30G19G21G14G01G17G28G09G08G07
 -16923083.68649 -13160094.18647  21391645.727    21391645.5134   21391652.6614
       200.0004        199.0004
  -3127705.57247  -2407469.73345  24093765.400    24093764.7944   24093769.5144
       155.0004        158.0004
  -9607948.35148  -7110134.51446  22437019.001    22437018.3734   22437022.2784
       173.0004        173.0004
  -5183171.90448  -3882768.36946  22894277.755    22894278.4424   22894282.8224
       168.0004        168.0004
 -17303270.55149 -13465171.99247  20771929.566    20771929.5344   20771937.7524
       199.0004        199.0004
 -13175514.54148 -10250103.32147  22060502.679    22060502.5984   22060507.3264
       189.0004        190.0004
  -3026795.95047  -2349350.79245  23402916.393    23402917.0924   23402921.5334
       155.0004        157.0004
  -9027666.86348  -7017856.35746  22807433.200    22807433.4994   22807442.6294
       176.0004        177.0004
  -3979240.85048  -3078967.80146  23979755.260    23979755.4304   23979764.0444
       175.0004        175.0004
 -23459905.34849 -18263659.83148  20316414.599    20316414.6364   20316418.8614
       213.0004        214.0004
 21  2  2  1 30  0.0000000  0 10G30G19G21G14G01G17G28G09G08G07
 -16994824.76049 -13215996.31847  21377993.827    21377993.8774   21378000.9384
       200.0004        200.0004
  -3208511.31647  -2470435.20745  24078387.718    24078387.6044   24078391.6534
       154.0004        156.0004
  -9549154.42248  -7064321.04146  22448207.259    22448206.8264   22448210.6714
       172.0004        174.0004
  -5212697.40048  -3905775.22546  22888659.053    22888659.4944   22888664.6904
       168.0004        169.0004
 -17314346.56849 -13473802.63447  20769820.559    20769821.4374   20769830.4274
       199.0004        199.0004
 -13218608.88148 -10283683.30247  22052301.859    22052302.2794   22052307.3114
       189.0004        190.0004
  -3045968.11747  -2364290.15545  23399269.689    23399268.7574   23399274.3684
       154.0004        156.0004
  -8948360.29648  -6956059.05046  22822526.367    22822525.8664   22822533.1014
       176.0004        176.0004
  -3885878.97948  -3006218.32446  23997522.879    23997522.6124   23997530.4274
       173.0004        173.0004
 -23485820.43549 -18283853.41248  20311482.276    20311482.8704   20311487.6304
       213.0004        214.0004
 21  2  2  1 30 30.0000000  0 10G30G19G21G14G01G17G28G09G08G07
 -17066273.53649 -13271670.69347  21364398.276    21364397.7274   21364404.7034
       200.0004        200.0004
  -3289046.59347  -2533189.91245  24063062.598    24063061.8804   24063067.1114
       155.0004        158.0004
  -9489925.99548  -7018169.01346  22459478.597    22459477.9304   22459481.4674
       172.0004        173.0004
  -5242293.49748  -3928837.10946  22883027.537    22883027.8594   22883032.6494
       168.0004        170.0004
 -17324836.32249 -13481976.46147  20767825.073    20767825.8114   20767833.9844
       199.0004        200.0004
 -13261287.70348 -10316939.50547  22044180.753    22044180.5234   22044186.4484
       190.0004        191.0004
  -3065239.56647  -2379306.82045  23395601.976    23395601.1464   23395606.7554
       154.0004        157.0004
  -8868988.40448  -6894210.82246  22837629.857    22837630.3614   22837636.9654
       176.0004        176.0004
  -3792591.34348  -2933526.66846  24015275.207    24015274.6474   24015282.5034
       174.0004        175.0004
 -23511234.45749 -18303656.55648  20306646.530    20306647.0514   20306651.3104
       213.0004        214.0004
 21  2  2  1 31  0.0000000  0 10G30G19G21G14G01G17G28G09G08G07
 -17137426.79249 -13327114.77647  21350857.468    21350857.7274   21350865.0074
       200.0004        200.0004
  -3369310.08947  -2595732.85745  24047788.532    24047787.7774   24047793.7944
       157.0004        159.0004
  -9430264.00248  -6971679.12146  22470830.071    22470830.8724   22470834.5624
       172.0004        173.0004
  -5271960.07048  -3951953.91446  22877381.081    22877381.7924   22877387.0794
       168.0004        168.0004
 -17334738.01449 -13489692.04747  20765941.573    20765941.6504   20765949.6484
       199.0004        199.0004
 -13303550.31748 -10349871.39847  22036138.772    22036138.8224   22036143.0894
       190.0004        191.0004
  -3084610.48447  -2394401.03845  23391915.938    23391915.9594   23391920.1854
       155.0004        159.0004
  -8789553.47548  -6832313.46746  22852745.172    22852745.8384   22852752.5124
       175.0004        174.0004
  -3699379.16248  -2860893.80746  24033009.614    24033010.3404   24033019.6744
       171.0004        171.0004
 -23536145.06549 -18323067.42548  20301906.424    20301906.6804   20301910.6484
       213.0004        214.0004
 21  2  2  1 31 30.0000000  0 10G30G19G21G14G01G17G28G09G08G07
 -17208280.97449 -13382325.81747  21337374.535    21337374.8864   21337381.9414
       200.0004        201.0004
  -3449299.57947  -2658062.29745  24032567.664    24032567.0414   24032571.8464
       155.0004        157.0004
  -9370169.50448  -6924852.22346  22482265.989    22482265.8984   22482271.0794
       171.0004        172.0004
  -5301696.60748  -3975125.24046  22871723.730    22871724.6984   22871728.2694
       169.0004        170.0004
 -17344049.58049 -13496947.79447  20764168.642    20764169.4094   20764177.8494
       199.0004        199.0004
 -13345395.80748 -10382478.25147  22028175.198    22028176.1174   22028180.0944
       190.0004        190.0004
  -3104080.89447  -2409572.78345  23388210.812    23388209.9284   23388214.6584
       156.0004        157.0004
  -8710057.57948  -6770368.62246  22867873.522    22867872.9914   22867880.3794
       174.0004        175.0004
  -3606243.41648  -2788320.50746  24050731.948    24050733.8284   24050743.6914
       175.0004        177.0004
 -23560549.28949 -18342083.71048  20297262.388    20297262.7684   20297266.9554
       214.0004        215.0004
 21  2  2  1 32  0.0000000  0 11G30G19G22G21G14G01G17G28G09G08G07
 -17278833.23849 -13437301.59747  21323949.242    21323949.1204   21323956.5134
       201.0004        201.0004
  -3529013.81247  -2720177.26945  24017398.480    24017398.2694   24017401.2544
       156.0004        158.0004
   2253552.17154   1773071.62444                                  24793708.5864
        74.0004        100.0004
  -9309643.85548  -6877689.35846  22493784.220    22493784.3254   22493787.9664
       171.0004        172.0004
  -5331503.37248  -3998351.28646  22866051.161    22866052.0194   22866054.9774
       169.0004        169.0004
 -17352769.66449 -13503742.63847  20762509.480    20762510.2634   20762518.2154
       199.0004        199.0004
 -13386824.25248 -10414760.13547  22020291.128    22020291.4934   22020296.4934
       190.0004        189.0004
  -3123651.57547  -2424822.63545  23384485.775    23384486.3594   23384490.7394
       153.0004        154.0004
  -8630503.48648  -6708378.42046  22883010.953    22883011.5694   22883020.5214
       175.0004        177.0004
  -3513185.48548  -2715807.88146  24068439.554    24068440.5534   24068451.4944
       172.0004        172.0004
 -23584445.32649 -18360704.00648  20292714.818    20292715.5384   20292719.8444
       214.0004        215.0004
 21  2  2  1 32 30.0000000  0 10G30G19G21G14G01G17G28G09G08G07
 -17349081.71049 -13492040.66547  21310580.597    21310581.5304   21310587.8844
       201.0004        201.0004
  -3608452.33847  -2782077.37245  24002281.787    24002281.6844   24002283.3264
       155.0004        157.0004
  -9248689.64548  -6830192.52846  22505383.859    22505383.4104   22505386.5064
       171.0004        172.0004
  -5361381.57848  -4021632.97246  22860364.761    22860366.3464   22860370.7644
       168.0004        168.0004
 -17360897.97749 -13510076.37247  20760962.752    20760963.2204   20760971.2824
       199.0004        199.0004
 -13427836.77848 -10446717.93747  22012486.892    22012487.6334   22012491.5914
       189.0004        189.0004
  -3143324.06847  -2440151.83245  23380743.109    23380743.1654   23380747.9094
       155.0004        159.0004
  -8550894.90748  -6646345.77946  22898160.737    22898160.7094   22898168.7884
       176.0004        176.0004
  -3420208.23248  -2643358.09946  24086133.737    24086135.1914   24086144.0624
       172.0004        172.0004
 -23607831.97549 -18378927.37448  20288264.811    20288264.9924   20288269.1774
       214.0004        215.0004
 21  2  2  1 33  0.0000000  0 10G30G19G21G14G01G17G28G09G08G07
 -17419023.96949 -13546541.12847  21297272.100    21297271.9944   21297278.3724
       201.0004        201.0004
  -3687614.45647  -2843762.11145  23987217.658    23987216.5034   23987219.0984
       153.0004        154.0004
  -9187308.53448  -6782363.08446  22517063.392    22517063.1834   22517067.6284
       171.0004        171.0004
  -5391331.73548  -4044970.75346  22854667.252    22854667.6094   22854672.3504
       169.0004        171.0004
 -17368433.67849 -13515948.33547  20759529.006    20759529.5314   20759536.8714
       199.0004        199.0004
 -13468434.24548 -10478352.29947  22004761.593    22004762.1124   22004766.0974
       188.0004        189.0004
  -3163099.84047  -2455561.53245  23376979.743    23376978.9254   23376983.7364
       156.0004        158.0004
  -8471234.88548  -6584273.05746  22913319.338    22913319.6384   22913327.5324
       175.0004        175.0004
  -3327313.80248  -2570972.81346  24103812.614    24103812.8224   24103822.2814
       173.0004        175.0004
 -23630707.57149 -18396752.52348  20283911.267    20283912.2574   20283916.3034
       214.0004        215.0004
 21  2  2  1 33 30.0000000  0 11G30G19G22G21G14G01G17G28G09G08G07
 -17488657.47149 -13600801.00047  21284020.299    21284020.4384   21284027.8424
       201.0004        201.0004
  -3766498.94447  -2905230.50745  23972206.204    23972206.3624   23972208.8234
       153.0004        157.0004
   2253552.17144   1773071.624 3                                  24793708.586
        74.0004         74.000
  -9125502.19348  -6734202.27846  22528825.283    22528825.2084   22528829.0784
       171.0004        173.0004
  -5421354.35448  -4068364.97246  22848952.793    22848954.2714   22848959.7444
       170.0004        171.0004
 -17375375.75049 -13521357.73847  20758208.466    20758208.5324   20758216.2834
       199.0004        199.0004
 -13508616.57448 -10509663.19147  21997115.097    21997115.0344   21997120.4574
       189.0004        189.0004
  -3182979.35447  -2471052.02945  23373195.862    23373195.7124   23373201.1254
       154.0004        157.0004
  -8391526.53948  -6522162.64946  22928487.832    22928487.3474   22928495.4724
       174.0004        174.0004
  -3234503.54448  -2498653.18846  24121476.431    24121475.1614   24121482.7094
       173.0004        174.0004
 -23653070.43849 -18414178.14548  20279656.518    20279656.6524   20279660.5214
       214.0004        215.0004
 21  2  2  1 34  0.0000000  0 11G30G19G22G21G14G01G17G28G09G08G07
 -17557980.31149 -13654818.77047  21270829.081    21270829.2164   21270836.2264
       201.0004        202.0004
  -3845105.63247  -2966482.43245  23957247.081    23957246.3524   23957251.6134
       155.0004        158.0004
   2253552.17144   1773071.624 3                                  24793708.586
        74.0004         74.000
  -9063273.49948  -6685712.35046  22540667.887    22540666.7014   22540669.8954
       172.0004        172.0004
  -5451450.53148  -4091816.52746  22843226.446    22843227.1424   22843230.5554
       170.0004        169.0004
 -17381723.92749 -13526304.32747  20756999.430    20757000.1444   20757008.0914
       199.0004        198.0004
 -13548384.66348 -10540651.27347  21989547.064    21989547.3714   21989552.9554
       188.0004        189.0004
  -3202964.23047  -2486624.64545  23369393.665    23369393.7324   23369397.8504
       155.0004        158.0004
  -8311773.41748  -6460017.36146  22943663.758    22943664.4824   22943671.4654
       173.0004        174.0004
  -3141780.58548  -2426401.52946  24139121.248    24139120.0524   24139128.5714
       176.0004        177.0004
 -23674919.54849 -18431203.43048  20275498.180    20275498.8944   20275502.7994
       214.0004        215.0004
 21  2  2  1 34 30.0000000  0 11G30G19G22G21G14G01G17G28G09G08G07
 -17626988.69749 -13708591.53847  21257697.164    21257697.2624   21257704.3424
       201.0004        202.0004
  -3923432.26547  -3027516.12845  23942342.785    23942341.9144   23942345.0154
       156.0004        159.0004
   2253552.17144   1773071.624 3                                  24793708.586
        74.0004         74.000
  -9000623.05048  -6636893.80546  22552589.095    22552587.6954   22552593.4684
       172.0004        172.0004
  -5481619.55248  -4115324.84846  22837485.358    22837485.5164   22837490.3864
       168.0004        167.0004
 -17387476.11949 -13530786.53447  20755904.642    20755905.6564   20755913.0914
       199.0004        199.0004
 -13587737.84648 -10571316.08447  21982058.595    21982058.4114   21982063.4114
       188.0004        188.0004
  -3223054.58447  -2502279.43945  23365571.379    23365570.3324   23365575.5624
       155.0004        156.0004
  -8231977.38048  -6397838.62646  22958849.707    22958849.9524   22958856.5344
       175.0004        177.0004
  -3049145.45848  -2354218.32946  24156746.219    24156746.9964   24156755.5654
       175.0004        175.0004
 -23696252.13849 -18447826.22748  20271438.461    20271439.1394   20271443.5494
       214.0004        215.0004
 21  2  2  1 35  0.0000000  0 10G30G19G21G14G01G17G28G09G08G07
 -17695679.64349 -13762116.93547  21244625.986    21244625.5454   21244632.9584
       201.0004        202.0004
  -4001477.54247  -3088330.61545  23927491.558    23927490.9024   23927494.4634
       158.0004        159.0004
  -8937552.07648  -6587747.57446  22564591.050    22564590.3824   22564596.2624
       172.0004        173.0004
  -5511861.33648  -4138889.85846  22831729.983    22831731.6764   22831734.9784
       168.0004        170.0004
 -17392630.97349 -13534803.27247  20754923.663    20754924.4004   20754932.6024
       198.0004        198.0004
 -13626675.91648 -10601657.42547  21974648.903    21974649.4684   21974654.0154
       189.0004        188.0004
  -3243250.97847  -2518016.86245  23361726.685    23361726.8204   23361731.4504
       155.0004        157.0004
  -8152140.82648  -6335628.33346  22974041.383    22974041.9754   22974049.0794
       174.0004        174.0004
  -2956599.45048  -2282104.58346  24174358.278    24174357.6174   24174367.6294
       175.0004        176.0004
 -23717065.98349 -18464044.81148  20267477.769    20267478.1564   20267482.6194
       214.0004        215.0004
 21  2  2  1 35 30.0000000  0 10G30G19G21G14G01G17G28G09G08G07
 -17764050.40449 -13815392.85047  21231615.010    21231615.0804   21231622.2894
       202.0004        202.0004
  -4079240.18447  -3148924.83545  23912693.642    23912692.6064   23912697.3054
       157.0004        160.0004
  -8874062.16548  -6538274.89546  22576672.864    22576672.4444   22576677.1614
       173.0004        174.0004
  -5542176.09548  -4162511.75846  22825962.317    22825962.6984   22825966.5504
       170.0004        172.0004
 -17397187.41349 -13538353.71447  20754056.980    20754057.1884   20754065.6974
       198.0004        198.0004
 -13665199.05248 -10631675.42646  21967318.738    21967318.1434   21967322.2874
       187.0004        187.0004
  -3263553.99547  -2533837.37945  23357864.038    23357864.0374   23357868.8744
       155.0004        157.0004
  -8072266.59848  -6273388.67646  22989239.994    22989240.7994   22989248.9184
       174.0004        174.0004
  -2864144.53848  -2210061.83946  24191951.685    24191952.0984   24191959.8904
       174.0004        174.0004
 -23737359.23749 -18479857.75048  20263616.199    20263616.5784   20263620.9134
       214.0004        215.0004
 21  2  2  1 36  0.0000000  0 10G30G19G21G14G01G17G28G09G08G07
 -17832098.14849 -13868417.06347  21218665.133    21218665.4164   21218673.6914
       201.0004        202.0004
  -4156718.97547  -3209297.87045  23897949.293    23897949.1724   23897953.5504
       159.0004        161.0004
  -8810154.89548  -6488477.02346  22588833.117    22588833.2544   22588838.5194
       173.0004        175.0004
  -5572563.97848  -4186190.61946  22820178.600    22820179.1574   22820184.9284
       170.0004        169.0004
 -17401144.39649 -13541437.05947  20753303.953    20753304.9134   20753312.6214
       199.0004        199.0004
 -13703307.69648 -10661370.44946  21960065.435    21960066.7384   21960070.7684
       186.0004        187.0004
  -3283964.23847  -2549741.42945  23353978.763    23353977.9284   23353982.9814
       154.0004        155.0004
  -7992357.40148  -6211121.75846  23004446.906    23004447.4964   23004455.5774
       174.0004        175.0004
  -2771782.09748  -2138091.13546  24209527.759    24209527.4264   24209536.9264
       172.0004        173.0004
 -23757129.83749 -18495263.42848  20259853.667    20259854.2124   20259859.2014
       214.0004        215.0004
 21  2  2  1 36 30.0000000  0 10G30G19G21G14G01G17G28G09G08G07
 -17899820.65249 -13921187.82547  21205778.932    21205779.0484   21205786.1244
       202.0004        203.0004
  -4233913.29947  -3269449.26345  23883260.838    23883260.2024   23883264.0804
       160.0004        162.0004
  -8745832.78048  -6438355.87346  22601074.430    22601073.0514   22601079.1424
       174.0004        176.0004
  -5603025.72948  -4209927.01846  22814382.060    22814382.7964   22814388.2924
       168.0004        169.0004
 -17404501.44649 -13544052.91947  20752665.112    20752665.5864   20752673.7544
       199.0004        199.0004
 -13741002.32348 -10690742.86347  21952894.016    21952893.9684   21952898.0864
       188.0004        189.0004
  -3304482.80347  -2565729.91145  23350074.824    23350074.4804   23350078.7084
       152.0004        155.0004
  -7912416.50748  -6148830.16646  23019660.562    23019660.0424   23019666.4394
       173.0004        172.0004
  -2679514.13948  -2066194.05446  24227082.835    24227085.1634   24227095.0544
       174.0004        176.0004
 -23776376.94349 -18510261.16548  20256191.838    20256192.0364   20256196.5694
       214.0004        216.0004
 21  2  2  1 37  0.0000000  0 10G30G19G21G14G01G17G28G09G08G07
 -17967214.61349 -13973702.60447  21192954.925    21192954.7764   21192961.2164
       203.0004        203.0004
  -4310821.45647  -3329377.66346  23868625.134    23868625.0534   23868629.0074
       160.0004        163.0004
  -8681096.37848  -6387911.90846  22613393.146    22613392.5764   22613398.7534
       174.0004        175.0004
  -5633560.89848  -4233720.66646  22808571.630    22808571.8524   22808577.4754
       169.0004        170.0004
 -17407257.03849 -13546200.12447  20752139.930    20752141.4224   20752149.6534
       199.0004        199.0004
 -13778282.91548 -10719792.64847  21945798.462    21945799.1644   21945803.7614
       189.0004        189.0004
  -3325109.97847  -2581803.03045  23346150.829    23346150.0534   23346154.4974
       153.0004        157.0004
  -7832446.03548  -6086515.51546  23034877.170    23034878.0244   23034885.1374
       172.0004        172.0004
  -2587342.06348  -1994371.70346  24244625.158    24244625.5824   24244634.4044
       174.0004        175.0004
 -23795097.79849 -18524848.85548  20252629.245    20252629.5054   20252633.7444
       214.0004        215.0004
 21  2  2  1 37 30.0000000  0 10G30G19G21G14G01G17G28G09G08G07
 -18034278.14249 -14025959.88447  21180192.293    21180192.5664   21180199.9554
       203.0004        203.0004
  -4387443.52547  -3389083.12945  23854044.561    23854043.6974   23854048.6004
       161.0004        162.0004
  -8615948.63248  -6337147.41746  22625790.132    22625789.4234   22625796.6894
       175.0004        175.0004
  -5664170.58148  -4257572.33446  22802747.385    22802747.4334   22802752.9714
       169.0004        170.0004
 -17409411.03049 -13547878.53747  20751730.408    20751731.3794   20751739.7154
       199.0004        199.0004
 -13815149.93748 -10748520.18847  21938783.180    21938783.7154   21938788.5144
       189.0004        190.0004
  -3345847.37747  -2597962.01045  23342202.622    23342203.6364   23342208.9534
       154.0004        157.0004
  -7752449.61748  -6024180.62946  23050099.218    23050099.8544   23050107.5034
       172.0004        172.0004
  -2495268.11948  -1922625.80046  24262148.667    24262147.4974   24262155.2404
       174.0004        176.0004
 -23813291.93049 -18539026.10648  20249166.739    20249167.1054   20249172.0314
       214.0004        215.0004
 21  2  2  1 38  0.0000000  0 10G30G19G21G14G01G17G28G09G08G07
 -18101008.46249 -14077957.53247  21167493.707    21167494.2284   21167501.8294
       203.0004        204.0004
  -4463778.10047  -3448564.57245  23839517.531    23839517.3144   23839522.5754
       159.0004        161.0004
  -8550391.08048  -6286063.59746  22638264.562    22638264.4444   22638270.3524
       175.0004        175.0004
  -5694854.84648  -4281482.11846  22796907.763    22796907.8324   22796912.9404
       170.0004        170.0004
 -17410962.55049 -13549087.49247  20751435.109    20751435.8924   20751444.1324
       199.0004        199.0004
 -13851603.97748 -10776925.91447  21931846.581    21931847.0904   21931851.3504
       190.0004        191.0004
  -3366695.61047  -2614207.36145  23338235.550    23338235.8364   23338241.3534
       155.0004        158.0004
  -7672429.93448  -5961827.65046  23065327.323    23065326.8784   23065335.9334
       172.0004        173.0004
  -2403293.62148  -1850957.38146  24279647.268    24279648.3714   24279657.8344
       173.0004        173.0004
 -23830957.01649 -18552791.10948  20245804.997    20245805.6494   20245810.4124
       214.0004        216.0004
 21  2  2  1 38 30.0000000  0 10G30G19G21G14G01G17G28G09G08G07
 -18167401.78849 -14129692.59547  21154860.548    21154860.5514   21154867.4684
       204.0004        205.0004
  -4539822.86047  -3507820.20045  23825046.963    23825046.5404   23825051.8394
       160.0004        162.0004
  -8484424.64148  -6234661.18746  22650817.883    22650817.0314   22650823.6634
       174.0004        175.0004
  -5725612.82348  -4305449.37446  22791054.704    22791055.5064   22791060.2744
       169.0004        170.0004
 -17411909.62149 -13549825.46747  20751255.140    20751256.0234   20751263.7174
       199.0004        199.0004
 -13887644.65648 -10805009.53847  21924988.354    21924988.4864   21924993.0944
       190.0004        191.0004
  -3387654.19247  -2630538.71045  23334248.134    23334247.6684   23334253.1324
       154.0004        156.0004
  -7592388.70948  -5899457.86446  23080558.166    23080558.9514   23080566.0294
       173.0004        173.0004
  -2311419.57248  -1779367.24546  24297131.840    24297132.0334   24297141.0324
       173.0004        175.0004
 -23848090.26249 -18566141.71648  20242544.862    20242545.2324   20242549.9724
       214.0004        216.0004
 21  2  2  1 39  0.0000000  0 10G30G19G21G14G01G17G28G09G08G07
 -18233456.54149 -14181163.82347  21142290.164    21142290.0434   21142297.3894
       204.0004        204.0004
  -4615578.11147  -3566850.21745  23810632.805    23810631.4934   23810635.3654
       161.0004        162.0004
  -8418052.21848  -6182942.40346  22663447.561    22663447.4924   22663454.8194
       174.0004        175.0004
  -5756445.76948  -4329475.04346  22785187.494    22785187.7754   22785192.8634
       168.0004        168.0004
 -17412252.49849 -13550092.62347  20751190.441    20751190.7494   20751199.1014
       199.0004        199.0004
 -13923273.09848 -10832771.94247  21918207.028    21918208.1334   21918213.0024
       189.0004        189.0004
  -3408724.91947  -2646957.41245  23330235.893    23330237.3834   23330242.2724
       152.0004        155.0004
  -7512329.72648  -5837074.25946  23095791.680    23095792.5674   23095801.2984
       170.0004        170.0004
  -2219648.54248  -1707857.35246  24314596.165    24314595.3984   24314604.9074
       172.0004        173.0004
 -23864691.43149 -18579077.69848  20239385.689    20239386.0144   20239390.9564
       214.0004        216.0004
 21  2  2  1 39 30.0000000  0 11G30G19G22G21G14G01G17G28G09G08G07
 -18299169.35349 -14232368.61847  21129785.396    21129785.6204   21129792.4374
       204.0004        205.0004
  -4691042.12647  -3625653.34546  23796271.004    23796270.5194   23796274.8514
       161.0004        163.0004
   2253552.17154
        74.0004
  -8351274.76548  -6130908.01746  22676155.677    22676154.9304   22676161.9734
       175.0004        175.0004
  -5787353.18848  -4353558.75946  22779306.236    22779306.7094   22779310.8104
       168.0004        168.0004
 -17411989.79749 -13549887.90247  20751240.081    20751240.7774   20751248.9144
       199.0004        200.0004
 -13958489.02648 -10860212.91447  21911506.774    21911506.9364   21911511.6154
       189.0004        189.0004
  -3429908.14947  -2663463.81845  23326206.200    23326206.9164   23326212.5844
       153.0004        156.0004
  -7432255.09348  -5774678.44446  23111031.567    23111031.3964   23111039.0124
       170.0004        172.0004
  -2127981.23548  -1636428.31146  24332039.955    24332039.0344   24332047.9494
       169.0004        170.0004
 -23880758.38249 -18591597.41248  20236328.248    20236328.7584   20236333.3584
       214.0004        216.0004
 21  2  2  1 40  0.0000000  0 11G30G19G22G21G14G01G17G28G09G08G07
 -18364539.04349 -14283306.03847  21117346.419    21117346.1814   21117353.3514
       205.0004        206.0004
  -4766215.44347  -3684229.93545  23781965.164    23781965.1604   23781969.2014
       161.0004        162.0004
   2253552.17144   1773071.62444                                  24793708.5864
        74.0004        101.0004
  -8284095.65948  -6078560.66646  22688938.642    22688938.4704   22688946.0374
       174.0004        175.0004
  -5818336.69248  -4377701.73946  22773410.369    22773410.4434   22773414.6804
       168.0004        169.0004
 -17411122.23949 -13549211.86847  20751405.024    20751405.9264   20751413.7994
       199.0004        199.0004
 -13993294.41848 -10887333.96647  21904883.512    21904883.9734   21904888.6134
       190.0004        191.0004
  -3451205.73647  -2680059.32345  23322155.380    23322154.4394   23322158.7494
       154.0004        157.0004
  -7352169.02848  -5712273.72946  23126270.537    23126270.9444   23126278.5734
       170.0004        170.0004
  -2036421.14048  -1565082.81546  24349463.017    24349462.9474   24349471.3244
       170.0004        172.0004
 -23896290.70949 -18603700.53448  20233372.570    20233373.1664   20233377.4814
       215.0004        216.0004
 21  2  2  1 40 30.0000000  0 11G30G19G22G21G14G01G17G28G09G08G07
 -18429561.73749 -14333973.06047  21104972.835    21104972.5734   21104979.8204
       205.0004        206.0004
  -4841095.80347  -3742578.24746  23767717.373    23767716.7784   23767721.3364
       161.0004        165.0004
   2253552.17144   1773071.624 4                                  24793708.586
        74.0004        109.000
  -8216515.50848  -6025900.81046  22701799.463    22701799.2214   22701805.0554
       174.0004        175.0004
  -5849395.20648  -4401903.18146  22767500.259    22767499.5284   22767505.1314
       168.0004        169.0004
 -17409647.86749 -13548062.98447  20751686.082    20751686.3814   20751694.5414
       199.0004        199.0004
 -14027688.45348 -10914134.46547  21898338.338    21898339.0504   21898343.5864
       189.0004        189.0004
  -3472617.15647  -2696743.52345  23318079.951    23318079.5174   23318083.3034
       152.0004        154.0004
  -7272073.04148  -5649861.27846  23141512.937    23141513.9194   23141520.4184
       169.0004        170.0004
  -1944968.13648  -1493820.79746  24366865.226    24366866.4304   24366874.2914
       171.0004        172.0004
 -23911285.56649 -18615384.84548  20230519.035    20230519.2734   20230524.3674
       214.0004        216.0004
 21  2  2  1 41  0.0000000  0 10G30G19G21G14G01G17G28G09G08G07
 -18494235.39449 -14384368.12647  21092665.578    21092665.7314   21092672.8064
       206.0004        206.0004
  -4915682.77947  -3800697.92346  23753523.356    23753523.0464   23753526.5314
       162.0004        164.0004
  -8148536.58548  -5972930.21646  22714735.308    22714735.1954   22714741.1554
       174.0004        173.0004
  -5880529.62148  -4426163.73546  22761573.461    22761574.2744   22761580.3604
       167.0004        169.0004
 -17407566.67349 -13546441.26247  20752081.810    20752082.3184   20752090.0914
       199.0004        199.0004
 -14061672.05948 -10940615.17147  21891871.698    21891871.7394   21891876.8704
       189.0004        190.0004
  -3494143.79147  -2713517.51945  23313984.693    23313983.9264   23313988.1234
       153.0004        156.0004
  -7191970.56548  -5587443.77646  23156755.240    23156755.9764   23156762.3844
       168.0004        168.0004
  -1853624.60348  -1422644.03446  24384247.519    24384247.1954   24384254.9354
       170.0004        169.0004
 -23925742.11349 -18626649.69848  20227768.261    20227768.8514   20227773.2794
       215.0004        216.0004
 21  2  2  1 41 30.0000000  0 10G30G19G21G14G01G17G28G09G08G07
 -18558556.75249 -14434488.66347  21080425.715    21080425.7614   21080432.8244
       206.0004        206.0004
  -4989975.04947  -3858588.00846  23739385.285    23739384.6674   23739389.3174
       162.0004        163.0004
  -8080160.03848  -5919649.80146  22727746.592    22727746.3874   22727752.5464
       172.0004        172.0004
  -5911739.37148  -4450483.03246  22755636.773    22755636.4804   22755641.3794
       168.0004        170.0004
 -17404877.42349 -13544345.74347  20752593.622    20752594.0264   20752602.2704
       199.0004        200.0004
 -14095245.30548 -10966776.13047  21885482.813    21885483.1594   21885488.0404
       190.0004        191.0004
  -3515785.58647  -2730381.23045  23309865.290    23309865.3324   23309869.6204
       154.0004        157.0004
  -7111863.64148  -5525022.83246  23171999.741    23172000.0744   23172007.1564
       167.0004        169.0004
  -1762391.57748  -1351553.39246  24401606.251    24401607.4604   24401616.5364
       169.0004        171.0004
 -23939658.17849 -18637493.40148  20225120.056    20225120.4354   20225125.2874
       215.0004        216.0004
 21  2  2  1 42  0.0000000  0 11G30G19G22G21G14G01G17G28G09G08G07
 -18622522.73849 -14484332.27947  21068253.370    21068253.6374   21068260.6954
       206.0004        206.0004
  -5063971.11247  -3916247.23346  23725304.237    23725303.6724   23725308.1984
       162.0004        164.0004
   2253552.17154
        74.0004
  -8011387.62348  -5866060.89846  22740833.927    22740833.7624   22740839.2434
       172.0004        173.0004
  -5943024.12248  -4474860.73646  22749682.765    22749682.7574   22749688.7384
       169.0004        170.0004
 -17401578.99249 -13541775.52147  20753221.348    20753221.6884   20753229.5564
       199.0004        199.0004
 -14128408.21048 -10992617.32947  21879172.250    21879172.9974   21879177.9714
       191.0004        192.0004
  -3537542.66147  -2747334.76445  23305724.523    23305725.3534   23305729.4954
       155.0004        158.0004
  -7031754.57048  -5462600.17946  23187243.501    23187243.8214   23187251.7934
       170.0004        171.0004
  -1671270.21548  -1280549.74346  24418950.274    24418949.1784   24418955.8244
       169.0004        169.0004
 -23953031.89949 -18647914.49048  20222575.173    20222575.7974   20222580.2444
       215.0004        216.0004
 21  2  2  1 42 30.0000000  0 10G30G19G21G14G01G17G28G09G08G07
 -18686132.24849 -14533898.14147  21056148.916    21056149.0594   21056155.6734
       206.0004        207.0004
  -5137671.50447  -3973676.08646  23711281.273    23711279.0504   23711283.2744
       163.0004        164.0004
  -7942223.32648  -5812166.63546  22753996.104    22753995.0034   22754001.0014
       172.0004        173.0004
  -5974385.57748  -4499298.24146  22743715.011    22743715.6064   22743720.9584
       170.0004        170.0004
 -17397672.37449 -13538731.39947  20753964.501    20753964.9674   20753972.9894
       199.0004        199.0004
 -14161162.92848 -11018140.46847  21872939.071    21872939.4494   21872944.3594
       190.0004        190.0004
  -3559417.58647  -2764380.17745  23301564.131    23301563.3294   23301567.3444
       156.0004        159.0004
  -6951647.64048  -5400179.20346  23202485.991    23202486.6634   23202495.6454
       169.0004        169.0004
  -1580263.54448  -1209635.46346  24436266.115    24436266.4994   24436275.6694
       170.0004        171.0004
 -23965863.11449 -18657912.85548  20220133.335    20220133.7124   20220138.8584
       215.0004        216.0004
 21  2  2  1 43  0.0000000  0 10G30G19G21G14G01G17G28G09G08G07
 -18749381.38049 -14583183.17547  21044112.792    21044112.7084   21044120.3094
       206.0004        206.0004
  -5211073.81847  -4030872.66646  23697311.486    23697311.7954   23697315.8344
       163.0004        165.0004
  -7872666.74448  -5757966.68846  22767232.744    22767231.6284   22767237.0354
       172.0004        172.0004
  -6005822.53548  -4523794.56346  22737732.705    22737733.2664   22737737.9014
       170.0004        171.0004
 -17393155.67449 -13535211.86547  20754823.983    20754824.4634   20754832.6574
       199.0004        199.0004
 -14193508.59148 -11043344.87047  21866783.815    21866784.2794   21866789.2234
       189.0004        190.0004
  -3581409.59147  -2781516.76945  23297375.217    23297376.2444   23297381.9494
       154.0004        156.0004
  -6871544.22648  -5337760.95546  23217729.461    23217730.0534   23217738.5664
       167.0004        167.0004
  -1489371.82648  -1138810.74746  24453564.105    24453563.1214   24453571.4624
       169.0004        170.0004
 -23978149.20749 -18667486.44648  20217795.344    20217795.8994   20217800.7104
       215.0004        216.0004
 21  2  2  1 43 30.0000000  0 10G30G19G21G14G01G17G28G09G08G07
 -18812268.21849 -14632185.91347  21032145.703    21032146.1444   21032152.7694
       206.0004        206.0004
  -5284178.10247  -4087837.02145  23683401.892    23683400.1984   23683404.9994
       162.0004        162.0004
  -7802720.91748  -5703463.46446  22780541.304    22780541.2014   22780547.7204
       171.0004        172.0004
  -6037335.86648  -4548350.40946  22731735.533    22731736.3304   22731741.5954
       170.0004        171.0004
 -17388029.19349 -13531217.19647  20755799.927    20755800.4714   20755808.2074
       199.0004        200.0004
 -14225446.27348 -11068231.35047  21860706.744    21860706.7184   21860711.8824
       190.0004        191.0004
  -3603519.83647  -2798745.52645  23293170.029    23293170.2894   23293173.9464
       154.0004        158.0004
  -6791447.79148  -5275348.18546  23232972.394    23232973.3074   23232979.5464
       165.0004        166.0004
  -1398597.16248  -1068077.26946  24470836.936    24470837.0234   24470846.3514
       172.0004        173.0004
 -23989889.53849 -18676634.77748  20215561.464    20215561.8074   20215566.5124
       215.0004        216.0004
 21  2  2  1 44  0.0000000  0 10G30G19G21G14G01G17G28G09G08G07
 -18874789.63049 -14680903.90147  21020249.124    21020248.9674   21020255.4114
       207.0004        207.0004
  -5356983.14047  -4144568.19246  23669547.792    23669546.9174   23669550.5264
       162.0004        163.0004
  -7732387.39048  -5648658.10946  22793925.008    22793925.5544   22793930.9534
       169.0004        170.0004
  -6068925.13848  -4572965.41046  22725723.745    22725724.8064   22725730.2524
       171.0004        171.0004
 -17382291.90549 -13526746.56347  20756891.973    20756892.2214   20756899.9634
       200.0004        200.0004
 -14256976.32948 -11092800.19947  21854705.915    21854706.6414   21854710.9654
       191.0004        191.0004
  -3625748.52347  -2816066.55845  23288939.601    23288940.2794   23288943.9934
       155.0004        158.0004
  -6711360.58448  -5212942.58146  23248212.422    23248213.1984   23248221.1334
       166.0004        168.0004
  -1307940.47548   -997435.75046  24488085.131    24488086.8494   24488096.6754
       169.0004        168.0004
 -24001082.02049 -18685356.19948  20213431.217    20213431.6754   20213436.6674
       215.0004        216.0004
 21  2  2  1 44 30.0000000  0 10G30G19G21G14G01G17G28G09G08G07
 -18936942.85249 -14729334.98447  21008421.093    21008421.5804   21008428.3584
       207.0004        208.0004
  -5429487.81247  -4201065.30846  23655750.144    23655749.4454   23655753.3994
       162.0004        163.0004
  -7661668.19048  -5593552.22346  22807383.473    22807382.8234   22807387.8814
       169.0004        171.0004
  -6100590.16448  -4597639.47646  22719699.449    22719699.4884   22719704.3034
       169.0004        169.0004
 -17375943.19349 -13521799.50247  20758099.819    20758100.2634   20758108.4184
       200.0004        200.0004
 -14288099.12648 -11117051.70547  21848783.891    21848784.1824   21848789.2524
       191.0004        191.0004
  -3648096.11147  -2833480.26745  23284688.805    23284688.0694   23284691.6484
       155.0004        157.0004
  -6631285.04348  -5150546.08446  23263450.499    23263450.8504   23263458.7434
       166.0004        168.0004
  -1217403.42948   -926887.41446  24505315.547    24505317.0534   24505324.9904
       169.0004        170.0004
 -24011725.33649 -18693649.70248  20211406.015    20211406.4484   20211411.3634
       215.0004        216.0004
 21  2  2  1 45  0.0000000  0 10G30G19G21G14G01G17G28G09G08G07
 -18998726.40449 -14777478.01547  20996664.611    20996664.5394   20996671.2024
       207.0004        207.0004
  -5501692.40447  -4257328.57346  23642009.058    23642008.4444   23642013.0724
       163.0004        164.0004
  -7590565.95248  -5538147.87046  22820914.933    22820913.4744   22820917.9624
       169.0004        170.0004
  -6132332.21248  -4622373.51646  22713657.859    22713658.3324   22713664.3834
       168.0004        168.0004
 -17368983.67849 -13516376.48447  20759424.142    20759424.4494   20759432.5644
       199.0004        199.0004
 -14318816.15548 -11140987.04547  21842939.180    21842939.0534   21842944.1574
       191.0004        191.0004
  -3670563.95247  -2850987.63545  23280411.500    23280411.7584   23280416.8974
       154.0004        157.0004
  -6551225.01248  -5088161.67546  23278685.558    23278685.6284   23278693.0854
       166.0004        168.0004
  -1126988.13248   -856433.96246  24522521.580    24522522.0974   24522531.6664
       166.0004        166.0004
 -24021819.17949 -18701515.04848  20209485.403    20209485.8714   20209490.2934
       215.0004        216.0004
 21  2  2  1 45 30.0000000  0 10G30G19G21G14G01G17G28G09G08G07
 -19060136.86849 -14825330.31547  20984978.055    20984978.4114   20984985.2994
       207.0004        207.0004
  -5573595.07947  -4313356.63946  23628326.947    23628326.3174   23628331.7764
       162.0004        163.0004
  -7519081.96148  -5482446.04946  22834516.348    22834515.5294   22834520.4934
       168.0004        168.0004
  -6164150.51448  -4647166.97546  22707602.901    22707604.0104   22707608.9684
       167.0004        169.0004
 -17361412.16849 -13510476.58447  20760864.764    20760865.0574   20760872.9104
       199.0004        199.0004
 -14349127.31348 -11164606.11047  21837169.722    21837170.8684   21837176.2024
       190.0004        191.0004
  -3693152.05647  -2868588.74045  23276113.042    23276113.5354   23276117.8784
       155.0004        157.0004
  -6471182.30248  -5025790.72546  23293918.048    23293918.4954   23293924.9044
       168.0004        169.0004
  -1036695.54247   -786076.16746  24539701.881    24539703.2504   24539712.1474
       164.0004        165.0004
 -24031361.24349 -18708950.42848  20207669.651    20207669.9544   20207674.7774
       215.0004        216.0004
 21  2  2  1 46  0.0000000  0 10G30G19G21G14G01G17G28G09G08G07
 -19121171.48849 -14872889.77247  20973364.405    20973364.1804   20973370.8234
       208.0004        208.0004
  -5645194.85247  -4369148.64246  23614701.000    23614701.8184   23614705.3194
       162.0004        164.0004
  -7447218.17348  -5426448.30346  22848191.496    22848191.0194   22848194.9934
       167.0004        168.0004
  -6196044.87948  -4672019.74546  22701534.232    22701535.1654   22701540.4914
       170.0004        172.0004
 -17353228.14849 -13504099.42447  20762422.697    20762422.9944   20762430.7244
       199.0004        200.0004
 -14379033.30548 -11187909.46947  21831479.769    21831480.0064   21831485.2334
       191.0004        192.0004
  -3715861.37447  -2886284.31145  23271792.591    23271792.2514   23271796.2004
       155.0004        157.0004
  -6391159.40648  -4963435.23846  23309144.643    23309144.9554   23309152.5544
       167.0004        167.0004
   -946527.01147   -715815.01146  24556863.542    24556862.4804   24556872.5094
       164.0004        165.0004
 -24040349.88249 -18715954.58448  20205959.756    20205959.6714   20205964.3634
       215.0004        217.0004
 21  2  2  1 46 30.0000000  0 10G30G19G21G14G01G17G28G09G08G07
 -19181827.34349 -14920154.08147  20961821.568    20961821.5104   20961827.7364
       208.0004        207.0004
  -5716490.62747  -4424703.77345  23601135.120    23601133.3614   23601137.8674
       160.0004        161.0004
  -7374976.18848  -5370155.81846  22861939.112    22861938.2754   22861942.7164
       166.0004        167.0004
  -6228015.12148  -4696931.60146  22695451.154    22695451.0924   22695456.5354
       171.0004        172.0004
 -17344430.97049 -13497244.46247  20764095.976    20764096.5884   20764104.6154
       199.0004        199.0004
 -14408534.36048 -11210897.27947  21825865.784    21825866.0424   21825871.2404
       191.0004        192.0004
  -3738691.69047  -2904074.15945  23267447.396    23267447.7934   23267452.0434
       155.0004        158.0004
  -6311158.70448  -4901097.04046  23324367.829    23324368.5204   23324376.1744
       166.0004        167.0004
   -856483.44848   -645651.26946  24573998.077    24573997.6444   24574007.4934
       165.0004        167.0004
 -24048783.67449 -18722526.38048  20204354.435    20204355.0264   20204359.2974
       215.0004        217.0004
 21  2  2  1 47  0.0000000  0 10G30G19G21G14G01G17G28G09G08G07
 -19242102.69749 -14967121.88747  20950350.818    20950351.1364   20950358.0934
       207.0004        207.0004
  -5787482.35947  -4480021.99546  23587624.806    23587623.5974   23587629.5824
       162.0004        164.0004
  -7302358.54748  -5313570.65446  22875758.228    22875757.0624   22875760.9624
       166.0004        168.0004
  -6260061.97048  -4721903.17546  22689352.057    22689351.9714   22689357.3734
       169.0004        169.0004
 -17335021.05849 -13489912.06447  20765886.772    20765887.4884   20765895.2684
       199.0004        199.0004
 -14437631.74148 -11233570.54247  21820328.924    21820329.1494   21820334.3154
       192.0004        193.0004
  -3761644.19847  -2921959.21545  23263079.295    23263079.7294   23263084.6464
       157.0004        158.0004
  -6231183.64148  -4838778.82546  23339587.211    23339587.1874   23339595.1714
       165.0004        167.0004
   -766567.28847   -575586.77746  24591107.934    24591107.7544   24591116.7954
       162.0004        163.0004
 -24056662.10649 -18728665.43448  20202855.264    20202855.4844   20202859.7394
       215.0004        216.0004
 21  2  2  1 47 30.0000000  0 10G30G19G21G14G01G17G28G09G08G07
 -19301994.80449 -15013791.06147  20938954.304    20938954.2264   20938961.1024
       207.0004        208.0004
  -5858169.28547  -4535102.68046  23574173.403    23574172.9004   23574177.4314
       163.0004        165.0004
  -7229367.63548  -5256694.60546  22889646.493    22889646.8114   22889650.9554
       165.0004        166.0004
  -6292185.32148  -4746934.36446  22683239.194    22683239.5344   22683244.9104
       168.0004        168.0004
 -17324998.06849 -13482101.92847  20767793.450    20767794.4184   20767802.4824
       199.0004        199.0004
 -14466326.02248 -11255929.71347  21814868.457    21814868.7584   21814873.6414
       193.0004        193.0004
  -3784719.56947  -2939940.01645  23258687.714    23258688.1854   23258692.2184
       157.0004        159.0004
  -6151236.63948  -4776482.47946  23354800.381    23354800.3914   23354808.3914
       165.0004        166.0004
   -676779.98947   -505622.72746  24608195.748    24608195.5434   24608204.1234
       162.0004        163.0004
 -24063983.77249 -18734370.65048  20201461.878    20201462.3324   20201466.9594
       215.0004        217.0004
 21  2  2  1 48  0.0000000  0 10G30G19G21G14G01G17G28G09G08G07
 -19361500.74949 -15060159.32847  20927630.776    20927630.8764   20927637.6994
       208.0004        208.0004
  -5928550.21947  -4589944.92946  23560781.472    23560780.1924   23560784.9374
       163.0004        165.0004
  -7156004.57948  -5199528.57346  22903607.508    22903607.4024   22903611.7014
       165.0004        167.0004
  -6324384.83348  -4772024.86946  22677111.815    22677112.1534   22677117.1544
       168.0004        170.0004
 -17314361.35249 -13473813.55247  20769817.988    20769818.6354   20769826.2284
       199.0004        198.0004
 -14494617.91748 -11277975.32847  21809484.632    21809484.9374   21809489.5564
       193.0004        192.0004
  -3807917.82847  -2958016.59045  23254274.921    23254274.1454   23254278.8124
       157.0004        159.0004
  -6071320.01248  -4714209.79346  23370008.643    23370008.6294   23370015.9674
       166.0004        168.0004
   -587121.77347   -435759.22245  24625251.115    24625253.3784   24625264.5554
       160.0004        161.0004
 -24070747.32249 -18739640.95348  20200175.000    20200175.1304   20200179.9444
       215.0004        217.0004
 21  2  2  1 48 30.0000000  0 10G30G19G21G14G01G17G28G09G08G07
 -19420618.45849 -15106225.07947  20916380.430    20916380.8014   20916387.6714
       208.0004        208.0004
  -5998624.67447  -4644548.39346  23547446.432    23547445.8884   23547450.0484
       163.0004        165.0004
  -7082271.98948  -5142074.59146  22917638.076    22917638.0824   22917642.1994
       165.0004        166.0004
  -6356660.90548  -4797175.04846  22670969.165    22670970.8124   22670975.2774
       169.0004        171.0004
 -17303111.17149 -13465047.16947  20771958.228    20771959.1494   20771966.8984
       198.0004        198.0004
 -14522508.24048 -11299708.04347  21804176.974    21804177.4634   21804182.2564
       192.0004        192.0004
  -3831239.94147  -2976189.64745  23249836.012    23249836.3094   23249841.1134
       158.0004        160.0004
  -5991436.85448  -4651963.21046  23385210.995    23385211.1564   23385217.4784
       180.0004        186.0004
   -497595.27857   -365998.18746  24642287.920    24642290.4925   24642300.9474
       162.0004        164.0004
 -24076951.75349 -18744475.59148  20198994.499    20198994.8994   20198999.0414
       215.0004        217.0004
 21  2  2  1 49  0.0000000  0 10G30G19G21G14G01G17G28G09G08G07
 -19479344.68549 -15151985.77147  20905205.460    20905205.7514   20905212.4704
       208.0004        208.0004
  -6068391.33547  -4698912.00046  23534170.033    23534168.8324   23534173.0984
       162.0004        163.0004
  -7008171.39948  -5084333.88646  22931738.998    22931738.9524   22931743.5414
       165.0004        166.0004
  -6389012.80548  -4822384.33346  22664815.031    22664814.8554   22664819.2734
       171.0004        173.0004
 -17291246.63849 -13455802.05747  20774215.927    20774216.6304   20774224.7334
       198.0004        198.0004
 -14549997.15948 -11321127.96147  21798945.966    21798946.3814   21798951.3924
       191.0004        192.0004
  -3854685.80547  -2994459.13345  23245375.739    23245375.0414   23245378.9584
       158.0004        161.0004
  -5911589.06748  -4589744.17446  23400403.969    23400404.9414   23400411.1834
       185.0004        184.0004
   -408201.13947   -296340.49146  24659300.158    24659301.6614   24659312.7024
       162.0004        163.0004
 -24082595.26349 -18748873.15548  20197919.969    20197920.6334   20197925.1684
       215.0004        216.0004
 21  2  2  1 49 30.0000000  0 10G30G19G21G14G01G17G28G09G08G07
 -19537678.59549 -15197440.77747  20894105.886    20894105.4464   20894111.8944
       208.0004        209.0004
  -6137851.18147  -4753036.53845  23520952.916    23520950.8674   23520955.0034
       160.0004        161.0004
  -6933706.83648  -5026309.54046  22945909.886    22945909.4964   22945913.5924
       165.0004        166.0004
  -6421442.21848  -4847653.99546  22658642.524    22658643.7954   22658648.6674
       174.0004        176.0004
 -17278769.31049 -13446079.46247  20776590.641    20776591.3514   20776599.7164
       198.0004        198.0004
 -14577087.22748 -11342237.09747  21793791.319    21793791.2964   21793796.6514
       192.0004        192.0004
  -3878257.65347  -3012826.81945  23240888.575    23240888.8924   23240893.7054
       159.0004        162.0004
  -5831781.01648  -4527556.09247  23415590.892    23415591.5254   23415598.4044
       191.0004        196.0004
   -318942.32548   -226788.23746  24676290.171    24676290.2604   24676297.0444
       165.0004        168.0004
 -24087678.41549 -18752834.06748  20196952.318    20196952.8194   20196958.4454
       215.0004        216.0004
 21  2  2  1 50  0.0000000  0 10G30G19G21G14G01G17G28G09G08G07
 -19595617.01049 -15242587.59547  20883079.564    20883079.7034   20883086.5064
       208.0004        208.0004
  -6207002.77447  -4806920.88145  23507792.137    23507792.5084   23507796.8054
       159.0004        162.0004
  -6858879.25748  -4968002.32846  22960148.766    22960149.1404   22960153.1444
       165.0004        167.0004
  -6453948.45448  -4872983.51346  22652457.995    22652457.9054   22652462.6314
       176.0004        176.0004
 -17265678.38549 -13435878.72347  20779082.857    20779082.9494   20779090.5094
       199.0004        199.0004
 -14603778.25048 -11363035.28447  21788712.002    21788712.7264   21788717.7004
       193.0004        193.0004
  -3901955.23447  -3031292.45945  23236379.699    23236379.5014   23236384.6614
       158.0004        158.0004
  -5752014.56748  -4465400.42247  23430769.597    23430769.9734   23430777.4734
       194.0004        194.0004
   -229819.45248   -157341.89446  24693248.898    24693248.5184   24693256.5324
       166.0004        166.0004
 -24092199.58949 -18756357.07848  20196092.899    20196093.1864   20196097.4824
       215.0004        216.0004
 21  2  2  1 50 30.0000000  0 10G30G19G21G14G01G17G28G09G08G07
 -19653156.32849 -15287423.42747  20872130.796    20872130.3444   20872137.4784
       208.0004        208.0004
  -6275844.27747  -4860563.58646  23494693.266    23494692.3594   23494696.7294
       162.0004        164.0004
  -6783689.94548  -4909413.24146  22974457.136    22974456.1214   22974460.9304
       166.0004        169.0004
  -6486530.37548  -4898372.01346  22646257.005    22646257.7784   22646262.6074
       176.0004        175.0004
 -17251972.71549 -13425198.95447  20781689.558    20781690.4654   20781698.8454
       198.0004        198.0004
 -14630070.53948 -11383522.77147  21783709.367    21783709.6364   21783713.7494
       193.0004        193.0004
  -3925777.89147  -3049855.54645  23231846.757    23231846.5344   23231851.5074
       158.0004        162.0004
  -5672291.25449  -4403278.39247  23445941.295    23445941.4634   23445949.2514
       195.0004        196.0004
   -140832.60647    -88001.52146  24710180.208    24710181.0814   24710190.3864
       164.0004        165.0004
 -24096156.29749 -18759440.23348  20195339.398    20195339.9004   20195344.4624
       215.0004        216.0004
 21  2  2  1 51  0.0000000  0 10G30G19G21G14G01G17G28G09G08G07
 -19710294.50649 -15331946.68447  20861256.698    20861257.2874   20861264.3364
       208.0004        208.0004
  -6344375.61147  -4913964.61546  23481652.070    23481651.7084   23481654.8504
       162.0004        163.0004
  -6708141.28448  -4850544.16046  22988832.155    22988833.4724   22988838.6264
       166.0004        168.0004
  -6519188.37148  -4923819.78446  22640041.616    22640042.8564   22640047.5444
       174.0004        174.0004
 -17237652.65549 -13414040.44247  20784414.732    20784415.2394   20784423.5114
       198.0004        198.0004
 -14655965.12048 -11403700.36047  21778780.480    21778781.4894   21778786.1414
       193.0004        193.0004
  -3949726.68647  -3068516.94145  23227289.234    23227289.1894   23227293.2734
       159.0004        161.0004
  -5592614.10549  -4341192.32847  23461103.644    23461103.9444   23461111.0354
       197.0004        199.0004
    -51984.07547    -18768.91645  24727084.816    24727086.8044   24727096.2334
       161.0004        161.0004
 -24099548.07049 -18762083.19348  20194694.817    20194694.8714   20194699.3974
       215.0004        217.0004
 21  2  2  1 51 30.0000000  0 10G30G19G21G14G01G17G28G09G08G07
 -19767028.38649 -15376154.90447  20850461.308    20850461.3694   20850468.0284
       208.0004        208.0004
  -6412595.44947  -4967122.89046  23468670.865    23468669.8144   23468673.9654
       162.0004        163.0004
  -6632234.72848  -4791396.18346  23003277.523    23003277.3374   23003283.1884
       167.0004        168.0004
  -6551921.64948  -4949326.23146  22633813.562    22633813.5024   22633818.5464
       174.0004        174.0004
 -17222717.55549 -13402402.69347  20787255.798    20787257.1254   20787265.3164
       198.0004        197.0004
 -14681461.92348 -11423567.99647  21773929.207    21773929.3004   21773934.1804
       192.0004        193.0004
  -3973801.28747  -3087276.37445  23222707.202    23222707.8004   23222712.5164
       160.0004        161.0004
  -5512985.03149  -4279143.72847  23476256.718    23476256.6434   23476264.5814
       199.0004        199.0004
     36726.13247     50355.80745  24743970.059    24743969.6494   24743977.9634
       159.0004        161.0004
 -24102373.12949 -18764284.55348  20194156.454    20194156.9644   20194161.7014
       215.0004        216.0004
 21  2  2  1 52  0.0000000  0  9G30G19G21G14G01G17G28G09G07
 -19823355.18349 -15420045.93547  20839742.621    20839742.8694   20839749.4334
       208.0004        208.0004
  -6480502.71547  -5020037.65746  23455747.146    23455747.2814   23455751.7764
       162.0004        164.0004
  -6555972.28248  -4731970.91246  23017790.755    23017789.5374   23017796.1844
       167.0004        168.0004
  -6584729.86948  -4974891.06646  22627569.388    22627571.0944   22627574.8754
       174.0004        174.0004
 -17207167.10049 -13390285.45347  20790215.565    20790216.7054   20790224.6734
       198.0004        198.0004
 -14706561.67748 -11443126.25747  21769152.076    21769152.9224   21769157.7514
       193.0004        193.0004
  -3998001.92547  -3106134.01145  23218101.876    23218103.3264   23218107.0174
       160.0004        162.0004
  -5433406.28749  -4217134.33747  23491398.273    23491399.2044   23491407.3144
       197.0004        195.0004
 -24104630.30749 -18766043.41348  20193726.883    20193727.4654   20193732.2374
       215.0004        216.0004
 21  2  2  1 52 30.0000000  0  9G30G19G21G14G01G17G28G09G07
 -19879273.01049 -15463618.27347  20829102.068    20829102.0424   20829108.9374
       208.0004        208.0004
  -6548097.32247  -5072708.75446  23442885.045    23442884.1994   23442887.9344
       163.0004        165.0004
  -6479356.63748  -4672270.39046  23032367.292    23032368.3464   23032375.2354
       166.0004        167.0004
  -6617613.52648  -5000514.70546  22621312.929    22621313.6804   22621318.1574
       175.0004        177.0004
 -17191001.91249 -13377689.19547  20793292.483    20793293.0054   20793301.0684
       198.0004        198.0004
 -14731266.03748 -11462376.39447  21764452.568    21764452.5884   21764457.3874
       194.0004        194.0004
  -4022329.45247  -3125090.52045  23213473.455    23213473.9744   23213476.7864
       159.0004        160.0004
  -5353881.05248  -4155166.64047  23506531.964    23506532.2304   23506540.0914
       193.0004        191.0004
 -24106319.17649 -18767359.44448  20193406.045    20193406.3334   20193410.9184
       215.0004        216.0004
 21  2  2  1 53  0.0000000  0  9G30G19G21G14G01G17G28G09G07
 -19934779.71749 -15506870.25247  20818539.311    20818539.3414   20818546.3644
       208.0004        208.0004
  -6615378.92447  -5125135.94746  23430081.733    23430080.9594   23430085.2424
       163.0004        164.0004
  -6402389.91448  -4612296.31146  23047015.233    23047015.0274   23047021.7654
       166.0004        168.0004
  -6650572.77748  -5026197.21846  22615040.486    22615041.3314   22615046.8074
       176.0004        177.0004
 -17174222.36649 -13364614.20747  20796486.048    20796486.0114   20796493.8784
       198.0004        198.0004
 -14755575.85648 -11481319.10447  21759826.191    21759826.7504   21759830.5314
       194.0004        194.0004
  -4046784.81447  -3144146.66345  23208819.697    23208818.7564   23208823.0004
       159.0004        161.0004
  -5274412.12748  -4093242.82047  23521654.692    23521655.5594   23521663.1694
       191.0004        192.0004
 -24107438.92949 -18768231.98348  20193192.511    20193192.9994   20193198.0914
       215.0004        216.0004
 21  2  2  1 53 30.0000000  0  9G30G19G21G14G01G17G28G09G07
 -19989874.40849 -15549801.18447  20808054.472    20808054.9024   20808062.0324
       208.0004        208.0004
  -6682348.55247  -5177320.04046  23417338.262    23417337.4614   23417341.6814
       162.0004        164.0004
  -6325076.24748  -4552051.89046  23061729.427    23061727.5274   23061733.4394
       166.0004        168.0004
  -6683609.00548  -5051939.72346  22608754.382    22608754.4144   22608759.7654
       177.0004        177.0004
 -17156830.12249 -13351061.79347  20799794.180    20799795.2754   20799803.6814
       198.0004        198.0004
 -14779493.66948 -11499956.35947  21755274.147    21755275.1204   21755279.8054
       194.0004        195.0004
  -4071370.04947  -3163303.97045  23204140.051    23204140.0144   23204144.9074
       158.0004        159.0004
  -5195003.63348  -4031366.09547  23536766.108    23536766.2354   23536774.4704
       192.0004        192.0004
 -24107990.42649 -18768661.73648  20193087.625    20193088.2504   20193092.9674
       215.0004        216.0004
 21  2  2  1 54  0.0000000  0  9G30G19G21G14G01G17G28G09G07
 -20044553.61449 -15592408.36747  20797649.741    20797649.9124   20797656.7614
       208.0004        208.0004
  -6749004.47947  -5229259.72246  23404652.842    23404652.3804   23404656.7834
       162.0004        163.0004
  -6247416.87548  -4491538.08146  23076506.857    23076505.6944   23076511.6894
       166.0004        167.0004
  -6716721.20148  -5077741.41946  22602452.763    22602452.9514   22602457.9764
       175.0004        174.0004
 -17138824.27949 -13337031.26147  20803221.678    20803222.0264   20803230.7204
       198.0004        199.0004
 -14803019.43248 -11518288.13447  21750797.172    21750798.0284   21750802.4044
       194.0004        194.0004
  -4096084.56147  -3182562.03545  23199437.872    23199437.3914   23199443.0874
       158.0004        161.0004
  -5115657.07448  -3969537.63447  23551865.646    23551865.7304   23551873.4304
       193.0004        194.0004
 -24107971.55549 -18768647.04548  20193091.731    20193092.0444   20193096.3284
       215.0004        216.0004
 21  2  2  1 54 30.0000000  0  9G30G19G21G14G01G17G28G09G07
 -20098814.63449 -15634689.67847  20787323.837    20787324.0404   20787331.6034
       208.0004        208.0004
  -6815346.08247  -5280954.46046  23392030.077    23392029.6424   23392033.1944
       162.0004        165.0004
  -6169413.18448  -4430755.98446  23091348.016    23091348.6714   23091354.6284
       165.0004        165.0004
  -6749908.87348  -5103601.94946  22596138.239    22596139.1824   22596142.6394
       174.0004        175.0004
 -17120204.71449 -13322522.50247  20806764.128    20806764.8734   20806773.4164
       198.0004        198.0004
 -14826153.83948 -11536314.94247  21746396.171    21746396.0974   21746400.2984
       194.0004        195.0004
  -4120928.13247  -3201920.65345  23194710.172    23194709.5954   23194714.2984
       158.0004        159.0004
  -5036374.72648  -3907759.21147  23566951.861    23566952.1084   23566959.9744
       192.0004        192.0004
 -24107380.96149 -18768186.84848  20193203.532    20193204.0204   20193208.5394
       215.0004        216.0004
 21  2  2  1 55  0.0000000  0  9G30G19G21G14G01G17G28G09G07
 -20152654.56349 -15676642.88547  20777078.534    20777078.9334   20777085.9684
       208.0004        208.0004
  -6881371.98047  -5332403.20046  23379464.506    23379463.8254   23379468.0394
       163.0004        164.0004
  -6091067.00147  -4369707.02046  23106258.878    23106258.1474   23106262.7584
       164.0004        165.0004
  -6783171.39848  -5129520.79246  22589809.215    22589809.4124   22589813.8234
       175.0004        176.0004
 -17100971.12049 -13307535.28847  20810424.028    20810424.6894   20810433.2414
       198.0004        198.0004
 -14848897.21948 -11554037.03847  21742066.561    21742067.3154   21742072.8804
       194.0004        194.0004
  -4145900.66247  -3221379.77545  23189959.011    23189958.5974   23189962.5584
       157.0004        159.0004
  -4957158.59948  -3846032.39747  23582026.738    23582026.9764   23582034.0054
       192.0004        192.0004
 -24106217.73349 -18767280.45148  20193425.215    20193425.4464   20193430.2134
       215.0004        216.0004
 21  2  2  1 55 30.0000000  0  9G30G19G21G14G01G17G28G09G07
 -20206072.02249 -15718266.88947  20766913.868    20766913.8604   20766920.8924
       208.0004        208.0004
  -6947082.76947  -5383606.39545  23366958.883    23366958.9524   23366964.1224
       161.0004        161.0004
  -6012381.78947  -4308393.86946  23121232.493    23121231.6474   23121236.2904
       164.0004        165.0004
  -6816509.58848  -5155498.61046  22583464.432    22583464.4754   22583468.7854
       176.0004        175.0004
 -17081124.73849 -13292070.56547  20814201.088    20814201.6614   20814209.9254
       197.0004        197.0004
 -14871251.68048 -11571456.10747  21737813.849    21737813.8984   21737818.3364
       194.0004        195.0004
  -4171003.76147  -3240940.62946  23185182.429    23185181.8194   23185186.2404
       159.0004        163.0004
  -4878012.20448  -3784359.89347  23597086.919    23597087.6564   23597095.1464
       192.0004        192.0004
 -24104481.63949 -18765927.67648  20193755.420    20193756.0394   20193760.9034
       215.0004        216.0004
 21  2  2  1 56  0.0000000  0  9G30G19G21G14G01G17G28G09G07
 -20259063.66149 -15759559.06947  20756829.718    20756829.7834   20756836.8284
       208.0004        208.0004
  -7012477.30047  -5434563.14345  23354516.552    23354515.8784   23354520.2384
       159.0004        162.0004
  -5933358.84447  -4246817.53146  23136270.240    23136269.9604   23136273.5364
       164.0004        165.0004
  -6849922.32648  -5181534.51046  22577105.442    22577105.8814   22577111.2264
       175.0004        174.0004
 -17060664.88349 -13276127.79647  20818093.934    20818094.9914   20818103.3464
       197.0004        198.0004
 -14893217.58649 -11588572.39147  21733633.329    21733634.0774   21733638.7564
       195.0004        195.0004
  -4196237.04247  -3260602.91345  23180378.683    23180379.3304   23180384.2864
       159.0004        161.0004
  -4798937.08048  -3722742.92947  23612135.308    23612135.3214   23612143.5294
       192.0004        191.0004
 -24102171.20549 -18764127.34348  20194195.178    20194195.7544   20194200.2944
       215.0004        216.0004
 21  2  2  1 56 30.0000000  0  9G30G19G21G14G01G17G28G09G07
 -20311626.82849 -15800517.38747  20746827.222    20746827.3024   20746834.6304
       208.0004        208.0004
  -7077554.38247  -5485272.53545  23342132.346    23342131.8144   23342136.2354
       160.0004        162.0004
  -5853999.90647  -4184979.38245  23151371.826    23151371.6954   23151373.6614
       162.0004        162.0004
  -6883409.19648  -5207628.15346  22570732.552    22570733.0374   22570739.3064
       175.0004        175.0004
 -17039591.59149 -13259707.05047  20822104.358    20822105.3114   20822113.2074
       197.0004        197.0004
 -14914795.43648 -11605386.29847  21729528.017    21729527.8604   21729532.4134
       194.0004        194.0004
  -4221600.19347  -3280366.37045  23175552.950    23175552.8554   23175557.4154
       160.0004        162.0004
  -4719935.44148  -3661183.20747  23627169.110    23627168.8904   23627177.0824
       190.0004        190.0004
 -24099285.37949 -18761878.65848  20194743.874    20194744.4364   20194749.4984
       214.0004        216.0004
 21  2  2  1 57  0.0000000  0  9G30G19G21G14G01G17G28G09G07
 -20363760.34649 -15841140.90947  20736906.158    20736906.6414   20736913.6674
       208.0004        208.0004
  -7142314.54647  -5535734.98745  23329808.422    23329807.0374   23329812.4764
       161.0004        162.0004
  -5774308.46247  -4122882.14946  23166534.206    23166534.6474   23166539.1344
       161.0004        163.0004
  -6916971.11848  -5233780.31146  22564347.976    22564347.5794   22564351.6614
       176.0004        177.0004
 -17017906.32749 -13242809.42547  20826231.332    20826231.8454   20826239.4184
       197.0004        197.0004
 -14935987.05548 -11621899.25247  21725494.831    21725495.0944   21725499.9044
       194.0004        194.0004
  -4247094.84647  -3300232.31445  23170700.191    23170701.5264   23170705.7374
       159.0004        161.0004
  -4641010.94248  -3599683.64047  23642188.103    23642187.7624   23642195.1894
       190.0004        189.0004
 -24095824.56049 -18759181.94048  20195403.203    20195403.3504   20195408.1384
       215.0004        216.0004
 21  2  2  1 57 30.0000000  0  9G30G19G21G14G01G17G28G09G07
 -20415460.31449 -15881426.60847  20727068.539    20727068.6404   20727075.5944
       208.0004        209.0004
  -7206755.89847  -5585948.99046  23317546.055    23317545.5224   23317549.5954
       161.0004        164.0004
  -5694285.03947  -4060526.23946  23181763.667    23181763.6154   23181767.3544
       161.0004        163.0004
  -6950606.41348  -5259989.61146  22557945.676    22557946.5724   22557951.9604
       176.0004        177.0004
 -16995607.89549 -13225434.02447  20830474.651    20830474.9954   20830482.8844
       197.0004        197.0004
 -14956792.45448 -11638111.24347  21721535.918    21721536.1094   21721541.0794
       194.0004        195.0004
  -4272719.92547  -3320199.93145  23165825.797    23165823.9614   23165829.1444
       158.0004        159.0004
  -4562164.54248  -3538244.92147  23657191.353    23657191.7834   23657199.3444
       189.0004        190.0004
 -24091786.38149 -18756035.32348  20196171.358    20196171.9064   20196176.7024
       215.0004        216.0004
 21  2  2  1 58  0.0000000  0  9G30G19G21G14G01G17G28G09G07
 -20466725.09449 -15921373.19847  20717313.465    20717313.5364   20717320.4474
       209.0004        210.0004
  -7270878.93447  -5635914.97146  23305343.088    23305342.4624   23305347.4054
       161.0004        163.0004
  -5613932.59947  -3997913.94646  23197055.028    23197054.5594   23197058.9564
       163.0004        166.0004
  -6984315.55748  -5286256.48046  22551531.973    22551532.1704   22551537.0264
       178.0004        178.0004
 -16972697.42649 -13207581.69847  20834834.355    20834834.6254   20834843.2184
       197.0004        197.0004
 -14977213.27649 -11654023.57347  21717649.834    21717650.1334   21717655.2134
       195.0004        197.0004
  -4298476.35047  -3340269.84645  23160923.457    23160924.0254   23160928.0534
       158.0004        160.0004
  -4483399.49748  -3476869.57447  23672179.907    23672180.1794   23672187.8274
       189.0004        190.0004
 -24087171.14249 -18752439.04948  20197049.614    20197049.9494   20197054.5714
       215.0004        216.0004
 21  2  2  1 58 30.0000000  0  9G30G19G21G14G01G17G28G09G07
 -20517552.81849 -15960979.21947  20707640.991    20707641.2474   20707648.3274
       210.0004        210.0004
  -7334683.14147  -5685632.55346  23293202.173    23293202.1964   23293206.1854
       161.0004        163.0004
  -5533254.33947  -3935047.76146  23212406.587    23212406.3914   23212411.0374
       163.0004        164.0004
  -7018098.79848  -5312581.09646  22545102.976    22545103.7594   22545108.1284
       178.0004        178.0004
 -16949175.75749 -13189253.11447  20839310.406    20839311.0044   20839318.3894
       197.0004        198.0004
 -14997250.69549 -11669637.13647  21713836.753    21713837.4724   21713842.1094
       196.0004        196.0004
  -4324365.14547  -3360442.93745  23155997.851    23155998.6604   23156002.4844
       159.0004        160.0004
  -4404718.61448  -3415559.81547  23687152.720    23687152.5554   23687160.4614
       189.0004        189.0004
 -24081978.33549 -18748392.71548  20198038.089    20198038.2024   20198043.1704
       215.0004        216.0004
 21  2  2  1 59  0.0000000  0 10G30G19G22G21G14G01G17G28G09G07
 -20567942.19149 -16000243.66647  20698052.359    20698052.8304   20698059.3454
       210.0004        210.0004
  -7398169.77347  -5735102.63246  23281121.813    23281120.3464   23281125.0294
       162.0004        164.0004
  -2867632.17146  -2228224.69745  24785071.170    24785070.8504   24785073.5724
       131.0004        136.0004
  -5452252.82347  -3871929.70446  23227820.377    23227820.3734   23227826.2194
       162.0004        164.0004
  -7051956.83748  -5338963.95246  22538659.027    22538660.3964   22538665.7354
       177.0004        178.0004
 -16925044.31049 -13170449.37647  20843903.175    20843902.9714   20843910.4534
       197.0004        197.0004
 -15016907.15849 -11684953.84847  21710096.189    21710096.8474   21710100.9364
       195.0004        195.0004
  -4350387.34047  -3380719.97745  23151045.908    23151046.8404   23151049.8364
       159.0004        160.0004
  -4326125.33348  -3354318.34547  23702108.424    23702108.4914   23702115.7774
       189.0004        188.0004
 -24076208.25749 -18743896.56348  20199136.368    20199136.5314   20199141.2534
       215.0004        217.0004
 21  2  2  1 59 30.0000000  0 10G30G19G22G21G14G01G17G28G09G07
 -20617889.07349 -16039163.32247  20688547.759    20688547.9474   20688554.6934
       210.0004        210.0004
  -7461336.09947  -5784323.11946  23269101.941    23269100.4284   23269104.6474
       162.0004        164.0004
  -2890077.17046  -2245714.31445  24780797.896    24780798.4494   24780799.2374
       131.0004        138.0004
  -5370929.03047  -3808560.54146  23243296.061    23243295.3554   23243302.0104
       163.0004        165.0004
  -7085887.68048  -5365403.58646  22532203.266    22532203.8164   22532208.2684
       178.0004        179.0004
 -16900301.77549 -13151169.45347  20848610.457    20848611.2674   20848618.6364
       197.0004        197.0004
 -15036182.12848 -11699973.30647  21706428.107    21706428.3954   21706433.0694
       194.0004        194.0004
  -4376541.53447  -3401099.86345  23146068.970    23146068.5884   23146072.3794
       159.0004        161.0004
  -4247620.36548  -3293145.67547  23717046.687    23717047.0144   23717055.4074
       188.0004        189.0004
 -24069858.71149 -18738948.87348  20200344.073    20200344.4734   20200349.4824
       215.0004        216.0004
 21  2  2  2  0  0.0000000  0 10G30G19G22G21G14G01G17G28G09G07
 -20667390.16249 -16077735.60947  20679128.193    20679128.1734   20679134.9924
       210.0004        211.0004
  -7524180.59747  -5833292.83946  23257141.912    23257141.2394   23257146.0814
       162.0004        164.0004
  -2912424.92946  -2263128.12945  24776544.424    24776543.7164   24776547.9834
       132.0004        139.0004
  -5289283.95447  -3744941.01446  23258831.880    23258832.3214   23258838.4384
       163.0004        165.0004
  -7119890.03948  -5391898.95346  22525732.609    22525732.8714   22525738.6644
       178.0004        177.0004
 -16874947.61649 -13131412.96447  20853435.158    20853435.6744   20853443.9764
       197.0004        197.0004
 -15055075.61949 -11714695.51947  21702833.309    21702833.5144   21702838.2704
       195.0004        195.0004
  -4402826.84647  -3421581.94145  23141066.816    23141066.9414   23141070.4414
       160.0004        161.0004
  -4169205.01448  -3232042.83547  23731968.503    23731969.2844   23731977.3904
       188.0004        189.0004
 -24062928.19249 -18733548.49248  20201662.866    20201663.6014   20201668.1554
       215.0004        216.0004
 21  2  2  2  0 30.0000000  0 10G30G19G22G21G14G01G17G28G09G07
 -20716444.09249 -16115959.45347  20669793.369    20669793.5554   20669800.3654
       211.0004        211.0004
  -7586703.88047  -5882012.27246  23245243.647    23245242.6044   23245247.6934
       162.0004        163.0004
  -2934673.92646  -2280464.99345  24772312.102    24772311.8434   24772315.6914
       134.0004        140.0004
  -5207321.04447  -3681073.82746  23274430.454    23274429.7214   23274436.1064
       164.0004        165.0004
  -7153964.50548  -5418450.45846  22519248.046    22519249.4834   22519254.6064
       178.0004        178.0004
 -16848983.25549 -13111180.98847  20858376.306    20858376.8274   20858384.1114
       197.0004        197.0004
 -15073589.72048 -11729122.09447  21699309.846    21699310.1094   21699314.8224
       194.0004        194.0004
  -4429244.49447  -3442167.11545  23136039.163    23136039.7814   23136043.0334
       159.0004        160.0004
  -4090882.60448  -3171012.43247  23746873.866    23746873.5074   23746881.5684
       189.0004        189.0004
 -24055417.02149 -18727695.65848  20203092.630    20203092.8134   20203097.6304
       215.0004        216.0004
 21  2  2  2  1  0.0000000  0 10G30G19G22G21G14G01G17G28G09G07
 -20765048.65049 -16153833.13347  20660544.760    20660544.9174   20660551.4884
       212.0004        212.0004
  -7648905.71547  -5930481.24446  23233408.860    23233408.2044   23233410.9824
       164.0004        168.0004
  -2956822.11047  -2297723.34545  24768097.570    24768099.5204   24768101.4604
       136.0004        141.0004
  -5125042.26847  -3616960.50846  23290086.526    23290085.3514   23290092.7854
       162.0004        163.0004
  -7188110.85648  -5445057.99446  22512750.140    22512751.5084   22512756.1274
       178.0004        177.0004
 -16822409.38849 -13090474.06847  20863433.717    20863433.7614   20863441.1874
       197.0004        197.0004
 -15091725.10448 -11743253.53947  21695858.241    21695858.8444   21695863.8634
       194.0004        195.0004
  -4455795.04147  -3462855.82145  23130986.694    23130986.3594   23130992.6944
       158.0004        159.0004
  -4012655.70048  -3110056.41747  23761759.899    23761760.2564   23761767.4054
       189.0004        189.0004
 -24047324.56349 -18721389.85248  20204632.063    20204632.5644   20204637.3914
       215.0004        216.0004
 21  2  2  2  1 30.0000000  0 10G30G19G22G21G14G01G17G28G09G07
 -20813202.17749 -16191355.36548  20651381.520    20651381.5734   20651388.4334
       212.0004        213.0004
  -7710786.23847  -5978699.78746  23221631.441    23221631.0134   23221634.9904
       164.0004        164.0004
  -2978867.80646  -2314901.82545  24763901.889    24763903.1764   24763906.5994
       134.0004        140.0004
  -5042450.91847  -3552603.62446  23305803.466    23305802.9584   23305808.9864
       161.0004        163.0004
  -7222329.37648  -5471721.78046  22506238.790    22506239.6124   22506244.8904
       178.0004        178.0004
 -16795227.09049 -13069293.04747  20868606.375    20868606.3694   20868613.9924
       197.0004        197.0004
 -15109484.08849 -11757091.69447  21692479.755    21692479.6774   21692484.4704
       195.0004        195.0004
  -4482478.91447  -3483648.45145  23125909.360    23125910.4594   23125913.7124
       159.0004        162.0004
  -3934527.14948  -3049177.03847  23776626.474    23776627.1724   23776634.9134
       188.0004        188.0004
 -24038650.76849 -18714631.06548  20206283.026    20206283.5124   20206288.0614
       215.0004        216.0004
 21  2  2  2  2  0.0000000  0 10G30G19G22G21G14G01G17G28G09G07
 -20860902.26949 -16228524.27247  20642304.153    20642304.2564   20642311.4114
       212.0004        212.0004
  -7772344.83247  -6026667.52546  23209916.792    23209917.1464   23209921.1354
       162.0004        163.0004
  -3000808.45046  -2331998.39445  24759729.221    24759727.3224   24759732.6994
       134.0004        140.0004
  -4959548.59847  -3488004.43046  23321581.075    23321580.6494   23321585.9014
       161.0004        163.0004
  -7256619.59548  -5498441.43046  22499713.824    22499714.4614   22499719.2854
       179.0004        180.0004
 -16767436.84949 -13047638.29747  20873893.692    20873894.6154   20873902.2374
       197.0004        197.0004
 -15126867.78149 -11770637.42447  21689171.470    21689171.4314   21689176.0584
       195.0004        195.0004
  -4509296.46947  -3504545.25146  23120806.704    23120806.4864   23120811.2234
       161.0004        163.0004
  -3856499.25748  -2988376.13947  23791475.935    23791475.5404   23791483.0484
       188.0004        189.0004
 -24029395.12849 -18707418.89048  20208044.137    20208044.4964   20208049.3234
       215.0004        216.0004
 21  2  2  2  2 30.0000000  0 10G30G19G22G21G14G01G17G28G09G07
 -20908147.50449 -16265338.73948  20633313.188    20633313.5764   20633320.9924
       212.0004        213.0004
  -7833582.13548  -6074384.87746  23198266.047    23198264.7364   23198268.3134
       165.0004        167.0004
  -3022642.69447  -2349012.07545  24755574.419    24755571.9064   24755575.6924
       135.0004        140.0004
  -4876338.76647  -3423165.60345  23337414.525    23337414.4884   23337418.9894
       160.0004        161.0004
  -7290982.02148  -5525217.34746  22493174.310    22493175.0954   22493180.6874
       178.0004        177.0004
 -16739040.09649 -13025510.94747  20879297.623    20879298.3504   20879306.3594
       197.0004        197.0004
 -15143878.14949 -11783892.24747  21685934.762    21685934.6574   21685938.6974
       195.0004        194.0004
  -4536248.73447  -3525546.99445  23115677.366    23115678.3144   23115681.5434
       161.0004        162.0004
  -3778575.16348  -2927656.10347  23806305.099    23806305.4014   23806310.8474
       190.0004        191.0004
 -24019558.03349 -18699753.63048  20209916.628    20209916.8924   20209921.2684
       215.0004        216.0004
 21  2  2  2  3  0.0000000  0 10G30G19G22G21G14G01G17G28G09G07
 -20954935.35949 -16301796.82747  20624410.152    20624410.1814   20624416.9704
       212.0004        212.0004
  -7894497.43548  -6121851.32446  23186673.527    23186672.6754   23186676.2574
       165.0004        166.0004
  -3044367.80147  -2365940.73145  24751440.809    24751439.3054   24751441.0564
       137.0004        143.0004
  -4792823.54347  -3358088.84345  23353306.678    23353306.3534   23353311.8984
       160.0004        162.0004
  -7325416.01348  -5552049.02746  22486622.354    22486623.4074   22486627.7774
       178.0004        178.0004
 -16710037.23249 -13002911.31847  20884816.644    20884817.4814   20884825.4484
       197.0004        197.0004
 -15160515.64848 -11796856.53047  21682768.334    21682768.9054   21682772.7444
       194.0004        194.0004
  -4563335.74447  -3546653.79845  23110523.097    23110523.7584   23110526.5084
       160.0004        159.0004
  -3700756.97148  -2867018.61047  23821112.955    23821112.9924   23821119.7984
       191.0004        191.0004
 -24009138.80949 -18691634.78548  20211898.900    20211899.3144   20211903.6794
       215.0004        216.0004
 21  2  2  2  3 30.0000000  0 10G30G19G22G21G14G01G17G28G09G07
 -21001262.77749 -16337896.11447  20615593.900    20615594.0804   20615601.2364
       212.0004        212.0004
  -7955089.42048  -6169065.84346  23175143.046    23175142.1554   23175146.5674
       165.0004        165.0004
  -3065980.52547  -2382781.84045  24747325.618    24747324.9364   24747329.5614
       139.0004        144.0004
  -4709004.04947  -3292774.95845  23369255.425    23369256.0374   23369261.5444
       159.0004        160.0004
  -7359920.39748  -5578935.55346  22480054.607    22480055.4414   22480061.5654
       176.0004        175.0004
 -16680428.10149 -12979839.25347  20890451.517    20890451.3364   20890459.4054
       197.0004        197.0004
 -15176781.25749 -11809531.01947  21679674.264    21679673.8664   21679677.8634
       195.0004        196.0004
  -4590556.53547  -3567864.80145  23105342.150    23105342.0034   23105346.7604
       157.0004        159.0004
  -3623046.18948  -2806464.77047  23835897.875    23835899.1074   23835908.5684
       190.0004        190.0004
 -23998136.38049 -18683061.47448  20213992.893    20213993.4554   20213997.6574
       215.0004        216.0004
 21  2  2  2  4  0.0000000  0 10G30G19G22G21G14G01G17G28G09G07
 -21047126.27249 -16373633.90547  20606866.660    20606867.0234   20606873.8434
       212.0004        212.0004
  -8015356.46148  -6216027.12946  23163674.488    23163673.7554   23163678.7624
       165.0004        166.0004
  -3087477.49847  -2399532.72545  24743235.180    24743233.9234   24743240.0154
       139.0004        144.0004
  -4624881.39447  -3227224.83145  23385262.877    23385263.5104   23385268.3274
       158.0004        159.0004
  -7394493.37048  -5605875.53346  22473477.761    22473478.5354   22473482.6944
       177.0004        179.0004
 -16650212.10749 -12956294.31247  20896200.730    20896201.6044   20896209.9034
       196.0004        196.0004
 -15192674.34849 -11821915.23947  21676648.705    21676649.1684   21676653.5154
       195.0004        195.0004
  -4617910.11147  -3589179.25045  23100138.396    23100137.8324   23100142.6374
       158.0004        162.0004
  -3545443.74248  -2745995.37947  23850666.590    23850667.1554   23850675.4484
       191.0004        192.0004
 -23986548.73549 -18674032.14448  20216197.712    20216198.1264   20216202.8634
       215.0004        215.0004
 21  2  2  2  4 30.0000000  0 10G30G19G22G21G14G01G17G28G09G07
 -21092525.53849 -16409009.95847  20598227.421    20598227.4304   20598234.8544
       212.0004        212.0004
  -8075300.17247  -6262736.51246  23152266.728    23152266.1144   23152270.6454
       164.0004        166.0004
  -3108858.01747  -2416192.85545  24739166.974    24739164.8964   24739170.2064
       138.0004        143.0004
  -4540460.16647  -3161442.07845  23401328.272    23401328.4324   23401332.8834
       156.0004        158.0004
  -7429136.52948  -5632870.18346  22466884.168    22466884.6254   22466890.8684
       177.0004        177.0004
 -16619391.85749 -12932278.52647  20902065.817    20902066.4984   20902074.8304
       197.0004        198.0004
 -15208198.31649 -11834011.82747  21673695.277    21673695.0194   21673699.8974
       196.0004        197.0004
  -4645398.53847  -3610598.78245  23094906.742    23094906.3434   23094911.1134
       160.0004        162.0004
  -3467953.86448  -2685613.68947  23865412.381    23865412.9304   23865420.8814
       191.0004        190.0004
 -23974377.50449 -18664548.08248  20218513.850    20218514.3764   20218518.8534
       214.0004        215.0004
 21  2  2  2  5  0.0000000  0 10G30G19G22G21G14G01G17G28G09G07
 -21137457.42749 -16444021.82448  20589677.433    20589677.4804   20589684.3944
       212.0004        213.0004
  -8134919.39148  -6309193.02446  23140922.673    23140922.5004   23140925.8264
       166.0004        170.0004
  -3130118.81947  -2432759.72045  24735120.243    24735120.6064   24735125.9574
       140.0004        145.0004
  -4455741.81747  -3095427.77445  23417450.520    23417450.3194   23417452.9314
       155.0004        157.0004
  -7463848.52348  -5659918.48546  22460279.731    22460280.4714   22460285.3814
       178.0004        179.0004
 -16587967.21049 -12907791.78547  20908046.285    20908046.1424   20908054.8434
       197.0004        196.0004
 -15223353.27449 -11845820.86847  21670810.474    21670810.9924   21670816.3144
       197.0004        198.0004
  -4673020.87447  -3632122.67645  23089651.179    23089650.2894   23089655.1904
       160.0004        161.0004
  -3390577.88648  -2625320.76147  23880137.110    23880137.3264   23880145.0014
       189.0004        188.0004
 -23961621.57249 -18654608.40848  20220941.618    20220941.6714   20220946.1354
       214.0004        215.0004
 21  2  2  2  5 30.0000000  0 10G30G19G22G21G14G01G17G28G09G07
 -21181921.41849 -16478669.09948  20581216.299    20581216.1684   20581223.0104
       213.0004        213.0004
  -8194215.44448  -6355397.72546  23129638.655    23129637.9544   23129642.2174
       169.0004        171.0004
  -3151259.27047  -2449232.75445  24731097.184    24731097.5014   24731101.8594
       141.0004        146.0004
  -4370729.53147  -3029184.45045  23433628.622    23433628.3164   23433632.4004
       155.0004        159.0004
  -7498630.51048  -5687021.32846  22453659.739    22453660.4814   22453666.2204
       178.0004        177.0004
 -16555940.53049 -12882835.92247  20914140.604    20914140.9484   20914148.9294
       196.0004        197.0004
 -15238142.17749 -11857344.68547  21667997.298    21667997.6234   21668001.4284
       197.0004        197.0004
  -4700778.93147  -3653752.33346  23084368.354    23084368.5424   23084372.6504
       161.0004        163.0004
  -3313319.78148  -2565119.68347  23894840.551    23894839.8874   23894846.9024
       188.0004        188.0004
 -23948282.11549 -18644214.05148  20223479.668    20223480.0834   20223484.8944
       214.0004        215.0004
 21  2  2  2  6  0.0000000  0 10G30G19G22G21G14G01G17G28G09G07
 -21225914.61649 -16512949.53148  20572844.502    20572844.8214   20572851.4474
       213.0004        213.0004
  -8253187.30448  -6401349.81646  23118416.689    23118415.9464   23118420.1064
       171.0004        172.0004
  -3172276.20347  -2465609.60245  24727100.561    24727098.8174   24727102.9634
       142.0004        147.0004
  -4285425.42447  -2962713.73945  23449860.127    23449859.8324   23449865.3004
       156.0004        159.0004
  -7533481.34448  -5714177.81846  22447029.079    22447029.8354   22447034.5674
       178.0004        178.0004
 -16523311.96049 -12857411.06147  20920349.334    20920349.8264   20920357.7834
       196.0004        196.0004
 -15252565.99749 -11868584.01447  21665251.703    21665252.3764   21665257.2704
       197.0004        197.0004
  -4728671.90947  -3675487.11245  23079059.906    23079059.7124   23079065.5634
       161.0004        161.0004
  -3236181.04248  -2505011.61247  23909518.979    23909519.2674   23909526.2494
       189.0004        190.0004
 -23934357.98949 -18633364.09148  20226129.764    20226130.0154   20226134.7154
       214.0004        215.0004
 21  2  2  2  6 30.0000000  0 10G30G19G22G21G14G01G17G28G09G07
 -21269434.63349 -16546861.23848  20564562.512    20564562.9434   20564569.8084
       213.0004        213.0004
  -8311834.42948  -6447048.86946  23107256.306    23107255.8444   23107260.3104
       171.0004        172.0004
  -3193167.33447  -2481888.41545  24723125.151    24723123.0654   24723126.0444
       142.0004        144.0004
  -4199831.33847  -2896017.06545  23466147.519    23466147.9204   23466154.4714
       156.0004        158.0004
  -7568400.34748  -5741387.44046  22440382.930    22440384.3364   22440389.2344
       177.0004        175.0004
 -16490082.06849 -12831517.62947  20926671.764    20926673.2754   20926681.4734
       196.0004        196.0004
 -15266625.52949 -11879539.48547  21662577.068    21662576.7394   21662581.3384
       196.0004        195.0004
  -4756699.78347  -3697326.98345  23073726.781    23073726.8624   23073732.0614
       159.0004        161.0004
  -3159163.67048  -2444998.13847  23924174.085    23924174.4044   23924182.2224
       189.0004        189.0004
 -23919848.83049 -18622058.26848  20228890.506    20228890.7314   20228895.5994
       214.0004        215.0004
 21  2  2  2  7  0.0000000  0 10G30G19G22G21G14G01G17G28G09G07
 -21312479.30949 -16580402.54348  20556372.233    20556372.0344   20556378.6224
       213.0004        213.0004
  -8370156.47248  -6492494.61046  23096158.565    23096157.9954   23096163.0624
       171.0004        172.0004
  -3213930.00447  -2498067.10245  24719172.123    24719172.6524   24719175.6204
       139.0004        143.0004
  -4113949.92447  -2829096.52045  23482491.293    23482491.4524   23482497.9644
       158.0004        160.0004
  -7603387.00748  -5768649.74146  22433724.739    22433725.6744   22433731.8244
       175.0004        176.0004
 -16456251.62949 -12805156.23747  20933110.452    20933111.1974   20933119.4524
       196.0004        196.0004
 -15280321.92749 -11890211.99347  21659969.877    21659970.0764   21659975.4024
       195.0004        195.0004
  -4784862.88847  -3719272.25245  23068369.373    23068368.0084   23068371.1184
       159.0004        162.0004
  -3082269.87248  -2385080.93846  23938806.504    23938806.8834   23938814.0324
       187.0004        187.0004
 -23904754.37949 -18610296.36648  20231762.367    20231763.2384   20231767.8774
       214.0004        215.0004
 21  2  2  2  7 30.0000000  0 10G30G19G22G21G14G01G17G28G09G07
 -21355046.34149 -16613571.66148  20548271.761    20548271.8504   20548278.5714
       213.0004        213.0004
  -8428153.00148  -6537686.70846  23085122.942    23085122.1844   23085124.6054
       171.0004        172.0004
  -3234561.92147  -2514143.90145  24715245.271    24715242.6574   24715249.8124
       139.0004        144.0004
  -4027782.73247  -2761953.27845  23498888.846    23498888.1554   23498895.2584
       159.0004        162.0004
  -7638440.62548  -5795964.26146  22427056.111    22427056.5074   22427061.2174
       176.0004        177.0004
 -16421821.47549 -12778327.53447  20939661.795    20939662.5894   20939671.5264
       196.0004        195.0004
 -15293656.32749 -11900602.42147  21657432.451    21657432.8724   21657437.7274
       195.0004        195.0004
  -4813160.88447  -3741322.63345  23062981.929    23062982.0134   23062986.5934
       159.0004        160.0004
  -3005501.73148  -2325261.62546  23953415.012    23953415.5194   23953423.6154
       186.0004        186.0004
 -23889073.92449 -18598077.83948  20234746.741    20234746.9164   20234752.0734
       214.0004        215.0004
 21  2  2  2  8  0.0000000  0 10G30G19G22G21G14G01G17G28G09G07
 -21397133.82349 -16646367.10648  20540262.820    20540262.6694   20540269.6154
       213.0004        213.0004
  -8485824.04548  -6582625.19146  23074146.977    23074146.2894   23074150.5744
       170.0004        169.0004
  -3255060.81947  -2530117.06345  24711346.014    24711345.9454   24711348.5544
       138.0004        142.0004
  -3941332.68447  -2694589.63245  23515338.790    23515338.4584   23515345.8394
       159.0004        161.0004
  -7673560.99748  -5823330.78846  22420371.857    22420373.5724   22420378.1664
       175.0004        175.0004
 -16386792.66749 -12751032.35047  20946327.746    20946328.6684   20946336.7044
       196.0004        195.0004
 -15306630.19249 -11910711.91947  21654963.395    21654963.9014   21654968.5624
       195.0004        195.0004
  -4841593.99047  -3763478.29145  23057571.536    23057572.2594   23057576.6904
       157.0004        160.0004
  -2928861.65748  -2265542.12346  23967998.931    23967999.2644   23968007.0904
       185.0004        184.0004
 -23872808.12549 -18585403.19848  20237842.091    20237842.3134   20237847.2394
       214.0004        215.0004
 21  2  2  2  8 30.0000000  0 10G30G19G22G21G14G01G17G28G09G07
 -21438739.48449 -16678787.10048  20532344.812    20532345.1064   20532351.9524
       213.0004        213.0004
  -8543169.43048  -6627309.88446  23063234.419    23063233.2734   23063238.0054
       168.0004        168.0004
  -3275424.34047  -2545984.79245  24707471.754    24707470.5854   24707474.4004
       139.0004        143.0004
  -3854602.26547  -2627007.51745  23531842.541    23531842.0244   23531850.0604
       158.0004        160.0004
  -7708747.32148  -5850748.70946  22413677.668    22413678.1494   22413682.0244
       175.0004        176.0004
 -16351165.96249 -12723271.27247  20953107.130    20953108.2984   20953115.9144
       195.0004        195.0004
 -15319244.22349 -11920541.02847  21652563.856    21652563.9194   21652568.1674
       196.0004        197.0004
  -4870162.04047  -3785739.11245  23052136.954    23052135.7584   23052140.3214
       159.0004        162.0004
  -2852351.59048  -2205923.95846  23982558.918    23982559.2244   23982565.7054
       184.0004        184.0004
 -23855956.75749 -18572272.27248  20241048.801    20241049.1344   20241053.4354
       214.0004        214.0004
 21  2  2  2  9  0.0000000  0 10G30G19G22G21G14G01G17G28G09G07
 -21479862.41349 -16710830.95348  20524519.881    20524520.0044   20524526.6314
       213.0004        214.0004
  -8600189.89848  -6671741.42846  23052385.259    23052384.3594   23052387.4004
       168.0004        171.0004
  -3295651.19347  -2561745.98045  24703622.543    24703621.0434   24703626.1634
       140.0004        145.0004
  -3767594.69847  -2559209.46145  23548400.530    23548399.9374   23548406.8574
       158.0004        160.0004
  -7744000.31848  -5878218.58046  22406967.576    22406967.8684   22406972.6404
       175.0004        174.0004
 -16314943.51249 -12695045.97647  20960001.593    20960001.8054   20960008.8004
       196.0004        196.0004
 -15331501.94849 -11930092.48747  21650230.621    21650231.1244   21650234.8084
       196.0004        195.0004
  -4898866.25047  -3808106.01245  23046673.143    23046673.6674   23046677.6024
       159.0004        160.0004
  -2775974.93048  -2146409.72946  23997093.678    23997093.6264   23997100.1354
       185.0004        186.0004
 -23838520.07149 -18558685.26348  20244366.672    20244366.6544   20244371.9814
       213.0004        214.0004
 21  2  2  2  9 30.0000000  0 10G30G19G22G21G14G01G17G28G09G07
 -21520500.05149 -16742496.65748  20516786.516    20516786.7604   20516793.7444
       213.0004        214.0004
  -8656884.51548  -6715919.02746  23041595.832    23041595.2314   23041599.1704
       170.0004        172.0004
  -3315738.57747  -2577398.47845  24699798.649    24699798.1284   24699804.3894
       138.0004        141.0004
  -3680311.60147  -2491196.64745  23565010.445    23565009.6774   23565015.5924
       159.0004        161.0004
  -7779318.86748  -5905739.54246  22400248.224    22400248.7924   22400252.6254
       175.0004        176.0004
 -16278125.78249 -12666356.82747  20967007.204    20967007.6094   20967014.8094
       196.0004        196.0004
 -15343403.65749 -11939366.52647  21647965.647    21647965.8724   21647970.5654
       195.0004        195.0004
  -4927706.12447  -3830578.62945  23041185.605    23041185.0474   23041190.0814
       158.0004        160.0004
  -2699733.33648  -2087000.74546  24011601.605    24011601.3614   24011609.6444
       185.0004        184.0004
 -23820497.68949 -18544641.86348  20247796.088    20247796.5734   20247801.2054
       213.0004        214.0004
 21  2  2  2 10  0.0000000  0 11G30G19G22G21G14G01G17G28G09G06G07
 -21560649.67149 -16773782.07448  20509146.862    20509146.6814   20509153.8104
       214.0004        214.0004
  -8713252.42248  -6759842.06546  23030869.463    23030868.6684   23030873.4644
       171.0004        172.0004
  -3335683.43147  -2592939.92345  24696002.379    24696002.7084   24696007.2004
       135.0004        140.0004
  -3592754.58147  -2422970.43345  23581673.365    23581672.2104   23581677.6164
       158.0004        160.0004
  -7814701.77648  -5933310.63646  22393514.523    22393514.8174   22393519.2524
       176.0004        176.0004
 -16240713.12449 -12637204.09547  20974125.709    20974126.4234   20974134.5274
       195.0004        195.0004
 -15354950.19249 -11948363.82047  21645768.424    21645769.0114   21645773.9584
       196.0004        196.0004
  -4956680.91647  -3853156.38245  23035672.472    23035671.5244   23035676.4084
       158.0004        160.0004
  -2623628.26348  -2027698.13346  24026082.549    24026082.7764   24026092.0234
       182.0004        182.0004
   -525987.45654   -356701.268 5                                  24300797.134
        74.0004        144.000
 -23801888.76049 -18530141.40648  20251337.018    20251337.3294   20251342.2884
       213.0004        214.0004
