     2.11           OBSERVATION DATA    G (GPS)             RINEX VERSION / TYPE
teqc  2018Jun8                          20210202 03:10:45UTCPGM / RUN BY / DATE
Linux2.6.32-573.12.1.el6.x86_64|x86_64|gcc|Win64-MinGW64|=+ COMMENT
BIT 2 OF LLI FLAGS DATA COLLECTED UNDER A/S CONDITION       COMMENT
-Unknown-                                                   MARKER NAME
CRNO                                                        MARKER NUMBER
-Unknown-           -Unknown-                               OBSERVER / AGENCY
-Unknown-           ASHTECH             -Unknown-           REC # / TYPE / VERS
-Unknown-           -Unknown-                               ANT # / TYPE
   408078.4762 -6158373.1996  1605161.0793                  APPROX POSITION XYZ
        0.0000        0.0000        0.0000                  ANTENNA: DELTA H/E/N
     1     1                                                WAVELENGTH FACT L1/2
     7    L1    L2    C1    P1    P2    S1    S2            # / TYPES OF OBSERV
    30.0000                                                 INTERVAL
Forced Modulo Decimation to 30 seconds                      COMMENT
 SNR is mapped to RINEX snr flag value [1-9]                COMMENT
  L1: 1 -> 1;  90 -> 5; 210 -> 9                            COMMENT
  L2: 1 -> 1; 150 -> 5; 250 -> 9                            COMMENT
pseudorange smoothing corrections not applied               COMMENT
  2021     2     5     0     0   30.0000000     GPS         TIME OF FIRST OBS
                                                            END OF HEADER
 21  2  5  0  0 30.0000000  0  7G30G04G21G01G08G27G09
  -3710872.67247  -2866290.78545  23854061.498    23854061.5974   23854068.7074
       154.0004        155.0004
 -12373666.13248  -9610203.18446  22038197.570    22038198.4214   22038203.8814
       182.0004        181.0004
 -11498577.03748  -8941081.42546  21789654.140    21789652.8924   21789658.7634
       181.0004        181.0004
 -13290331.06348 -10341833.97046  22169271.595    22169272.0794   22169280.5794
       176.0004        176.0004
 -16701044.87149 -12985488.23947  21341362.559    21341362.4694   21341369.2154
       196.0004        197.0004
  -3979952.52048  -3087978.52146  24319125.242    24319124.6844   24319130.1494
       172.0004        172.0004
 -17967262.16749 -13969521.14847  20984669.383    20984669.5384   20984675.7764
       211.0004        211.0004
 21  2  5  0  1  0.0000000  0  7G30G04G21G01G08G27G09
  -3797627.87947  -2933892.20345  23837552.993    23837552.8334   23837560.5454
       152.0004        153.0004
 -12284927.03348  -9541055.83446  22055083.648    22055084.8234   22055090.9584
       182.0004        182.0004
 -11512807.64848  -8952170.19846  21786945.875    21786945.5034   21786950.4294
       181.0004        181.0004
 -13363553.70448 -10398890.55146  22155338.500    22155338.8004   22155347.1724
       176.0004        177.0004
 -16624619.23149 -12925935.79347  21355904.721    21355905.1264   21355912.3564
       196.0004        195.0004
  -3871491.61648  -3003463.55946  24339765.436    24339764.5504   24339771.4854
       170.0004        170.0004
 -17932257.90449 -13942245.10647  20991329.683    20991330.1034   20991337.6274
       210.0004        211.0004
 21  2  5  0  1 30.0000000  0  8G30G04G21G01G08G17G27G09
  -3884450.49347  -3001546.15745  23821031.457    23821031.0064   23821037.6094
       151.0004        153.0004
 -12195951.71748  -9471724.41746  22072014.846    22072016.3714   22072022.5574
       182.0004        181.0004
 -11526610.69648  -8962925.78446  21784317.203    21784317.7844   21784323.3794
       180.0004        180.0004
 -13436604.37548 -10455813.10646  22141435.942    22141436.9214   22141446.1054
       176.0004        177.0004
 -16547873.98649 -12866134.29747  21370509.614    21370509.8704   21370516.3134
       195.0004        195.0004
   -775937.38554   -572986.05345  24125238.961
        74.0004        146.0004
  -3763001.74848  -2918925.99346  24360410.733    24360409.8624   24360414.7344
       169.0004        169.0004
 -17896766.22949 -13914589.25147  20998083.807    20998083.9714   20998091.6644
       210.0004        211.0004
 21  2  5  0  2  0.0000000  0  8G30G04G21G01G08G17G27G09
  -3971338.01847  -3069250.64745  23804495.354    23804495.9214   23804504.6994
       151.0004        155.0004
 -12106742.30348  -9402210.61046  22088991.830    22088992.0274   22088998.9194
       182.0004        183.0004
 -11539983.71248  -8973346.31646  21781772.549    21781773.2144   21781777.7444
       180.0004        180.0004
 -13509478.69248 -10512598.27946  22127568.942    22127569.7374   22127580.0504
       176.0004        177.0004
 -16470811.23849 -12806085.41347  21385173.948    21385174.2294   21385180.8614
       195.0004        195.0004
   -872215.68647   -648007.90645  24106917.258                    24106927.4334
       137.0004        149.0004
  -3654484.44548  -2834367.04046  24381060.348    24381059.7874   24381066.0604
       170.0004        171.0004
 -17860788.15749 -13886554.40647  21004930.179    21004930.5114   21004937.8604
       211.0004        211.0004
 21  2  5  0  2 30.0000000  0  8G30G04G21G01G08G17G27G09
  -4058290.67247  -3137005.91945  23787950.698    23787950.0004   23787956.9344
       155.0004        158.0004
 -12017303.66748  -9332518.16046  22106011.654    22106012.3094   22106018.5854
       183.0004        183.0004
 -11552927.18248  -8983432.09046  21779310.357    21779310.4644   21779316.1714
       180.0004        180.0004
 -13582175.29848 -10569244.94646  22113736.117    22113736.6014   22113744.5984
       177.0004        177.0004
 -16393435.68848 -12745792.75947  21399897.819    21399898.1124   21399904.6594
       194.0004        195.0004
   -968264.26747   -722850.77745  24088640.594    24088640.5584   24088648.0984
       144.0004        149.0004
  -3545944.24148  -2749790.30346  24401714.028    24401714.0044   24401721.1804
       170.0004        171.0004
 -17824327.63049 -13858143.60347  21011868.315    21011868.8904   21011875.9014
       210.0004        210.0004
 21  2  5  0  3  0.0000000  0  8G30G04G21G01G08G17G27G09
  -4145307.06647  -3204810.89545  23771392.899    23771392.0554   23771398.1074
       157.0004        159.0004
 -11927639.09248  -9262649.65746  22123074.627    22123074.9664   22123080.9134
       183.0004        182.0004
 -11565439.39948  -8993181.84746  21776929.498    21776929.2394   21776934.3934
       180.0004        180.0004
 -13654691.15448 -10625750.77146  22099937.262    22099937.3474   22099945.4134
       177.0004        177.0004
 -16315750.46648 -12685258.81747  21414680.366    21414681.1924   21414687.9704
       194.0004        194.0004
  -1064081.39047   -797513.29545  24070407.300    24070408.0904   24070413.3974
       148.0004        153.0004
  -3437383.97148  -2665197.91046  24422370.955    24422372.3814   24422378.1494
       170.0004        170.0004
 -17787386.88749 -13829358.61447  21018897.820    21018898.1054   21018905.7914
       209.0004        209.0004
 21  2  5  0  3 30.0000000  0  8G30G04G21G01G08G17G27G09
  -4232384.15747  -3272663.14845  23754821.549    23754820.7814   23754829.3644
       157.0004        160.0004
 -11837750.17048  -9192606.34746  22140180.184    22140180.2874   22140187.1064
       183.0004        182.0004
 -11577517.43048  -9002593.29246  21774631.096    21774630.7394   21774636.0314
       181.0004        181.0004
 -13727021.63948 -10682112.16446  22086171.809    22086173.0994   22086181.1224
       177.0004        178.0004
 -16237757.12848 -12624484.79247  21429522.796    21429523.0564   21429529.9144
       194.0004        195.0004
  -1159663.29047   -871992.55045  24052218.650    24052219.0604   24052225.6874
       153.0004        157.0004
  -3328804.80348  -2580590.75746  24443032.206    24443034.1694   24443040.2934
       167.0004        167.0004
 -17749966.59349 -13800199.95047  21026019.021    21026019.2094   21026026.2774
       209.0004        209.0004
 21  2  5  0  4  0.0000000  0  8G30G04G21G01G08G17G27G09
  -4319518.56147  -3340560.02345  23738241.123    23738240.1774   23738248.0844
       158.0004        161.0004
 -11747638.12048  -9122389.16846  22157327.357    22157327.8634   22157333.9754
       182.0004        181.0004
 -11589157.74948  -9011663.64546  21772417.248    21772417.2324   21772421.0554
       182.0004        183.0004
 -13799161.63748 -10738325.12446  22072445.037    22072445.8004   22072454.2484
       178.0004        179.0004
 -16159457.00448 -12563471.71047  21444422.467    21444422.6784   21444430.2604
       194.0004        194.0004
  -1255006.28747   -946285.66945  24034076.490    24034076.0334   24034081.9514
       153.0004        154.0004
  -3220207.48048  -2495969.51146  24463698.689    24463699.4734   24463705.4924
       166.0004        168.0004
 -17712067.07549 -13770667.85647  21033230.270    21033230.4874   21033238.1324
       208.0004        208.0004
 21  2  5  0  4 30.0000000  0  8G30G04G21G01G08G17G27G09
  -4406708.88147  -3408500.50645  23721648.497    23721648.4194   23721655.3794
       158.0004        159.0004
 -11657306.31848  -9052000.73946  22174516.511    22174517.2774   22174522.7974
       181.0004        180.0004
 -11600359.19448  -9020392.00846  21770285.061    21770284.6134   21770290.0524
       182.0004        183.0004
 -13871108.22448 -10794387.36746  22058753.652    22058754.1604   22058763.7234
       179.0004        179.0004
 -16080853.65648 -12502222.35547  21459380.225    21459380.7044   21459387.4344
       193.0004        194.0004
  -1350108.27647  -1020390.96945  24015977.863    24015978.6194   24015984.4164
       151.0004        153.0004
  -3111594.95348  -2411336.36546  24484367.337    24484367.5444   24484374.5534
       167.0004        169.0004
 -17673690.73349 -13740764.21947  21040533.541    21040533.8184   21040541.0504
       208.0004        208.0004
 21  2  5  0  5  0.0000000  0  8G30G04G21G01G08G17G27G09
  -4493952.97147  -3476482.89545  23705046.194    23705046.3414   23705053.4574
       156.0004        158.0004
 -11566757.31848  -8981443.08046  22191747.399    22191748.0064   22191754.0324
       181.0004        181.0004
 -11611119.99048  -9028777.03046  21768236.025    21768236.3664   21768242.7954
       182.0004        182.0004
 -13942857.58648 -10850295.93946  22045099.505    22045100.7494   22045108.8654
       178.0004        178.0004
 -16001949.00248 -12440738.21947  21474396.767    21474396.5694   21474401.6244
       193.0004        193.0004
  -1444966.84847  -1094306.61345  23997927.485    23997928.2184   23997932.0954
       149.0004        151.0004
  -3002969.24548  -2326693.00946  24505036.775    24505037.4634   24505045.7104
       166.0004        167.0004
 -17634839.16249 -13710490.28347  21047926.571    21047927.0824   21047934.2684
       208.0004        209.0004
 21  2  5  0  5 30.0000000  0  8G30G04G21G01G08G17G27G09
  -4581249.26347  -3544505.94545  23688434.491    23688434.3874   23688442.1294
       155.0004        157.0004
 -11475994.20148  -8910718.57646  22209019.709    22209020.2424   22209024.7364
       180.0004        179.0004
 -11621438.29348  -9036817.25246  21766273.470    21766273.5344   21766278.7594
       182.0004        182.0004
 -14014406.57248 -10906048.38146  22031484.538    22031485.7284   22031492.8434
       178.0004        178.0004
 -15922746.40948 -12379021.91647  21489467.868    21489467.8864   21489473.9994
       193.0004        193.0004
  -1539579.90247  -1168030.99245  23979924.217    23979924.4854   23979929.4364
       151.0004        154.0004
  -2894332.98148  -2242041.38846  24525710.088    24525710.8884   24525717.2824
       166.0004        166.0004
 -17595514.69849 -13679847.84647  21055410.079    21055410.4594   21055417.5454
       209.0004        209.0004
 21  2  5  0  6  0.0000000  0  8G30G04G21G01G08G17G27G09
  -4668597.49947  -3612569.49445  23671813.474    23671813.0774   23671819.7934
       156.0004        158.0004
 -11385021.54448  -8839830.77446  22226330.830    22226331.4944   22226336.8294
       180.0004        180.0004
 -11631314.68848  -9044513.11146  21764394.476    21764393.7454   21764399.0334
       182.0004        182.0004
 -14085753.40248 -10961643.27546  22017907.587    22017908.4354   22017916.2424
       178.0004        179.0004
 -15843250.18248 -12317076.79547  21504593.975    21504594.3134   21504601.2284
       192.0004        191.0004
  -1633946.34047  -1241563.17645  23961965.731    23961967.0104   23961972.0554
       153.0004        156.0004
  -2785690.32348  -2157384.74246  24546382.289    24546383.9504   24546392.8364
       166.0004        167.0004
 -17555720.87949 -13648839.67647  21062983.264    21062983.0324   21062990.2334
       209.0004        210.0004
 21  2  5  0  6 30.0000000  0  8G30G04G21G01G08G17G27G09
  -4755994.93647  -3680671.38545  23655181.699    23655181.1024   23655188.5064
       157.0004        160.0004
 -11293841.21248  -8768781.15846  22243682.483    22243682.2584   22243688.5864
       180.0004        179.0004
 -11640746.40848  -9051862.50246  21762600.334    21762599.5214   21762603.3974
       182.0004        183.0004
 -14156893.71648 -11017077.27046  22004369.234    22004370.3144   22004378.3024
       178.0004        178.0004
 -15763462.12048 -12254904.28647  21519777.107    21519777.8974   21519784.6894
       191.0004        191.0004
  -1728063.52547  -1314901.13745  23944054.945    23944055.3414   23944061.1154
       151.0004        153.0004
  -2677042.40148  -2072724.08446  24567056.667    24567058.9924   24567067.0324
       166.0004        168.0004
 -17515458.81649 -13617466.63747  21070644.073    21070644.4024   21070651.8094
       209.0004        209.0004
 21  2  5  0  7  0.0000000  0  7G30G04G21G01G08G17G09
  -4843440.67447  -3748810.91645  23638540.558    23638541.0904   23638548.2564
       159.0004        161.0004
 -11202457.15948  -8697572.82446  22261071.792    22261072.2324   22261079.1694
       180.0004        179.0004
 -11649732.22348  -9058864.43646  21760889.955    21760889.5394   21760893.1964
       182.0004        182.0004
 -14227825.11148 -11072348.46446  21990872.096    21990872.9344   21990881.1644
       178.0004        180.0004
 -15683386.46048 -12192507.66547  21535015.482    21535015.8344   21535023.0834
       191.0004        192.0004
  -1821929.98147  -1388043.68545  23926192.829    23926192.5964   23926199.8164
       152.0004        155.0004
 -17474731.59949 -13585731.15247  21078393.880    21078394.3194   21078401.6704
       208.0004        208.0004
 21  2  5  0  7 30.0000000  0  7G30G04G21G01G08G17G09
  -4930933.03147  -3816986.75345  23621891.203    23621892.1484   23621898.0024
       159.0004        160.0004
 -11110872.41148  -8626208.10646  22278500.239    22278500.3384   22278506.6234
       179.0004        177.0004
 -11658271.15548  -9065518.14346  21759264.663    21759264.1774   21759268.2684
       182.0004        182.0004
 -14298544.25248 -11127454.26746  21977416.044    21977416.4054   21977423.7934
       179.0004        180.0004
 -15603025.92648 -12129889.07347  21550308.197    21550308.2074   21550315.0724
       192.0004        192.0004
  -1915543.75547  -1460989.37545  23908379.638    23908379.8864   23908385.6244
       154.0004        157.0004
 -17433541.43149 -13553634.91647  21086232.797    21086232.9364   21086240.0454
       208.0004        209.0004
 21  2  5  0  8  0.0000000  0  8G30G04G21G01G08G14G17G09
  -5018469.91347  -3885197.27245  23605232.513    23605232.6754   23605241.3004
       158.0004        160.0004
 -11019089.58348  -8554689.03246  22295965.586    22295965.8364   22295971.5824
       177.0004        176.0004
 -11666361.32248  -9071822.15246  21757724.491    21757724.4714   21757729.0414
       182.0004        182.0004
 -14369047.54648 -11182391.87646  21963999.542    21963999.5494   21964007.3734
       179.0004        179.0004
 -15522383.12148 -12067050.52547  21565653.796    21565654.3304   21565660.5594
       192.0004        192.0004
   -162633.27856    -94243.96245  23607410.559                    23607412.6734
       124.0004        142.0004
  -2008902.00847  -1533735.97545  23890614.074    23890613.4474   23890619.5854
       154.0004        157.0004
 -17391890.14249 -13521179.37147  21094159.043    21094159.3254   21094166.3454
       209.0004        210.0004
 21  2  5  0  8 30.0000000  0  8G30G04G21G01G08G14G17G09
  -5106049.31847  -3953440.92946  23588568.687    23588568.8954   23588576.4704
       160.0004        163.0004
 -10927111.59148  -8483017.86946  22313468.800    22313468.8924   22313474.1974
       176.0004        176.0004
 -11674001.19948  -9077775.28546  21756271.012    21756270.6334   21756275.8274
       182.0004        182.0004
 -14439331.53348 -11237158.59346  21950623.822    21950624.6984   21950632.5564
       179.0004        180.0004
 -15441460.87148 -12003994.21447  21581053.106    21581052.6994   21581059.4234
       191.0004        190.0004
   -189929.62747   -115513.78545  23602218.543    23602216.6584   23602217.5154
       136.0004        144.0004
  -2102002.87147  -1606282.00645  23872896.907    23872897.2434   23872904.3904
       155.0004        158.0004
 -17349779.84749 -13488366.15847  21102172.299    21102172.3714   21102179.4674
       209.0004        209.0004
 21  2  5  0  9  0.0000000  0  8G30G04G21G01G08G14G17G09
  -5193670.62347  -4021717.26445  23571894.965    23571895.0714   23571901.3614
       160.0004        162.0004
 -10834942.51348  -8411197.79546  22331007.339    22331008.0034   22331014.5364
       177.0004        177.0004
 -11681190.42948  -9083377.24946  21754902.993    21754902.4774   21754908.0644
       183.0004        184.0004
 -14509393.99448 -11291752.67946  21937292.108    21937292.3104   21937300.4914
       180.0004        181.0004
 -15360263.11948 -11940723.24047  21596504.259    21596504.9334   21596511.3854
       190.0004        190.0004
   -217169.94247   -136739.96045  23597032.089    23597034.5194   23597037.4034
       139.0004        146.0004
  -2194845.38947  -1678626.68745  23855230.439    23855229.4524   23855236.3324
       156.0004        158.0004
 -17307213.89149 -13455197.86647  21110271.074    21110271.5634   21110279.4834
       208.0004        208.0004
 21  2  5  0  9 30.0000000  0  8G30G04G21G01G08G14G17G09
  -5281332.35047  -4090025.09346  23555213.223    23555213.3964   23555220.0374
       161.0004        164.0004
 -10742585.70948  -8339231.45146  22348580.571    22348581.9814   22348589.5704
       177.0004        177.0004
 -11687927.80948  -9088627.13346  21753621.611    21753620.4414   21753625.9994
       184.0004        184.0004
 -14579231.98948 -11346171.87546  21924002.012    21924002.0814   21924010.2114
       180.0004        180.0004
 -15278793.20448 -11877240.19147  21612007.476    21612008.2024   21612014.4914
       191.0004        191.0004
   -244355.80247   -157923.69745  23591859.803    23591860.2974   23591864.4964
       139.0004        143.0004
  -2287427.66147  -1750768.59745  23837611.491    23837611.6734   23837618.2324
       155.0004        157.0004
 -17264194.82949 -13421676.53447  21118458.498    21118458.8404   21118465.4614
       208.0004        208.0004
 21  2  5  0 10  0.0000000  0  8G30G04G21G01G08G14G17G09
  -5369030.99347  -4158361.69646  23538524.586    23538525.0464   23538532.1484
       164.0004        166.0004
 -10650042.46748  -8267119.84746  22366191.531    22366192.3694   22366199.8374
       176.0004        176.0004
 -11694210.34448  -9093522.59746  21752425.848    21752425.4604   21752430.8544
       184.0004        184.0004
 -14648840.51348 -11400412.28146  21910755.814    21910756.5404   21910764.4964
       180.0004        181.0004
 -15197052.61248 -11813546.22847  21627562.694    21627563.2574   21627569.3304
       191.0004        192.0004
   -271486.77347   -179064.67045  23586695.419    23586697.3314   23586705.6844
       143.0004        149.0004
  -2379745.52147  -1822704.48645  23820042.715    23820043.8854   23820050.1644
       156.0004        158.0004
 -17220723.28249 -13387802.60947  21126730.928    21126730.9164   21126737.6364
       208.0004        208.0004
 21  2  5  0 10 30.0000000  0  8G30G04G21G01G08G14G17G09
  -5456763.62747  -4226724.75746  23521828.380    23521829.1244   23521837.2554
       164.0004        166.0004
 -10557314.68048  -8194864.43746  22383838.094    22383838.1304   22383844.6314
       175.0004        174.0004
 -11700035.66248  -9098061.78546  21751316.086    21751316.9014   21751322.2064
       184.0004        183.0004
 -14718215.13448 -11454470.40646  21897553.983    21897554.5654   21897563.5964
       180.0004        181.0004
 -15115042.89348 -11749642.56247  21643168.636    21643168.8344   21643175.3294
       192.0004        192.0004
   -298562.98547   -200163.00245  23581543.008    23581544.4504   23581552.3234
       150.0004        155.0004
  -2471796.52447  -1894432.44845  23802528.067    23802527.9024   23802533.2374
       156.0004        158.0004
 -17176800.35749 -13353576.96247  21135088.977    21135089.5334   21135096.4084
       208.0004        209.0004
 21  2  5  0 11  0.0000000  0  8G30G04G21G01G08G14G17G09
  -5544529.38447  -4295113.61246  23505127.278    23505127.8894   23505136.1534
       164.0004        165.0004
 -10464406.32748  -8122468.33246  22401518.553    22401519.2444   22401524.9344
       176.0004        177.0004
 -11705403.51448  -9102244.51446  21750295.085    21750295.5184   21750300.2464
       183.0004        183.0004
 -14787353.51148 -11508344.46546  21884398.195    21884398.5144   21884406.3314
       181.0004        182.0004
 -15032767.88548 -11685532.16247  21658823.815    21658824.5544   21658832.0484
       190.0004        189.0004
   -325586.69447   -221220.41645  23576401.573    23576401.7154   23576409.4224
       154.0004        156.0004
  -2563579.00447  -1965951.16545  23785061.202    23785061.6604   23785068.5464
       155.0004        157.0004
 -17132429.35749 -13319002.15447  21143532.556    21143532.8814   21143539.7784
       209.0004        209.0004
 21  2  5  0 11 30.0000000  0  8G30G04G21G01G08G14G17G09
  -5632326.74147  -4363527.10446  23488421.347    23488421.2434   23488427.6604
       164.0004        165.0004
 -10371320.80748  -8049934.15446  22419232.430    22419232.4254   22419238.3694
       176.0004        176.0004
 -11710312.65448  -9106069.78846  21749360.629    21749360.7364   21749365.2814
       183.0004        183.0004
 -14856252.74748 -11562032.16146  21871286.112    21871286.6974   21871295.7044
       181.0004        182.0004
 -14950231.28448 -11621217.92247  21674529.963    21674531.0414   21674538.1654
       189.0004        190.0004
   -352559.51847   -242238.17345  23571269.070    23571270.1414   23571275.1684
       155.0004        157.0004
  -2655091.31347  -2037259.36145  23767645.747    23767647.3014   23767652.8924
       152.0004        153.0004
 -17087613.00249 -13284080.31247  21152060.183    21152060.9344   21152068.2854
       209.0004        209.0004
 21  2  5  0 12  0.0000000  0  8G30G04G21G01G08G14G17G09
  -5720154.71048  -4431964.47746  23471708.693    23471708.5194   23471714.9944
       165.0004        166.0004
 -10278061.89748  -7977264.86446  22436977.789    22436979.1434   22436984.2014
       175.0004        175.0004
 -11714762.51948  -9109537.20046  21748515.865    21748514.3604   21748518.7644
       183.0004        183.0004
 -14924910.35148 -11615531.58146  21858221.012    21858222.2774   21858230.5194
       181.0004        182.0004
 -14867436.50648 -11556702.50647  21690285.866    21690285.8754   21690293.1074
       190.0004        190.0004
   -379483.56447   -263217.91145  23566145.749    23566145.8914   23566150.4724
       154.0004        155.0004
  -2746332.64347  -2108356.38245  23750283.488    23750284.0844   23750290.6924
       152.0004        156.0004
 -17042354.41949 -13248813.89247  21160673.396    21160673.3374   21160680.4434
       209.0004        209.0004
 21  2  5  0 12 30.0000000  0  8G30G04G21G01G08G14G17G09
  -5808010.76148  -4500423.71746  23454989.621    23454989.7844   23454996.4914
       165.0004        165.0004
 -10184631.93748  -7904462.27746  22454758.178    22454758.2204   22454763.5474
       176.0004        175.0004
 -11718751.28448  -9112645.30246  21747755.233    21747754.6534   21747759.0764
       183.0004        182.0004
 -14993322.32848 -11668839.61546  21845202.779    21845204.0774   21845211.7544
       181.0004        182.0004
 -14784385.99449 -11491987.83747  21706090.493    21706090.7094   21706096.9154
       205.0004        209.0004
   -406359.43547   -284160.10445  23561030.060    23561030.8174   23561036.2044
       153.0004        155.0004
  -2837299.95547  -2179239.89745  23732973.972    23732974.1724   23732980.0814
       155.0004        158.0004
 -16996655.31849 -13213204.20947  21169369.668    21169369.8734   21169377.2894
       209.0004        209.0004
 21  2  5  0 13  0.0000000  0  8G30G04G21G01G08G14G17G09
  -5895892.88147  -4568903.28446  23438265.393    23438265.3214   23438272.2664
       163.0004        163.0004
 -10091033.82548  -7831528.69846  22472569.560    22472569.8314   22472575.2514
       176.0004        176.0004
 -11722277.85648  -9115393.27846  21747083.997    21747083.5344   21747088.3064
       183.0004        183.0004
 -15061485.25948 -11721953.57946  21832232.034    21832232.5364   21832240.5004
       182.0004        182.0004
 -14701082.48449 -11427076.01647  21721942.925    21721942.9664   21721948.5914
       209.0004        208.0004
   -433188.17947   -305065.60545  23555925.555    23555926.4634   23555930.6984
       154.0004        157.0004
  -2927991.23147  -2249908.31945  23715716.994    23715716.8644   23715721.1054
       156.0004        158.0004
 -16950517.94249 -13177253.01647  21178148.852    21178149.3634   21178156.5854
       209.0004        209.0004
 21  2  5  0 13 30.0000000  0  8G30G04G21G01G08G14G17G09
  -5983799.75347  -4637402.11346  23421536.134    23421537.8044   23421544.4324
       162.0004        163.0004
  -9997271.13848  -7758466.86646  22490410.573    22490411.3264   22490417.6704
       175.0004        175.0004
 -11725341.61448  -9117780.61246  21746500.488    21746500.5854   21746505.4784
       183.0004        184.0004
 -15129396.46348 -11774871.37946  21819308.903    21819309.2184   21819318.0414
       181.0004        182.0004
 -14617529.37849 -11361969.68248  21737841.542    21737841.6604   21737848.4744
       217.0004        220.0004
   -459971.66047   -325935.79245  23550828.255    23550829.6924   23550834.4684
       156.0004        158.0004
  -3018405.06247  -2320360.53345  23698510.564    23698511.0764   23698515.9314
       157.0004        159.0004
 -16903945.22949 -13140962.58647  21187011.718    21187012.0744   21187018.6294
       208.0004        208.0004
 21  2  5  0 14  0.0000000  0  8G30G04G21G01G08G14G17G09
  -6071728.02347  -4705917.63246  23404804.575    23404805.0004   23404812.5134
       163.0004        165.0004
  -9903345.32448  -7685277.92046  22508284.351    22508284.8734   22508291.8174
       175.0004        176.0004
 -11727939.33048  -9119804.77946  21746007.117    21746006.7834   21746010.9354
       184.0004        185.0004
 -15197051.11748 -11827589.28246  21806434.965    21806435.3144   21806443.5404
       182.0004        184.0004
 -14533728.62149 -11296670.40248  21753787.943    21753788.0944   21753795.5404
       220.0004        220.0004
   -486709.65347   -346770.54745  23545741.825    23545742.1084   23545745.9884
       154.0004        155.0004
  -3108537.52647  -2390593.51145  23681359.322    23681360.2164   23681365.6054
       158.0004        160.0004
 -16856938.10549 -13104333.66547  21195957.312    21195957.5784   21195963.8844
       208.0004        209.0004
 21  2  5  0 14 30.0000000  0  8G30G04G21G01G08G14G17G09
  -6159677.21047  -4774449.44246  23388068.710    23388069.5244   23388076.9494
       163.0004        165.0004
  -9809261.01848  -7611965.48046  22526187.807    22526188.7194   22526195.0304
       176.0004        176.0004
 -11730071.61248  -9121466.30146  21745601.943    21745601.2894   21745606.2134
       185.0004        186.0004
 -15264447.51448 -11880105.92846  21793609.067    21793610.3454   21793619.0724
       183.0004        183.0004
 -14449684.26149 -11231181.30548  21769781.569    21769781.6294   21769788.6884
       221.0004        221.0004
   -513405.03547   -367572.12145  23540660.035    23540660.9314   23540665.9264
       153.0004        156.0004
  -3198388.55347  -2460607.23545  23664261.827    23664262.4364   23664267.6454
       158.0004        160.0004
 -16809500.57549 -13067369.35847  21204984.317    21204984.1754   21204991.0964
       208.0004        208.0004
 21  2  5  0 15  0.0000000  0  8G30G04G21G01G08G14G17G09
  -6247644.95547  -4842995.76545  23371328.996    23371330.5404   23371335.6004
       162.0004        162.0004
  -9715020.48748  -7538531.32546  22544121.798    22544122.1564   22544128.8494
       176.0004        175.0004
 -11731736.73248  -9122763.77646  21745284.140    21745283.7124   21745290.0974
       186.0004        186.0004
 -15331581.67048 -11932418.24046  21780834.523    21780835.3084   21780843.6434
       183.0004        185.0004
 -14365398.38049 -11165504.00048  21785820.645    21785821.1324   21785827.2474
       221.0004        220.0004
   -540058.26347   -388340.84545  23535587.982    23535589.0174   23535594.9994
       157.0004        161.0004
  -3287955.45347  -2530399.54545  23647217.774    23647217.7894   23647222.6744
       158.0004        159.0004
 -16761634.40849 -13030071.06547  21214092.835    21214092.8894   21214099.4244
       208.0004        207.0004
 21  2  5  0 15 30.0000000  0  8G30G04G21G01G08G14G17G09
  -6335629.62247  -4911555.23946  23354585.797    23354586.5064   23354593.7614
       161.0004        164.0004
  -9620627.12048  -7464978.04046  22562084.994    22562084.7524   22562090.4454
       175.0004        175.0004
 -11732933.97348  -9123696.68246  21745056.668    21745056.1864   21745062.2284
       186.0004        187.0004
 -15398450.70548 -11984523.95846  21768109.898    21768110.2064   21768117.9774
       183.0004        183.0004
 -14280874.97049 -11099641.59548  21801906.043    21801905.8104   21801911.6444
       221.0004        220.0004
   -566671.04647   -409078.05046  23530524.277    23530524.8884   23530530.3254
       162.0004        164.0004
  -3377236.69647  -2599969.26545  23630226.568    23630227.4914   23630232.7734
       157.0004        159.0004
 -16713342.39449 -12992440.92847  21223282.158    21223282.2724   21223289.5244
       207.0004        207.0004
 21  2  5  0 16  0.0000000  0  8G30G04G21G01G08G14G17G09
  -6423628.84347  -4980126.02746  23337841.363    23337841.7154   23337848.5464
       164.0004        167.0004
  -9526083.51148  -7391307.68746  22580074.101    22580075.3094   22580081.7384
       175.0004        175.0004
 -11733661.67448  -9124263.68746  21744917.492    21744917.1714   21744924.5494
       187.0004        187.0004
 -15465050.92848 -12036420.20846  21755435.125    21755436.1434   21755444.6404
       182.0004        183.0004
 -14196116.09049 -11033595.71348  21818033.929    21818034.5364   21818040.8334
       220.0004        219.0004
   -593244.17648   -429784.37446  23525467.607    23525468.9674   23525473.7284
       165.0004        167.0004
  -3466229.64847  -2669314.32745  23613290.864    23613291.8034   23613297.7184
       157.0004        159.0004
 -16664626.57349 -12954480.54147  21232552.261    21232552.5314   21232560.1594
       207.0004        208.0004
 21  2  5  0 16 30.0000000  0  8G30G04G21G01G08G14G17G09
  -6511640.61648  -5048706.61546  23321092.499    23321093.0904   23321100.2454
       165.0004        166.0004
  -9431392.64548  -7317522.60846  22598093.545    22598093.8424   22598100.6164
       175.0004        175.0004
 -11733918.72448  -9124463.95647  21744869.418    21744868.7294   21744875.4384
       187.0004        188.0004
 -15531379.02448 -12088104.41346  21742815.693    21742816.1834   21742822.9544
       184.0004        186.0004
 -14111124.90549 -10967368.81648  21834207.375    21834207.1634   21834214.0264
       220.0004        219.0004
   -619778.90148   -450460.75946  23520419.104    23520419.3264   23520424.7164
       165.0004        166.0004
  -3554932.75747  -2738433.54345  23596412.897    23596413.1194   23596417.3874
       157.0004        158.0004
 -16615489.45349 -12916191.86747  21241902.604    21241902.8414   21241910.3534
       207.0004        207.0004
 21  2  5  0 17  0.0000000  0  8G30G04G21G01G08G14G17G09
  -6599664.17648  -5117296.38746  23304341.230    23304341.5604   23304349.6074
       165.0004        166.0004
  -9336558.63748  -7243625.99246  22616140.920    22616141.3514   22616146.7244
       175.0004        174.0004
 -11733705.20948  -9124297.56047  21744909.077    21744909.3464   21744916.0934
       188.0004        188.0004
 -15597432.91948 -12139574.97246  21730244.275    21730245.7004   21730253.0454
       185.0004        185.0004
 -14025905.11149 -10900963.77648  21850424.168    21850424.2614   21850431.3154
       220.0004        219.0004
   -646277.56647   -471109.06346  23515375.851    23515376.3234   23515381.7884
       164.0004        165.0004
  -3643345.02347  -2807326.15445  23579587.328    23579586.8704   23579592.1634
       155.0004        156.0004
 -16565934.65849 -12877577.75647  21251333.002    21251332.9004   21251339.7804
       206.0004        206.0004
 21  2  5  0 17 30.0000000  0  8G30G04G21G01G08G14G17G09
  -6687695.75647  -5185892.39346  23287589.279    23287590.4654   23287598.6624
       164.0004        166.0004
  -9241582.67148  -7169618.76546  22634213.778    22634214.1354   22634220.0554
       174.0004        174.0004
 -11733018.19048  -9123762.19446  21745040.001    21745039.8754   21745046.7594
       188.0004        187.0004
 -15663207.56248 -12190827.89846  21717726.148    21717727.8414   21717736.9824
       184.0004        184.0004
 -13940457.88249 -10834381.52848  21866684.353    21866684.7144   21866691.4514
       220.0004        219.0004
   -672739.74447   -491728.92246  23510340.695    23510340.9824   23510346.1694
       162.0004        163.0004
  -3731462.77447  -2875989.26545  23562818.817    23562819.5984   23562824.2384
       155.0004        159.0004
 -16515962.92349 -12838638.74347  21260841.865    21260842.1384   21260849.6154
       206.0004        206.0004
 21  2  5  0 18  0.0000000  0  8G30G04G21G01G08G14G17G09
  -6775733.84947  -5254493.47146  23270837.372    23270836.5794   23270844.8014
       163.0004        165.0004
  -9146468.22148  -7095503.62046  22652313.820    22652314.5774   22652318.9474
       173.0004        173.0004
 -11731857.37648  -9122857.63346  21745261.267    21745260.8244   21745267.1884
       187.0004        186.0004
 -15728700.06448 -12241861.00246  21705265.385    21705265.5154   21705273.6884
       184.0004        185.0004
 -13854787.17449 -10767625.13848  21882987.045    21882987.2244   21882993.8384
       219.0004        218.0004
   -699167.02047   -512321.56046  23505311.995    23505312.8214   23505317.8494
       163.0004        166.0004
  -3819284.60647  -2944421.81845  23546108.105    23546108.6724   23546113.2574
       159.0004        161.0004
 -16465577.23849 -12799377.17447  21270430.037    21270430.2004   21270438.0344
       207.0004        207.0004
 21  2  5  0 18 30.0000000  0  8G30G04G21G01G08G14G17G09
  -6863777.75748  -5323099.11246  23254082.121    23254082.9724   23254090.1664
       166.0004        169.0004
  -9051219.58548  -7021283.88446  22670438.975    22670439.4744   22670445.5094
       174.0004        175.0004
 -11730222.73348  -9121583.87146  21745572.538    21745571.9154   21745577.4264
       186.0004        186.0004
 -15793908.56548 -12292672.80946  21692857.138    21692857.2894   21692865.5424
       185.0004        186.0004
 -13768896.61149 -10700697.41548  21899331.159    21899331.4294   21899338.3114
       219.0004        218.0004
   -725561.95547   -532889.01646  23500288.085    23500288.8514   23500294.6514
       164.0004        166.0004
  -3906809.80847  -3012623.20345  23529451.626    23529452.7334   23529456.5724
       158.0004        160.0004
 -16414781.44649 -12759796.03647  21280096.135    21280096.6994   21280103.9104
       207.0004        207.0004
 21  2  5  0 19  0.0000000  0  8G30G04G21G01G08G14G17G09
  -6951824.50848  -5391706.94646  23237327.007    23237328.1764   23237335.6564
       167.0004        169.0004
  -8955838.70048  -6946961.12346  22688589.313    22688589.5514   22688595.4444
       173.0004        171.0004
 -11728112.39748  -9119939.43046  21745974.166    21745973.5934   21745978.5414
       185.0004        185.0004
 -15858828.79148 -12343259.97246  21680503.347    21680503.6524   21680510.9114
       185.0004        186.0004
 -13682788.51149 -10633600.19648  21915716.561    21915717.1454   21915723.7994
       218.0004        217.0004
   -751924.84647   -553431.51146  23495272.437    23495272.9434   23495277.4774
       164.0004        165.0004
  -3994035.70647  -3080591.38445  23512854.653    23512854.9184   23512858.7804
       158.0004        160.0004
 -16363577.14749 -12719896.58947  21289839.880    21289840.1354   21289847.6074
       206.0004        206.0004
 21  2  5  0 19 30.0000000  0  8G30G04G21G01G08G14G17G09
  -7039872.63648  -5460315.86046  23220572.116    23220572.9584   23220579.8314
       166.0004        166.0004
  -8860329.11948  -6872538.06346  22706764.323    22706764.2884   22706768.9144
       171.0004        170.0004
 -11725525.94248  -9117923.99446  21746465.775    21746465.2554   21746471.1204
       184.0004        184.0004
 -15923458.01748 -12393620.39146  21668203.293    21668205.0214   21668212.5344
       185.0004        185.0004
 -13596466.15249 -10566336.01948  21932143.915    21932143.7394   21932150.3914
       218.0004        218.0004
   -778257.44547   -573950.39046  23490260.779    23490261.7044   23490266.2644
       164.0004        166.0004
  -4080960.78647  -3148325.16445  23496312.188    23496312.1914   23496316.8574
       157.0004        157.0004
 -16311967.37549 -12679681.18247  21299660.360    21299660.9944   21299668.4114
       205.0004        205.0004
 21  2  5  0 20  0.0000000  0  8G30G04G21G01G08G14G17G09
  -7127918.90548  -5528923.35146  23203818.637    23203818.9074   23203825.5284
       167.0004        169.0004
  -8764692.62848  -6798016.11446  22724963.611    22724964.0354   22724969.0654
       170.0004        170.0004
 -11722461.21948  -9115535.88346  21747049.127    21747049.2554   21747053.2444
       184.0004        184.0004
 -15987791.83948 -12443750.61446  21655961.592    21655962.4664   21655970.0754
       185.0004        185.0004
 -13509931.10249 -10498906.11348  21948611.077    21948611.3044   21948617.2534
       218.0004        217.0004
   -804559.75048   -594445.66546  23485256.341    23485256.6924   23485261.5424
       165.0004        166.0004
  -4167581.98447  -3215822.13445  23479827.368    23479828.1474   23479835.0944
       156.0004        160.0004
 -16259953.55649 -12639150.93747  21309558.969    21309559.5264   21309566.3584
       205.0004        206.0004
 21  2  5  0 20 30.0000000  0  8G30G04G21G01G08G14G17G09
  -7215961.57948  -5597528.00446  23187064.263    23187064.5744   23187072.2414
       169.0004        171.0004
  -8668932.50648  -6723397.85646  22743185.976    22743186.4864   22743192.2584
       170.0004        170.0004
 -11718917.57448  -9112774.61046  21747723.287    21747722.5714   21747727.1404
       183.0004        182.0004
 -16051827.24948 -12493648.33546  21643775.918    21643776.7914   21643784.7354
       185.0004        186.0004
 -13423186.68149 -10431313.05848  21965117.599    21965117.9754   21965124.8224
       218.0004        217.0004
   -830833.22347   -614918.47646  23480255.829    23480256.4264   23480261.8924
       164.0004        164.0004
  -4253897.55947  -3283080.95745  23463403.301    23463402.8114   23463410.4424
       158.0004        160.0004
 -16207538.54449 -12598308.08447  21319532.643    21319533.1954   21319540.5744
       205.0004        206.0004
 21  2  5  0 21  0.0000000  0  8G30G04G21G01G08G14G17G09
  -7303998.45448  -5666128.16846  23170312.935    23170311.9924   23170318.5664
       169.0004        171.0004
  -8573051.58048  -6648685.45746  22761431.132    22761431.2914   22761437.3194
       170.0004        171.0004
 -11714893.92548  -9109639.28946  21748489.240    21748489.0364   21748492.7434
       183.0004        183.0004
 -16115560.84948 -12543310.87246  21631647.455    21631647.9644   21631656.1784
       185.0004        185.0004
 -13336235.76449 -10363559.08948  21981663.479    21981663.7924   21981671.5414
       217.0004        217.0004
   -857079.02347   -635369.70846  23475260.949    23475262.3474   23475266.9594
       162.0004        163.0004
  -4339905.79247  -3350100.28645  23447035.659    23447035.1764   23447042.4024
       157.0004        158.0004
 -16154724.80449 -12557154.51747  21329582.822    21329583.2414   21329591.1834
       205.0004        206.0004
 21  2  5  0 21 30.0000000  0  8G30G04G21G01G08G14G17G09
  -7392028.08148  -5734722.68046  23153561.079    23153560.1804   23153567.7024
       170.0004        171.0004
  -8477053.34648  -6573881.64246  22779699.683    22779699.7044   22779705.2184
       170.0004        170.0004
 -11710390.23648  -9106129.91846  21749347.421    21749346.7344   21749350.2504
       183.0004        183.0004
 -16178990.02548 -12592736.17646  21619576.600    21619578.3304   21619586.1984
       185.0004        186.0004
 -13249081.64149 -10295646.79048  21998248.641    21998248.7874   21998255.9094
       217.0004        217.0004
   -883298.86047   -655800.74646  23470272.965    23470272.9034   23470277.7224
       162.0004        164.0004
  -4425605.41747  -3416879.14145  23430729.500    23430729.2474   23430734.1104
       158.0004        162.0004
 -16101515.53149 -12515692.74547  21339708.495    21339708.8344   21339716.5574
       206.0004        206.0004
 21  2  5  0 22  0.0000000  0  8G30G04G21G01G08G14G17G09
  -7480048.95648  -5803310.37046  23136810.039    23136810.5774   23136818.1114
       170.0004        172.0004
  -8380941.33148  -6498989.17146  22797987.572    22797989.2804   22797995.2354
       168.0004        169.0004
 -11705405.95648  -9102246.06246  21750294.505    21750294.4964   21750298.3634
       182.0004        182.0004
 -16242112.08048 -12641922.18546  21607566.312    21607567.2084   21607574.2844
       186.0004        186.0004
 -13161727.73949 -10227578.80948  22014870.383    22014871.5784   22014878.4054
       217.0004        216.0004
   -909494.60047   -676212.99146  23465287.242    23465287.4204   23465292.4654
       163.0004        165.0004
  -4510995.22447  -3483416.59045  23414479.879    23414479.9244   23414483.0674
       160.0004        161.0004
 -16047913.95449 -12473925.28247  21349909.008    21349909.0534   21349916.4904
       205.0004        206.0004
 21  2  5  0 22 30.0000000  0  8G30G04G21G01G08G14G17G09
  -7568057.10548  -5871888.12546  23120062.653    23120062.9824   23120070.4334
       170.0004        172.0004
  -8284716.58748  -6424008.86446  22816298.196    22816298.5634   22816306.5054
       166.0004        166.0004
 -11699938.26148  -9097985.52146  21751334.031    21751334.3104   21751338.5254
       182.0004        182.0004
 -16304921.88748 -12690864.87846  21595613.806    21595614.6694   21595622.5304
       186.0004        187.0004
 -13074175.44349 -10159356.24548  22031532.471    22031532.3304   22031538.9614
       217.0004        216.0004
   -935665.48747   -696605.85146  23460308.121    23460308.3724   23460313.1624
       163.0004        165.0004
  -4596071.31347  -3549709.59345  23398289.736    23398289.9604   23398294.2614
       160.0004        162.0004
 -15993920.78849 -12431852.69147  21360182.986    21360183.7284   21360190.8694
       205.0004        205.0004
 21  2  5  0 23  0.0000000  0  8G30G04G21G01G08G14G17G09
  -7656051.40448  -5940455.09646  23103318.566    23103318.6784   23103324.9354
       171.0004        171.0004
  -8188383.02148  -6348943.74046  22834630.207    22834631.2604   22834637.5154
       166.0004        168.0004
 -11693987.60748  -9093348.63446  21752467.167    21752466.9124   21752470.6214
       182.0004        183.0004
 -16367417.24548 -12739562.54347  21583721.591    21583722.1924   21583730.0174
       188.0004        189.0004
 -12986428.19249 -10090981.76048  22048230.242    22048230.2634   22048236.4924
       217.0004        215.0004
   -961813.67547   -716981.06146  23455331.305    23455332.1624   23455336.9674
       163.0004        163.0004
  -4680832.81147  -3615757.46246  23382160.453    23382160.3754   23382165.4674
       163.0004        165.0004
 -15939539.63149 -12389477.76647  21370531.673    21370532.0584   21370539.2804
       205.0004        204.0004
 21  2  5  0 23 30.0000000  0  8G30G04G21G01G08G14G17G09
  -7744029.57248  -6009009.52446  23086576.219    23086577.1444   23086583.0164
       169.0004        169.0004
  -8091943.44748  -6273796.00546  22852983.411    22852983.7264   22852989.6134
       167.0004        169.0004
 -11687552.93748  -9088334.59346  21753692.689    21753691.7864   21753695.7134
       182.0004        182.0004
 -16429594.66048 -12788012.44747  21571890.457    21571890.8654   21571897.8854
       188.0004        189.0004
 -12898488.84449 -10022457.60048  22064963.774    22064964.2134   22064971.1384
       216.0004        214.0004
   -987940.23247   -737339.40945  23450358.591    23450359.3414   23450365.0534
       161.0004        160.0004
  -4765277.97747  -3681558.84046  23366088.837    23366090.1834   23366094.8914
       162.0004        164.0004
 -15884772.93649 -12346802.41847  21380953.646    21380954.2874   21380961.4004
       204.0004        204.0004
 21  2  5  0 24  0.0000000  0  8G30G04G21G01G08G14G17G09
  -7831989.72648  -6077549.92246  23069838.116    23069839.1514   23069845.6924
       169.0004        171.0004
  -7995400.97948  -6198568.10946  22871355.087    22871355.2394   22871361.5814
       168.0004        168.0004
 -11680633.65448  -9082942.93846  21755007.778    21755008.0964   21755011.9284
       182.0004        181.0004
 -16491451.14748 -12836212.29346  21560118.015    21560118.8754   21560125.8534
       187.0004        186.0004
 -12810360.33149  -9953786.03948  22081733.639    22081734.3554   22081741.6744
       215.0004        214.0004
  -1014046.52447   -757681.94945  23445391.210    23445391.5364   23445397.8164
       159.0004        160.0004
  -4849404.72647  -3747112.09146  23350083.274    23350082.8104   23350086.8444
       162.0004        165.0004
 -15829623.64649 -12303828.96347  21391448.877    21391448.9174   21391455.2054
       204.0004        203.0004
 21  2  5  0 24 30.0000000  0  8G30G04G21G01G08G14G17G09
  -7919930.27648  -6146075.00446  23053104.122    23053104.2094   23053111.1214
       171.0004        173.0004
  -7898759.16248  -6123262.82146  22889745.050    22889745.3304   22889751.5484
       168.0004        170.0004
 -11673229.67248  -9077173.58946  21756417.354    21756416.9934   21756421.7104
       182.0004        183.0004
 -16552984.15548 -12884160.04846  21548408.555    21548409.3024   21548417.3844
       186.0004        187.0004
 -12722046.34149  -9884969.94648  22098540.453    22098540.2724   22098547.1074
       215.0004        215.0004
  -1040134.28947   -778010.03945  23440426.918    23440428.0574   23440432.1954
       158.0004        161.0004
  -4933212.16647  -3812416.54446  23334133.480    23334134.4334   23334139.8994
       164.0004        166.0004
 -15774094.98149 -12260559.86747  21402014.997    21402015.1524   21402022.4344
       203.0004        203.0004
 21  2  5  0 25  0.0000000  0  8G30G04G21G01G08G14G17G09
  -8007848.65348  -6214582.81246  23036373.562    23036373.3184   23036380.6904
       172.0004        171.0004
  -7802020.35848  -6047881.94346  22908153.676    22908153.0634   22908159.5374
       169.0004        169.0004
 -11665339.53148  -9071025.41646  21757918.771    21757918.3324   21757923.3954
       183.0004        183.0004
 -16614189.91948 -12931852.83446  21536763.006    21536762.5764   21536770.3224
       187.0004        187.0004
 -12633548.86949  -9816010.87548  22115380.642    22115380.9954   22115388.0354
       215.0004        214.0004
  -1066204.24047   -798324.27645  23435465.074    23435466.2044   23435471.6104
       158.0004        159.0004
  -5016698.51047  -3877470.77346  23318246.373    23318247.1794   23318252.4164
       164.0004        165.0004
 -15718189.13349 -12216996.88147  21412652.713    21412653.6334   21412660.6984
       203.0004        203.0004
 21  2  5  0 25 30.0000000  0  9G30G04G28G21G01G08G14G17G09
  -8095742.83048  -6283071.78646  23019648.580    23019648.4674   23019655.1084
       172.0004        173.0004
  -7705187.70048  -5972427.93746  22926579.559    22926579.9294   22926587.4534
       168.0004        169.0004
    192626.45354    542270.379 3                                  24939157.198
        74.0004         74.000
 -11656962.46448  -9064497.82246  21759512.518    21759512.4784   21759517.3604
       183.0004        184.0004
 -16675065.41348 -12979288.27647  21525178.724    21525179.3404   21525185.7754
       187.0004        188.0004
 -12544871.60249  -9746911.71048  22132255.319    22132255.4104   22132262.4934
       214.0004        213.0004
  -1092257.70447   -818625.65245  23430508.332    23430509.0964   23430513.9084
       158.0004        159.0004
  -5099861.88048  -3942273.33846  23302420.599    23302421.8094   23302427.0234
       165.0004        166.0004
 -15661908.99349 -12173142.24247  21423363.679    21423363.4314   21423370.0174
       202.0004        203.0004
 21  2  5  0 26  0.0000000  0  8G30G04G21G01G08G14G17G09
  -8183609.89548  -6351539.63046  23002927.715    23002928.5474   23002934.8194
       172.0004        173.0004
  -7608263.30948  -5896902.46346  22945025.023    22945024.5714   22945031.0354
       168.0004        168.0004
 -11648097.54348  -9057590.07246  21761199.726    21761199.5004   21761204.5124
       184.0004        185.0004
 -16735606.66648 -13026463.25347  21513657.912    21513657.4174   21513665.8104
       187.0004        188.0004
 -12456015.92849  -9677673.53447  22149163.500    22149163.1424   22149170.9274
       212.0004        211.0004
  -1118295.08847   -838914.49445  23425553.554    23425553.8734   23425559.2334
       159.0004        162.0004
  -5182699.66348  -4006822.19346  23286657.951    23286658.4374   23286663.6024
       166.0004        168.0004
 -15605256.45249 -12128997.40447  21434143.538    21434143.5884   21434151.4074
       202.0004        203.0004
 21  2  5  0 26 30.0000000  0  8G30G04G21G01G08G14G17G09
  -8271449.21148  -6419985.85846  22986211.949    22986212.0444   22986218.5014
       171.0004        171.0004
  -7511251.69948  -5821308.99146  22963484.236    22963486.2164   22963491.3964
       168.0004        168.0004
 -11638745.70048  -9050302.91246  21762980.272    21762980.1184   21762984.1794
       185.0004        185.0004
 -16795812.05548 -13073376.51046  21502199.554    21502200.4974   21502208.6424
       187.0004        187.0004
 -12366986.43549  -9608299.91247  22166103.393    22166104.6584   22166112.3294
       211.0004        210.0004
  -1144319.08847   -859192.88545  23420601.078    23420601.5154   23420606.8164
       160.0004        162.0004
  -5265211.66448  -4071117.19746  23270956.771    23270956.5974   23270963.0634
       167.0004        169.0004
 -15548235.82549 -12084565.75547  21444994.514    21444994.9464   21445002.6434
       203.0004        203.0004
 21  2  5  0 27  0.0000000  0  8G30G04G21G01G08G14G17G09
  -8359258.10848  -6488408.35846  22969503.206    22969502.7714   22969510.2234
       171.0004        174.0004
  -7414155.15748  -5745649.35946  22981962.513    22981962.6364   22981968.1894
       167.0004        168.0004
 -11628905.28448  -9042635.03946  21764852.194    21764851.8194   21764856.6654
       185.0004        185.0004
 -16855677.82148 -13120025.12347  21490808.106    21490808.8934   21490817.4184
       188.0004        190.0004
 -12277785.58449  -9538792.76247  22183079.021    22183079.4854   22183086.5704
       211.0004        210.0004
  -1170330.30247   -879461.34145  23415652.201    23415652.2814   23415657.2834
       160.0004        162.0004
  -5347395.44648  -4135156.47546  23255316.480    23255317.1674   23255323.9814
       167.0004        168.0004
 -15490849.25549 -12039848.94947  21455913.873    21455914.4774   21455922.4504
       202.0004        202.0004
 21  2  5  0 27 30.0000000  0  8G30G04G21G01G08G14G17G09
  -8447033.98848  -6556805.14846  22952799.533    22952799.2854   22952806.8054
       172.0004        172.0004
  -7316976.27048  -5669925.57346  23000452.864    23000454.0184   23000460.6464
       166.0004        167.0004
 -11618575.55448  -9034585.88246  21766817.583    21766817.7844   21766822.9114
       185.0004        186.0004
 -16915200.43148 -13166406.37647  21479484.349    21479484.2954   21479490.6684
       192.0004        194.0004
 -12188415.72749  -9469153.91847  22200086.378    22200085.7844   22200093.3274
       211.0004        211.0004
  -1196329.56747   -899720.51345  23410704.581    23410705.0574   23410709.7774
       160.0004        161.0004
  -5429249.08748  -4198938.47646  23239739.446    23239740.3034   23239746.6214
       165.0004        166.0004
 -15433099.18449 -11994848.90347  21466904.292    21466904.2074   21466911.7954
       201.0004        202.0004
 21  2  5  0 28  0.0000000  0  8G30G04G21G01G08G14G17G09
  -8534773.75048  -6625173.77246  22936102.200    22936102.6764   22936109.7554
       169.0004        170.0004
  -7219716.89948  -5594139.08546  23018962.184    23018962.1394   23018969.3334
       166.0004        167.0004
 -11607754.81948  -9026154.12346  21768876.264    21768876.1534   21768881.2614
       185.0004        185.0004
 -16974375.76548 -13212517.02047  21468222.294    21468222.9704   21468229.0464
       193.0004        193.0004
 -12098878.95649  -9399385.00847  22217123.723    22217123.8984   22217132.1574
       211.0004        211.0004
  -1222317.06347   -919970.49245  23405759.240    23405759.3014   23405765.2544
       158.0004        158.0004
  -5510770.43848  -4262461.57446  23224227.835    23224228.4144   23224232.8324
       165.0004        166.0004
 -15374987.29449 -11949566.92547  21477962.940    21477963.0204   21477969.8044
       201.0004        202.0004
 21  2  5  0 28 30.0000000  0  8G30G04G21G01G08G14G17G09
  -8622475.63148  -6693512.88346  22919413.203    22919413.2994   22919421.0024
       169.0004        169.0004
  -7122380.50548  -5518292.55846  23037484.595    23037484.8954   23037491.0274
       167.0004        167.0004
 -11596443.27148  -9017339.93146  21771029.293    21771028.9954   21771034.0994
       186.0004        186.0004
 -17033201.22048 -13258355.03347  21457026.494    21457026.5804   21457035.0784
       191.0004        188.0004
 -12009177.90749  -9329488.10347  22234194.822    22234194.6364   22234201.4034
       211.0004        210.0004
  -1248294.40647   -940212.57445  23400815.001    23400816.0844   23400821.7234
       156.0004        158.0004
  -5591958.05147  -4325724.61346  23208779.031    23208778.6464   23208783.0914
       164.0004        165.0004
 -15316516.92949 -11904005.60547  21489088.956    21489089.3194   21489096.4154
       201.0004        201.0004
 21  2  5  0 29  0.0000000  0  8G30G04G21G01G08G14G17G09
  -8710138.70248  -6761821.78746  22902731.814    22902732.2744   22902739.0824
       168.0004        170.0004
  -7024971.22448  -5442389.22146  23056021.548    23056020.9324   23056027.5794
       166.0004        168.0004
 -11584641.42248  -9008143.67046  21773274.786    21773275.4624   21773280.3504
       186.0004        186.0004
 -17091674.90548 -13303918.92146  21445897.584    21445898.4714   21445907.9744
       187.0004        186.0004
 -11919317.22949  -9259466.81347  22251294.543    22251294.0304   22251301.5454
       210.0004        209.0004
  -1274263.99347   -960448.61345  23395873.915    23395873.6084   23395879.4034
       156.0004        157.0004
  -5672811.32047  -4388727.11746  23193392.888    23193393.2944   23193395.9764
       163.0004        165.0004
 -15257692.09549 -11858168.08447  21500282.451    21500283.2414   21500290.4984
       201.0004        202.0004
 21  2  5  0 29 30.0000000  0  8G30G04G21G01G08G14G17G09
  -8797760.50648  -6830098.51446  22886056.798    22886057.3034   22886066.6604
       170.0004        171.0004
  -6927491.65248  -5366431.10846  23074571.709    23074571.5984   23074577.0294
       166.0004        167.0004
 -11572348.56348  -8998564.79846  21775615.060    21775614.5484   21775619.2194
       186.0004        186.0004
 -17149793.39148 -13349206.01846  21434838.251    21434839.6544   21434848.4694
       186.0004        187.0004
 -11829299.74049  -9189323.31047  22268423.256    22268423.6114   22268431.3944
       210.0004        210.0004
  -1300226.72047   -980679.33245  23390934.214    23390934.2454   23390938.6054
       155.0004        157.0004
  -5753328.55147  -4451467.79245  23178071.268    23178070.5394   23178073.4844
       162.0004        161.0004
 -15198515.32149 -11812056.31947  21511544.962    21511544.6364   21511551.6054
       202.0004        202.0004
 21  2  5  0 30  0.0000000  0  9G30G04G28G21G01G08G14G17G09
  -8885338.17248  -6898340.82446  22869391.770    22869391.9604   22869400.0884
       171.0004        172.0004
  -6829944.07248  -5290420.01446  23093133.932    23093134.0814   23093140.3814
       165.0004        165.0004
   -115941.08554    -75799.161 3                                  23692970.467
        74.0004         74.000
 -11559563.61348  -8988602.48146  21778047.649    21778047.2804   21778051.8414
       186.0004        186.0004
 -17207552.89848 -13394213.41447  21423848.750    21423849.5384   21423857.2034
       188.0004        189.0004
 -11739126.89949  -9119058.76247  22285581.974    22285582.8434   22285590.5224
       210.0004        210.0004
  -1326183.13847  -1000905.07545  23385994.123    23385994.7254   23385999.4404
       155.0004        156.0004
  -5833507.06647  -4513944.55445  23162812.706    23162813.7974   23162814.4444
       158.0004        157.0004
 -15138988.79549 -11765672.00947  21522871.151    21522871.7994   21522878.7794
       201.0004        202.0004
 21  2  5  0 30 30.0000000  0  9G30G04G28G21G01G08G14G17G09
  -8972869.22348  -6966546.82546  22852734.725    22852735.4984   22852743.8204
       170.0004        172.0004
  -6732331.16647  -5214358.02846  23111708.003    23111708.6854   23111715.0624
       163.0004        163.0004
   -128986.52844    -85964.010 5                                  23690492.008
        74.0004        138.000
 -11546285.87248  -8978256.18746  21780574.259    21780573.9114   21780578.7084
       186.0004        186.0004
 -17264950.13448 -13438938.52147  21412926.856    21412927.4364   21412934.2144
       190.0004        191.0004
 -11648801.58149  -9048675.40447  22302770.628    22302771.6144   22302778.8284
       209.0004        208.0004
  -1352134.11147  -1021126.61445  23381054.776    23381055.7774   23381060.4264
       153.0004        154.0004
  -5913345.73647  -4576156.48445  23147619.302    23147620.2454   23147622.4514
       156.0004        159.0004
 -15079115.06649 -11719017.16147  21534265.885    21534266.2354   21534272.8534
       202.0004        203.0004
 21  2  5  0 31  0.0000000  0  9G30G04G28G21G01G08G14G17G09
  -9060349.28848  -7034713.08846  22836089.136    22836089.8234   22836096.4894
       171.0004        173.0004
  -6634653.68147  -5138245.70946  23130295.055    23130296.4374   23130302.6484
       162.0004        163.0004
   -146270.89745    -99432.40445  23687197.155                    23687202.1454
       104.0004        141.0004
 -11532512.60248  -8967523.76346  21783195.198    21783194.9894   21783200.2324
       186.0004        187.0004
 -17321979.82248 -13483377.24247  21402075.251    21402075.4934   21402081.8264
       191.0004        192.0004
 -11558324.73649  -8978173.97947  22319988.378    22319988.2674   22319995.7464
       208.0004        207.0004
  -1378078.68747  -1041343.14845  23376117.600    23376118.2984   23376124.5124
       153.0004        156.0004
  -5992840.43347  -4638100.39445  23132493.182    23132493.1334   23132496.8114
       158.0004        161.0004
 -15018894.81649 -11672092.28647  21545725.310    21545725.3564   21545732.2444
       202.0004        202.0004
 21  2  5  0 31 30.0000000  0  9G30G04G28G21G01G08G14G17G09
  -9147780.40348  -7102841.23646  22819450.694    22819451.3114   22819458.0844
       171.0004        171.0004
  -6536918.69747  -5062088.59245  23148893.537    23148895.3034   23148901.5814
       161.0004        162.0004
   -161282.37346   -111129.66745  23684340.530    23684339.8544   23684344.4504
       131.0004        140.0004
 -11518247.62648  -8956408.19046  21785909.054    21785909.3934   21785914.0724
       186.0004        186.0004
 -17378643.14248 -13527530.47747  21391292.195    21391292.4284   21391299.3174
       192.0004        192.0004
 -11467703.02649  -8907559.66947  22337231.757    22337232.8254   22337240.6254
       207.0004        207.0004
  -1404022.20947  -1061558.85245  23371181.823    23371181.5494   23371187.0904
       154.0004        157.0004
  -6071993.87947  -4699778.34446  23117429.496    23117430.6524   23117435.4694
       160.0004        164.0004
 -14958335.12449 -11624902.92547  21557249.283    21557249.4564   21557256.2684
       202.0004        202.0004
 21  2  5  0 32  0.0000000  0  9G30G04G28G21G01G08G14G17G09
  -9235160.85448  -7170929.90846  22802824.613    22802824.3574   22802830.7254
       174.0004        177.0004
  -6439129.69947  -4985889.36945  23167502.327    23167502.9354   23167509.3594
       161.0004        162.0004
   -176279.20347   -122815.48545  23681486.127    23681486.0574   23681490.3164
       137.0004        143.0004
 -11503491.27448  -8944909.72346  21788717.984    21788717.5084   21788722.4574
       186.0004        186.0004
 -17434937.60148 -13571396.28147  21380578.643    21380579.4334   21380587.3104
       192.0004        192.0004
 -11376939.78649  -8836835.06347  22354504.780    22354504.6584   22354511.9054
       207.0004        206.0004
  -1429966.38547  -1081775.05945  23366245.093    23366245.8484   23366249.9694
       156.0004        159.0004
  -6150804.99147  -4761189.53446  23102433.001    23102432.8014   23102439.0194
       164.0004        167.0004
 -14897439.42049 -11577451.71647  21568837.393    21568837.8524   21568844.4984
       202.0004        203.0004
 21  2  5  0 32 30.0000000  0  9G30G04G28G21G01G08G14G17G09
  -9322487.14748  -7238976.35046  22786206.150    22786206.0634   22786213.2404
       176.0004        177.0004
  -6341288.27047  -4909649.30446  23186121.700    23186121.9514   23186128.3534
       161.0004        163.0004
   -191262.01847   -134490.37845  23678635.620    23678635.0654   23678640.4584
       138.0004        143.0004
 -11488241.95948  -8933027.12246  21791619.976    21791619.6684   21791624.2564
       186.0004        187.0004
 -17490858.86448 -13614971.28647  21369937.771    21369937.7764   21369945.9594
       191.0004        191.0004
 -11286036.97649  -8766001.70947  22371803.241    22371803.3364   22371810.3494
       207.0004        207.0004
  -1455911.06847  -1101991.67445  23361307.402    23361307.8684   23361313.1594
       157.0004        160.0004
  -6229271.26248  -4822332.02246  23087500.180    23087500.9644   23087508.4614
       167.0004        170.0004
 -14836209.30049 -11529739.92847  21580488.607    21580489.2474   21580496.4824
       203.0004        203.0004
 21  2  5  0 33  0.0000000  0  9G30G04G28G21G01G08G14G17G09
  -9409756.69448  -7306978.59946  22769599.394    22769599.6444   22769606.5124
       177.0004        178.0004
  -6243396.99847  -4833370.40746  23204749.384    23204749.8634   23204757.3034
       162.0004        164.0004
   -206231.81647   -146155.13445  23675786.651    23675787.4624   23675791.9984
       140.0004        144.0004
 -11472498.93048  -8920759.81846  21794615.246    21794615.0504   21794619.8224
       186.0004        185.0004
 -17546403.59948 -13658252.89447  21359367.167    21359367.6804   21359376.0654
       190.0004        189.0004
 -11194996.96549  -8695061.45447  22389127.601    22389127.6434   22389134.5414
       206.0004        206.0004
  -1481857.12547  -1122209.36045  23356368.852    23356370.2274   23356376.1534
       158.0004        160.0004
  -6307390.76648  -4883204.32446  23072635.095    23072636.1544   23072642.9284
       169.0004        172.0004
 -14774647.32849 -11481769.56047  21592203.897    21592204.1194   21592210.9284
       203.0004        202.0004
 21  2  5  0 33 30.0000000  0  9G30G04G28G21G01G08G14G17G09
  -9496963.84048  -7374932.20046  22753003.883    22753004.8284   22753011.2564
       177.0004        179.0004
  -6145455.33447  -4757052.24346  23223388.871    23223388.6354   23223394.6764
       162.0004        163.0004
   -221186.63447   -157808.25645  23672941.332    23672940.9704   23672946.5644
       141.0004        146.0004
 -11456258.50348  -8908104.93746  21797705.178    21797705.2034   21797710.1674
       186.0004        186.0004
 -17601565.29748 -13701236.01247  21348869.427    21348869.6494   21348879.5084
       189.0004        189.0004
 -11103818.85249  -8624013.58647  22406478.264    22406477.7284   22406485.5054
       206.0004        205.0004
  -1507802.24747  -1142426.33645  23351431.365    23351432.8274   23351438.4684
       157.0004        158.0004
  -6385158.50748  -4943802.53346  23057836.120    23057837.3884   23057844.2994
       172.0004        174.0004
 -14712752.95249 -11433540.18547  21603982.381    21603982.3644   21603989.0694
       202.0004        202.0004
 21  2  5  0 34  0.0000000  0  9G30G04G28G21G01G08G14G17G09
  -9584108.59048  -7442837.20146  22736421.712    22736421.2684   22736428.0024
       179.0004        181.0004
  -6047468.44747  -4680698.83445  23242034.556    23242034.0754   23242040.3704
       160.0004        160.0004
   -236130.29647   -169452.66745  23670097.141    23670098.7054   23670102.4434
       143.0004        147.0004
 -11439522.66648  -8895064.02446  21800890.837    21800890.3204   21800894.9374
       186.0004        186.0004
 -17656343.30348 -13743920.15947  21338445.729    21338446.1344   21338454.9384
       189.0004        189.0004
 -11012507.47049  -8552861.88047  22423853.321    22423853.6044   22423861.5574
       205.0004        205.0004
  -1533749.86947  -1162645.24745  23346494.513    23346495.7614   23346499.6274
       157.0004        160.0004
  -6462575.37948  -5004127.30546  23043105.454    23043106.0224   23043111.3964
       173.0004        174.0004
 -14650531.39249 -11385055.86047  21615821.875    21615822.7494   21615829.4354
       202.0004        202.0004
 21  2  5  0 34 30.0000000  0  9G30G04G28G21G01G08G14G17G09
  -9671188.27648  -7510691.48646  22719851.560    22719851.0894   22719857.3454
       181.0004        182.0004
  -5949438.82947  -4604312.12045  23260687.364    23260688.0434   23260693.6074
       159.0004        160.0004
   -251064.11947   -181089.37445  23667257.041    23667255.3594   23667260.8954
       144.0004        148.0004
 -11422290.81548  -8881636.59046  21804169.535    21804169.1034   21804173.8684
       186.0004        186.0004
 -17710734.16548 -13786302.62647  21328096.093    21328096.5594   21328104.8234
       189.0004        190.0004
 -10921065.77549  -8481608.61647  22441254.654    22441254.8644   22441262.5304
       206.0004        206.0004
  -1559700.66847  -1182866.61746  23341557.058    23341558.2264   23341562.8214
       160.0004        163.0004
  -6539639.18148  -5064176.95046  23028440.241    23028440.3414   23028445.9494
       173.0004        174.0004
 -14587985.09649 -11336318.49247  21627724.387    21627724.4674   21627732.1684
       201.0004        201.0004
 21  2  5  0 35  0.0000000  0  9G30G04G28G21G01G08G14G17G09
  -9758200.19748  -7578492.98446  22703293.473    22703293.4014   22703299.6304
       180.0004        180.0004
  -5851368.86847  -4527893.97646  23279350.800    23279350.9754   23279357.1754
       160.0004        163.0004
   -265989.12147   -192719.22345  23664416.599    23664415.7994   23664420.3654
       147.0004        152.0004
 -11404562.18548  -8867822.07546  21807543.597    21807542.8254   21807547.8344
       186.0004        186.0004
 -17764734.51648 -13828380.80747  21317820.394    21317821.0084   21317828.6734
       190.0004        191.0004
 -10829496.13549  -8410255.65147  22458678.896    22458679.9734   22458687.8354
       206.0004        206.0004
  -1585655.41447  -1203091.08545  23336617.058    23336617.7854   23336623.6264
       161.0004        162.0004
  -6616348.36048  -5123950.27046  23013842.145    23013842.8594   23013849.0434
       172.0004        173.0004
 -14525116.61749 -11287330.07747  21639687.533    21639687.9154   21639694.9814
       200.0004        200.0004
 21  2  5  0 35 30.0000000  0  9G30G04G28G21G01G08G14G17G09
  -9845142.67148  -7646240.34846  22686748.901    22686748.8984   22686754.1914
       179.0004        179.0004
  -5753262.02347  -4451447.09046  23298019.811    23298019.6534   23298026.7644
       162.0004        163.0004
   -280907.53447   -204343.93145  23661576.747    23661576.3274   23661582.4644
       149.0004        152.0004
 -11386337.07548  -8853620.67646  21811011.147    21811010.9314   21811015.6914
       185.0004        185.0004
 -17818341.91948 -13870152.79947  21307620.497    21307619.9894   21307627.3594
       191.0004        192.0004
 -10737801.75149  -8338805.48747  22476127.529    22476128.0234   22476136.5754
       206.0004        205.0004
  -1611615.78547  -1223319.92246  23331678.774    23331679.2594   23331682.9574
       161.0004        163.0004
  -6692702.44248  -5183446.91446  22999313.034    22999314.0814   22999318.1994
       172.0004        172.0004
 -14461929.42749 -11238093.30547  21651711.575    21651711.8194   21651718.7344
       200.0004        199.0004
 21  2  5  0 36  0.0000000  0  9G30G04G28G21G01G08G14G17G09
  -9932013.12348  -7713931.60546  22670216.356    22670216.4904   22670223.2124
       177.0004        177.0004
  -5655120.88447  -4374973.48446  23316693.032    23316694.8814   23316701.2294
       162.0004        163.0004
   -295820.67347   -215964.53645  23658738.535    23658738.5634   23658742.6734
       148.0004        152.0004
 -11367615.28848  -8839032.25946  21814573.752    21814573.6134   21814578.7574
       185.0004        186.0004
 -17871553.16048 -13911616.09547  21297493.701    21297494.2124   21297501.3654
       192.0004        192.0004
 -10645984.93549  -8267259.93547  22493600.804    22493600.7424   22493608.4844
       205.0004        204.0004
  -1637582.62647  -1243553.81645  23326737.340    23326737.7534   23326741.8834
       161.0004        162.0004
  -6768699.44348  -5242665.31446  22984852.034    22984851.7904   22984857.1534
       171.0004        172.0004
 -14398426.19249 -11188610.27547  21663795.668    21663796.1104   21663803.5884
       199.0004        200.0004
 21  2  5  0 36 30.0000000  0  9G30G04G28G21G01G08G14G17G09
 -10018809.06448  -7781564.83146  22653700.949    22653700.9704   22653707.1144
       179.0004        181.0004
  -5556948.18947  -4298475.31046  23335376.512    23335376.9424   23335383.2174
       161.0004        163.0004
   -310729.95047   -227582.15245  23655902.094    23655902.0944   23655906.4634
       149.0004        152.0004
 -11348396.45748  -8824056.55146  21818230.621    21818230.6674   21818235.9904
       186.0004        185.0004
 -17924365.14248 -13952768.27647  21287443.611    21287444.2284   21287452.4514
       193.0004        193.0004
 -10554048.60549  -8195621.25447  22511095.880    22511095.3454   22511102.7564
       203.0004        203.0004
  -1663556.94247  -1263793.51345  23321793.151    23321793.5664   23321798.9684
       158.0004        158.0004
  -6844337.95848  -5301604.36946  22970457.246    22970458.0434   22970462.8404
       172.0004        173.0004
 -14334609.71249 -11138883.14747  21675939.777    21675939.7064   21675946.8654
       199.0004        199.0004
 21  2  5  0 37  0.0000000  0  9G30G04G28G21G01G08G14G17G09
 -10105528.37248  -7849138.29946  22637198.280    22637199.2484   22637205.6954
       180.0004        182.0004
  -5458746.92447  -4221954.85545  23354064.071    23354064.4614   23354070.7864
       160.0004        161.0004
   -325637.00347   -239198.02845  23653065.034    23653064.7274   23653068.9364
       151.0004        154.0004
 -11328680.60348  -8808693.55046  21821983.028    21821982.9854   21821988.3634
       185.0004        185.0004
 -17976775.02948 -13993607.14547  21277470.721    21277471.3264   21277479.8374
       193.0004        194.0004
 -10461995.54949  -8123891.60747  22528611.448    22528611.9344   22528620.2654
       202.0004        201.0004
  -1689539.90847  -1284039.95045  23316848.644    23316849.2644   23316856.0044
       157.0004        160.0004
  -6919616.44148  -5360262.90346  22956132.626    22956133.0034   22956136.2954
       171.0004        171.0004
 -14270483.03749 -11088914.31647  21688142.457    21688142.6334   21688150.4224
       198.0004        198.0004
 21  2  5  0 37 30.0000000  0  9G30G04G28G21G01G08G14G17G09
 -10192169.02748  -7916650.49146  22620711.697    22620710.7984   22620717.7054
       181.0004        181.0004
  -5360520.21247  -4145414.57645  23372757.561    23372756.7074   23372762.0774
       160.0004        162.0004
   -340543.59047   -250813.53045  23650227.953    23650227.8594   23650232.5604
       150.0004        153.0004
 -11308468.07048  -8792943.52046  21825828.953    21825829.0984   21825834.1414
       185.0004        185.0004
 -18028780.27048 -14034130.69947  21267575.112    21267575.3084   21267582.8124
       194.0004        195.0004
 -10369828.52849  -8052073.16947  22546150.009    22546150.5694   22546159.5374
       201.0004        202.0004
  -1715533.01647  -1304294.33245  23311902.721    23311904.0204   23311908.7294
       157.0004        159.0004
  -6994534.09348  -5418640.25646  22941875.433    22941876.1464   22941880.6064
       168.0004        168.0004
 -14206049.50449 -11038706.38447  21700403.691    21700404.0224   21700411.6284
       198.0004        198.0004
 21  2  5  0 38  0.0000000  0  9G30G04G28G21G01G08G14G17G09
 -10278729.04548  -7984099.82846  22604240.354    22604240.0094   22604246.0884
       181.0004        181.0004
  -5262271.20647  -4068856.89845  23391453.124    23391453.3914   23391459.3164
       160.0004        161.0004
   -355451.57347   -262430.13145  23647391.377    23647391.6584   23647396.4884
       152.0004        155.0004
 -11287759.00548  -8776806.57046  21829769.667    21829769.4804   21829775.0084
       185.0004        186.0004
 -18080378.25348 -14074336.89547  21257755.776    21257756.1564   21257763.8314
       194.0004        194.0004
 -10277550.88549  -7980168.50147  22563709.985    22563710.5524   22563719.5664
       202.0004        202.0004
  -1741537.68347  -1324557.69645  23306953.452    23306954.3324   23306959.2434
       156.0004        157.0004
  -7069089.75148  -5476735.52446  22927689.335    22927689.5524   22927692.3914
       169.0004        172.0004
 -14141312.41049 -10988261.88047  21712723.397    21712723.4564   21712730.7284
       199.0004        199.0004
 21  2  5  0 38 30.0000000  0  9G30G04G28G21G01G08G14G17G09
 -10365205.29048  -8051483.92646  22587783.971    22587783.8194   22587789.7724
       180.0004        181.0004
  -5164001.96047  -3992283.47345  23410151.990    23410153.0594   23410157.9494
       159.0004        160.0004
   -370361.82247   -274048.49245  23644555.028    23644554.8444   23644557.4764
       152.0004        155.0004
 -11266552.46548  -8760281.99546  21833806.133    21833805.3214   21833810.3994
       185.0004        184.0004
 -18131565.32348 -14114222.92147  21248015.206    21248015.7604   21248023.2634
       194.0004        194.0004
 -10185164.43949  -7908179.08947  22581290.762    22581291.4114   22581300.5474
       202.0004        203.0004
  -1767554.13647  -1344830.25145  23302003.703    23302004.2514   23302007.7254
       156.0004        158.0004
  -7143281.36448  -5534547.13346  22913571.257    22913571.4644   22913575.9244
       171.0004        173.0004
 -14076273.88049 -10937582.51247  21725099.814    21725099.9364   21725107.4904
       199.0004        200.0004
 21  2  5  0 39  0.0000000  0  9G30G04G28G21G01G08G14G17G09
 -10451595.59748  -8118801.04046  22571343.614    22571344.1984   22571350.6614
       180.0004        180.0004
  -5065715.43947  -3915696.56845  23428854.331    23428855.6434   23428861.2784
       159.0004        159.0004
   -385275.82247   -285669.74145  23641715.818    23641716.0724   23641720.2544
       151.0004        154.0004
 -11244848.24148  -8743369.60046  21837936.181    21837935.3724   21837940.4394
       185.0004        185.0004
 -18182338.72548 -14153786.59247  21238353.215    21238353.5104   21238361.2864
       194.0004        194.0004
 -10092672.16449  -7836107.19147  22598890.972    22598892.0494   22598900.7174
       202.0004        201.0004
  -1793583.70547  -1365113.00745  23297050.451    23297050.1884   23297055.3464
       157.0004        160.0004
  -7217107.79448  -5592074.18646  22899520.185    22899521.7564   22899526.4154
       170.0004        171.0004
 -14010937.06449 -10886670.71447  21737532.683    21737532.9074   21737540.1664
       199.0004        198.0004
 21  2  5  0 39 30.0000000  0  9G30G04G28G21G01G08G14G17G09
 -10537896.38348  -8186048.40746  22554921.731    22554921.6124   22554927.9994
       180.0004        180.0004
  -4967413.23747  -3839097.46545  23447561.158    23447561.8344   23447567.2414
       157.0004        158.0004
   -400193.50647   -297293.86645  23638877.931    23638877.8014   23638881.9334
       153.0004        156.0004
 -11222645.59748  -8726068.83846  21842161.138    21842160.3824   21842165.0514
       185.0004        185.0004
 -18232694.35648 -14193024.74247  21228770.645    21228771.3104   21228778.9844
       194.0004        194.0004
 -10000075.53049  -7763953.99547  22616512.870    22616512.5604   22616521.2774
       201.0004        200.0004
  -1819626.23347  -1385405.87645  23292095.224    23292094.9064   23292099.2874
       158.0004        161.0004
  -7290566.58448  -5649314.77146  22885543.712    22885544.2284   22885547.3374
       171.0004        173.0004
 -13945303.72349 -10835527.85547  21750022.421    21750022.7474   21750029.3294
       198.0004        198.0004
 21  2  5  0 40  0.0000000  0  9G30G04G28G21G01G08G14G17G09
 -10624107.19548  -8253225.64846  22538516.260    22538516.3454   22538523.6484
       179.0004        179.0004
  -4869100.09447  -3762489.84445  23466270.175    23466270.9844   23466275.9534
       157.0004        158.0004
   -415119.04647   -308924.13045  23636036.543    23636036.8374   23636041.5594
       151.0004        153.0004
 -11199946.37048  -8708381.13346  21846479.850    21846480.0464   21846484.7444
       185.0004        185.0004
 -18282631.28848 -14231936.62347  21219268.348    21219268.6264   21219276.4014
       194.0004        194.0004
  -9907379.39049  -7691723.25447  22634152.969    22634152.6064   22634161.1694
       200.0004        200.0004
  -1845684.65847  -1405711.10945  23287135.324    23287135.9174   23287140.9534
       159.0004        161.0004
  -7363658.32748  -5706269.32646  22871634.456    22871634.4954   22871639.3824
       172.0004        173.0004
 -13879378.74749 -10784157.74247  21762567.035    21762567.5724   21762574.9224
       197.0004        197.0004
 21  2  5  0 40 30.0000000  0  9G30G04G28G21G01G08G14G17G09
 -10710225.38048  -8320330.73146  22522128.181    22522127.9484   22522135.1104
       178.0004        178.0004
  -4770778.49647  -3685875.63145  23484980.473    23484980.5714   23484985.6914
       155.0004        156.0004
   -430053.53147   -320561.37745  23633193.524    23633194.7914   23633199.3944
       149.0004        151.0004
 -11176750.46948  -8690306.41146  21850893.604    21850893.3974   21850899.2254
       185.0004        185.0004
 -18332146.34248 -14270519.77947  21209845.804    21209846.0604   21209854.0964
       193.0004        193.0004
  -9814585.74649  -7619416.52147  22651809.050    22651809.8114   22651819.4744
       200.0004        201.0004
  -1871759.80847  -1426029.38646  23282174.430    23282174.5104   23282179.3224
       161.0004        163.0004
  -7436381.57548  -5762936.76446  22857794.742    22857795.0464   22857800.4664
       173.0004        173.0004
 -13813164.82149 -10732562.47747  21775167.569    21775167.8764   21775175.0584
       197.0004        198.0004
 21  2  5  0 41  0.0000000  0  9G30G04G28G21G01G08G14G17G09
 -10796247.39848  -8387360.87646  22505759.016    22505758.5914   22505765.6834
       178.0004        179.0004
  -4672450.06347  -3609256.06945  23503691.613    23503692.2104   23503696.4074
       153.0004        154.0004
   -444997.35747   -332205.92545  23630351.105    23630351.3154   23630355.9154
       149.0004        152.0004
 -11153056.60348  -8671843.64746  21855402.683    21855402.1634   21855407.4094
       185.0004        185.0004
 -18381235.52948 -14308771.08147  21200503.154    21200504.1454   21200512.3174
       192.0004        192.0004
  -9721696.33149  -7547035.16447  22669485.916    22669485.7824   22669494.5714
       200.0004        199.0004
  -1897851.57147  -1446360.58446  23277207.647    23277208.3424   23277214.8784
       161.0004        163.0004
  -7508733.84248  -5819315.13246  22844026.661    22844027.1324   22844032.9354
       172.0004        173.0004
 -13746663.79349 -10680743.49447  21787822.924    21787822.8994   21787829.6094
       197.0004        198.0004
 21  2  5  0 41 30.0000000  0  9G30G04G28G21G01G08G14G17G09
 -10882171.47848  -8454314.71246  22489408.231    22489408.6554   22489414.3874
       179.0004        180.0004
  -4574118.25047  -3532633.87345  23522403.358    23522403.7124   23522409.8504
       152.0004        155.0004
   -459952.43547   -343859.20745  23627505.344    23627504.7304   23627510.9384
       151.0004        153.0004
 -11128865.50348  -8652993.43546  21860005.949    21860006.0324   21860010.7774
       185.0004        185.0004
 -18429896.64148 -14346688.82847  21191244.538    21191245.0264   21191252.2264
       193.0004        194.0004
  -9628714.38849  -7474581.72747  22687178.735    22687179.3084   22687188.4004
       199.0004        198.0004
  -1923961.64347  -1466706.09045  23272239.430    23272241.2304   23272244.5724
       160.0004        160.0004
  -7580714.66748  -5875404.03846  22830329.421    22830329.9524   22830334.3904
       173.0004        175.0004
 -13679879.31949 -10628703.63947  21800530.697    21800531.5084   21800537.8084
       197.0004        197.0004
 21  2  5  0 42  0.0000000  0  9G30G04G28G21G01G08G14G17G09
 -10967994.64748  -8521189.89246  22473076.826    22473076.5384   22473083.2174
       180.0004        180.0004
  -4475785.17347  -3456010.72945  23541115.283    23541116.0224   23541122.4754
       153.0004        157.0004
   -474919.55747   -355521.89545  23624656.754    23624657.3854   23624661.5704
       150.0004        152.0004
 -11104176.76848  -8633755.44646  21864705.099    21864704.7534   21864709.4714
       185.0004        185.0004
 -18478126.30348 -14384270.36247  21182065.937    21182066.2954   21182074.6484
       194.0004        194.0004
  -9535642.11749  -7402057.88047  22704890.250    22704890.8404   22704899.9554
       198.0004        198.0004
  -1950090.43147  -1487066.17546  23267268.530    23267268.7054   23267272.8014
       160.0004        163.0004
  -7652321.91048  -5931201.85246  22816703.706    22816703.5684   22816709.1354
       176.0004        177.0004
 -13612813.76449 -10576444.75347  21813294.136    21813294.0334   21813300.0694
       197.0004        197.0004
 21  2  5  0 42 30.0000000  0  9G30G04G28G21G01G08G14G17G09
 -11053714.98348  -8587984.95546  22456764.148    22456764.3074   22456771.5824
       179.0004        179.0004
  -4377454.12647  -3379389.16045  23559827.254    23559827.4084   23559834.5264
       154.0004        157.0004
   -489901.21847   -367195.89045  23621806.530    23621805.8784   23621811.0484
       149.0004        152.0004
 -11078990.85148  -8614130.05546  21869497.779    21869496.6884   21869502.1114
       185.0004        185.0004
 -18525922.18548 -14421513.89547  21172970.654    21172971.6354   21172979.6994
       194.0004        194.0004
  -9442482.58749  -7329466.05347  22722618.820    22722618.8324   22722628.5394
       197.0004        198.0004
  -1976239.46247  -1507442.04546  23262291.773    23262292.6744   23262297.3544
       162.0004        164.0004
  -7723555.11348  -5986708.23046  22803147.103    22803147.8524   22803153.6444
       176.0004        176.0004
 -13545470.60249 -10523969.57147  21826108.983    21826109.0254   21826115.4484
       197.0004        198.0004
 21  2  5  0 43  0.0000000  0  9G30G04G28G21G01G08G14G17G09
 -11139330.27548  -8654698.16446  22440472.306    22440472.6554   22440479.7464
       179.0004        180.0004
  -4279128.11947  -3302771.50445  23578537.561    23578538.1364   23578544.8874
       154.0004        156.0004
   -504898.26647   -378881.88245  23618952.455    23618952.1794   23618956.5794
       149.0004        153.0004
 -11053308.25248  -8594117.64246  21874383.877    21874383.8244   21874388.6974
       185.0004        185.0004
 -18573281.69848 -14458417.40247  21163959.082    21163959.7854   21163967.5864
       194.0004        195.0004
  -9349238.67849  -7256808.47547  22740362.482    22740362.7174   22740372.6434
       199.0004        199.0004
  -2002410.02147  -1527834.68646  23257311.864    23257312.0914   23257317.3634
       164.0004        165.0004
  -7794413.28248  -6041922.34846  22789664.490    22789663.9244   22789669.4884
       175.0004        175.0004
 -13477853.09349 -10471280.59947  21838975.227    21838975.6314   21838982.9924
       197.0004        196.0004
 21  2  5  0 43 30.0000000  0  9G30G04G28G21G01G08G14G17G09
 -11224837.83948  -8721327.42146  22424200.051    22424200.7124   22424207.9664
       179.0004        179.0004
  -4180809.50947  -3226159.61445  23597246.897    23597247.5174   23597254.3804
       153.0004        154.0004
   -519912.39947   -390581.20145  23616094.547    23616094.4164   23616100.3544
       151.0004        155.0004
 -11027128.78548  -8573718.04246  21879366.533    21879365.7314   21879370.1104
       184.0004        184.0004
 -18620201.82749 -14494978.53247  21155030.935    21155031.2834   21155038.8714
       195.0004        196.0004
  -9255912.70849  -7184086.94747  22758121.049    22758121.6684   22758131.2594
       198.0004        198.0004
  -2028602.82248  -1548244.61846  23252327.939    23252328.7894   23252332.6284
       165.0004        167.0004
  -7864895.07548  -6096843.20846  22776251.976    22776251.8064   22776256.8624
       173.0004        173.0004
 -13409963.95449 -10418379.96247  21851893.805    21851894.0034   21851901.8734
       195.0004        194.0004
 21  2  5  0 44  0.0000000  0  9G30G04G28G21G01G08G14G17G09
 -11310235.02148  -8787870.68746  22407950.132    22407950.1384   22407956.4314
       179.0004        180.0004
  -4082500.87847  -3149555.51945  23615954.446    23615955.6824   23615959.7944
       151.0004        154.0004
   -534944.92647   -402294.83245  23613235.319    23613235.5384   23613238.7294
       152.0004        156.0004
 -11000452.44048  -8552931.27246  21884442.364    21884442.3934   21884446.7474
       184.0004        185.0004
 -18666679.58949 -14531194.96447  21146185.749    21146186.6594   21146194.4194
       196.0004        197.0004
  -9162507.10849  -7111303.37347  22775895.314    22775895.8234   22775905.1444
       197.0004        196.0004
  -2054818.66648  -1568672.52046  23247339.219    23247340.2544   23247344.3104
       166.0004        166.0004
  -7934998.82648  -6151469.46746  22762910.948    22762912.4304   22762916.8164
       173.0004        174.0004
 -13341805.96348 -10365269.85047  21864863.812    21864863.9924   21864871.8594
       194.0004        194.0004
 21  2  5  0 44 30.0000000  0  9G30G04G28G21G01G08G14G17G09
 -11395519.43148  -8854326.07046  22391721.598    22391720.6224   22391727.8684
       180.0004        181.0004
  -3984204.95447  -3072961.32645  23634660.065    23634658.9924   23634665.1034
       151.0004        154.0004
   -549997.27947   -414023.91245  23610370.815    23610369.7844   23610374.8514
       153.0004        155.0004
 -10973279.49648  -8531757.54746  21889613.014    21889612.6604   21889618.3524
       184.0004        185.0004
 -18712712.23949 -14567064.56547  21137426.204    21137426.8784   21137434.7714
       196.0004        196.0004
  -9069024.55249  -7038459.83947  22793684.902    22793685.4044   22793694.5484
       195.0004        194.0004
  -2081058.56548  -1589119.18746  23242346.651    23242347.0484   23242351.8764
       166.0004        168.0004
  -8004723.81048  -6205800.58846  22749643.559    22749643.3444   22749648.9774
       174.0004        176.0004
 -13273382.19048 -10311952.64747  21877882.860    21877883.2894   21877893.3594
       193.0004        193.0004
 21  2  5  0 45  0.0000000  0  9G30G04G28G21G01G08G14G17G09
 -11480689.70748  -8920692.51646  22375513.855    22375514.0584   22375520.3844
       180.0004        181.0004
  -3885925.60547  -2996380.01045  23653363.322    23653363.1904   23653369.1014
       153.0004        156.0004
   -565071.87547   -425770.32245  23607502.265    23607502.1264   23607506.6024
       154.0004        156.0004
 -10945611.16048  -8510197.79946  21894878.328    21894878.3434   21894882.7944
       184.0004        185.0004
 -18758298.18049 -14602586.07247  21128752.258    21128752.2724   21128759.9594
       197.0004        197.0004
  -8975468.82048  -6965559.27947  22811488.573    22811488.3054   22811497.4344
       194.0004        194.0004
  -2107324.63048  -1609586.24046  23237347.603    23237348.1334   23237353.1954
       167.0004        168.0004
  -8074069.61648  -6259836.27446  22736446.878    22736447.8534   22736452.0364
       175.0004        176.0004
 -13204696.73848 -10258431.54247  21890953.462    21890953.9304   21890962.3434
       192.0004        192.0004
 21  2  5  0 45 30.0000000  0  9G30G04G28G21G01G08G14G17G09
 -11565742.88348  -8986967.72846  22359328.689    22359329.3654   22359335.9744
       182.0004        184.0004
  -3787665.02247  -2919813.32245  23672059.542    23672060.8974   23672067.2824
       153.0004        155.0004
   -580169.80647   -437534.91245  23604628.403    23604628.8404   23604633.3374
       154.0004        156.0004
 -10917447.15348  -8488251.81746  21900237.930    21900237.1174   21900242.3724
       184.0004        184.0004
 -18803434.18949 -14637756.98947  21120162.887    21120163.4824   21120171.0784
       197.0004        198.0004
  -8881841.38748  -6892602.85147  22829306.368    22829306.1124   22829313.4794
       194.0004        195.0004
  -2133617.38348  -1630074.08546  23232344.578    23232345.2484   23232349.4444
       168.0004        169.0004
  -8143034.91548  -6313575.41746  22723323.702    22723324.3594   22723329.0644
       175.0004        176.0004
 -13135752.16548 -10204708.52547  21904072.834    21904074.0984   21904082.0714
       191.0004        192.0004
 21  2  5  0 46  0.0000000  0  9G30G04G28G21G01G08G14G17G09
 -11650675.46848  -9053148.95546  22343167.203    22343167.4494   22343173.3934
       184.0004        186.0004
  -3689424.93147  -2843262.61745  23690753.668    23690755.0164   23690761.8684
       154.0004        156.0004
   -595291.30547   -449317.88545  23601751.132    23601750.5554   23601756.3664
       154.0004        157.0004
 -10888786.90948  -8465919.16146  21905691.575    21905691.1494   21905696.1714
       184.0004        184.0004
 -18848116.49049 -14672574.35447  21111659.472    21111660.2094   21111668.2364
       197.0004        197.0004
  -8788144.74749  -6819592.47447  22847135.646    22847135.6244   22847143.4954
       195.0004        195.0004
  -2159936.74448  -1650582.67346  23227335.854    23227336.7334   23227340.6274
       167.0004        167.0004
  -8211617.56648  -6367016.42146  22710272.878    22710272.9444   22710277.1774
       173.0004        173.0004
 -13066550.39948 -10150785.07247  21917243.671    21917243.6454   21917251.9194
       192.0004        194.0004
 21  2  5  0 46 30.0000000  0  9G30G04G28G21G01G08G14G17G09
 -11735483.75748  -9119233.33046  22327028.284    22327028.5864   22327034.3034
       185.0004        185.0004
  -3591206.75347  -2766728.99645  23709444.723    23709444.8384   23709453.4104
       155.0004        158.0004
   -610436.74347   -461119.50145  23598869.996    23598869.7084   23598873.5254
       154.0004        156.0004
 -10859629.45348  -8443199.06246  21911240.326    21911239.8034   21911244.6804
       183.0004        183.0004
 -18892341.19949 -14707035.15647  21103243.701    21103244.7074   21103252.5204
       197.0004        197.0004
  -8694379.80249  -6746528.89447  22864976.774    22864978.1984   22864987.3874
       195.0004        195.0004
  -2186282.46647  -1671111.79845  23222321.721    23222321.3294   23222327.4404
       164.0004        162.0004
  -8279815.04548  -6420157.30046  22697294.792    22697295.5654   22697300.4054
       172.0004        173.0004
 -12997093.25548 -10096662.61547  21930461.979    21930462.1144   21930468.6494
       194.0004        196.0004
 21  2  5  0 47  0.0000000  0  9G30G04G28G21G01G08G14G17G09
 -11820165.02948  -9185218.74946  22310914.195    22310914.4354   22310920.3224
       186.0004        187.0004
  -3493012.87847  -2690214.31245  23728129.746    23728130.6664   23728138.5764
       155.0004        157.0004
   -625607.17447   -472940.58745  23595982.994    23595981.7274   23595986.1524
       153.0004        156.0004
 -10829974.87648  -8420091.58746  21916883.848    21916882.8844   21916888.5104
       183.0004        184.0004
 -18936105.41949 -14741137.12747  21094915.944    21094916.6204   21094924.5264
       197.0004        197.0004
  -8600548.90248  -6673413.92647  22882833.156    22882832.9864   22882842.5224
       193.0004        193.0004
  -2212655.28547  -1691662.05946  23217304.070    23217302.9934   23217308.8774
       162.0004        164.0004
  -8347626.29048  -6472997.19946  22684390.992    22684391.7304   22684395.3734
       173.0004        174.0004
 -12927383.57449 -10042343.38247  21943727.439    21943727.1144   21943733.1194
       196.0004        197.0004
 21  2  5  0 47 30.0000000  0  9G30G04G28G21G01G08G14G17G09
 -11904718.28348  -9251104.38846  22294824.434    22294824.1834   22294830.1544
       186.0004        186.0004
  -3394847.54247  -2613721.87145  23746809.447    23746810.6584   23746817.8974
       155.0004        157.0004
   -640805.46147   -484783.36945  23593089.556    23593090.4064   23593095.0884
       153.0004        155.0004
 -10799824.72548  -8396597.96446  21922621.054    21922620.5214   21922626.3064
       184.0004        184.0004
 -18979407.93949 -14774879.34147  21086675.062    21086675.6814   21086683.9644
       197.0004        197.0004
  -8506655.94748  -6600250.60047  22900700.758    22900701.0544   22900709.1854
       192.0004        192.0004
  -2239057.60347  -1712235.26946  23212280.178    23212280.9444   23212284.3884
       163.0004        165.0004
  -8415051.63248  -6525536.41346  22671559.903    22671559.7874   22671564.2644
       172.0004        172.0004
 -12857425.78149  -9987830.80647  21957039.823    21957040.3854   21957045.8064
       197.0004        198.0004
 21  2  5  0 48  0.0000000  0  9G30G04G28G21G01G08G14G17G09
 -11989140.85148  -9316888.18946  22278758.895    22278758.8274   22278765.7064
       185.0004        186.0004
  -3296713.20547  -2537253.57845  23765484.796    23765484.9134   23765492.0794
       154.0004        157.0004
   -656033.17147   -496649.11745  23590192.767    23590192.3764   23590197.0234
       153.0004        156.0004
 -10769179.25948  -8372718.35746  21928452.141    21928451.4204   21928456.6274
       183.0004        183.0004
 -19022246.00849 -14808259.64947  21078523.638    21078524.1214   21078532.4794
       197.0004        197.0004
  -8412703.62548  -6527041.01747  22918579.008    22918578.7184   22918588.3864
       192.0004        192.0004
  -2265490.24747  -1732832.09846  23207248.993    23207249.2474   23207254.9244
       164.0004        165.0004
  -8482090.00448  -6577774.05746  22658803.248    22658803.1424   22658808.2264
       173.0004        176.0004
 -12787222.83049  -9933127.19847  21970399.589    21970399.5804   21970405.6944
       198.0004        198.0004
 21  2  5  0 48 30.0000000  0  9G30G04G28G21G01G08G14G17G09
 -12073430.77048  -9382568.65846  22262719.156    22262718.9954   22262725.9534
       186.0004        187.0004
  -3198613.06247  -2460811.92445  23784151.813    23784153.0754   23784159.3984
       153.0004        156.0004
   -671291.84647   -508538.99145  23587289.217    23587288.5524   23587292.9734
       152.0004        155.0004
 -10738039.65948  -8348453.74446  21934376.544    21934377.5944   21934382.4854
       183.0004        183.0004
 -19064617.50949 -14841276.40647  21070460.663    21070461.3034   21070469.1524
       197.0004        198.0004
  -8318694.83248  -6453787.43047  22936468.346    22936467.9694   22936477.2044
       192.0004        192.0004
  -2291954.62947  -1753453.68746  23202212.239    23202212.7274   23202219.1924
       163.0004        164.0004
  -8548740.52648  -6629709.52146  22646119.135    22646119.7084   22646124.9924
       174.0004        175.0004
 -12716778.20649  -9878235.29347  21983803.020    21983803.4734   21983810.5884
       196.0004        195.0004
 21  2  5  0 49  0.0000000  0  9G30G04G28G21G01G08G14G17G09
 -12157585.90048  -9448144.07746  22246704.970    22246704.6444   22246712.2014
       187.0004        187.0004
  -3100550.14947  -2384399.28845  23802813.465    23802814.1004   23802821.1124
       154.0004        156.0004
   -686583.24647   -520454.35645  23584378.660    23584378.3074   23584383.5794
       152.0004        154.0004
 -10706406.89448  -8323804.82146  21940397.532    21940397.4254   21940401.8794
       183.0004        183.0004
 -19106520.16549 -14873927.81247  21062486.018    21062487.2884   21062495.0744
       196.0004        196.0004
  -8224632.41048  -6380492.04647  22954368.190    22954368.0504   22954377.4704
       193.0004        193.0004
  -2318452.06947  -1774101.03646  23197171.380    23197171.9064   23197176.3324
       162.0004        164.0004
  -8615003.06248  -6681342.63346  22633511.448    22633511.4794   22633516.0364
       175.0004        177.0004
 -12646095.34849  -9823157.73947  21997253.347    21997253.5754   21997261.4394
       195.0004        195.0004
 21  2  5  0 49 30.0000000  0  9G30G04G28G21G01G08G14G17G09
 -12241604.26748  -9513612.92047  22230717.305    22230716.6324   22230724.1574
       188.0004        189.0004
  -3002527.65947  -2308018.14045  23821467.551    23821467.2514   23821473.5154
       155.0004        157.0004
   -701909.88147   -532397.18645  23581462.225    23581462.8314   23581465.5504
       150.0004        151.0004
 -10674281.89548  -8298772.34346  21946511.357    21946510.7154   21946515.5794
       184.0004        184.0004
 -19147951.95549 -14906212.31847  21054603.307    21054603.2754   21054610.6814
       196.0004        196.0004
  -8130519.31748  -6307157.18447  22972277.593    22972277.2364   22972286.5974
       192.0004        192.0004
  -2344984.11247  -1794775.36445  23192122.594    23192122.9294   23192127.4034
       162.0004        162.0004
  -8680877.02748  -6732672.95046  22620975.336    22620976.0394   22620979.8674
       175.0004        176.0004
 -12575177.81948  -9767897.33347  22010747.181    22010747.8344   22010756.3874
       193.0004        193.0004
 21  2  5  0 50  0.0000000  0  9G30G04G28G21G01G08G14G17G09
 -12325483.59248  -9578973.44247  22214755.407    22214755.7064   22214762.4274
       190.0004        191.0004
  -2904548.47947  -2231670.75945  23840113.365    23840112.8424   23840119.1364
       155.0004        157.0004
   -717272.64447   -544368.16645  23578539.039    23578539.0524   23578542.8024
       147.0004        151.0004
 -10641665.04348  -8273356.60746  21952718.632    21952716.7564   21952722.3854
       183.0004        183.0004
 -19188910.60049 -14938128.13247  21046808.104    21046809.1664   21046816.7694
       196.0004        195.0004
  -8036358.46148  -6233785.11847  22990197.654    22990196.3374   22990204.7614
       192.0004        192.0004
  -2371551.91247  -1815477.56346  23187066.391    23187066.4164   23187071.5994
       162.0004        164.0004
  -8746361.69648  -6783699.93746  22608514.252    22608514.7044   22608518.6504
       176.0004        177.0004
 -12504028.94048  -9712456.65847  22024287.729    22024288.0884   22024294.4084
       192.0004        191.0004
 21  2  5  0 50 30.0000000  0 10G30G04G28G21G01G08G14G17G19G09
 -12409220.32148  -9644222.83947  22198820.221    22198820.5734   22198827.8564
       191.0004        191.0004
  -2806614.16147  -2155358.31845  23858748.773    23858749.0154   23858755.3514
       154.0004        155.0004
   -732672.13747   -556367.74645  23575608.026    23575608.3484   23575612.7534
       148.0004        151.0004
 -10608555.65648  -8247557.09546  21959017.178    21959018.0634   21959022.1794
       183.0004        182.0004
 -19229392.47249 -14969672.44347  21039104.833    21039105.0634   21039113.2834
       195.0004        195.0004
  -7942151.53948  -6160377.15347  23008121.466    23008122.1054   23008132.0524
       192.0004        192.0004
  -2398155.26647  -1836207.44546  23182003.818    23182004.8494   23182009.7454
       164.0004        166.0004
  -8811455.00248  -6834421.99846  22596126.952    22596127.2604   22596132.2384
       176.0004        176.0004
  -2602798.35054  -2014871.59845                                  24581195.9914
        74.0004        144.0004
 -12432650.67148  -9656837.23647  22037870.696    22037870.7194   22037878.5174
       192.0004        193.0004
 21  2  5  0 51  0.0000000  0  9G30G04G28G21G01G08G14G17G09
 -12492810.56248  -9709358.07847  22182913.771    22182914.3484   22182920.7394
       189.0004        189.0004
  -2708725.91947  -2079081.75945  23877377.666    23877376.5814   23877382.2334
       153.0004        154.0004
   -748108.44047   -568396.02045  23572670.839    23572670.8154   23572675.1754
       146.0004        148.0004
 -10574953.19948  -8221373.34346  21965412.114    21965411.5274   21965418.0594
       183.0004        183.0004
 -19269393.66649 -15000842.19547  21031492.750    21031493.1044   21031501.3244
       195.0004        195.0004
  -7847899.41048  -6086933.94547  23026059.832    23026058.8784   23026067.1134
       192.0004        193.0004
  -2424793.80148  -1856964.71946  23176936.240    23176936.9254   23176940.0584
       166.0004        168.0004
  -8876154.85848  -6884837.43646  22583814.794    22583815.4634   22583820.1424
       177.0004        178.0004
 -12361044.71948  -9601040.39747  22051496.366    22051497.3504   22051504.0334
       192.0004        192.0004
 21  2  5  0 51 30.0000000  0  9G30G04G28G21G01G08G14G17G09
 -12576253.28348  -9774378.37847  22167035.980    22167035.7144   22167041.8074
       189.0004        190.0004
  -2610888.02347  -2002844.46545  23895994.622    23895994.7244   23896000.6104
       151.0004        153.0004
   -763584.62047   -580455.36545  23569726.526    23569725.7754   23569729.0944
       142.0004        145.0004
 -10540859.65848  -8194806.92046  21971899.903    21971899.7304   21971904.4034
       183.0004        182.0004
 -19308913.21049 -15031636.63347  21023972.699    21023973.1924   21023981.1244
       195.0004        195.0004
  -7753606.05748  -6013458.61947  23044002.342    23044002.0004   23044010.0364
       192.0004        192.0004
  -2451469.90748  -1877751.25246  23171860.968    23171861.3904   23171864.2464
       169.0004        171.0004
  -8940461.85848  -6934946.77546  22571578.843    22571578.2794   22571583.0094
       177.0004        177.0004
 -12289215.68048  -9545069.73347  22065165.626    22065166.0974   22065173.1804
       192.0004        193.0004
 21  2  5  0 52  0.0000000  0  9G30G04G28G21G01G08G14G17G09
 -12659544.38548  -9839280.53146  22151185.638    22151185.2854   22151192.1644
       188.0004        187.0004
  -2513101.45747  -1926647.18145  23914602.554    23914602.5904   23914607.5924
       151.0004        152.0004
   -779100.30047   -592545.48545  23566774.767    23566773.4434   23566777.8884
       143.0004        148.0004
 -10506274.26448  -8167857.26246  21978481.020    21978480.9874   21978485.5294
       182.0004        183.0004
 -19347947.05649 -15062052.60647  21016544.701    21016544.9554   21016552.9524
       195.0004        195.0004
  -7659272.37048  -5939951.87347  23061953.960    23061953.5264   23061961.8334
       193.0004        194.0004
  -2478182.86248  -1898566.52746  23166774.895    23166775.2534   23166780.4154
       168.0004        167.0004
  -9004373.26248  -6984747.81946  22559415.881    22559416.9524   22559421.0684
       178.0004        179.0004
 -12217165.00848  -9488926.35747  22078876.506    22078876.8864   22078884.8054
       192.0004        192.0004
 21  2  5  0 52 30.0000000  0  9G30G04G28G21G01G08G14G17G09
 -12742681.32948  -9904062.55846  22135364.101    22135364.4554   22135371.5374
       187.0004        187.0004
  -2415368.72947  -1850491.83145  23933199.805    23933200.3954   23933206.9324
       149.0004        152.0004
   -794656.73747   -604667.38645  23563812.485    23563813.6644   23563817.7364
       147.0004        152.0004
 -10471196.98148  -8140524.31146  21985157.014    21985156.6594   21985160.8724
       182.0004        182.0004
 -19386492.68549 -15092088.15647  21009209.182    21009209.8814   21009218.4034
       195.0004        196.0004
  -7564901.28148  -5866415.97847  23079911.102    23079911.2574   23079920.1014
       192.0004        192.0004
  -2504933.54348  -1919411.23846  23161681.294    23161681.7514   23161689.6884
       165.0004        164.0004
  -9067888.61848  -7034240.28946  22547328.676    22547329.7734   22547333.8124
       179.0004        180.0004
 -12144895.74048  -9432612.62647  22092629.026    22092629.7574   22092636.2004
       192.0004        193.0004
 21  2  5  0 53  0.0000000  0 10G30G04G28G21G01G08G14G17G19G09
 -12825668.13748  -9968727.59446  22119572.700    22119572.4184   22119579.6444
       187.0004        187.0004
  -2317699.13447  -1774385.68245  23951784.897    23951786.8744   23951791.9684
       149.0004        152.0004
   -810261.90147   -616827.25745  23560842.896    23560842.4804   23560848.8444
       149.0004        152.0004
 -10435635.13648  -8112813.77046  21991924.381    21991923.3124   21991928.4524
       183.0004        183.0004
 -19424554.27149 -15121746.51547  21001966.845    21001966.8384   21001975.3594
       195.0004        195.0004
  -7470501.56448  -5792857.79847  23097875.835    23097875.1354   23097883.5464
       192.0004        192.0004
  -2531729.48147  -1940291.20046  23156583.748    23156585.1224   23156590.4474
       164.0004        165.0004
  -9131013.33848  -7083428.36946  22535317.716    22535317.5554   22535322.1424
       180.0004        181.0004
  -1026950.40347   -773252.94045  24887214.889    24887214.1924   24887219.0434
       138.0004        144.0004
 -12072417.53248  -9376136.09347  22106420.648    22106420.7044   22106428.7674
       193.0004        193.0004
 21  2  5  0 53 30.0000000  0 10G30G04G28G21G01G08G14G17G19G09
 -12908492.86948 -10033266.34547  22103811.672    22103811.6184   22103818.9904
       187.0004        188.0004
  -2220085.78347  -1698323.36145  23970361.547    23970361.2214   23970368.1954
       148.0004        151.0004
   -825907.84547   -629018.89945  23557866.172    23557865.6404   23557870.6894
       148.0004        151.0004
 -10399580.51748  -8084719.26946  21998783.358    21998784.2834   21998788.8614
       182.0004        182.0004
 -19462119.96749 -15151018.47547  20994817.711    20994818.5574   20994827.1284
       195.0004        196.0004
  -7376066.14048  -5719271.77447  23115844.866    23115844.6294   23115854.2344
       191.0004        191.0004
  -2558562.19648  -1961199.79946  23151481.490    23151481.7384   23151484.6294
       166.0004        168.0004
  -9193737.62648  -7132304.42446  22523380.591    22523380.8684   22523387.1664
       181.0004        183.0004
  -1119184.87447   -845123.84945  24869661.957    24869659.8914   24869665.4784
       140.0004        145.0004
 -11999724.09548  -9319491.87547  22120253.830    22120254.4074   22120261.6514
       192.0004        193.0004
 21  2  5  0 54  0.0000000  0 10G30G04G28G21G01G08G14G17G19G09
 -12991154.58348 -10097678.06147  22088082.180    22088082.3664   22088088.7014
       187.0004        188.0004
  -2122532.89147  -1622308.15845  23988924.776    23988926.5504   23988930.5724
       147.0004        150.0004
   -841597.21547   -641244.36045  23554881.209    23554881.5214   23554883.6744
       148.0004        150.0004
 -10363034.93348  -8056242.18046  22005738.978    22005738.6444   22005743.1624
       182.0004        183.0004
 -19499188.99149 -15179903.41647  20987764.584    20987764.8524   20987773.0084
       196.0004        197.0004
  -7281598.90648  -5645660.94647  23133820.912    23133821.1934   23133831.2404
       190.0004        191.0004
  -2585434.12948  -1982138.92646  23146368.451    23146368.0624   23146371.5584
       167.0004        169.0004
  -9256061.74548  -7180868.65446  22511520.985    22511521.9044   22511526.4874
       182.0004        182.0004
  -1211217.30147   -916837.33145  24852148.953    24852148.6944   24852155.0044
       143.0004        147.0004
 -11926820.03248  -9262683.53647  22134127.896    22134128.0424   22134134.5424
       192.0004        192.0004
 21  2  5  0 54 30.0000000  0 10G30G04G28G21G01G08G14G17G19G09
 -13073651.48748 -10161961.35547  22072383.202    22072383.3844   22072389.9064
       188.0004        188.0004
  -2025043.84047  -1546342.67345  24007477.250    24007477.1404   24007482.2494
       146.0004        148.0004
   -857332.43347   -653505.56445  23551886.923    23551884.9614   23551889.6314
       148.0004        151.0004
 -10325999.82748  -8027383.65746  22012787.091    22012786.2134   22012790.9954
       183.0004        183.0004
 -19535759.74449 -15208400.09347  20980806.155    20980806.5204   20980813.7654
       197.0004        197.0004
  -7187103.32848  -5572028.05447  23151803.606    23151803.8044   23151812.1524
       191.0004        192.0004
  -2612346.89347  -2003109.86046  23141243.897    23141244.5464   23141248.4054
       164.0004        163.0004
  -9317986.07348  -7229121.35846  22499737.875    22499737.6864   22499742.3104
       182.0004        182.0004
  -1303046.63547   -988392.56245  24834675.375    24834674.9504   24834680.7864
       147.0004        152.0004
 -11853709.25348  -9205714.09647  22148039.709    22148040.2084   22148047.4064
       191.0004        191.0004
 21  2  5  0 55  0.0000000  0 10G30G04G28G21G01G08G14G17G19G09
 -13155981.35348 -10226114.48146  22056715.738    22056715.5814   22056723.2434
       187.0004        187.0004
  -1927621.47247  -1470429.16745  24026014.597    24026015.8574   24026021.4094
       145.0004        148.0004
   -873115.19447   -665803.82045  23548882.476    23548882.7924   23548887.2584
       147.0004        150.0004
 -10288476.29048  -7998144.53646  22019926.875    22019926.3484   22019932.0084
       183.0004        183.0004
 -19571830.16849 -15236506.90447  20973941.928    20973942.2954   20973950.2164
       197.0004        198.0004
  -7092581.67748  -5498374.83747  23169790.265    23169790.7134   23169799.5424
       192.0004        192.0004
  -2639301.68747  -2024113.62046  23136113.935    23136114.6634   23136120.0894
       163.0004        165.0004
  -9379510.24548  -7277062.23846  22488029.891    22488029.6304   22488035.3504
       181.0004        181.0004
  -1394671.85647  -1059788.76245  24817239.671    24817239.1854   24817244.3254
       148.0004        152.0004
 -11780395.08748  -9148586.17947  22161990.904    22161991.2544   22161998.8204
       191.0004        192.0004
 21  2  5  0 55 30.0000000  0 10G30G04G28G21G01G08G14G17G19G09
 -13238141.06048 -10290135.03046  22041081.773    22041081.9224   22041088.3374
       187.0004        187.0004
  -1830267.81747  -1394569.19645  24044542.536    24044542.2354   24044547.1814
       144.0004        147.0004
   -888946.10247   -678139.58245  23545870.434    23545869.9894   23545874.6004
       148.0004        150.0004
 -10250464.67348  -7968525.09246  22027160.552    22027160.2064   22027164.2974
       183.0004        183.0004
 -19607397.33549 -15264221.57747  20967172.927    20967173.5724   20967181.3694
       197.0004        197.0004
  -6998036.34548  -5424703.15747  23187781.545    23187782.1754   23187791.1384
       191.0004        191.0004
  -2666298.81748  -2045150.33746  23130976.931    23130978.4694   23130983.2124
       165.0004        167.0004
  -9440632.78248  -7324690.18246  22476397.989    22476398.7264   22476403.8214
       180.0004        181.0004
  -1486090.62747  -1131024.07745  24799841.381    24799841.9414   24799848.2454
       148.0004        151.0004
 -11706880.08748  -9091301.75847  22175980.814    22175981.3064   22175988.0064
       192.0004        192.0004
 21  2  5  0 56  0.0000000  0 10G30G04G28G21G01G08G14G17G19G09
 -13320129.06148 -10354021.77646  22025480.889    22025480.1004   22025486.5034
       187.0004        187.0004
  -1732986.44547  -1318765.58445  24063054.822    24063053.6864   24063058.9284
       143.0004        146.0004
   -904827.62047   -690514.77545  23542848.598    23542848.4704   23542852.2054
       148.0004        152.0004
 -10211966.45348  -7938526.47746  22034486.286    22034485.9354   22034491.0714
       183.0004        183.0004
 -19642459.97449 -15291543.10547  20960500.732    20960501.5934   20960509.0104
       197.0004        197.0004
  -6903471.03248  -5351015.92847  23205776.896    23205777.1164   23205786.9824
       190.0004        190.0004
  -2693340.14747  -2066221.48446  23125831.151    23125831.9574   23125837.7314
       164.0004        164.0004
  -9501353.93948  -7372005.34646  22464843.177    22464844.0294   22464848.7984
       181.0004        182.0004
  -1577302.16647  -1202097.93545  24782486.042    24782484.9164   24782489.7074
       147.0004        150.0004
 -11633168.28848  -9033864.00247  22190007.598    22190007.3454   22190014.7234
       191.0004        191.0004
 21  2  5  0 56 30.0000000  0 10G30G04G28G21G01G08G14G17G19G09
 -13401943.00448 -10417772.91047  22009910.777    22009911.3154   22009918.1364
       187.0004        188.0004
  -1635780.13747  -1243020.45845  24081551.210    24081551.9554   24081557.3634
       143.0004        146.0004
   -920761.40047   -702930.68745  23539815.219    23539814.9144   23539820.0324
       149.0004        153.0004
 -10172982.78348  -7908149.58546  22041904.486    22041904.1554   22041908.6974
       183.0004        183.0004
 -19677016.07849 -15318469.91447  20953924.826    20953925.6144   20953933.0324
       197.0004        198.0004
  -6808887.68248  -5277314.63247  23223776.137    23223776.0984   23223784.9504
       189.0004        189.0004
  -2720426.79647  -2087327.95146  23120676.377    23120676.8964   23120683.6304
       162.0004        163.0004
  -9561673.45048  -7419007.54146  22453364.699    22453365.0054   22453370.0714
       181.0004        182.0004
  -1668305.46747  -1273009.51445  24765168.088    24765167.7784   24765172.7324
       144.0004        148.0004
 -11559263.09048  -8976275.53347  22204070.117    22204070.5024   22204078.3564
       189.0004        189.0004
 21  2  5  0 57  0.0000000  0 10G30G04G28G21G01G08G14G17G19G09
 -13483579.84248 -10481386.01847  21994375.481    21994376.0824   21994383.8814
       187.0004        189.0004
  -1538650.91547  -1167335.39945  24100034.301    24100035.3884   24100040.5534
       144.0004        149.0004
   -936748.16947   -715387.89145  23536774.263    23536774.6364   23536778.7984
       151.0004        155.0004
 -10133513.95148  -7877394.64346  22049415.603    22049414.9964   22049419.6964
       182.0004        182.0004
 -19711062.78849 -15344999.80747  20947446.270    20947447.2494   20947454.6674
       198.0004        198.0004
  -6714288.17448  -5203600.75147  23241777.351    23241777.9894   23241786.1274
       188.0004        188.0004
  -2747559.06547  -2108469.97346  23115515.273    23115514.5594   23115519.4954
       161.0004        163.0004
  -9621589.83048  -7465695.60646  22441963.255    22441964.2664   22441968.9144
       182.0004        182.0004
  -1759098.36047  -1343757.10145  24747889.636    24747889.2604   24747896.2574
       142.0004        146.0004
 -11485167.06948  -8918538.36047  22218171.500    22218171.7044   22218178.1194
       189.0004        189.0004
 21  2  5  0 57 30.0000000  0 10G30G04G28G21G01G08G14G17G19G09
 -13565036.84248 -10544858.99147  21978876.162    21978875.5764   21978882.8484
       188.0004        190.0004
  -1441601.19347  -1091712.26545  24118502.514    24118502.9324   24118509.3534
       146.0004        149.0004
   -952788.88747   -727887.15645  23533722.665    23533722.5124   23533724.8774
       151.0004        153.0004
 -10093560.76648  -7846262.30146  22057018.129    22057017.8594   22057021.7894
       182.0004        182.0004
 -19744597.76549 -15371130.95247  20941064.768    20941065.2484   20941072.9714
       198.0004        199.0004
  -6619675.35048  -5129876.51247  23259782.924    23259782.8514   23259790.5944
       188.0004        188.0004
  -2774737.62847  -2129648.06846  23110341.355    23110342.7694   23110348.0744
       161.0004        163.0004
  -9681102.42748  -7512069.05946  22430638.305    22430638.5824   22430643.3014
       181.0004        181.0004
  -1849679.14547  -1414339.48645  24730653.607    24730652.9754   24730657.5614
       141.0004        146.0004
 -11410883.08148  -8860654.74347  22232306.561    22232307.3524   22232314.3434
       189.0004        189.0004
 21  2  5  0 58  0.0000000  0 11G30G04G22G28G21G01G08G14G17G19G09
 -13646311.43748 -10608189.83747  21963410.225    21963410.4964   21963416.4754
       190.0004        191.0004
  -1344633.51947  -1016153.07845  24136954.457    24136954.8574   24136962.3564
       146.0004        150.0004
   1559164.77254   1239663.149 5                                  24709011.792
        74.0004        139.000
   -968884.88347   -740429.47345  23530658.425    23530658.1704   23530662.5224
       149.0004        151.0004
 -10053124.01348  -7814753.12146  22064712.774    22064712.5384   22064717.3344
       181.0004        182.0004
 -19777618.75849 -15396861.58347  20934780.835    20934781.6524   20934789.5784
       198.0004        199.0004
  -6525051.44748  -5056143.61146  23277787.872    23277787.7284   23277796.8704
       187.0004        187.0004
  -2801963.34847  -2150862.89446  23105160.951    23105162.0284   23105167.0984
       162.0004        165.0004
  -9740210.86148  -7558127.54346  22419389.980    22419390.3834   22419395.8054
       181.0004        182.0004
  -1940046.23147  -1484755.33045  24713455.926    24713456.3774   24713460.3034
       142.0004        146.0004
 -11336414.27348  -8802627.10547  22246478.319    22246478.2564   22246485.3424
       190.0004        191.0004
 21  2  5  0 58 30.0000000  0 10G30G04G28G21G01G08G14G17G19G09
 -13727400.57248 -10671376.18447  21947979.216    21947979.4934   21947985.4394
       190.0004        191.0004
  -1247749.95147   -940659.42545  24155391.435    24155390.5044   24155397.7564
       146.0004        148.0004
   -985037.14847   -753015.65245  23527584.999    23527584.2044   23527587.8334
       147.0004        150.0004
 -10012204.01448  -7782867.41346  22072500.297    22072499.5314   22072503.8184
       181.0004        182.0004
 -19810123.12949 -15422189.65447  20928595.497    20928596.0694   20928604.0614
       199.0004        199.0004
  -6430418.06648  -4982403.32246  23295795.467    23295795.4634   23295804.9644
       186.0004        186.0004
  -2829236.56248  -2172114.74146  23099972.306    23099973.1134   23099977.7274
       165.0004        168.0004
  -9798913.91248  -7603870.18146  22408219.613    22408219.6484   22408225.2184
       182.0004        183.0004
  -2030197.60847  -1555003.09245  24696301.719    24696301.8164   24696306.0564
       141.0004        146.0004
 -11261763.29648  -8744457.52947  22260683.189    22260683.4524   22260690.5614
       189.0004        188.0004
 21  2  5  0 59  0.0000000  0 10G30G04G28G21G01G08G14G17G19G09
 -13808302.20648 -10734416.40947  21932584.414    21932584.2734   21932591.1914
       191.0004        192.0004
  -1150953.37547   -865233.58345  24173810.904    24173810.5014   24173816.1284
       144.0004        147.0004
  -1001247.55947   -765647.09445  23524499.622    23524501.3244   23524503.1364
       146.0004        150.0004
  -9970801.99048  -7750606.09046  22080379.157    22080378.6364   22080383.2254
       182.0004        182.0004
 -19842109.17949 -15447113.84247  20922508.388    20922509.1064   20922517.3344
       199.0004        199.0004
  -6335778.31848  -4908658.07746  23313803.702    23313804.8024   23313814.4164
       186.0004        187.0004
  -2856558.60648  -2193404.62846  23094772.920    23094773.6434   23094778.2754
       166.0004        167.0004
  -9857211.36748  -7649296.74846  22397125.783    22397126.4254   22397130.9774
       183.0004        184.0004
  -2120132.24047  -1625081.95245  24679189.444    24679188.7704   24679191.2734
       143.0004        147.0004
 -11186933.68448  -8686148.75446  22274923.345    22274922.9454   22274930.4944
       188.0004        187.0004
 21  2  5  0 59 30.0000000  0 10G30G04G28G21G01G08G14G17G19G09
 -13889012.86248 -10797307.82947  21917225.302    21917225.5274   21917232.1134
       191.0004        192.0004
  -1054245.64747   -789876.97445  24192213.582    24192213.9704   24192220.4224
       143.0004        148.0004
  -1017516.62747   -778324.26745  23521402.990    23521403.1144   23521408.8034
       147.0004        151.0004
  -9928918.07548  -7717969.26446  22088349.088    22088348.7504   22088352.3194
       181.0004        182.0004
 -19873573.96249 -15471631.84247  20916521.462    20916522.0424   20916529.3174
       199.0004        199.0004
  -6241133.69148  -4834909.02646  23331813.274    23331814.7284   23331824.6924
       185.0004        184.0004
  -2883929.47947  -2214732.54546  23089563.064    23089564.4244   23089567.7564
       164.0004        165.0004
  -9915102.12348  -7694406.41946  22386110.411    22386110.4864   22386114.4064
       185.0004        185.0004
  -2209848.03547  -1694990.29245  24662115.927    24662114.4574   24662116.6224
       139.0004        143.0004
 -11111927.72548  -8627702.56746  22289195.841    22289196.1394   22289203.1144
       187.0004        187.0004
 21  2  5  1  0  0.0000000  0 10G30G04G28G21G01G08G14G17G19G09
 -13969530.00248 -10860048.45447  21901902.600    21901903.0604   21901910.0654
       191.0004        192.0004
   -957629.20947   -714591.49145  24210598.104    24210598.6094   24210605.4134
       145.0004        149.0004
  -1033845.36347   -791047.94245  23518296.862    23518297.4604   23518302.1274
       148.0004        151.0004
  -9886553.31348  -7684957.75046  22096409.936    22096409.5024   22096414.1434
       181.0004        181.0004
 -19904515.27849 -15495741.94547  20910633.477    20910633.8284   20910641.5604
       199.0004        199.0004
  -6146486.56748  -4761158.05046  23349826.811    23349826.4854   23349835.6424
       184.0004        185.0004
  -2911349.91348  -2236099.11346  23084346.029    23084346.0394   23084351.5284
       165.0004        167.0004
  -9972585.58548  -7739198.72346  22375170.900    22375171.4144   22375176.5874
       184.0004        184.0004
  -2299343.25447  -1764726.74945  24645085.757    24645085.3084   24645088.7104
       140.0004        145.0004
 -11036748.44548  -8569121.31246  22303501.529    22303502.3104   22303509.2584
       186.0004        186.0004
 21  2  5  1  0 30.0000000  0 10G30G04G28G21G01G08G14G17G19G09
 -14049852.34548 -10922637.28247  21886618.551    21886618.8024   21886625.7944
       192.0004        193.0004
   -861107.85647   -639380.08345  24228966.302    24228967.4714   24228973.1444
       148.0004        151.0004
  -1050236.39547   -803820.14545  23515176.511    23515177.8254   23515181.4134
       147.0004        150.0004
  -9843709.85048  -7651573.22546  22104562.889    22104562.7814   22104567.4854
       180.0004        180.0004
 -19934932.38549 -15519443.57747  20904845.495    20904846.0474   20904853.2234
       199.0004        200.0004
  -6051840.35648  -4687407.76946  23367839.924    23367838.3694   23367846.2634
       185.0004        186.0004
  -2938822.03348  -2257505.96846  23079118.673    23079118.7494   23079124.1454
       166.0004        167.0004
 -10029662.37548  -7783674.13746  22364309.990    22364310.9544   22364314.3564
       183.0004        182.0004
  -2388617.69447  -1834291.15845  24628094.652    24628095.1064   24628099.7324
       139.0004        143.0004
 -10961400.26648  -8510408.44446  22317840.640    22317841.5244   22317848.1754
       186.0004        187.0004
 21  2  5  1  1  0.0000000  0 10G30G04G28G21G01G08G14G17G19G09
 -14129977.20048 -10985072.23347  21871371.332    21871371.5134   21871378.0054
       193.0004        194.0004
   -764683.97747   -564244.63645  24247314.492    24247315.0994   24247322.3614
       148.0004        151.0004
  -1066690.84647   -816641.81245  23512047.101    23512046.5764   23512051.7444
       149.0004        153.0004
  -9800388.81848  -7617816.57646  22112807.672    22112806.9434   22112811.4944
       180.0004        182.0004
 -19964823.08149 -15542735.02647  20899157.722    20899157.7784   20899165.0494
       199.0004        200.0004
  -5957197.37648  -4613660.04346  23385851.309    23385849.4904   23385855.8934
       186.0004        186.0004
  -2966346.59748  -2278953.66146  23073880.446    23073880.7804   23073885.5174
       165.0004        166.0004
 -10086331.81048  -7827832.11946  22353525.502    22353525.8564   22353529.9494
       181.0004        180.0004
  -2477669.69847  -1903682.30345  24611150.375    24611149.6754   24611152.9914
       139.0004        144.0004
 -10885886.20348  -8451566.32746  22332209.986    22332210.6444   22332217.6334
       185.0004        185.0004
 21  2  5  1  1 30.0000000  0 10G30G04G28G21G01G08G14G17G19G09
 -14209902.27848 -11047351.50647  21856161.434    21856161.6494   21856168.8314
       193.0004        193.0004
   -668360.32747   -489187.28745  24265645.072    24265644.4704   24265651.6114
       147.0004        150.0004
  -1083210.57147   -829514.31345  23508901.997    23508901.8354   23508905.9944
       149.0004        150.0004
  -9756591.50748  -7583688.81146  22121142.283    22121141.0134   22121145.7044
       181.0004        182.0004
 -19994185.62949 -15565614.91547  20893569.509    20893570.3574   20893578.2404
       199.0004        200.0004
  -5862559.96548  -4539916.61546  23403858.539    23403858.3684   23403864.2204
       187.0004        186.0004
  -2993924.60048  -2300442.97946  23068632.231    23068632.8774   23068637.7494
       166.0004        167.0004
 -10142593.67748  -7871672.51946  22342820.072    22342820.2394   22342824.1874
       180.0004        181.0004
  -2566498.15847  -1972899.22145  24594246.878    24594246.4044   24594248.8544
       139.0004        142.0004
 -10810209.66948  -8392597.60946  22346611.245    22346611.9414   22346618.4534
       185.0004        185.0004
 21  2  5  1  2  0.0000000  0 10G30G04G28G21G01G08G14G17G19G09
 -14289623.08748 -11109471.62347  21840991.803    21840992.0594   21840998.2654
       193.0004        194.0004
   -572137.43347   -414208.47445  24283954.451    24283955.2094   24283962.3044
       146.0004        149.0004
  -1099794.64147   -842436.95445  23505745.516    23505746.8244   23505750.8174
       147.0004        149.0004
  -9712316.72648  -7549188.98146  22129567.096    22129566.8994   22129570.6354
       181.0004        181.0004
 -20023016.08249 -15588080.19947  20888083.113    20888083.8594   20888091.9114
       200.0004        200.0004
  -5767929.48248  -4466178.59446  23421865.272    23421864.8084   23421872.5564
       186.0004        186.0004
  -3021554.93848  -2321973.09646  23063374.662    23063375.0244   23063379.7274
       165.0004        166.0004
 -10198445.55748  -7915193.47046  22332191.475    22332191.9814   22332195.6374
       181.0004        182.0004
  -2655099.74747  -2041939.32445  24577384.672    24577383.6644   24577390.2224
       139.0004        144.0004
 -10734371.82248  -8333503.19746  22361042.511    22361042.7874   22361050.0234
       185.0004        184.0004
 21  2  5  1  2 30.0000000  0 10G30G04G28G21G01G08G14G17G19G09
 -14369136.39848 -11171430.04247  21825860.891    21825860.4234   21825868.2304
       194.0004        194.0004
   -476017.19047   -339309.66745  24302244.985    24302246.9384   24302252.6804
       144.0004        148.0004
  -1116443.82947   -855410.34245  23502579.289    23502579.4054   23502584.1114
       148.0004        152.0004
  -9667565.28848  -7514317.72046  22138082.154    22138081.8774   22138086.4104
       180.0004        181.0004
 -20051311.80849 -15610128.81047  20882698.677    20882699.2704   20882707.3594
       199.0004        199.0004
  -5673306.61148  -4392446.52646  23439871.831    23439871.1584   23439878.2264
       185.0004        184.0004
  -3049237.79148  -2343544.14746  23058106.087    23058107.1994   23058112.4244
       165.0004        167.0004
 -10253886.34648  -7958394.05346  22321641.804    22321641.9454   22321645.7284
       181.0004        183.0004
  -2743472.55147  -2110801.17445  24560569.241    24560568.4214   24560572.5924
       141.0004        146.0004
 -10658375.16548  -8274285.01946  22375504.015    22375504.4164   22375511.0374
       184.0004        184.0004
 21  2  5  1  3  0.0000000  0 10G30G04G28G21G01G08G14G17G19G09
 -14448440.09448 -11233225.11847  21810769.420    21810769.7004   21810776.4444
       194.0004        195.0004
   -380002.47847   -264493.07145  24320516.612    24320518.2534   24320524.3664
       144.0004        147.0004
  -1133159.78547   -868435.73645  23499398.765    23499398.0514   23499402.8804
       150.0004        153.0004
  -9622338.48848  -7479076.04946  22146688.170    22146688.0174   22146693.0984
       179.0004        179.0004
 -20079071.29249 -15631759.56247  20877416.061    20877416.7514   20877424.6674
       199.0004        198.0004
  -5578694.56648  -4318722.86446  23457874.194    23457874.7014   23457882.6144
       183.0004        183.0004
  -3076974.35948  -2365157.04146  23052828.852    23052829.3124   23052833.8484
       167.0004        168.0004
 -10308916.78048  -8001274.90346  22311168.329    22311168.9784   22311174.6844
       181.0004        182.0004
  -2831615.31047  -2179483.77745  24543796.194    24543796.5814   24543801.0734
       142.0004        146.0004
 -10582223.18948  -8214945.82646  22389995.468    22389995.1084   22390002.5264
       184.0004        184.0004
 21  2  5  1  3 30.0000000  0 11G30G04G22G28G21G01G08G14G17G19G09
 -14527532.22048 -11294855.35347  21795718.762    21795719.0834   21795725.3874
       194.0004        195.0004
   -284096.43847   -189761.17045  24338768.180    24338769.9114   24338775.9694
       144.0004        149.0004
   1559164.77254   1239663.149 5                                  24709011.792
        74.0004        136.000
  -1149944.55647   -881514.76445  23496202.383    23496202.4884   23496207.1504
       148.0004        151.0004
  -9576638.18148  -7443465.41746  22155384.785    22155384.6534   22155389.5594
       180.0004        181.0004
 -20106293.23249 -15652971.46047  20872236.159    20872236.6834   20872244.1264
       198.0004        198.0004
  -5484096.12048  -4245009.80546  23475873.568    23475874.6964   23475884.0774
       182.0004        182.0004
  -3104766.01148  -2386812.85946  23047539.009    23047540.1524   23047545.5044
       167.0004        168.0004
 -10363536.27448  -8043835.54146  22300775.676    22300775.8054   22300780.2884
       182.0004        182.0004
  -2919527.59547  -2247986.78945  24527067.689    24527067.0894   24527072.3424
       145.0004        150.0004
 -10505919.64448  -8155488.53546  22404515.474    22404515.6794   22404523.0454
       184.0004        185.0004
 21  2  5  1  4  0.0000000  0 11G30G04G22G28G21G01G08G14G17G19G09
 -14606408.97549 -11356317.75547  21780709.806    21780709.5774   21780716.0534
       195.0004        195.0004
   -188300.22047   -115114.83845  24356997.405    24356998.9254   24357005.4894
       145.0004        148.0004
   1559164.77244   1239663.149 5                                  24709011.792
        74.0004        136.000
  -1166798.17347   -894647.42445  23492996.633    23492995.9154   23493001.6554
       150.0004        154.0004
  -9530464.18148  -7407485.66146  22164171.912    22164172.1954   22164175.6584
       180.0004        180.0004
 -20132974.45449 -15673762.01747  20867158.524    20867159.2754   20867167.4184
       198.0004        199.0004
  -5389512.14448  -4171308.02846  23493874.060    23493874.2994   23493882.3034
       182.0004        183.0004
  -3132612.32148  -2408511.26346  23042240.941    23042241.6274   23042246.8704
       166.0004        167.0004
 -10417743.84848  -8086075.20646  22290460.653    22290461.1024   22290465.8184
       182.0004        184.0004
  -3007206.67647  -2316308.08945  24510383.726    24510382.9394   24510387.9334
       149.0004        154.0004
 -10429466.45148  -8095914.64046  22419064.936    22419065.1704   22419071.4274
       184.0004        184.0004
 21  2  5  1  4 30.0000000  0 11G30G04G22G28G21G01G08G14G17G19G09
 -14685069.31249 -11417611.53747  21765740.866    21765741.2114   21765747.0124
       195.0004        195.0004
    -92617.91447    -40557.22845  24375204.738    24375206.1604   24375211.9034
       143.0004        147.0004
   1559164.77244   1239663.149 5                                  24709011.792
        74.0004        136.000
  -1183723.18747   -907835.76645  23489776.497    23489777.0084   23489780.6124
       154.0004        158.0004
  -9483819.33248  -7371139.02746  22173047.992    22173047.2864   22173052.3354
       179.0004        179.0004
 -20159114.64849 -15694130.99247  20862184.424    20862185.2784   20862192.6804
       199.0004        198.0004
  -5294947.06648  -4097620.96546  23511870.321    23511869.5474   23511877.7364
       183.0004        183.0004
  -3160515.61548  -2430254.08646  23036930.998    23036931.6454   23036936.6434
       167.0004        169.0004
 -10471540.54448  -8127994.68546  22280222.751    22280222.5704   22280227.6824
       183.0004        183.0004
  -3094652.40147  -2384447.54045  24493742.500    24493741.6574   24493746.2714
       150.0004        152.0004
 -10352868.27448  -8036227.75246  22433640.137    22433640.6894   22433648.0004
       184.0004        185.0004
 21  2  5  1  5  0.0000000  0 10G30G04G28G21G01G08G14G17G19G09
 -14763510.51849 -11478734.55147  21750813.678    21750813.7864   21750820.6254
       195.0004        195.0004
      2948.23347     33909.84445  24393390.264    24393391.2784   24393397.4934
       141.0004        144.0004
  -1200720.84847   -921080.67945  23486542.707    23486542.7634   23486545.3834
       156.0004        159.0004
  -9436704.67348  -7334426.29746  22182014.357    22182013.1054   22182017.9994
       179.0004        180.0004
 -20184711.81249 -15714076.82847  20857313.798    20857314.3314   20857321.8184
       198.0004        199.0004
  -5200402.68048  -4023950.05546  23529862.051    23529861.7104   23529869.6214
       185.0004        186.0004
  -3188476.50148  -2452041.75946  23031609.555    23031610.8424   23031615.7734
       168.0004        169.0004
 -10524925.37748  -8169593.24346  22270063.648    22270064.0254   22270068.3674
       182.0004        183.0004
  -3181863.29547  -2452404.03745  24477146.321    24477146.3664   24477150.6954
       150.0004        153.0004
 -10276128.05548  -7976430.17546  22448243.313    22448244.0484   22448251.1604
       184.0004        184.0004
 21  2  5  1  5 30.0000000  0 10G30G04G28G21G01G08G14G17G19G09
 -14841729.19249 -11539684.16647  21735928.896    21735929.7424   21735935.6594
       195.0004        195.0004
     98396.69747    108285.20845  24411553.764    24411553.9734   24411562.2384
       138.0004        142.0004
  -1217791.67247   -934382.57545  23483292.906    23483292.4144   23483297.4314
       155.0004        157.0004
  -9389120.38348  -7297347.60746  22191069.056    22191068.4504   22191073.3324
       179.0004        179.0004
 -20209763.29149 -15733597.43947  20852546.526    20852547.1854   20852554.9114
       198.0004        198.0004
  -5105880.48648  -3950296.41546  23547846.979    23547848.2394   23547856.0644
       184.0004        184.0004
  -3216494.83448  -2473874.24146  23026279.770    23026280.0834   23026283.2624
       168.0004        168.0004
 -10577897.64048  -8210870.30146  22259983.760    22259983.9124   22259988.6974
       182.0004        183.0004
  -3268837.55547  -2520176.10645  24460595.166    24460594.8924   24460599.1924
       150.0004        153.0004
 -10199248.07048  -7916523.70046  22462874.393    22462874.1584   22462880.7894
       183.0004        183.0004
 21  2  5  1  6  0.0000000  0 10G30G04G28G21G01G08G14G17G19G09
 -14919722.67749 -11600458.30147  21721088.191    21721088.2004   21721094.5874
       195.0004        196.0004
    193724.98847    182566.89145  24429694.782    24429695.6534   24429702.6124
       136.0004        140.0004
  -1234936.67847   -947742.30045  23480031.524    23480032.0214   23480035.2814
       156.0004        159.0004
  -9341067.72748  -7259903.97446  22200212.471    22200213.1614   22200218.1174
       179.0004        179.0004
 -20234267.14849 -15752691.33847  20847883.396    20847884.2904   20847892.1214
       198.0004        199.0004
  -5011382.52448  -3876661.65846  23565831.807    23565831.4334   23565838.6504
       185.0004        185.0004
  -3244571.35248  -2495752.04046  23020936.189    23020936.6994   23020941.5194
       169.0004        170.0004
 -10630457.24348  -8251825.80846  22249982.754    22249982.0914   22249986.9664
       184.0004        184.0004
  -3355573.57047  -2587762.56345  24444090.461    24444089.9364   24444094.2734
       149.0004        152.0004
 -10122231.34948  -7856510.67146  22477528.888    22477529.1054   22477536.3444
       183.0004        183.0004
 21  2  5  1  6 30.0000000  0 10G30G04G28G21G01G08G14G17G19G09
 -14997488.64449 -11661055.15447  21706289.500    21706290.0784   21706296.0874
       196.0004        197.0004
    288930.39947    256752.84845  24447811.440    24447812.7484   24447819.6994
       137.0004        141.0004
  -1252157.41947   -961161.01745  23476755.908    23476754.6844   23476757.4744
       156.0004        158.0004
  -9292548.14748  -7222096.51046  22209446.150    22209445.4484   22209450.3114
       179.0004        179.0004
 -20258221.95649 -15771357.41647  20843324.598    20843325.5624   20843333.4914
       198.0004        198.0004
  -4916911.36548  -3803047.81046  23583809.405    23583809.3164   23583815.4924
       184.0004        184.0004
  -3272707.04048  -2517675.91246  23015581.139    23015582.2154   23015586.9704
       168.0004        167.0004
 -10682604.03648  -8292459.66946  22240058.873    22240059.5554   22240063.7234
       184.0004        186.0004
  -3442070.19747  -2655162.48345  24427630.380    24427629.9974   24427632.6714
       148.0004        151.0004
 -10045081.31648  -7796393.77046  22492209.077    22492209.2764   22492217.6394
       181.0004        180.0004
 21  2  5  1  7  0.0000000  0 10G30G04G28G21G01G08G14G17G19G09
 -15075024.20749 -11721472.48347  21691535.546    21691535.4354   21691541.6354
       197.0004        197.0004
    384010.96647    330841.52645  24465904.538    24465906.2314   24465912.4894
       136.0004        142.0004
  -1269454.63647   -974639.35745  23473462.671    23473462.0094   23473465.0384
       152.0004        152.0004
  -9243562.57648  -7183925.94246  22218767.399    22218767.2694   22218772.7364
       179.0004        179.0004
 -20281625.57549 -15789593.99747  20838870.656    20838871.4794   20838879.8084
       198.0004        198.0004
  -4822468.74848  -3729456.17746  23601779.868    23601779.5364   23601787.2634
       183.0004        183.0004
  -3300902.27348  -2539646.24346  23010217.664    23010217.1524   23010221.0274
       166.0004        166.0004
 -10734336.91948  -8332770.98646  22230214.664    22230214.6494   22230220.0504
       185.0004        186.0004
  -3528325.90947  -2722374.62645  24411216.275    24411215.0694   24411220.3494
       147.0004        151.0004
  -9967800.67048  -7736175.09446  22506915.355    22506916.8554   22506923.3594
       180.0004        181.0004
 21  2  5  1  7 30.0000000  0 10G30G04G28G21G01G08G14G17G19G09
 -15152325.33849 -11781707.12847  21676824.544    21676825.0084   21676831.9284
       196.0004        196.0004
    478965.67447    404832.09645  24483974.929    24483975.8574   24483982.2394
       138.0004        142.0004
  -1286828.21647   -988177.20745  23470153.284    23470154.7114   23470159.6034
       149.0004        151.0004
  -9194111.19848  -7145392.39246  22228177.796    22228177.4124   22228182.2594
       179.0004        179.0004
 -20304474.81649 -15807398.58847  20834522.964    20834523.5924   20834531.5444
       198.0004        198.0004
  -4728055.82148  -3655887.70946  23619745.450    23619745.7864   23619753.8234
       181.0004        180.0004
  -3329156.32848  -2561662.39446  23004840.821    23004841.0614   23004844.4714
       165.0004        166.0004
 -10785654.98848  -8372759.07846  22220448.010    22220448.6304   22220454.0284
       185.0004        185.0004
  -3614337.86847  -2789396.91245  24394849.548    24394848.8584   24394852.5904
       149.0004        152.0004
  -9890391.16748  -7675856.01646  22521647.750    22521646.9424   22521654.4224
       181.0004        181.0004
 21  2  5  1  8  0.0000000  0 10G30G04G28G21G01G08G14G17G19G09
 -15229389.97549 -11841757.48347  21662159.289    21662159.9534   21662166.5814
       196.0004        196.0004
    573791.62247    478722.36445  24502018.181    24502019.0284   24502025.7574
       137.0004        142.0004
  -1304279.67047  -1001775.77945  23466833.140    23466832.7854   23466838.9794
       147.0004        151.0004
  -9144195.17248  -7106496.77746  22237677.225    22237676.2694   22237681.1294
       179.0004        179.0004
 -20326768.58849 -15824770.33247  20830280.442    20830281.4154   20830289.2184
       198.0004        198.0004
  -4633674.94448  -3582344.19946  23637702.801    23637704.8454   23637714.4194
       180.0004        181.0004
  -3357470.46348  -2583725.32146  22999451.219    22999451.8304   22999457.5664
       166.0004        167.0004
 -10836558.23148  -8412423.93146  22210761.555    22210762.7404   22210766.5214
       184.0004        184.0004
  -3700105.40947  -2856228.72345  24378529.423    24378528.3834   24378531.1184
       149.0004        152.0004
  -9812856.38748  -7615439.30946  22536402.213    22536402.3124   22536409.0674
       181.0004        183.0004
 21  2  5  1  8 30.0000000  0 10G30G04G28G21G01G08G14G17G19G09
 -15306215.21449 -11901621.30547  21647540.763    21647540.7204   21647547.3384
       196.0004        196.0004
    668486.65547    552510.62445  24520036.911    24520036.5954   24520047.5744
       137.0004        143.0004
  -1321810.08547  -1015435.80645  23463501.621    23463499.9404   23463502.0304
       151.0004        155.0004
  -9093816.06348  -7067240.31946  22247262.706    22247262.6894   22247267.5554
       178.0004        178.0004
 -20348504.86449 -15841707.68447  20826144.808    20826145.0594   20826152.8114
       198.0004        198.0004
  -4539328.12348  -3508827.19746  23655658.655    23655659.0084   23655667.7194
       180.0004        180.0004
  -3385845.07948  -2605835.40646  22994052.755    22994053.0934   22994057.9064
       167.0004        169.0004
 -10887046.36348  -8451765.30246  22201153.973    22201154.9274   22201159.9784
       184.0004        184.0004
  -3785626.62247  -2922868.57845  24362253.920    24362253.3324   24362256.3054
       150.0004        153.0004
  -9735199.15648  -7554927.19846  22551179.226    22551179.4644   22551185.1614
       182.0004        181.0004
 21  2  5  1  9  0.0000000  0 10G30G04G28G21G01G08G14G17G19G09
 -15382799.31849 -11961297.20647  21632965.544    21632966.0964   21632974.1044
       195.0004        195.0004
    763047.71747    626194.44245  24538033.423    24538033.3974   24538041.9634
       139.0004        142.0004
  -1339421.59947  -1029159.02045  23460150.137    23460149.0964   23460151.3614
       153.0004        156.0004
  -9042975.90148  -7027624.60546  22256936.905    22256936.9484   22256942.4144
       178.0004        178.0004
 -20369682.75149 -15858209.91947  20822113.822    20822114.7874   20822122.8634
       197.0004        197.0004
  -4445018.38248  -3435339.12746  23673606.242    23673606.4734   23673613.6874
       179.0004        179.0004
  -3414281.60248  -2627993.72646  22988641.254    22988641.6754   22988646.5564
       167.0004        167.0004
 -10937119.61348  -8490783.39046  22191626.191    22191626.1624   22191631.2424
       186.0004        187.0004
  -3870901.36047  -2989316.37245  24346027.391    24346026.7864   24346029.8314
       152.0004        155.0004
  -9657423.29748  -7494322.64746  22565979.096    22565979.6874   22565986.7854
       181.0004        182.0004
 21  2  5  1  9 30.0000000  0 10G30G04G28G21G01G08G14G17G19G09
 -15459140.48549 -12020783.82347  21618439.144    21618439.4534   21618446.7954
       195.0004        196.0004
    857471.53047    699771.31045  24556001.158    24556002.7374   24556009.9104
       139.0004        144.0004
  -1357116.04447  -1042946.92045  23456780.255    23456780.2214   23456784.8104
       152.0004        155.0004
  -8991677.02348  -6987651.44446  22266699.256    22266699.1494   22266704.7404
       178.0004        178.0004
 -20390301.52049 -15874276.48647  20818190.593    20818191.3464   20818199.2034
       197.0004        197.0004
  -4350749.25648  -3361882.69346  23691545.830    23691545.1234   23691553.4524
       179.0004        180.0004
  -3442781.59348  -2650201.51646  22983218.027    22983218.9584   22983222.6934
       167.0004        168.0004
 -10986778.65748  -8529478.74646  22182175.902    22182176.7304   22182181.1434
       187.0004        187.0004
  -3955929.15947  -3055571.76445  24329845.856    24329845.4364   24329850.0034
       151.0004        154.0004
  -9579532.78748  -7433628.76846  22580801.055    22580801.7604   22580809.2664
       181.0004        182.0004
 21  2  5  1 10  0.0000000  0 10G30G04G28G21G01G08G14G17G19G09
 -15535234.26549 -12080077.68447  21603959.206    21603959.4974   21603966.1954
       196.0004        196.0004
    951757.68347    773240.91845  24573943.598    24573944.5814   24573950.9164
       138.0004        142.0004
  -1374892.90147  -1056799.00645  23453394.482    23453394.5934   23453400.9864
       150.0004        151.0004
  -8939918.62148  -6947320.22946  22276548.907    22276548.7534   22276554.0534
       177.0004        178.0004
 -20410357.65949 -15889904.64047  20814374.600    20814375.0944   20814383.0854
       198.0004        198.0004
  -4256520.17148  -3288457.48546  23709476.116    23709476.3644   23709484.2894
       178.0004        179.0004
  -3471343.85048  -2672457.83146  22977783.127    22977783.1454   22977788.2434
       169.0004        171.0004
 -11036022.24948  -8567850.36446  22172804.948    22172805.0964   22172810.4684
       186.0004        185.0004
  -4040706.49747  -3121631.95545  24313713.044    24313713.1074   24313717.6744
       152.0004        155.0004
  -9501528.81548  -7372846.45546  22595644.718    22595644.9034   22595652.8474
       181.0004        182.0004
 21  2  5  1 10 30.0000000  0 10G30G04G28G21G01G08G14G17G19G09
 -15611077.40449 -12139176.23247  21589527.451    21589527.4724   21589534.4654
       196.0004        197.0004
   1045904.47247    846601.93845  24591859.610    24591860.4874   24591866.6234
       136.0004        141.0004
  -1392752.53647  -1070715.58145  23449997.926    23449998.8904   23450001.4664
       149.0004        151.0004
  -8887701.57348  -6906631.62046  22286486.146    22286485.4874   22286490.7334
       178.0004        178.0004
 -20429848.94749 -15905092.65747  20810665.565    20810665.9354   20810673.4504
       198.0004        199.0004
  -4162332.95348  -3215064.86346  23727396.528    23727397.9094   23727407.1884
       177.0004        177.0004
  -3499968.32948  -2694762.61446  22972335.634    22972335.9874   22972340.6584
       170.0004        171.0004
 -11084849.07548  -8605897.24746  22163513.816    22163514.7384   22163518.6664
       184.0004        184.0004
  -4125231.70947  -3187495.71645  24297629.568    24297628.3964   24297632.7584
       153.0004        156.0004
  -9423413.83748  -7311977.65846  22610510.033    22610510.4894   22610516.9394
       181.0004        182.0004
 21  2  5  1 11  0.0000000  0 10G30G04G28G21G01G08G14G17G19G09
 -15686667.42149 -12198077.53447  21575142.573    21575142.9624   21575149.4834
       196.0004        196.0004
   1139909.48347    919852.49545  24609747.841    24609749.7584   24609755.4474
       135.0004        139.0004
  -1410696.15447  -1084697.62345  23446585.133    23446584.7844   23446588.0134
       149.0004        152.0004
  -8835027.36648  -6865586.77646  22296508.318    22296508.5194   22296514.2984
       177.0004        178.0004
 -20448773.89549 -15919839.35547  20807063.564    20807064.1114   20807072.0964
       198.0004        198.0004
  -4068189.94848  -3141706.72146  23745311.347    23745311.9464   23745322.4784
       175.0004        176.0004
  -3528655.83448  -2717116.49646  22966876.700    22966877.2604   22966882.3134
       170.0004        171.0004
 -11133259.34448  -8643619.50746  22154302.087    22154302.7464   22154306.5624
       184.0004        185.0004
  -4209503.69447  -3253162.14545  24281592.130    24281591.1074   24281597.3734
       153.0004        156.0004
  -9345191.02448  -7251024.82246  22625394.614    22625395.2424   22625402.1694
       181.0004        182.0004
 21  2  5  1 11 30.0000000  0 10G30G04G28G21G01G08G14G17G19G09
 -15762001.98949 -12256779.81447  21560806.692    21560807.1464   21560813.5464
       196.0004        196.0004
   1233770.04747    992990.47545  24627609.764    24627610.1754   24627615.9124
       136.0004        142.0004
  -1428725.32647  -1098746.31645  23443152.915    23443153.6824   23443157.9734
       153.0004        155.0004
  -8781897.71348  -6824187.03746  22306619.390    22306618.1904   22306623.6894
       177.0004        176.0004
 -20467131.31749 -15934143.82947  20803570.548    20803571.0834   20803579.0894
       198.0004        199.0004
  -3974093.42848  -3068384.79446  23763219.338    23763219.1644   23763229.0324
       176.0004        178.0004
  -3557407.29248  -2739520.22346  22961405.564    22961406.7454   22961411.1024
       170.0004        171.0004
 -11181253.26148  -8681017.34646  22145168.671    22145169.5374   22145174.3584
       186.0004        187.0004
  -4293521.33447  -3318630.39245  24265603.241    24265603.9814   24265607.9494
       151.0004        151.0004
  -9266863.74948  -7189990.60046  22640300.801    22640300.5614   22640308.2324
       181.0004        182.0004
 21  2  5  1 12  0.0000000  0 10G30G04G28G21G01G08G14G17G19G09
 -15837079.72849 -12315281.95147  21546520.254    21546520.0364   21546527.1024
       196.0004        197.0004
   1327482.70947   1066013.23445  24645442.179    24645443.3494   24645450.1114
       138.0004        143.0004
  -1446842.21747  -1112863.37845  23439706.143    23439705.9984   23439710.4804
       154.0004        158.0004
  -8728315.35048  -6782434.55546  22316815.838    22316815.5124   22316820.1674
       176.0004        177.0004
 -20484920.87649 -15948005.80747  20800185.876    20800185.7734   20800193.7044
       198.0004        199.0004
  -3880046.88448  -2995101.81946  23781115.641    23781116.2074   23781124.4134
       176.0004        176.0004
  -3586224.45148  -2761975.16446  22955922.279    22955922.1864   22955926.1214
       169.0004        170.0004
 -11228831.73348  -8718091.47446  22136115.388    22136115.2774   22136120.0124
       186.0004        186.0004
  -4377284.90347  -3383900.65645  24249665.388    24249664.2484   24249668.0524
       148.0004        150.0004
  -9188436.26748  -7128878.26846  22655223.434    22655224.6284   22655232.3864
       181.0004        182.0004
 21  2  5  1 12 30.0000000  0 10G30G04G28G21G01G08G14G17G19G09
 -15911897.11249 -12373581.20347  21532282.675    21532283.0214   21532289.7574
       197.0004        197.0004
   1421046.03947   1138919.61545  24663247.020    24663248.4404   24663255.2304
       139.0004        144.0004
  -1465046.99947  -1127048.90045  23436242.080    23436241.5324   23436245.7934
       155.0004        156.0004
  -8674280.89348  -6740329.76946  22327098.565    22327097.7164   22327102.7194
       176.0004        176.0004
 -20502140.20349 -15961423.44747  20796908.084    20796908.8494   20796916.9214
       198.0004        198.0004
  -3786051.15048  -2921858.35846  23799002.063    23799003.0244   23799012.7254
       177.0004        178.0004
  -3615107.11948  -2784481.15446  22950425.652    22950425.8864   22950430.3704
       169.0004        170.0004
 -11275993.93948  -8754841.24747  22127140.067    22127140.9314   22127145.6164
       187.0004        188.0004
  -4460792.02047  -3448971.07445  24233772.901    24233772.1014   24233778.6434
       146.0004        150.0004
  -9109910.67848  -7067689.50546  22670167.914    22670168.0264   22670175.5594
       182.0004        183.0004
 21  2  5  1 13  0.0000000  0 10G30G04G28G21G01G08G14G17G19G09
 -15986451.47549 -12431675.51747  21518095.401    21518095.8364   21518102.6544
       198.0004        199.0004
   1514457.89847   1211707.96645  24681022.827    24681024.0574   24681028.7124
       139.0004        143.0004
  -1483340.70447  -1141303.75645  23432761.505    23432760.4254   23432764.2444
       155.0004        157.0004
  -8619795.61548  -6697873.71346  22337465.201    22337465.4354   22337470.9914
       176.0004        176.0004
 -20518787.79549 -15974395.60347  20793740.626    20793741.3304   20793748.7804
       198.0004        199.0004
  -3692108.88748  -2848656.65346  23816880.478    23816880.5444   23816888.5544
       176.0004        176.0004
  -3644055.80048  -2807038.56846  22944916.258    22944916.9204   22944922.0194
       169.0004        170.0004
 -11322739.92748  -8791266.68147  22118244.389    22118244.9924   22118249.9344
       188.0004        188.0004
  -4544041.65147  -3513840.87345  24217932.271    24217931.6354   24217935.4584
       148.0004        152.0004
  -9031290.06548  -7006426.69146  22685128.836    22685128.9404   22685136.1154
       182.0004        181.0004
 21  2  5  1 13 30.0000000  0 10G30G04G28G21G01G08G14G17G19G09
 -16060740.30549 -12489562.91847  21503958.703    21503959.1084   21503965.9054
       198.0004        199.0004
   1607715.92247   1284376.41645  24698769.356    24698769.4004   24698776.5284
       139.0004        143.0004
  -1501724.78547  -1155629.01245  23429262.181    23429261.9454   23429267.2874
       155.0004        158.0004
  -8564861.11648  -6655067.61646  22347919.493    22347919.6174   22347924.6034
       176.0004        177.0004
 -20534862.28849 -15986921.17247  20790682.411    20790682.3924   20790690.3284
       199.0004        199.0004
  -3598221.67748  -2775497.82146  23834746.961    23834746.6014   23834754.6474
       175.0004        175.0004
  -3673071.12148  -2829647.90146  22939395.774    22939396.3014   22939400.9244
       171.0004        174.0004
 -11369069.74248  -8827367.82847  22109428.988    22109429.3104   22109433.5964
       188.0004        188.0004
  -4627032.54747  -3578509.08045  24202140.194    24202139.8334   24202142.4274
       149.0004        152.0004
  -8952577.52148  -6945092.26646  22700106.735    22700107.6584   22700114.0274
       180.0004        180.0004
 21  2  5  1 14  0.0000000  0 10G30G04G28G21G01G08G14G17G19G09
 -16134760.41349 -12547240.91047  21489873.220    21489873.6114   21489880.5074
       199.0004        200.0004
   1700818.35747   1356923.62845  24716484.564    24716485.8014   24716492.8474
       136.0004        141.0004
  -1520199.44347  -1170024.84645  23425746.613    23425746.8454   23425750.1894
       156.0004        159.0004
  -8509478.61448  -6611912.41346  22358458.671    22358457.6644   22358463.2954
       175.0004        175.0004
 -20550361.71849 -15998998.64047  20787732.755    20787732.8294   20787740.8844
       199.0004        199.0004
  -3504391.45348  -2702383.39146  23852601.502    23852601.5164   23852609.2414
       173.0004        173.0004
  -3702153.14548  -2852309.21146  22933861.091    22933861.7984   22933865.6274
       172.0004        172.0004
 -11414982.80048  -8863144.22447  22100691.587    22100692.2424   22100697.0624
       188.0004        189.0004
  -4709762.77947  -3642974.17645  24186396.264    24186396.2794   24186399.3794
       150.0004        153.0004
  -8873775.50348  -6883688.10246  22715102.088    22715103.1904   22715110.2704
       180.0004        179.0004
 21  2  5  1 14 30.0000000  0 10G30G04G28G21G01G08G14G17G19G09
 -16208508.48549 -12604706.93847  21475839.445    21475839.5554   21475846.2944
       199.0004        199.0004
   1793763.73047   1429348.41545  24734174.146    24734175.6254   24734180.0884
       136.0004        141.0004
  -1538765.12247  -1184491.62945  23422214.642    23422214.3344   23422217.5934
       155.0004        158.0004
  -8453648.77048  -6568408.64546  22369083.273    22369082.4524   22369087.2134
       174.0004        176.0004
 -20565283.95549 -16010626.35147  20784892.788    20784893.4954   20784901.2134
       199.0004        199.0004
  -3410619.14748  -2629314.08446  23870444.443    23870445.4744   23870453.9214
       172.0004        172.0004
  -3731301.68448  -2875022.38346  22928314.672    22928314.8874   22928319.4964
       171.0004        171.0004
 -11460478.46948  -8898595.39447  22092034.114    22092033.8684   22092039.2734
       189.0004        188.0004
  -4792230.43947  -3707234.62745  24170702.197    24170701.7534   24170706.0944
       152.0004        156.0004
  -8794886.47348  -6822216.14446  22730114.401    22730114.7494   22730122.5114
       179.0004        179.0004
 21  2  5  1 15  0.0000000  0  9G30G28G21G01G08G14G17G19G09
 -16281979.41949 -12661957.02447  21461858.319    21461858.9134   21461865.2644
       199.0004        200.0004
  -1557420.77047  -1199028.47045  23418663.271    23418662.7904   23418667.6364
       155.0004        156.0004
  -8397370.62048  -6524555.53946  22379792.421    22379792.3924   22379796.5024
       175.0004        176.0004
 -20579625.19349 -16021801.32847  20782163.568    20782164.3804   20782172.2154
       199.0004        200.0004
  -3316904.58748  -2556289.80046  23888279.489    23888278.8954   23888287.3024
       173.0004        174.0004
  -3760514.83448  -2897785.87646  22922755.553    22922755.5644   22922760.4194
       170.0004        171.0004
 -11505554.40348  -8933719.49047  22083456.035    22083456.6894   22083461.4004
       188.0004        188.0004
  -4874432.06247  -3771287.77845  24155060.258    24155058.6984   24155064.0774
       154.0004        157.0004
  -8715910.69948  -6760676.58146  22745143.203    22745143.9304   22745151.0204
       179.0004        180.0004
 21  2  5  1 15 30.0000000  0  9G30G28G21G01G08G14G17G19G09
 -16355174.49649 -12718992.15847  21447929.697    21447930.0364   21447937.1134
       200.0004        201.0004
  -1576171.03047  -1213639.06245  23415095.123    23415095.8594   23415099.6804
       155.0004        158.0004
  -8340649.06748  -6480356.91646  22390585.727    22390585.2744   22390589.9344
       175.0004        175.0004
 -20593387.98649 -16032525.57247  20779545.063    20779545.4524   20779553.0924
       199.0004        199.0004
  -3223253.65548  -2483315.05846  23906100.509    23906101.0054   23906108.4974
       176.0004        179.0004
  -3789797.03048  -2920603.15846  22917182.081    22917183.0624   22917187.9834
       169.0004        168.0004
 -11550214.54548  -8968519.60047  22074958.143    22074958.8254   22074962.6934
       189.0004        191.0004
  -4956370.69247  -3835136.02245  24139467.720    24139467.2234   24139472.2434
       155.0004        158.0004
  -8636855.22348  -6699074.92146  22760188.026    22760187.6514   22760194.4604
       178.0004        179.0004
 21  2  5  1 16  0.0000000  0 10G30G22G28G21G01G08G14G17G19G09
 -16428090.04549 -12775809.48247  21434054.948    21434055.1434   21434062.2424
       201.0004        201.0004
   1559164.77254   1239663.149 4                                  24709011.792
        74.0004        131.000
  -1595015.60747  -1228323.15045  23411509.900    23411509.3684   23411512.7114
       156.0004        158.0004
  -8283485.31748  -6435813.73646  22401464.077    22401463.7064   22401468.7364
       174.0004        174.0004
 -20606570.00049 -16042797.27547  20777036.271    20777036.9364   20777044.7924
       199.0004        199.0004
  -3129666.83748  -2410390.32146  23923910.764    23923910.2724   23923918.3444
       177.0004        177.0004
  -3819147.70748  -2943473.82346  22911597.294    22911597.7154   22911602.7764
       169.0004        171.0004
 -11594458.04848  -9002995.04247  22066538.895    22066539.0814   22066544.0074
       191.0004        192.0004
  -5038043.77447  -3898777.36045  24123924.955    24123924.3974   24123930.5914
       153.0004        156.0004
  -8557722.02048  -6637412.71646  22775244.637    22775245.8174   22775253.1464
       178.0004        179.0004
 21  2  5  1 16 30.0000000  0  9G30G28G21G01G08G14G17G19G09
 -16500723.46449 -12832406.95147  21420233.085    21420233.2064   21420240.3474
       201.0004        201.0004
  -1613955.83647  -1243081.76645  23407906.828    23407906.0834   23407909.9784
       157.0004        160.0004
  -8225880.88048  -6390927.15646  22412425.939    22412425.5914   22412429.5974
       174.0004        175.0004
 -20619169.97549 -16052615.41947  20774638.712    20774638.8744   20774647.1344
       199.0004        199.0004
  -3036146.55248  -2337517.35546  23941707.776    23941706.8154   23941714.2204
       176.0004        177.0004
  -3848567.47648  -2966398.32346  22905999.576    22906000.4554   22906005.0824
       170.0004        171.0004
 -11638284.67948  -9037145.65847  22058198.494    22058198.9734   22058203.9664
       191.0004        192.0004
  -5119450.16147  -3962210.86645  24108434.952    24108433.6014   24108440.2144
       154.0004        157.0004
  -8478514.09848  -6575692.24946  22790317.773    22790318.0704   22790325.3734
       178.0004        177.0004
 21  2  5  1 17  0.0000000  0  9G30G28G21G01G08G14G17G19G09
 -16573072.94949 -12888783.16647  21406465.223    21406465.5734   21406472.4614
       201.0004        201.0004
  -1632993.42547  -1257916.23145  23404282.061    23404282.1544   23404286.0344
       156.0004        157.0004
  -8167838.06148  -6345698.97546  22423470.617    22423470.2964   22423475.0444
       173.0004        173.0004
 -20631187.45749 -16061979.68047  20772351.528    20772352.4654   20772359.9214
       199.0004        199.0004
  -2942695.60448  -2264698.46346  23959489.934    23959489.9844   23959498.1504
       176.0004        177.0004
  -3878057.60648  -2989377.64746  22900386.910    22900388.2514   22900392.6774
       169.0004        169.0004
 -11681695.39748  -9070972.17147  22049938.211    22049938.2944   22049943.0304
       191.0004        191.0004
  -5200589.43647  -4025436.27645  24092995.426    24092994.8514   24092999.0784
       155.0004        158.0004
  -8399235.30648  -6513916.57546  22805404.082    22805403.7334   22805413.0404
       176.0004        176.0004
 21  2  5  1 17 30.0000000  0  9G30G28G21G01G08G14G17G19G09
 -16645134.20349 -12944934.78847  21392752.474    21392752.4414   21392759.3854
       200.0004        200.0004
  -1652128.25347  -1272826.49345  23400641.299    23400641.8594   23400645.7304
       155.0004        157.0004
  -8109356.97148  -6300129.27546  22434600.415    22434599.9174   22434602.4964
       173.0004        174.0004
 -20642619.55749 -16070887.79947  20770176.591    20770177.1034   20770185.1424
       199.0004        200.0004
  -2849314.09848  -2191933.66946  23977259.003    23977259.4514   23977266.5064
       175.0004        175.0004
  -3907616.93448  -3012410.88646  22894762.286    22894762.5154   22894767.2834
       168.0004        169.0004
 -11724689.02348  -9104473.67847  22041756.466    22041757.3444   22041761.8814
       191.0004        191.0004
  -5281458.72147  -4088451.28145  24077605.706    24077605.0724   24077609.7544
       155.0004        157.0004
  -8319886.95948  -6452086.71846  22820504.749    22820504.4694   22820511.3004
       176.0004        177.0004
 21  2  5  1 18  0.0000000  0  9G30G28G21G01G08G14G17G19G09
 -16716905.32349 -13000860.33547  21379094.705    21379095.0624   21379101.7484
       200.0004        200.0004
  -1671361.61247  -1287813.51245  23396980.762    23396980.7044   23396984.5764
       155.0004        157.0004
  -8050439.93548  -6254219.88946  22445811.856    22445811.8604   22445814.5124
       173.0004        174.0004
 -20653465.73449 -16079339.36247  20768112.449    20768112.9044   20768121.0784
       199.0004        199.0004
  -2756004.51148  -2119224.92646  23995016.597    23995015.6364   23995023.1524
       172.0004        172.0004
  -3937246.63948  -3035498.95646  22889124.520    22889124.8764   22889129.1874
       168.0004        169.0004
 -11767266.10348  -9137650.61347  22033654.477    22033654.6564   22033659.6944
       191.0004        190.0004
  -5362057.90347  -4151255.77245  24062268.616    24062267.8594   24062273.2184
       156.0004        159.0004
  -8240472.70648  -6390205.49446  22835616.239    22835616.3054   22835622.6374
       175.0004        175.0004
 21  2  5  1 18 30.0000000  0  9G30G28G21G01G08G14G17G19G09
 -16788383.44949 -13056557.59147  21365493.306    21365493.1794   21365500.0804
       200.0004        200.0004
  -1690693.88747  -1302877.62345  23393303.272    23393303.0924   23393306.9514
       155.0004        159.0004
  -7991088.24248  -6207971.81946  22457105.789    22457104.7544   22457109.0114
       172.0004        172.0004
 -20663724.64649 -16087333.31647  20766161.081    20766161.2544   20766168.9644
       200.0004        200.0004
  -2662769.27648  -2046574.11746  24012759.147    24012758.2724   24012765.1284
       173.0004        175.0004
  -3966946.95148  -3058642.06046  22883472.324    22883473.2404   22883476.8854
       169.0004        170.0004
 -11809426.80948  -9170503.11147  22025631.960    22025631.8764   22025636.7324
       191.0004        191.0004
  -5442385.36447  -4213848.58345  24046982.175    24046981.3504   24046987.3644
       157.0004        159.0004
  -8160995.31348  -6328275.06246  22850739.697    22850739.7834   22850747.4024
       175.0004        175.0004
 21  2  5  1 19  0.0000000  0  9G30G28G21G01G08G14G17G19G09
 -16859564.85649 -13112023.62647  21351947.034    21351947.2714   21351954.9014
       200.0004        201.0004
  -1710125.09147  -1318018.81945  23389605.164    23389604.8464   23389609.7574
       157.0004        159.0004
  -7931302.46548  -6161385.49246  22468481.433    22468481.5084   22468485.3464
       172.0004        172.0004
 -20673394.00549 -16094867.86947  20764319.940    20764320.6124   20764328.6194
       200.0004        200.0004
  -2569608.79048  -1973981.53046  24030483.423    24030483.8924   24030492.4594
       170.0004        170.0004
  -3996717.23648  -3081839.69746  22877806.195    22877807.1254   22877812.3744
       169.0004        170.0004
 -11851169.99148  -9203030.26947  22017688.402    22017688.6244   22017692.6694
       191.0004        191.0004
  -5522439.11447  -4276228.08945  24031748.792    24031748.3284   24031752.8214
       156.0004        157.0004
  -8081456.61648  -6266296.87746  22865875.757    22865876.4024   22865883.0124
       174.0004        175.0004
 21  2  5  1 19 30.0000000  0  9G30G28G21G01G08G14G17G19G09
 -16930446.73449 -13167256.25847  21338459.494    21338459.7174   21338466.6284
       201.0004        201.0004
  -1729656.22347  -1333237.87145  23385888.142    23385887.5144   23385891.3964
       154.0004        155.0004
  -7871084.27848  -6114462.22446  22479941.616    22479941.0114   22479944.6134
       172.0004        174.0004
 -20682472.50249 -16101942.00847  20762592.051    20762593.1974   20762601.2524
       200.0004        200.0004
  -2476524.89848  -1901448.64746  24048196.319    24048197.8864   24048207.3144
       174.0004        176.0004
  -4026557.73448  -3105092.01046  22872128.896    22872129.5204   22872133.5684
       169.0004        170.0004
 -11892495.92248  -9235232.27447  22009824.001    22009824.4744   22009828.6854
       190.0004        190.0004
  -5602217.78847  -4338393.29745  24016568.014    24016567.5954   24016570.8234
       156.0004        159.0004
  -8001859.38948  -6204273.05946  22881022.109    22881022.2824   22881031.1204
       175.0004        178.0004
 21  2  5  1 20  0.0000000  0  9G30G28G21G01G08G14G17G19G09
 -17001026.20349 -13222253.24247  21325028.376    21325028.4624   21325036.1174
       201.0004        202.0004
  -1749287.93747  -1348535.29445  23382152.813    23382152.2064   23382157.8244
       154.0004        158.0004
  -7810434.92448  -6067202.98246  22491483.075    22491482.2484   22491485.1134
       172.0004        172.0004
 -20690958.78049 -16108554.68047  20760977.861    20760978.4904   20760986.1704
       200.0004        200.0004
  -2383518.80948  -1828976.39246  24065893.402    24065894.5934   24065904.8374
       172.0004        172.0004
  -4056468.61148  -3128399.19246  22866437.470    22866438.0894   22866440.7904
       169.0004        170.0004
 -11933404.45848  -9267109.03847  22002039.266    22002040.0864   22002044.2154
       189.0004        189.0004
  -5681720.14247  -4400343.14245  24001438.846    24001438.3644   24001441.0084
       156.0004        157.0004
  -7922206.33948  -6142205.75246  22896180.166    22896180.3704   22896188.0624
       176.0004        177.0004
 21  2  5  1 20 30.0000000  0  9G30G28G21G01G08G14G17G19G09
 -17071301.67849 -13277013.35247  21311655.362    21311655.7244   21311662.2934
       201.0004        202.0004
  -1769022.16647  -1363912.62945  23378396.824    23378396.6594   23378401.7874
       156.0004        159.0004
  -7749357.10648  -6019609.86446  22503105.726    22503105.0784   22503108.6354
       172.0004        173.0004
 -20698852.88349 -16114705.92147  20759475.008    20759476.2324   20759483.8134
       199.0004        199.0004
  -2290593.85948  -1756567.36846  24083578.183    24083578.7654   24083587.9614
       171.0004        172.0004
  -4086451.41848  -3151762.41246  22860731.098    22860732.0764   22860736.5304
       169.0004        170.0004
 -11973897.00548  -9298661.65147  21994333.850    21994334.1924   21994338.7584
       189.0004        190.0004
  -5760946.31747  -4462077.82045  23986362.624    23986361.7484   23986363.3964
       153.0004        154.0004
  -7842501.52148  -6080098.14746  22911348.291    22911348.0074   22911355.4584
       175.0004        176.0004
 21  2  5  1 21  0.0000000  0  9G30G28G21G01G08G14G17G19G09
 -17141270.59749 -13331534.58647  21298340.950    21298341.1604   21298347.6654
       201.0004        202.0004
  -1788860.05147  -1379370.71545  23374620.551    23374621.2354   23374626.2004
       155.0004        157.0004
  -7687852.70448  -5971684.36346  22514809.351    22514808.8404   22514812.4134
       171.0004        172.0004
 -20706153.75149 -16120394.90547  20758086.541    20758087.0224   20758094.1794
       199.0004        200.0004
  -2197751.77148  -1684222.87746  24101246.132    24101246.8424   24101255.9164
       172.0004        174.0004
  -4116506.49148  -3175181.93546  22855012.051    22855012.3614   22855018.1914
       170.0004        171.0004
 -12013973.68148  -9329890.20547  21986707.025    21986707.4954   21986712.5434
       189.0004        189.0004
  -5839894.87447  -4523596.14745  23971338.557    23971338.3484   23971340.5484
       153.0004        157.0004
  -7762747.85148  -6017952.43446  22926523.884    22926524.4514   22926531.5994
       174.0004        174.0004
 21  2  5  1 21 30.0000000  0  9G30G28G21G01G08G14G17G19G09
 -17210929.96649 -13385814.62747  21285084.592    21285085.2794   21285092.2114
       201.0004        202.0004
  -1808801.97047  -1394909.85645  23370827.439    23370826.6734   23370832.0634
       155.0004        158.0004
  -7625922.86848  -5923427.34246  22526594.730    22526594.5554   22526597.5404
       172.0004        173.0004
 -20712859.97549 -16125620.52547  20756810.547    20756810.7654   20756818.1364
       199.0004        200.0004
  -2104994.12948  -1611944.23746  24118898.466    24118898.1894   24118906.9844
       172.0004        173.0004
  -4146633.94648  -3198657.85246  22849278.641    22849280.1704   22849284.7324
       171.0004        172.0004
 -12053634.58548  -9360794.80747  21979160.410    21979161.1024   21979165.3564
       189.0004        190.0004
  -5918564.35947  -4584897.02445  23956367.908    23956366.6294   23956371.5604
       156.0004        159.0004
  -7682947.83248  -5955770.58946  22941708.579    22941709.5964   22941716.7814
       173.0004        173.0004
 21  2  5  1 22  0.0000000  0  9G30G28G21G01G08G14G17G19G09
 -17280277.83649 -13439851.93647  21271888.721    21271888.4734   21271895.6964
       201.0004        202.0004
  -1828849.27247  -1410531.12445  23367012.875    23367012.8384   23367016.4414
       155.0004        159.0004
  -7563570.24548  -5874840.88046  22538460.380    22538458.4684   22538462.2454
       172.0004        174.0004
 -20718971.31549 -16130382.59347  20755646.721    20755647.3624   20755655.1394
       199.0004        199.0004
  -2012323.36548  -1539733.27546  24136536.045    24136534.6134   24136542.2024
       176.0004        178.0004
  -4176834.77748  -3222190.98546  22843532.231    22843533.2944   22843536.5534
       170.0004        170.0004
 -12092880.86348  -9391376.32247  21971692.154    21971692.3144   21971697.0814
       190.0004        190.0004
  -5996954.82947  -4645980.47845  23941451.047    23941450.6184   23941454.3794
       157.0004        159.0004
  -7603105.16648  -5893555.52246  22956904.196    22956903.9434   22956911.1004
       175.0004        176.0004
 21  2  5  1 22 30.0000000  0  9G30G28G21G01G08G14G17G19G09
 -17349311.92349 -13493644.73847  21258751.357    21258751.7464   21258759.2144
       201.0004        202.0004
  -1849003.48647  -1426235.68245  23363177.915    23363177.2104   23363182.0064
       156.0004        159.0004
  -7500797.24548  -5825926.85246  22550404.684    22550404.1844   22550408.4144
       173.0004        174.0004
 -20724487.09649 -16134680.59447  20754597.770    20754598.0684   20754605.0664
       199.0004        199.0004
  -1919741.64748  -1467591.73646  24154149.541    24154150.8684   24154159.2574
       174.0004        174.0004
  -4207109.74348  -3245781.85546  22837770.724    22837770.7474   22837776.1364
       168.0004        168.0004
 -12131712.70048  -9421634.89047  21964301.666    21964302.8894   21964307.2184
       189.0004        188.0004
  -6075065.14147  -4706845.65545  23926587.301    23926587.1454   23926591.0544
       158.0004        160.0004
  -7523223.03648  -5831309.72346  22972104.356    22972104.4494   22972112.4654
       174.0004        175.0004
 21  2  5  1 23  0.0000000  0  9G30G28G21G01G08G14G17G19G09
 -17418027.57249 -13547189.39347  21245675.709    21245675.8054   21245683.2024
       202.0004        203.0004
  -1869263.56947  -1442022.74045  23359322.383    23359320.7494   23359325.2954
       155.0004        158.0004
  -7437603.25348  -5776684.77346  22562430.096    22562429.4264   22562433.9544
       174.0004        175.0004
 -20729404.36049 -16138512.21647  20753661.373    20753661.9644   20753669.8514
       199.0004        199.0004
  -1827248.67348  -1395519.32146  24171751.297    24171751.6144   24171760.8004
       175.0004        177.0004
  -4237457.15848  -3269429.19346  22831995.923    22831997.5434   22832000.2924
       169.0004        171.0004
 -12170128.67748  -9451569.39947  21956992.082    21956992.4074   21956996.5504
       187.0004        188.0004
  -6152892.63947  -4767490.43445  23911777.937    23911777.0284   23911781.2704
       158.0004        160.0004
  -7443302.36048  -5769033.89546  22987312.102    22987312.8794   22987320.8034
       174.0004        174.0004
 21  2  5  1 23 30.0000000  0  9G30G28G21G01G08G14G17G19G09
 -17486422.16149 -13600483.88147  21232660.829    21232660.9674   21232667.9144
       202.0004        203.0004
  -1889630.10947  -1457892.76345  23355445.873    23355446.0004   23355450.1044
       155.0004        157.0004
  -7373989.97348  -5727115.98746  22574534.682    22574535.3784   22574539.6094
       173.0004        174.0004
 -20733722.23749 -16141876.78947  20752840.673    20752840.8744   20752848.2854
       199.0004        200.0004
  -1734846.30248  -1323517.52046  24189335.548    24189336.2164   24189343.2714
       174.0004        174.0004
  -4267877.32548  -3293133.22846  22826207.796    22826208.0024   22826212.1724
       170.0004        171.0004
 -12208129.17048  -9481180.16547  21949760.823    21949761.1694   21949765.4514
       187.0004        189.0004
  -6230436.10847  -4827913.89645  23897021.282    23897020.5194   23897024.6264
       159.0004        161.0004
  -7363346.04348  -5706730.27746  23002528.089    23002528.3014   23002535.6764
       174.0004        175.0004
 21  2  5  1 24  0.0000000  0  9G30G28G21G01G08G14G17G19G09
 -17554493.99449 -13653526.87247  21219705.940    21219706.8094   21219714.1594
       202.0004        202.0004
  -1910104.84347  -1473847.10145  23351549.361    23351549.1204   23351553.5074
       153.0004        154.0004
  -7309960.24948  -5677222.68646  22586720.663    22586719.6744   22586724.2234
       174.0004        176.0004
 -20737440.74449 -16144774.31547  20752132.453    20752133.1064   20752140.8954
       200.0004        200.0004
  -1642537.16948  -1251588.33346  24206901.337    24206901.1504   24206910.5384
       171.0004        172.0004
  -4298371.52748  -3316894.92946  22820403.894    22820404.2944   22820409.6114
       169.0004        169.0004
 -12245715.37048  -9510468.09647  21942608.542    21942608.7884   21942612.6574
       189.0004        190.0004
  -6307695.41647  -4888115.93045  23882319.576    23882319.2894   23882322.5764
       160.0004        162.0004
  -7283357.81848  -5644401.81846  23017750.331    23017749.3444   23017755.8474
       173.0004        172.0004
 21  2  5  1 24 30.0000000  0  9G30G28G21G01G08G14G17G19G09
 -17622240.33749 -13706316.22647  21206815.132    21206815.6744   21206822.5444
       203.0004        203.0004
  -1930688.69147  -1489886.45445  23347633.501    23347633.0364   23347636.7794
       153.0004        157.0004
  -7245515.67848  -5627006.14646  22598983.261    22598983.1994   22598987.6894
       175.0004        176.0004
 -20740558.87149 -16147204.03047  20751538.554    20751539.5974   20751547.6734
       199.0004        200.0004
  -1550323.07748  -1179733.23746  24224447.142    24224448.4484   24224458.2254
       173.0004        176.0004
  -4328939.96748  -3340714.50446  22814587.336    22814587.5634   22814591.9294
       169.0004        170.0004
 -12282887.66748  -9539433.52647  21935534.497    21935535.1714   21935539.1304
       190.0004        191.0004
  -6384669.74947  -4948095.93745  23867671.357    23867671.1654   23867676.1864
       160.0004        162.0004
  -7203340.44348  -5582050.63746  23032975.896    23032976.5114   23032983.5444
       172.0004        173.0004
 21  2  5  1 25  0.0000000  0  9G30G28G21G01G08G14G17G19G09
 -17689657.66949 -13758849.21747  21193987.462    21193986.7094   21193993.0934
       203.0004        204.0004
  -1951381.60647  -1506010.79645  23343695.433    23343695.5364   23343699.9644
       154.0004        158.0004
  -7180657.50948  -5576467.30346  22611326.244    22611324.7614   22611330.4434
       175.0004        176.0004
 -20743074.95449 -16149164.60447  20751060.345    20751060.7594   20751068.8624
       199.0004        200.0004
  -1458204.71948  -1107952.75046  24241977.386    24241978.0404   24241987.6344
       173.0004        174.0004
  -4359582.04748  -3364591.45446  22808756.348    22808757.1764   22808761.7944
       170.0004        171.0004
 -12319645.32448  -9568075.84547  21928539.307    21928540.6104   21928544.8824
       190.0004        191.0004
  -6461357.02747  -5007852.22445  23853079.575    23853077.9114   23853082.5764
       161.0004        162.0004
  -7123295.93248  -5519678.28546  23048207.419    23048208.6784   23048216.1534
       172.0004        174.0004
 21  2  5  1 25 30.0000000  0  9G30G28G21G01G08G14G17G19G09
 -17756743.43949 -13811123.83447  21181219.985    21181220.1824   21181227.4854
       203.0004        203.0004
  -1972184.21347  -1522220.57945  23339735.471    23339736.1424   23339741.2624
       155.0004        157.0004
  -7115387.31948  -5525607.41346  22623745.263    22623744.8054   22623751.0894
       175.0004        176.0004
 -20744988.15949 -16150655.40547  20750696.431    20750696.7144   20750704.4564
       199.0004        199.0004
  -1366183.57648  -1036247.99446  24259490.966    24259490.4324   24259498.7234
       174.0004        175.0004
  -4390298.09248  -3388525.99846  22802912.049    22802911.4714   22802917.9144
       170.0004        170.0004
 -12355988.80348  -9596395.41947  21921623.759    21921624.3394   21921628.7574
       191.0004        192.0004
  -6537756.18847  -5067384.00345  23838539.109    23838539.2684   23838544.7014
       160.0004        162.0004
  -7043227.11648  -5457287.00146  23063444.310    23063444.2414   23063452.1524
       173.0004        174.0004
 21  2  5  1 26  0.0000000  0  9G30G28G21G01G08G14G17G19G09
 -17823495.47749 -13863138.40147  21168517.339    21168517.8864   21168525.2314
       203.0004        204.0004
  -1993097.81647  -1538516.89145  23335756.802    23335756.2794   23335762.0894
       154.0004        158.0004
  -7049707.35648  -5474428.21946  22636243.771    22636243.8674   22636249.4314
       175.0004        176.0004
 -20746298.27649 -16151676.26547  20750446.290    20750447.2934   20750455.0874
       199.0004        200.0004
  -1274262.42848   -964621.16746  24276981.337    24276982.1944   24276990.2264
       173.0004        174.0004
  -4421088.84448  -3412518.77446  22797052.154    22797052.3904   22797057.6924
       170.0004        170.0004
 -12391918.93048  -9624392.90747  21914787.211    21914786.8804   21914791.5724
       191.0004        191.0004
  -6613866.80247  -5126690.95845  23824056.862    23824056.9284   23824060.3744
       159.0004        161.0004
  -6963137.40748  -5394879.43646  23078684.794    23078685.3804   23078691.9474
       173.0004        173.0004
 21  2  5  1 26 30.0000000  0  9G30G28G21G01G08G14G17G19G09
 -17889911.16349 -13914890.88747  21155879.942    21155879.9204   21155886.7154
       205.0004        206.0004
  -2014123.29547  -1554900.36345  23331754.371    23331754.6794   23331759.6264
       153.0004        155.0004
  -6983619.52248  -5422931.21346  22648820.030    22648819.3874   22648825.1954
       175.0004        176.0004
 -20747004.49849 -16152226.57247  20750312.452    20750313.1674   20750320.7174
       200.0004        200.0004
  -1182442.62248   -893073.30546  24294454.962    24294455.0844   24294463.2974
       173.0004        175.0004
  -4451954.58248  -3436570.00746  22791178.287    22791178.7134   22791183.9404
       169.0004        169.0004
 -12427436.38848  -9652068.84847  21908027.717    21908028.0794   21908032.0264
       190.0004        190.0004
  -6689687.99047  -5185772.38345  23809629.303    23809628.7124   23809632.6454
       160.0004        162.0004
  -6883029.52148  -5332457.71546  23093928.094    23093928.4794   23093936.2764
       170.0004        170.0004
 21  2  5  1 27  0.0000000  0  9G30G28G21G01G08G14G17G19G09
 -17955987.41449 -13966378.86947  21143305.068    21143305.0604   21143312.6144
       205.0004        204.0004
  -2035260.91147  -1571371.23845  23327732.569    23327731.9414   23327737.8234
       152.0004        155.0004
  -6917125.18748  -5371117.45546  22661473.924    22661472.9434   22661479.2714
       175.0004        176.0004
 -20747105.58349 -16152305.33347  20750293.931    20750294.4114   20750301.9754
       200.0004        200.0004
  -1090725.45648   -821605.39346  24311908.357    24311907.7334   24311916.3614
       172.0004        172.0004
  -4482895.00048  -3460679.43346  22785290.830    22785290.9304   22785295.5854
       168.0004        169.0004
 -12462541.25448  -9679423.27747  21901347.292    21901348.0414   21901352.8944
       190.0004        191.0004
  -6765218.26647  -5244627.14245  23795254.998    23795254.8554   23795258.7394
       160.0004        162.0004
  -6802905.83348  -5270023.65846  23109176.899    23109177.1314   23109183.8624
       171.0004        172.0004
 21  2  5  1 27 30.0000000  0  9G30G28G21G01G08G14G17G19G09
 -18021722.05349 -14017600.68247  21130796.283    21130797.0874   21130803.4144
       205.0004        205.0004
  -2056511.86247  -1587930.41345  23323690.077    23323690.1334   23323694.4214
       154.0004        157.0004
  -6850226.90948  -5318988.92646  22674203.931    22674203.5084   22674209.9024
       175.0004        176.0004
 -20746601.29449 -16151912.38047  20750389.064    20750389.8314   20750397.6014
       200.0004        200.0004
   -999113.28348   -750219.30946  24329341.738    24329341.0424   24329349.1784
       169.0004        169.0004
  -4513910.81148  -3484847.60246  22779389.066    22779389.5054   22779393.0174
       168.0004        170.0004
 -12497234.16948  -9706456.69947  21894744.933    21894745.4364   21894750.1914
       190.0004        189.0004
  -6840457.19347  -5303254.85745  23780937.363    23780936.5974   23780941.9414
       160.0004        161.0004
  -6722769.64848  -5207579.89646  23124425.568    23124425.9994   23124433.4394
       170.0004        170.0004
 21  2  5  1 28  0.0000000  0  9G30G28G21G01G08G14G17G19G09
 -18087112.47849 -14068554.27547  21118353.774    21118353.8064   21118360.6454
       206.0004        206.0004
  -2077877.32247  -1604578.80645  23319623.068    23319622.9954   23319627.7844
       153.0004        156.0004
  -6782926.49548  -5266547.06146  22687010.135    22687009.9144   22687016.6674
       175.0004        176.0004
 -20745491.00749 -16151047.21947  20750600.807    20750601.6244   20750608.7994
       200.0004        200.0004
   -907607.22048   -678915.90646  24346754.627    24346755.1814   24346762.4194
       170.0004        172.0004
  -4545002.31848  -3509074.74746  22773472.593    22773472.6994   22773476.4354
       169.0004        170.0004
 -12531515.79248  -9733169.63347  21888222.305    21888222.8174   21888226.4224
       189.0004        190.0004
  -6915403.95847  -5361654.94946  23766676.208    23766675.5874   23766679.5244
       160.0004        164.0004
  -6642623.75548  -5145128.54446  23139676.488    23139676.7044   23139683.6534
       169.0004        168.0004
 21  2  5  1 28 30.0000000  0  9G30G28G21G01G08G14G17G19G09
 -18152155.16149 -14119236.88447  21105976.600    21105976.4924   21105983.1944
       206.0004        207.0004
  -2099356.44747  -1621315.78945  23315536.679    23315536.6784   23315539.9044
       153.0004        157.0004
  -6715224.88048  -5213792.56346  22699894.058    22699893.9974   22699900.0574
       174.0004        176.0004
 -20743773.14849 -16149708.61647  20750927.742    20750928.0724   20750935.5974
       200.0004        200.0004
   -816208.54748   -607696.21546  24364146.559    24364147.5014   24364155.3284
       170.0004        171.0004
  -4576168.67248  -3533360.21546  22767540.952    22767540.9264   22767546.8514
       169.0004        169.0004
 -12565385.88648  -9759561.90047  21881776.892    21881777.5284   21881781.1184
       190.0004        190.0004
  -6990056.65447  -5419825.84146  23752470.268    23752469.1964   23752473.3474
       163.0004        164.0004
  -6562470.02348  -5082671.08946  23154929.065    23154929.4754   23154936.1674
       168.0004        170.0004
 21  2  5  1 29  0.0000000  0  9G30G28G21G01G08G14G17G19G09
 -18216847.79749 -14169646.73747  21093666.331    21093666.0404   21093672.4284
       206.0004        207.0004
  -2120950.45247  -1638142.27645  23311426.789    23311426.3244   23311430.5784
       154.0004        157.0004
  -6647124.14048  -5160727.05146  22712853.431    22712852.8624   22712858.4434
       174.0004        174.0004
 -20741447.39849 -16147896.32947  20751369.649    20751370.5014   20751378.0394
       200.0004        200.0004
   -724918.67048   -536561.27746  24381517.432    24381518.7384   24381525.8124
       170.0004        170.0004
  -4607410.48548  -3557704.48346  22761594.953    22761596.8064   22761600.6454
       168.0004        169.0004
 -12598844.72148  -9785633.71347  21875409.691    21875410.4154   21875414.9594
       191.0004        192.0004
  -7064414.36847  -5477766.91946  23738319.384    23738319.4804   23738323.1584
       163.0004        164.0004
  -6482311.51948  -5020209.95346  23170182.909    23170183.7334   23170190.2494
       168.0004        170.0004
 21  2  5  1 29 30.0000000  0  9G30G28G21G01G08G14G17G19G09
 -18281187.41649 -14219781.50747  21081422.514    21081422.3614   21081429.1064
       206.0004        207.0004
  -2142659.43547  -1655058.34745  23307295.053    23307295.7854   23307299.7574
       155.0004        157.0004
  -6578625.83848  -5107351.76346  22725887.478    22725886.9204   22725893.4974
       173.0004        173.0004
 -20738512.83849 -16145609.64947  20751928.427    20751929.2294   20751936.7414
       200.0004        200.0004
   -633738.90748   -465512.11746  24398866.648    24398868.4454   24398877.6954
       169.0004        170.0004
  -4638727.54348  -3582107.39546  22755637.040    22755637.3614   22755641.9584
       168.0004        170.0004
 -12631892.43448  -9811385.16747  21869121.092    21869121.5904   21869126.1634
       191.0004        191.0004
  -7138475.77047  -5535477.07746  23724225.844    23724225.9964   23724229.6684
       162.0004        164.0004
  -6402150.69348  -4957746.97346  23185437.238    23185437.3374   23185445.3034
       170.0004        172.0004
 21  2  5  1 30  0.0000000  0  9G30G28G21G01G08G14G17G19G09
 -18345172.02849 -14269639.64447  21069246.186    21069246.2944   21069253.2634
       206.0004        207.0004
  -2164485.04147  -1672065.33145  23303143.747    23303143.5384   23303147.2664
       156.0004        159.0004
  -6509733.06948  -5053669.09346  22738998.433    22738997.6294   22739003.1194
       173.0004        174.0004
 -20734969.48149 -16142848.59047  20752602.188    20752603.0824   20752610.9034
       200.0004        200.0004
   -542671.97448   -394550.90146  24416200.751    24416199.5074   24416206.9794
       169.0004        170.0004
  -4670120.64248  -3606569.53346  22749662.833    22749662.7864   22749668.4074
       169.0004        171.0004
 -12664530.99948  -9836817.81547  21862909.460    21862910.1414   21862914.7904
       190.0004        190.0004
  -7212240.73947  -5592956.25046  23710190.081    23710189.5984   23710192.4034
       163.0004        165.0004
  -6321990.86948  -4895284.77546  23200690.126    23200690.6864   23200698.0544
       169.0004        169.0004
 21  2  5  1 30 30.0000000  0  9G30G28G21G01G08G14G17G19G09
 -18408799.84449 -14319219.76347  21057138.549    21057138.5514   21057145.0394
       207.0004        207.0004
  -2186428.56747  -1689164.16845  23298966.138    23298965.6894   23298971.0444
       155.0004        156.0004
  -6440447.82448  -4999680.59046  22752182.921    22752181.9554   22752187.9674
       172.0004        173.0004
 -20730817.62049 -16139613.37247  20753392.100    20753393.1034   20753400.7924
       199.0004        199.0004
   -451719.68348   -323678.97746  24433507.029    24433506.5154   24433516.2124
       170.0004        171.0004
  -4701590.65648  -3631091.62046  22743674.725    22743675.3364   22743680.0604
       171.0004        172.0004
 -12696761.66748  -9861932.60947  21856777.273    21856777.4744   21856781.8344
       190.0004        191.0004
  -7285709.69347  -5650204.75346  23696208.693    23696209.1024   23696212.3234
       163.0004        165.0004
  -6241835.59648  -4832826.11546  23215943.823    23215943.7754   23215951.4024
       167.0004        167.0004
 21  2  5  1 31  0.0000000  0  9G30G28G21G01G08G14G17G19G09
 -18472067.34549 -14368519.11647  21045098.867    21045098.8424   21045105.9484
       207.0004        207.0004
  -2208490.05747  -1706354.91245  23294767.294    23294768.9284   23294773.3204
       154.0004        157.0004
  -6370771.45048  -4945387.31846  22765441.167    22765440.2084   22765447.4204
       171.0004        172.0004
 -20726055.79249 -16135902.84847  20754298.610    20754299.4644   20754306.9564
       199.0004        200.0004
   -360882.92948   -252897.09446  24450792.654    24450792.5514   24450801.0004
       169.0004        170.0004
  -4733136.82248  -3655673.04346  22737671.167    22737671.7584   22737676.5064
       171.0004        170.0004
 -12728583.88048  -9886729.10347  21850721.568    21850722.2584   21850726.9974
       192.0004        194.0004
  -7358880.46447  -5707220.91246  23682286.473    23682284.7604   23682288.5564
       163.0004        163.0004
  -6161686.66848  -4770372.41446  23231196.109    23231195.9474   23231203.1644
       166.0004        167.0004
 21  2  5  1 31 30.0000000  0  9G30G28G21G01G08G14G17G19G09
 -18534972.21549 -14417535.89747  21033127.755    21033128.3754   21033135.0874
       206.0004        206.0004
  -2230670.38447  -1723638.29445  23290547.937    23290547.8744   23290553.2274
       155.0004        158.0004
  -6300706.49148  -4890791.24646  22778773.178    22778773.7184   22778779.1494
       170.0004        171.0004
 -20720683.84049 -16131716.90247  20755321.575    20755322.0734   20755329.7154
       200.0004        200.0004
   -270163.33448   -182206.50446  24468055.958    24468055.9074   24468065.7174
       171.0004        172.0004
  -4764759.57648  -3680314.17046  22731653.499    22731654.4974   22731659.1824
       171.0004        171.0004
 -12759998.05848  -9911207.67847  21844743.685    21844744.0314   21844748.3884
       193.0004        193.0004
  -7431752.51747  -5764004.31946  23668418.897    23668417.9304   23668421.5104
       161.0004        163.0004
  -6081547.16448  -4707926.06146  23246445.362    23246446.3694   23246453.8154
       167.0004        169.0004
 21  2  5  1 32  0.0000000  0  9G30G28G21G01G08G14G17G19G09
 -18597511.17249 -14466267.55947  21021227.597    21021227.8124   21021234.3354
       207.0004        207.0004
  -2252969.34547  -1741014.09245  23286306.393    23286304.8384   23286309.1864
       155.0004        157.0004
  -6230253.71448  -4835892.98746  22792180.217    22792180.4214   22792185.1394
       169.0004        169.0004
 -20714700.60749 -16127054.63347  20756460.490    20756460.7414   20756467.9984
       200.0004        200.0004
   -179561.86348   -111607.97946  24485294.265    24485295.4764   24485305.9184
       169.0004        168.0004
  -4796458.32948  -3705014.48246  22725621.294    22725622.4984   22725626.8554
       171.0004        171.0004
 -12791004.52048  -9935368.53447  21838842.658    21838843.6384   21838847.9644
       192.0004        192.0004
  -7504324.21947  -5820553.67346  23654608.350    23654607.8324   23654611.2254
       162.0004        165.0004
  -6001419.05048  -4645488.57346  23261693.891    23261693.8524   23261702.3554
       166.0004        167.0004
 21  2  5  1 32 30.0000000  0  9G30G28G21G01G08G14G17G19G09
 -18659681.94949 -14514712.32547  21009396.691    21009397.0734   21009403.8164
       207.0004        208.0004
  -2275387.77747  -1758483.00145  23282038.756    23282038.8194   23282043.6714
       154.0004        156.0004
  -6159415.60448  -4780694.45546  22805661.406    22805660.9284   22805665.8844
       169.0004        171.0004
 -20708105.97149 -16121915.94747  20757714.916    20757715.6784   20757722.9124
       200.0004        200.0004
    -89080.22148    -41102.79246  24502513.310    24502514.7564   24502523.0664
       167.0004        169.0004
  -4828233.45248  -3729774.34746  22719575.443    22719575.5774   22719579.9324
       170.0004        170.0004
 -12821604.25848  -9959212.48847  21833020.430    21833020.1714   21833024.4784
       192.0004        191.0004
  -7576595.07647  -5876868.59546  23640855.774    23640854.7104   23640859.9184
       164.0004        165.0004
  -5921305.37548  -4583062.33646  23276938.623    23276938.8964   23276947.3534
       166.0004        169.0004
 21  2  5  1 33  0.0000000  0  9G30G28G21G01G08G14G17G19G09
 -18721482.32449 -14562868.46747  20997637.158    20997637.0374   20997643.3664
       208.0004        208.0004
  -2297927.17747  -1776046.13345  23277749.077    23277749.5294   23277754.0244
       154.0004        157.0004
  -6088194.68948  -4725197.63246  22819214.557    22819213.6994   22819217.9834
       169.0004        169.0004
 -20700899.92849 -16116300.84547  20759086.150    20759086.4524   20759093.7464
       200.0004        199.0004
      1279.41648     29307.32946  24519709.799    24519710.1624   24519718.5464
       167.0004        167.0004
  -4860085.43848  -3754594.05246  22713512.825    22713512.6974   22713519.0684
       168.0004        168.0004
 -12851797.98148  -9982740.06647  21827274.048    21827274.9514   21827280.1394
       191.0004        192.0004
  -7648564.78447  -5932948.89046  23627160.273    23627160.0194   23627164.4284
       163.0004        164.0004
  -5841209.23548  -4520649.75246  23292182.251    23292182.3834   23292188.1494
       167.0004        169.0004
 21  2  5  1 33 30.0000000  0  9G30G28G21G01G08G14G17G19G09
 -18782908.80949 -14610733.27147  20985947.733    20985947.9244   20985954.5244
       208.0004        208.0004
  -2320586.61747  -1793702.84945  23273437.260    23273437.8884   23273441.6694
       156.0004        158.0004
  -6016591.79748  -4669403.19846  22832838.425    22832838.5674   22832842.7964
       168.0004        168.0004
 -20693081.17749 -16110208.31247  20760573.973    20760574.6024   20760581.8164
       199.0004        199.0004
     91516.57957     99621.95146  24536878.918    24536880.1315   24536888.5554
       164.0004        165.0004
  -4892013.38648  -3779472.97846  22707437.840    22707438.5954   22707442.9444
       168.0004        170.0004
 -12881585.68548 -10005951.25347  21821606.394    21821606.4244   21821611.1124
       192.0004        193.0004
  -7720231.52747  -5988793.06746  23613521.742    23613522.4504   23613526.7364
       163.0004        165.0004
  -5761132.39148  -4458252.23546  23307418.557    23307419.1524   23307426.9274
       167.0004        167.0004
 21  2  5  1 34  0.0000000  0  9G30G28G21G01G08G14G17G19G09
 -18843958.43849 -14658304.40647  20974330.779    20974330.6054   20974337.4604
       208.0004        208.0004
  -2343366.52247  -1811453.43945  23269103.369    23269102.8394   23269107.0214
       156.0004        159.0004
  -5944608.60048  -4613312.39246  22846538.029    22846537.3094   22846541.4624
       167.0004        169.0004
 -20684649.00149 -16103637.77347  20762179.009    20762179.0124   20762186.7244
       200.0004        200.0004
    181630.00647    169840.18946  24554030.459    24554028.9994   24554037.5534
       163.0004        165.0004
  -4924017.02248  -3804410.88046  22701348.922    22701349.2164   22701353.7994
       170.0004        172.0004
 -12910967.23248 -10028845.94347  21816014.602    21816015.4284   21816019.9624
       193.0004        194.0004
  -7791594.15147  -6044400.30545  23599943.614    23599941.4784   23599945.1074
       162.0004        162.0004
  -5681077.06648  -4395871.48646  23322653.021    23322653.7354   23322660.1444
       165.0004        167.0004
 21  2  5  1 34 30.0000000  0  9G30G28G21G01G08G14G17G19G09
 -18904630.32749 -14705581.20847  20962784.890    20962785.1394   20962791.4354
       208.0004        208.0004
  -2366269.06147  -1829299.55245  23264743.837    23264744.2334   23264749.2864
       156.0004        158.0004
  -5872248.96848  -4556928.24946  22860307.831    22860306.8924   22860310.8094
       166.0004        167.0004
 -20675604.75549 -16096590.30147  20763899.222    20763900.0094   20763907.5544
       199.0004        199.0004
    271617.38348    239960.17146  24571155.384    24571154.5314   24571162.9184
       165.0004        167.0004
  -4956098.03848  -3829409.04946  22695243.226    22695243.9734   22695248.7964
       171.0004        172.0004
 -12939945.89148 -10051426.70347  21810499.997    21810500.6924   21810505.6894
       194.0004        194.0004
  -7862653.61147  -6099771.29246  23586419.893    23586419.2184   23586424.9134
       162.0004        165.0004
  -5601047.60148  -4333510.85546  23337881.780    23337882.0144   23337889.6214
       166.0004        167.0004
 21  2  5  1 35  0.0000000  0  9G30G28G21G01G08G14G17G19G09
 -18964921.59249 -14752561.40747  20951311.484    20951311.9234   20951318.2584
       207.0004        207.0004
  -2389294.51147  -1847241.45045  23260362.206    23260362.3654   23260366.4054
       156.0004        158.0004
  -5799515.27048  -4500252.63646  22874148.488    22874147.3314   22874150.7914
       166.0004        166.0004
 -20665947.84149 -16089065.42247  20765737.159    20765737.7254   20765744.9694
       199.0004        199.0004
    361476.72647    309980.43945  24588252.906    24588252.4134   24588261.9264
       162.0004        162.0004
  -4988256.12848  -3854467.31246  22689123.357    22689123.3644   22689127.9834
       170.0004        169.0004
 -12968521.40148 -10073693.32247  21805062.871    21805063.5364   21805067.2284
       194.0004        194.0004
  -7933408.48247  -6154904.93646  23572954.830    23572955.1744   23572959.0124
       163.0004        164.0004
  -5521046.32448  -4271172.19046  23353105.628    23353106.2284   23353113.2844
       166.0004        167.0004
 21  2  5  1 35 30.0000000  0  9G30G28G21G01G08G14G17G19G09
 -19024828.49849 -14799242.11147  20939912.024    20939912.1634   20939918.8384
       208.0004        208.0004
  -2412442.31147  -1865278.69245  23255958.022    23255957.8444   23255962.5814
       157.0004        160.0004
  -5726406.63448  -4443284.88546  22888059.407    22888059.2204   22888063.2354
       165.0004        166.0004
 -20655676.83349 -16081062.04547  20767691.281    20767691.9734   20767699.5434
       199.0004        199.0004
    451208.02847    379900.91846  24605330.578    24605330.2724   24605338.1064
       163.0004        166.0004
  -5020490.10748  -3879584.71146  22682989.230    22682989.7904   22682994.7054
       168.0004        168.0004
 -12996693.65548 -10095645.72547  21799701.328    21799701.9624   21799706.5244
       193.0004        193.0004
  -8003856.84247  -6209799.73446  23559550.964    23559549.5164   23559553.7114
       163.0004        164.0004
  -5441074.76848  -4208856.72146  23368324.132    23368324.3744   23368331.9414
       166.0004        167.0004
 21  2  5  1 36  0.0000000  0  9G30G28G21G01G08G14G17G19G09
 -19084349.50749 -14845622.12447  20928585.402    20928585.8184   20928592.0524
       208.0004        208.0004
  -2435713.83247  -1883412.35345  23251529.524    23251530.0214   23251534.2184
       159.0004        161.0004
  -5652927.25348  -4386028.24046  22902041.561    22902042.8614   22902047.1374
       165.0004        167.0004
 -20644792.52349 -16072580.76147  20769762.711    20769763.3684   20769770.3574
       199.0004        199.0004
    540808.85847    449719.71346  24622377.649    24622378.0764   24622388.7004
       162.0004        163.0004
  -5052801.05548  -3904762.05646  22676840.280    22676841.0484   22676846.7894
       168.0004        170.0004
 -13024464.17648 -10117285.08347  21794416.843    21794417.0124   21794421.7314
       192.0004        192.0004
  -8073999.27647  -6264456.16646  23546202.196    23546201.4304   23546206.4794
       164.0004        165.0004
  -5361136.60648  -4146567.27946  23383537.316    23383537.0084   23383542.2314
       167.0004        169.0004
 21  2  5  1 36 30.0000000  0  9G30G28G21G01G08G14G17G19G09
 -19143481.15149 -14891698.72347  20917332.820    20917333.2524   20917340.2284
       208.0004        208.0004
  -2459108.79147  -1901642.16945  23247077.388    23247077.0434   23247082.2984
       158.0004        160.0004
  -5579078.05748  -4328483.39846  22916095.421    22916095.2334   22916099.3854
       165.0004        166.0004
 -20633293.74649 -16063620.66447  20771950.376    20771951.1834   20771958.8064
       199.0004        199.0004
    630278.95757    519436.61546  24639402.297    24639403.4725   24639413.1924
       163.0004        165.0004
  -5085187.97248  -3929998.60246  22670676.809    22670678.9234   22670683.8124
       170.0004        172.0004
 -13051832.62048 -10138611.13147  21789208.217    21789209.2414   21789213.5394
       192.0004        192.0004
  -8143833.72847  -6318872.59846  23532913.512    23532913.0834   23532917.1854
       162.0004        164.0004
  -5281233.33448  -4084304.98246  23398740.541    23398741.3904   23398747.5914
       180.0004        184.0004
 21  2  5  1 37  0.0000000  0  9G30G28G21G01G08G14G17G19G09
 -19202220.71249 -14937469.80647  20906155.235    20906155.3394   20906162.4984
       208.0004        208.0004
  -2482627.52047  -1919968.45545  23242601.976    23242601.5484   23242606.4614
       158.0004        161.0004
  -5504860.76148  -4270651.75446  22930218.849    22930218.5634   22930223.4644
       165.0004        167.0004
 -20621180.18649 -16054181.52047  20774255.123    20774256.1294   20774264.0914
       198.0004        198.0004
    719616.93447    589050.63446  24656401.928    24656403.6434   24656414.8564
       164.0004        164.0004
  -5117650.63148  -3955294.19146  22664501.647    22664501.8354   22664506.4834
       171.0004        173.0004
 -13078799.72848 -10159624.44947  21784077.174    21784077.7784   21784081.9754
       192.0004        193.0004
  -8213359.60247  -6373048.58845  23519683.627    23519683.1714   23519685.3304
       161.0004        161.0004
  -5201367.54048  -4022071.88746  23413938.741    23413939.1914   23413945.9864
       182.0004        182.0004
 21  2  5  1 37 30.0000000  0  9G30G28G21G01G08G14G17G19G09
 -19260566.78549 -14982934.27447  20895052.516    20895052.7314   20895059.4634
       208.0004        209.0004
  -2506271.95647  -1938392.68645  23238103.079    23238102.0194   23238107.4894
       159.0004        161.0004
  -5430278.88348  -4212536.00146  22944411.808    22944411.7054   22944414.6544
       165.0004        167.0004
 -20608452.86549 -16044264.12447  20776678.199    20776678.7744   20776685.9894
       199.0004        199.0004
    808820.43748    658559.81246  24673380.968    24673380.6654   24673387.6904
       165.0004        167.0004
  -5150190.19848  -3980649.68946  22658308.453    22658309.9734   22658314.4774
       174.0004        177.0004
 -13105367.74548 -10180326.79847  21779021.594    21779022.1324   21779026.7554
       193.0004        194.0004
  -8282577.42247  -6426984.54245  23506510.457    23506510.2504   23506514.5614
       159.0004        161.0004
  -5121542.96048  -3959870.90947  23429129.255    23429129.1264   23429135.5434
       190.0004        194.0004
 21  2  5  1 38  0.0000000  0  9G30G28G21G01G08G14G17G19G09
 -19318516.66649 -15028090.03347  20884025.028    20884025.1364   20884031.7604
       208.0004        208.0004
  -2530041.84447  -1956914.65945  23233579.431    23233579.3474   23233583.3134
       158.0004        161.0004
  -5355334.13148  -4154137.49246  22958672.561    22958672.4754   22958677.0384
       165.0004        168.0004
 -20595111.40749 -16033868.18547  20779217.369    20779217.3704   20779224.7004
       199.0004        199.0004
    897887.78348    727962.91046  24690329.524    24690329.6774   24690336.6644
       167.0004        168.0004
  -5182806.35648  -4006064.86346  22652103.021    22652102.9794   22652106.1234
       176.0004        176.0004
 -13131537.03948 -10200718.44647  21774042.206    21774042.1734   21774046.6194
       194.0004        194.0004
  -8351485.76147  -6480679.31746  23493398.060    23493397.7464   23493401.7374
       162.0004        165.0004
  -5041761.86548  -3897703.81647  23444310.834    23444311.1354   23444318.4454
       194.0004        196.0004
 21  2  5  1 38 30.0000000  0  9G30G28G21G01G08G14G17G19G09
 -19376067.67549 -15072934.99547  20873073.827    20873073.4934   20873080.1354
       208.0004        208.0004
  -2553937.70347  -1975534.82645  23229034.080    23229033.3324   23229036.7714
       160.0004        162.0004
  -5280028.93148  -4095458.13146  22973002.653    22973002.8184   22973007.1764
       167.0004        169.0004
 -20581155.63549 -16022993.55747  20781871.502    20781872.7604   20781880.4904
       198.0004        198.0004
    986818.37848    797259.43246  24707250.034    24707251.3604   24707259.9174
       165.0004        166.0004
  -5215498.92548  -4031539.60746  22645880.946    22645881.9224   22645886.8494
       175.0004        175.0004
 -13157307.86248 -10220799.60947  21769137.371    21769137.8504   21769142.5614
       194.0004        195.0004
  -8420084.12247  -6534132.57946  23480344.646    23480344.5364   23480347.5274
       162.0004        164.0004
  -4962026.76849  -3835572.58347  23459484.592    23459484.7394   23459491.5844
       197.0004        198.0004
 21  2  5  1 39  0.0000000  0  9G30G28G21G01G08G14G17G19G09
 -19433216.93849 -15117466.89147  20862197.444    20862197.8924   20862205.1904
       208.0004        208.0004
  -2577959.55447  -1994253.13045  23224459.892    23224461.2164   23224465.1254
       159.0004        162.0004
  -5204364.36148  -4036498.73346  22987400.592    22987401.5994   22987406.6554
       167.0004        168.0004
 -20566585.06549 -16011639.86747  20784644.251    20784645.1124   20784652.9204
       198.0004        199.0004
   1075611.24547    866448.68645  24724145.417    24724146.9334   24724155.2334
       162.0004        162.0004
  -5248267.46148  -4057073.52946  22639645.016    22639645.9774   22639650.4684
       175.0004        176.0004
 -13182681.40748 -10240571.18947  21764309.503    21764309.8334   21764313.9874
       194.0004        194.0004
  -8488371.26147  -6587343.30046  23467350.005    23467349.3304   23467353.6804
       163.0004        165.0004
  -4882339.94549  -3773478.95547  23474647.482    23474648.0344   23474655.8604
       199.0004        199.0004
 21  2  5  1 39 30.0000000  0  9G30G28G21G01G08G14G17G19G09
 -19489961.92949 -15161683.77647  20851400.186    20851399.9484   20851406.6634
       208.0004        207.0004
  -2602107.80647  -2013069.94945  23219866.189    23219865.8344   23219870.3454
       160.0004        162.0004
  -5128342.67148  -3977261.06446  23001867.099    23001867.8074   23001873.4454
       167.0004        168.0004
 -20551399.74949 -15999807.14847  20787533.738    20787534.8394   20787542.8684
       198.0004        198.0004
   1164264.94847    935529.45745  24741019.503    24741018.8484   24741027.2134
       160.0004        162.0004
  -5281111.86648  -4082666.56046  22633394.503    22633395.5854   22633400.2784
       175.0004        175.0004
 -13207658.11648 -10260033.55147  21759555.794    21759556.8754   21759561.0194
       194.0004        194.0004
  -8556346.56247  -6640311.06946  23454414.337    23454414.0274   23454418.2924
       163.0004        165.0004
  -4802703.85849  -3711424.86947  23489801.324    23489802.1744   23489809.8624
       197.0004        196.0004
 21  2  5  1 40  0.0000000  0  8G30G28G21G01G14G17G19G09
 -19546299.50949 -15205583.19047  20840679.157    20840679.2714   20840686.0304
       208.0004        208.0004
  -2626382.26947  -2031985.11245  23215246.489    23215246.7304   23215249.8334
       160.0004        162.0004
  -5051965.44648  -3917746.34646  23016402.512    23016400.8364   23016407.9434
       168.0004        169.0004
 -20535598.99149 -15987494.86447  20790541.200    20790541.9714   20790549.8554
       198.0004        199.0004
  -5314031.36548  -4108318.10846  22627130.952    22627131.6564   22627135.8234
       174.0004        175.0004
 -13232238.16148 -10279186.81547  21754878.968    21754879.5194   21754883.7864
       194.0004        195.0004
  -8624008.87447  -6693034.91846  23441539.395    23441538.7414   23441542.2094
       164.0004        166.0004
  -4723120.40648  -3649411.79847  23504946.045    23504946.3054   23504953.2534
       194.0004        192.0004
 21  2  5  1 40 30.0000000  0  8G30G28G21G01G14G17G19G09
 -19602227.41249 -15249163.37947  20830036.772    20830036.8484   20830043.6494
       208.0004        209.0004
  -2650783.92947  -2050999.41145  23210603.797    23210604.0874   23210607.3984
       159.0004        162.0004
  -4975234.96448  -3857956.35546  23031001.050    23031002.1524   23031009.4704
       167.0004        168.0004
 -20519183.01149 -15974703.18947  20793665.323    20793666.2224   20793673.5204
       198.0004        199.0004
  -5347026.02648  -4134028.24746  22620852.754    22620853.0014   22620857.1384
       176.0004        176.0004
 -13256422.67549 -10298031.87947  21750277.065    21750277.5084   21750281.7404
       195.0004        195.0004
  -8691357.67847  -6745514.48546  23428722.630    23428722.1944   23428726.5784
       164.0004        166.0004
  -4643592.29648  -3587441.84547  23520079.950    23520080.4944   23520087.1534
       192.0004        192.0004
 21  2  5  1 41  0.0000000  0  8G30G28G21G01G14G17G19G09
 -19657744.88049 -15292423.74947  20819472.353    20819472.4044   20819478.6844
       208.0004        209.0004
  -2675314.74447  -2070114.33845  23205934.393    23205934.4754   23205938.4994
       159.0004        160.0004
  -4898155.22248  -3797894.23546  23045670.913    23045669.9544   23045675.9924
       167.0004        167.0004
 -20502153.62949 -15961433.53447  20796905.551    20796906.4154   20796914.3184
       198.0004        198.0004
  -5380097.46048  -4159798.17846  22614558.898    22614559.1784   22614564.3554
       177.0004        178.0004
 -13280214.37749 -10316570.85947  21745749.033    21745749.3684   21745754.3434
       195.0004        195.0004
  -8758394.00847  -6797750.56246  23415967.462    23415966.1024   23415969.6584
       164.0004        166.0004
  -4564123.84348  -3525518.39047  23535202.667    23535202.6144   23535210.1194
       193.0004        193.0004
 21  2  5  1 41 30.0000000  0  8G30G28G21G01G14G17G19G09
 -19712848.40849 -15335361.56947  20808985.971    20808986.0934   20808993.0664
       208.0004        209.0004
  -2699974.00147  -2089329.31545  23201242.651    23201242.4724   23201247.0794
       158.0004        161.0004
  -4820727.26848  -3737560.78546  23060405.355    23060404.6604   23060408.9894
       167.0004        168.0004
 -20484509.90349 -15947685.17347  20800263.107    20800263.8414   20800271.8504
       198.0004        198.0004
  -5413244.48648  -4185627.02246  22608251.089    22608251.5894   22608257.1724
       177.0004        176.0004
 -13303612.96648 -10334803.51947  21741296.334    21741296.8504   21741301.2824
       194.0004        194.0004
  -8825116.41047  -6849742.05045  23403268.207    23403268.3854   23403272.2204
       161.0004        162.0004
  -4484716.47648  -3463642.52247  23550312.507    23550313.1294   23550321.2254
       193.0004        193.0004
 21  2  5  1 42  0.0000000  0  8G30G28G21G01G14G17G19G09
 -19767535.64249 -15377975.00347  20798579.088    20798579.4534   20798586.4434
       208.0004        208.0004
  -2724762.35547  -2108644.93145  23196525.160    23196525.4444   23196529.2994
       158.0004        159.0004
  -4742953.07348  -3676957.51946  23075205.006    23075204.9614   23075209.4864
       167.0004        167.0004
 -20466252.06349 -15933458.27947  20803737.605    20803738.1154   20803746.4104
       198.0004        199.0004
  -5446467.08848  -4211514.74446  22601928.988    22601929.4094   22601934.4814
       175.0004        175.0004
 -13326619.71648 -10352730.84447  21736919.121    21736919.4004   21736923.9334
       194.0004        195.0004
  -8891524.10447  -6901488.28446  23390633.211    23390632.7634   23390636.8264
       162.0004        165.0004
  -4405372.79148  -3401816.28247  23565411.199    23565411.2614   23565419.1314
       192.0004        192.0004
 21  2  5  1 42 30.0000000  0  8G30G28G21G01G14G17G19G09
 -19821804.47749 -15420262.39347  20788252.638    20788252.5154   20788259.3554
       208.0004        208.0004
  -2749680.23347  -2128061.46745  23191783.975    23191783.3494   23191787.6714
       158.0004        160.0004
  -4664835.51848  -3616086.70046  23090070.161    23090069.6664   23090075.2594
       165.0004        167.0004
 -20447380.58149 -15918753.22147  20807328.216    20807329.2264   20807337.0674
       198.0004        198.0004
  -5479765.41448  -4237461.48546  22595593.541    22595593.6764   22595597.7804
       175.0004        175.0004
 -13349235.86449 -10370353.78447  21732614.218    21732615.2074   21732619.9064
       195.0004        196.0004
  -8957617.12347  -6952989.32846  23378056.071    23378054.5394   23378059.2604
       164.0004        164.0004
  -4326095.62548  -3340041.86547  23580497.382    23580497.9124   23580504.4634
       191.0004        192.0004
 21  2  5  1 43  0.0000000  0  8G30G28G21G01G14G17G19G09
 -19875652.61549 -15462221.99047  20778005.595    20778005.3764   20778012.3564
       208.0004        209.0004
  -2774728.01647  -2147579.21446  23187017.664    23187018.3054   23187021.6144
       159.0004        163.0004
  -4586376.57548  -3554949.88446  23105001.224    23105000.3574   23105004.7054
       165.0004        166.0004
 -20427895.78149 -15903570.25147  20811036.466    20811037.3694   20811044.9814
       198.0004        198.0004
  -5513139.39748  -4263467.18646  22589242.975    22589243.2074   22589247.0404
       175.0004        176.0004
 -13371462.07548 -10387672.91447  21728385.306    21728385.7424   21728390.1234
       194.0004        195.0004
  -9023394.58747  -7004244.48945  23365537.275    23365537.2694   23365541.2904
       161.0004        162.0004
  -4246887.69648  -3278321.41247  23595570.707    23595570.7014   23595577.2334
       192.0004        192.0004
 21  2  5  1 43 30.0000000  0  8G30G28G21G01G14G17G19G09
 -19929077.82049 -15503852.02947  20767838.669    20767838.8484   20767845.8234
       208.0004        209.0004
  -2799906.33447  -2167198.69045  23182226.257    23182226.5184   23182230.4524
       160.0004        162.0004
  -4507578.72647  -3493548.97446  23119995.198    23119995.6384   23119999.2314
       164.0004        165.0004
 -20407798.07249 -15887909.68747  20814861.173    20814861.7044   20814869.6534
       198.0004        198.0004
  -5546589.06248  -4289531.87846  22582876.436    22582877.3564   22582881.3234
       175.0004        176.0004
 -13393300.06048 -10404689.51847  21724229.478    21724230.2844   21724234.7714
       194.0004        195.0004
  -9088856.00747  -7055253.34945  23353081.451    23353080.6504   23353085.1574
       160.0004        161.0004
  -4167751.58248  -3216656.91147  23610629.250    23610629.7304   23610637.2844
       191.0004        191.0004
 21  2  5  1 44  0.0000000  0  8G30G28G21G01G14G17G19G09
 -19982076.49849 -15545149.70347  20757753.418    20757753.4624   20757760.4744
       208.0004        209.0004
  -2825214.28747  -2186919.15245  23177409.645    23177409.2014   23177414.0194
       160.0004        161.0004
  -4428443.08847  -3431884.83846  23135053.859    23135053.8384   23135057.9304
       164.0004        164.0004
 -20387086.50349 -15871770.80447  20818802.398    20818803.0254   20818810.6134
       198.0004        198.0004
  -5580113.03548  -4315654.46046  22576496.799    22576498.0824   22576502.2854
       175.0004        176.0004
 -13414749.09548 -10421403.03147  21720148.243    21720148.5824   21720153.0564
       194.0004        195.0004
  -9153999.92147  -7106014.82745  23340684.983    23340684.0024   23340688.5904
       160.0004        162.0004
  -4088688.53748  -3155049.33447  23625674.312    23625674.3904   23625682.5134
       190.0004        190.0004
 21  2  5  1 44 30.0000000  0  8G30G28G21G01G14G17G19G09
 -20034646.65649 -15586113.47847  20747749.665    20747749.7834   20747756.8784
       208.0004        209.0004
  -2850652.84447  -2206741.39845  23172567.858    23172568.6344   23172574.2144
       159.0004        160.0004
  -4348972.50647  -3369959.71046  23150177.734    23150176.1794   23150179.5494
       163.0004        163.0004
 -20365761.82449 -15855154.17047  20822860.931    20822861.1344   20822868.3364
       198.0004        198.0004
  -5613711.54948  -4341835.10446  22570103.071    22570104.2984   22570109.0624
       176.0004        177.0004
 -13435811.17549 -10437815.02747  21716139.662    21716140.5174   21716145.1054
       195.0004        196.0004
  -9218826.32747  -7156528.90345  23328348.465    23328347.6774   23328353.0364
       160.0004        162.0004
  -4009701.54348  -3093501.05847  23640705.512    23640705.5064   23640712.7654
       190.0004        190.0004
 21  2  5  1 45  0.0000000  0  8G30G28G21G01G14G17G19G09
 -20086785.45249 -15626741.10747  20737827.599    20737827.8884   20737835.1174
       208.0004        209.0004
  -2876221.99847  -2226665.43445  23167703.488    23167704.2694   23167707.1674
       158.0004        160.0004
  -4269168.31747  -3307774.62346  23165361.992    23165362.3674   23165366.6344
       162.0004        163.0004
 -20343823.81449 -15838059.60647  20827034.517    20827035.4624   20827043.3604
       197.0004        198.0004
  -5647383.83748  -4368073.25446  22563696.922    22563696.7254   22563701.2284
       177.0004        177.0004
 -13456486.68449 -10453925.80247  21712205.159    21712205.6334   21712210.8604
       196.0004        196.0004
  -9283334.15847  -7206794.71346  23316073.506    23316073.1854   23316076.8964
       161.0004        164.0004
  -3930792.44648  -3032013.46547  23655720.534    23655721.2514   23655728.4734
       188.0004        188.0004
 21  2  5  1 45 30.0000000  0  8G30G28G21G01G14G17G19G09
 -20138490.98949 -15667031.12947  20727988.774    20727988.7964   20727995.9114
       209.0004        210.0004
  -2901922.25747  -2246691.58845  23162812.009    23162812.0724   23162817.2094
       158.0004        160.0004
  -4189033.23047  -3245331.69346  23180612.859    23180612.4654   23180616.9194
       162.0004        164.0004
 -20321273.35649 -15820487.81947  20831327.157    20831327.2364   20831334.8434
       198.0004        198.0004
  -5681130.24048  -4394369.13446  22557273.411    22557274.6424   22557278.9804
       177.0004        177.0004
 -13476777.24749 -10469736.62547  21708344.876    21708345.2814   21708350.5484
       196.0004        197.0004
  -9347523.45847  -7256812.32446  23303858.478    23303857.5104   23303861.4544
       161.0004        163.0004
  -3851964.40848  -2970589.01147  23670722.324    23670722.3484   23670729.3974
       189.0004        190.0004
 21  2  5  1 46  0.0000000  0  8G30G28G21G01G14G17G19G09
 -20189761.31649 -15706982.03247  20718232.367    20718232.6414   20718239.3644
       210.0004        210.0004
  -2927754.26347  -2266820.42945  23157897.571    23157896.6954   23157901.5804
       159.0004        162.0004
  -4108570.10447  -3182633.16646  23195924.444    23195923.6064   23195928.8494
       164.0004        165.0004
 -20298111.17649 -15802439.36747  20835734.067    20835734.3044   20835742.3104
       198.0004        198.0004
  -5714950.85948  -4420722.86946  22550838.311    22550838.8334   22550843.1094
       177.0004        178.0004
 -13496684.19549 -10485248.53247  21704556.989    21704557.4574   21704561.8884
       196.0004        196.0004
  -9411394.20547  -7306581.75346  23291703.745    23291703.6074   23291707.9354
       162.0004        163.0004
  -3773220.07148  -2909229.82447  23685707.144    23685706.8664   23685714.0654
       190.0004        190.0004
 21  2  5  1 46 30.0000000  0  9G30G22G28G21G01G14G17G19G09
 -20240594.65749 -15746592.41647  20708559.221    20708559.4304   20708566.3044
       210.0004        210.0004
  -4780132.79546  -3712034.86145  24786866.923    24786867.0144   24786870.8864
       132.0004        138.0004
  -2953719.13847  -2287052.79645  23152956.173    23152955.9644   23152959.9694
       159.0004        161.0004
  -4027781.44947  -3119680.96546  23211297.683    23211297.6294   23211302.4404
       164.0004        164.0004
 -20274338.27549 -15783915.01947  20840258.200    20840258.9074   20840265.7714
       198.0004        198.0004
  -5748846.03648  -4447134.69446  22544388.549    22544388.5504   22544393.4624
       178.0004        178.0004
 -13516209.12949 -10500462.75347  21700841.080    21700841.5634   21700845.5134
       195.0004        195.0004
  -9474946.30247  -7356102.85946  23279610.210    23279609.4844   23279614.6994
       162.0004        165.0004
  -3694562.42048  -2847938.16847  23700674.641    23700674.2084   23700681.8554
       189.0004        189.0004
 21  2  5  1 47  0.0000000  0  9G30G22G28G21G01G14G17G19G09
 -20290988.66949 -15785860.48547  20698969.699    20698970.0214   20698976.5274
       210.0004        211.0004
  -4802599.57246  -3729541.47645  24782591.786    24782590.9874   24782592.5314
       132.0004        139.0004
  -2979816.85147  -2307388.69645  23147990.432    23147990.1984   23147994.4954
       159.0004        161.0004
  -3946670.09647  -3056477.32946  23226732.668    23226732.4424   23226737.1324
       163.0004        165.0004
 -20249955.05149 -15764915.10347  20844897.895    20844898.2934   20844905.5544
       197.0004        197.0004
  -5782815.50248  -4473604.37446  22537924.101    22537924.7174   22537929.9774
       179.0004        178.0004
 -13535353.19749 -10515380.20847  21697198.185    21697198.2824   21697202.4274
       195.0004        195.0004
  -9538179.33247  -7405375.32146  23267579.433    23267577.8654   23267581.2234
       163.0004        165.0004
  -3615994.02448  -2786716.07647  23715624.629    23715624.8524   23715633.6194
       188.0004        188.0004
 21  2  5  1 47 30.0000000  0  9G30G22G28G21G01G14G17G19G09
 -20340939.35249 -15824783.10147  20689464.079    20689464.3414   20689471.0504
       211.0004        211.0004
  -4824970.32646  -3746973.20645  24778331.858    24778332.5704   24778335.3744
       133.0004        139.0004
  -3006046.24347  -2327827.17445  23142999.069    23142998.6294   23143001.7454
       159.0004        162.0004
  -3865235.85947  -2993022.09546  23242229.454    23242229.0674   23242234.1854
       164.0004        165.0004
 -20224960.28449 -15745438.65047  20849653.954    20849654.8564   20849662.4434
       197.0004        198.0004
  -5816857.26548  -4500130.44546  22531446.101    22531447.2414   22531451.4384
       179.0004        177.0004
 -13554115.60549 -10530000.25247  21693627.359    21693627.8214   21693632.8284
       195.0004        195.0004
  -9601091.00347  -7454397.38246  23255605.697    23255605.0794   23255609.6054
       162.0004        164.0004
  -3537515.38948  -2725563.89047  23730559.127    23730559.1284   23730566.7494
       188.0004        188.0004
 21  2  5  1 48  0.0000000  0  9G30G22G28G21G01G14G17G19G09
 -20390444.65049 -15863358.67347  20680043.837    20680043.8604   20680050.5784
       211.0004        211.0004
  -4847243.15946  -3764328.66145  24774093.335    24774095.5334   24774097.4274
       134.0004        141.0004
  -3032407.95847  -2348368.78745  23137982.681    23137983.2084   23137985.9404
       160.0004        161.0004
  -3783481.57747  -2929317.46846  23257786.564    23257786.3924   23257791.7074
       164.0004        165.0004
 -20199354.70049 -15725486.25247  20854526.057    20854527.0634   20854535.1504
       197.0004        198.0004
  -5850971.29748  -4526712.81646  22524954.582    22524955.1204   22524959.7074
       178.0004        178.0004
 -13572497.88248 -10544324.10047  21690129.475    21690129.7334   21690134.5224
       194.0004        195.0004
  -9663681.43847  -7503169.15746  23243695.471    23243693.9324   23243698.4474
       163.0004        164.0004
  -3459129.28048  -2664483.82347  23745475.811    23745475.6774   23745483.1304
       187.0004        188.0004
 21  2  5  1 48 30.0000000  0  9G30G22G28G21G01G14G17G19G09
 -20439502.38949 -15901585.48247  20670708.610    20670708.6524   20670715.4014
       211.0004        211.0004
  -4869415.78547  -3781606.02645  24769876.932    24769875.9644   24769878.7864
       136.0004        142.0004
  -3058902.12547  -2369013.56645  23132940.114    23132940.2764   23132945.4324
       159.0004        160.0004
  -3701409.72847  -2865365.38246  23273404.454    23273403.6804   23273408.9524
       164.0004        164.0004
 -20173139.00449 -15705058.42547  20859515.595    20859516.2894   20859522.9034
       197.0004        197.0004
  -5885157.51048  -4553351.38946  22518448.432    22518449.0604   22518454.5784
       178.0004        178.0004
 -13590501.42749 -10558352.82847  21686703.428    21686703.7664   21686708.2854
       195.0004        196.0004
  -9725950.24948  -7551690.32346  23231846.739    23231846.1324   23231849.3364
       165.0004        167.0004
  -3380838.24948  -2603477.84547  23760374.824    23760374.9814   23760381.4254
       188.0004        188.0004
 21  2  5  1 49  0.0000000  0  9G30G22G28G21G01G14G17G19G09
 -20488110.69349 -15939462.08447  20661458.595    20661458.7894   20661465.6714
       211.0004        212.0004
  -4891486.18247  -3798803.77245  24765675.646    24765676.0074   24765680.3044
       135.0004        139.0004
  -3085529.48347  -2389762.15545  23127873.788    23127873.6814   23127878.4264
       159.0004        162.0004
  -3619023.37647  -2801168.24446  23289080.966    23289081.2254   23289087.1854
       163.0004        163.0004
 -20146314.14549 -15684155.92847  20864620.873    20864621.1274   20864627.7814
       197.0004        197.0004
  -5919415.91448  -4580046.24246  22511930.006    22511930.6474   22511935.3374
       178.0004        178.0004
 -13608127.79049 -10572087.64347  21683349.831    21683350.0144   21683353.8824
       196.0004        197.0004
  -9787897.32548  -7599960.74546  23220058.186    23220056.9724   23220061.9624
       165.0004        166.0004
  -3302644.99848  -2542548.04946  23775253.845    23775253.6544   23775261.2334
       187.0004        187.0004
 21  2  5  1 49 30.0000000  0  9G30G22G28G21G01G14G17G19G09
 -20536267.46549 -15976986.84248  20652295.240    20652294.9994   20652301.8804
       212.0004        213.0004
  -4913452.30147  -3815920.23045  24761496.811    24761494.4844   24761500.1034
       136.0004        142.0004
  -3112290.40347  -2410614.82845  23122781.675    23122781.6224   23122785.6664
       160.0004        162.0004
  -3536324.48047  -2736727.55745  23304819.786    23304818.7354   23304823.9034
       162.0004        162.0004
 -20118880.86349 -15662779.32947  20869840.247    20869840.3144   20869848.4204
       197.0004        197.0004
  -5953746.37448  -4606797.24446  22505397.174    22505397.8664   22505402.3274
       179.0004        179.0004
 -13625378.39649 -10585529.65847  21680066.762    21680067.1764   21680071.3844
       196.0004        196.0004
  -9849522.62547  -7647980.44646  23208329.984    23208330.0644   23208333.9404
       164.0004        166.0004
  -3224552.12648  -2481696.48447  23790114.229    23790114.1544   23790121.8654
       188.0004        189.0004
 21  2  5  1 50  0.0000000  0  9G30G22G28G21G01G14G17G19G09
 -20583970.19649 -16014157.80748  20643217.268    20643217.3904   20643224.3484
       212.0004        213.0004
  -4935311.80047  -3832953.59045  24757338.067    24757336.8724   24757338.6274
       135.0004        140.0004
  -3139184.65347  -2431571.39646  23117663.659    23117663.6544   23117668.5734
       161.0004        163.0004
  -3453315.01447  -2672044.88246  23320615.881    23320616.2614   23320620.5154
       162.0004        164.0004
 -20090839.54149 -15640928.95247  20875176.538    20875176.8664   20875184.2674
       197.0004        197.0004
  -5988148.35148  -4633603.97846  22498849.783    22498850.7434   22498856.2684
       179.0004        178.0004
 -13642253.72949 -10598679.26847  21676855.149    21676855.8224   21676859.8794
       195.0004        195.0004
  -9910825.69348  -7695749.06546  23196666.190    23196665.3644   23196670.0104
       165.0004        168.0004
  -3146561.81648  -2420924.88547  23804957.397    23804957.0754   23804962.6384
       190.0004        192.0004
 21  2  5  1 50 30.0000000  0  9G30G22G28G21G01G14G17G19G09
 -20631217.58849 -16050973.96248  20634226.073    20634226.4164   20634233.7364
       212.0004        213.0004
  -4957062.90247  -3849902.48645  24753197.737    24753197.3264   24753200.5144
       137.0004        142.0004
  -3166213.34047  -2452632.73045  23112520.830    23112519.8774   23112524.0064
       161.0004        161.0004
  -3369998.44047  -2607122.88445  23336470.426    23336470.6624   23336474.7034
       161.0004        162.0004
 -20062191.72849 -15618605.97747  20880627.722    20880628.4364   20880636.3014
       197.0004        197.0004
  -6022622.38048  -4660466.87346  22492289.605    22492290.3804   22492295.8994
       178.0004        177.0004
 -13658756.35149 -10611538.45247  21673714.987    21673715.7994   21673719.5764
       195.0004        196.0004
  -9971806.75248  -7743266.75546  23185061.395    23185060.8554   23185065.7254
       166.0004        167.0004
  -3068677.17448  -2360235.59947  23819776.437    23819777.0784   23819784.1064
       191.0004        192.0004
 21  2  5  1 51  0.0000000  0  9G30G22G28G21G01G14G17G19G09
 -20678006.50649 -16087432.85748  20625322.613    20625322.7864   20625329.6824
       213.0004        213.0004
  -4978702.26147  -3866764.34545  24749079.653    24749079.1974   24749082.4944
       139.0004        144.0004
  -3193376.09547  -2473798.51345  23107349.135    23107350.3914   23107353.7394
       158.0004        158.0004
  -3286376.02547  -2541962.57845  23352383.241    23352382.4224   23352387.9274
       160.0004        162.0004
 -20032937.18849 -15595810.22147  20886195.707    20886195.9504   20886203.0504
       197.0004        197.0004
  -6057167.28348  -4687384.96646  22485717.147    22485717.5484   22485721.1724
       177.0004        176.0004
 -13674886.71449 -10624107.55347  21670645.721    21670646.0564   21670650.3134
       196.0004        196.0004
 -10032464.34048  -7790532.40746  23173518.296    23173518.4714   23173521.4234
       165.0004        166.0004
  -2990899.70848  -2299629.76947  23834574.811    23834575.9664   23834585.1084
       190.0004        191.0004
 21  2  5  1 51 30.0000000  0  9G30G22G28G21G01G14G17G19G09
 -20724333.89449 -16123532.11748  20616506.575    20616506.7264   20616513.6344
       212.0004        213.0004
  -5000227.02747  -3883536.91445  24744983.100    24744983.0174   24744987.9964
       139.0004        143.0004
  -3220672.05347  -2495068.09245  23102157.214    23102156.8884   23102160.5324
       157.0004        161.0004
  -3202449.00347  -2476564.90945  23368353.101    23368353.2654   23368358.0784
       159.0004        161.0004
 -20003075.78549 -15572541.58547  20891877.368    20891877.6704   20891885.6334
       197.0004        196.0004
  -6091781.77148  -4714357.31146  22479128.704    22479129.8264   22479135.0444
       176.0004        176.0004
 -13690644.90349 -10636386.64947  21667646.375    21667647.2174   21667651.6904
       195.0004        195.0004
 -10092797.43348  -7837545.18046  23162037.557    23162036.7804   23162040.7814
       166.0004        167.0004
  -2913230.91248  -2239108.67347  23849356.929    23849357.2024   23849364.7904
       191.0004        193.0004
 21  2  5  1 52  0.0000000  0  9G30G22G28G21G01G14G17G19G09
 -20770198.65149 -16159270.89548  20607778.975    20607779.3064   20607786.2224
       212.0004        213.0004
  -5021636.01747  -3900219.24045  24740909.391    24740909.1284   24740913.1964
       138.0004        142.0004
  -3248102.63147  -2516442.56445  23096938.078    23096936.7744   23096941.6584
       160.0004        162.0004
  -3118220.88347  -2410932.62145  23384380.829    23384380.6954   23384384.3184
       158.0004        158.0004
 -19972609.32449 -15548801.48047  20897675.295    20897675.8954   20897683.4064
       197.0004        197.0004
  -6126466.55748  -4741384.42146  22472529.747    22472530.7564   22472535.0624
       178.0004        178.0004
 -13706033.14449 -10648377.48047  21664718.725    21664719.1144   21664723.7204
       196.0004        197.0004
 -10152807.24548  -7884306.07946  23150617.572    23150616.7974   23150622.1814
       166.0004        167.0004
  -2835674.13048  -2178674.83647  23864115.442    23864115.5744   23864123.1424
       191.0004        191.0004
 21  2  5  1 52 30.0000000  0  9G30G22G28G21G01G14G17G19G09
 -20815598.27249 -16194647.24448  20599139.959    20599140.0734   20599146.6764
       213.0004        213.0004
  -5042926.45547  -3916809.18545  24736857.554    24736857.3294   24736862.8494
       139.0004        145.0004
  -3275667.23247  -2537921.47545  23091692.026    23091692.1084   23091695.9234
       160.0004        162.0004
  -3033694.16847  -2345067.65145  23400466.584    23400466.0664   23400469.2044
       157.0004        158.0004
 -19941538.28649 -15524590.27347  20903587.903    20903587.9364   20903596.2384
       197.0004        198.0004
  -6161220.92048  -4768465.71446  22465914.962    22465915.5344   22465921.5354
       178.0004        177.0004
 -13721052.79149 -10660081.08247  21661859.938    21661860.7964   21661865.6634
       197.0004        198.0004
 -10212493.05048  -7930814.49246  23139260.374    23139260.1954   23139262.8784
       167.0004        169.0004
  -2758231.41248  -2118329.89747  23878851.943    23878852.5694   23878860.0724
       189.0004        188.0004
 21  2  5  1 53  0.0000000  0  9G30G22G28G21G01G14G17G19G09
 -20860531.04749 -16229659.80548  20590589.573    20590589.5724   20590596.3604
       213.0004        213.0004
  -5064096.33647  -3933305.17345  24732829.868    24732829.0514   24732833.4674
       140.0004        146.0004
  -3303366.89847  -2559505.62145  23086420.435    23086420.1994   23086424.2284
       160.0004        162.0004
  -2948871.39047  -2278971.97845  23416607.179    23416606.9494   23416610.4984
       156.0004        157.0004
 -19909863.88249 -15499908.91947  20909614.853    20909615.4574   20909623.2474
       197.0004        197.0004
  -6196044.94048  -4795601.31546  22459289.318    22459290.2274   22459295.4534
       178.0004        179.0004
 -13735705.31449 -10671498.62547  21659072.392    21659073.0954   21659077.3764
       197.0004        198.0004
 -10271854.74748  -7977070.35846  23127964.685    23127963.7004   23127967.9714
       170.0004        172.0004
  -2680905.49948  -2058075.96247  23893567.853    23893567.7344   23893574.5464
       188.0004        188.0004
 21  2  5  1 53 30.0000000  0  9G30G22G28G21G01G14G17G19G09
 -20904994.65949 -16264306.77748  20582128.603    20582128.5874   20582135.1764
       213.0004        214.0004
  -5085143.47247  -3949705.53545  24728826.046    24728825.2024   24728828.2704
       143.0004        147.0004
  -3331201.54747  -2581194.96746  23081124.698    23081124.5704   23081127.8554
       161.0004        164.0004
  -2863754.59747  -2212647.19945  23432805.466    23432804.6074   23432808.7684
       156.0004        160.0004
 -19877586.80649 -15474757.94047  20915756.620    20915757.7034   20915765.1454
       197.0004        196.0004
  -6230938.08748  -4822790.75846  22452648.869    22452649.5264   22452654.7824
       178.0004        177.0004
 -13749991.91649 -10682631.03447  21656353.221    21656354.1654   21656358.5284
       196.0004        196.0004
 -10330891.89348  -8023073.31346  23116730.202    23116728.9824   23116733.1024
       171.0004        172.0004
  -2603698.53448  -1997914.70247  23908259.934    23908260.2274   23908266.5154
       189.0004        190.0004
 21  2  5  1 54  0.0000000  0  9G30G22G28G21G01G14G17G19G09
 -20948987.15649 -16298586.64448  20573756.787    20573757.1504   20573763.9044
       214.0004        214.0004
  -5106065.64847  -3966008.54045  24724845.872    24724843.7194   24724847.0094
       143.0004        147.0004
  -3359171.25047  -2602989.51345  23075799.759    23075801.2304   23075806.8874
       160.0004        160.0004
  -2778346.39147  -2146095.36845  23449056.384    23449056.8494   23449061.7604
       157.0004        160.0004
 -19844708.08449 -15449138.15347  20922013.723    20922014.0064   20922021.7354
       196.0004        196.0004
  -6265900.06248  -4850033.87346  22445997.041    22445997.4304   22446001.6054
       178.0004        178.0004
 -13763914.09149 -10693479.47047  21653704.085    21653704.3614   21653708.6714
       195.0004        195.0004
 -10389604.40848  -8068823.32046  23105556.270    23105556.4604   23105560.0774
       171.0004        172.0004
  -2526612.93548  -1937848.02847  23922928.787    23922928.5824   23922935.6644
       188.0004        188.0004
 21  2  5  1 54 30.0000000  0  9G30G22G28G21G01G14G17G19G09
 -20992505.97349 -16332497.40748  20565475.469    20565475.8424   20565482.1524
       213.0004        214.0004
  -5126860.02647  -3982211.95145  24720886.071    24720885.5964   24720890.7094
       141.0004        145.0004
  -3387275.84147  -2624889.20245  23070454.743    23070454.3714   23070457.7564
       159.0004        161.0004
  -2692649.19447  -2079318.34445  23465364.235    23465364.1994   23465370.0644
       157.0004        160.0004
 -19811228.10349 -15423049.84547  20928383.789    20928384.8534   20928393.3284
       196.0004        196.0004
  -6300930.05748  -4877329.96146  22439328.689    22439330.0144   22439334.9314
       176.0004        174.0004
 -13777472.55149 -10704044.49247  21651124.047    21651124.5794   21651129.1944
       196.0004        197.0004
 -10447991.69848  -8114319.92246  23094447.137    23094446.1744   23094449.7354
       171.0004        173.0004
  -2449650.56248  -1877877.36546  23937573.331    23937573.6524   23937580.4604
       186.0004        185.0004
 21  2  5  1 55  0.0000000  0  9G30G22G28G21G01G14G17G19G09
 -21035548.48449 -16366037.02148  20557284.940    20557284.9694   20557291.0604
       213.0004        213.0004
  -5147523.90047  -3998313.65245  24716951.604    24716952.0774   24716957.2804
       139.0004        143.0004
  -3415514.82247  -2646893.59845  23065079.437    23065079.5494   23065083.2434
       159.0004        159.0004
  -2606663.92947  -2012316.86545  23481729.476    23481727.7314   23481733.1244
       159.0004        161.0004
 -19777147.26649 -15396493.34547  20934869.560    20934870.2764   20934878.6294
       196.0004        196.0004
  -6336027.02248  -4904678.20746  22432649.945    22432650.8984   22432656.8484
       175.0004        175.0004
 -13790668.02849 -10714326.66047  21648612.902    21648613.3034   21648617.6894
       196.0004        197.0004
 -10506053.09648  -8159562.55946  23083398.643    23083398.2374   23083400.4494
       172.0004        173.0004
  -2372813.11148  -1818004.05246  23952194.689    23952195.5114   23952203.1044
       185.0004        185.0004
 21  2  5  1 55 30.0000000  0  9G30G22G28G21G01G14G17G19G09
 -21078113.47949 -16399204.54848  20549184.966    20549184.9894   20549191.5634
       213.0004        214.0004
  -5168055.69347  -4014312.45545  24713047.137    24713046.7874   24713049.4954
       138.0004        144.0004
  -3443889.18347  -2669003.47345  23059679.120    23059678.4214   23059683.3684
       158.0004        159.0004
  -2520394.10047  -1945093.61646  23498144.763    23498143.5924   23498150.3574
       161.0004        163.0004
 -19742467.40949 -15369470.07047  20941469.394    20941469.7824   20941478.4104
       196.0004        196.0004
  -6371191.38748  -4932079.02246  22425960.610    22425961.4094   22425965.3964
       176.0004        177.0004
 -13803503.35549 -10724328.21647  21646170.523    21646171.0084   21646175.4014
       197.0004        197.0004
 -10563789.31748  -8204551.82946  23072410.600    23072410.3084   23072414.2274
       170.0004        169.0004
  -2296103.73948  -1758230.53446  23966792.317    23966792.4044   23966799.3064
       184.0004        184.0004
 21  2  5  1 56  0.0000000  0  9G30G22G28G21G01G14G17G19G09
 -21120198.61649 -16431998.17748  20541176.515    20541176.6924   20541183.1124
       214.0004        214.0004
  -5188452.86647  -4030206.36945  24709167.448    24709165.8074   24709168.7134
       139.0004        143.0004
  -3472398.68447  -2691218.68345  23054255.840    23054256.1704   23054259.4554
       159.0004        162.0004
  -2433842.14747  -1877650.56245  23514612.807    23514614.0074   23514620.2444
       160.0004        162.0004
 -19707189.20649 -15341980.57747  20948182.423    20948183.2044   20948190.6724
       196.0004        196.0004
  -6406422.44048  -4959531.79746  22419255.230    22419255.8444   22419260.1864
       176.0004        176.0004
 -13815979.20749 -10734049.65347  21643796.515    21643797.0814   21643800.2554
       196.0004        197.0004
 -10621199.64548  -8249287.13846  23061485.622    23061484.8094   23061489.1724
       168.0004        168.0004
  -2219524.34848  -1698558.30646  23981366.077    23981366.0304   23981372.0814
       185.0004        186.0004
 21  2  5  1 56 30.0000000  0  9G30G22G28G21G01G14G17G19G09
 -21161801.89049 -16464416.32148  20533259.513    20533259.5474   20533266.2304
       214.0004        214.0004
  -5208713.13647  -4045993.62345  24705310.389    24705309.7824   24705314.1714
       139.0004        144.0004
  -3501043.52247  -2713539.33745  23048804.368    23048804.3284   23048808.7174
       161.0004        162.0004
  -2347010.17147  -1809989.31045  23531137.769    23531138.0454   23531143.5574
       160.0004        162.0004
 -19671313.66149 -15314025.60147  20955009.510    20955010.1514   20955017.8654
       195.0004        195.0004
  -6441719.70148  -4987036.15746  22412539.091    22412539.3344   22412543.0884
       175.0004        176.0004
 -13828097.08249 -10743492.12747  21641490.283    21641490.8024   21641494.7684
       196.0004        196.0004
 -10678283.85048  -8293768.33746  23050624.112    23050623.7764   23050626.5634
       169.0004        171.0004
  -2143077.20748  -1638989.12546  23995914.263    23995913.9084   23995920.1194
       186.0004        187.0004
 21  2  5  1 57  0.0000000  0  9G30G22G28G21G01G14G17G19G09
 -21202922.10249 -16496458.04948  20525434.571    20525434.6974   20525441.2854
       214.0004        214.0004
  -5228835.20647  -4061673.14245  24701479.760    24701479.7804   24701485.9844
       138.0004        143.0004
  -3529824.65047  -2735966.18545  23043326.730    23043326.9884   23043330.9674
       159.0004        160.0004
  -2259901.31547  -1742112.30445  23547714.734    23547714.2294   23547719.5464
       159.0004        161.0004
 -19634842.66749 -15285606.62447  20961950.181    20961950.5514   20961958.3064
       196.0004        197.0004
  -6477083.58548  -5014592.41246  22405808.978    22405809.5164   22405813.8014
       175.0004        175.0004
 -13839858.73349 -10752657.02747  21639252.272    21639252.6124   21639256.7904
       196.0004        196.0004
 -10735043.12848  -8337996.31046  23039822.807    23039822.0404   23039825.6564
       171.0004        173.0004
  -2066765.47048  -1579525.46246  24010434.225    24010434.4934   24010442.7584
       186.0004        185.0004
 21  2  5  1 57 30.0000000  0  9G30G22G28G21G01G14G17G19G09
 -21243555.43149 -16528120.39148  20517702.118    20517702.3344   20517709.3134
       214.0004        214.0004
  -5248814.96947  -4077241.76545  24697676.982    24697677.3804   24697681.8504
       135.0004        140.0004
  -3558740.18047  -2758497.77345  23037824.983    23037824.5484   23037829.6324
       158.0004        161.0004
  -2172516.25347  -1674020.03945  23564343.248    23564342.5504   23564348.0634
       160.0004        161.0004
 -19597775.45549 -15256723.07347  20969003.298    20969003.6714   20969012.2384
       196.0004        196.0004
  -6512511.71548  -5042198.75846  22399068.567    22399069.2584   22399072.0064
       176.0004        176.0004
 -13851264.62549 -10761544.73147  21637081.521    21637082.1914   21637086.8414
       196.0004        196.0004
 -10791475.17948  -8381969.33646  23029083.662    23029082.8314   23029087.8864
       172.0004        172.0004
  -1990589.40448  -1520167.51746  24024929.411    24024929.3084   24024937.8924
       183.0004        181.0004
 21  2  5  1 58  0.0000000  0  9G30G22G28G21G01G14G17G19G09
 -21283700.97849 -16559402.64948  20510063.075    20510063.0014   20510069.9614
       214.0004        214.0004
  -5268651.07947  -4092698.45645  24693906.081    24693904.2054   24693908.3124
       135.0004        142.0004
  -3587791.26447  -2781134.99845  23032295.699    23032296.0844   23032300.8804
       158.0004        161.0004
  -2084858.62547  -1605715.41845  23581025.087    23581023.9344   23581027.8124
       159.0004        160.0004
 -19560114.22449 -15227376.65747  20976169.266    20976170.3454   20976178.7744
       195.0004        196.0004
  -6548004.74248  -5069855.67046  22392313.691    22392313.8674   22392317.4394
       176.0004        176.0004
 -13862316.95249 -10770156.93147  21634977.957    21634978.9154   21634983.5344
       196.0004        196.0004
 -10847580.90248  -8425688.09046  23018407.702    23018406.7414   23018409.3234
       171.0004        172.0004
  -1914552.45948  -1460917.96346  24039396.980    24039398.8434   24039407.4614
       182.0004        182.0004
 21  2  5  1 58 30.0000000  0  9G30G22G28G21G01G14G17G19G09
 -21323356.43449 -16590303.00948  20502516.691    20502516.6814   20502523.7144
       214.0004        214.0004
  -5288341.08547  -4108041.30745  24690157.615    24690157.3844   24690162.7604
       138.0004        143.0004
  -3616977.63747  -2803877.60845  23026741.966    23026742.4154   23026746.9344
       158.0004        161.0004
  -1996930.43147  -1537199.94845  23597756.918    23597755.9744   23597759.9774
       159.0004        160.0004
 -19521859.79249 -15197567.99947  20983450.161    20983450.6224   20983458.0934
       195.0004        196.0004
  -6583561.83548  -5097562.48146  22385546.260    22385547.6884   22385552.9324
       176.0004        177.0004
 -13873016.81949 -10778494.48247  21632942.761    21632943.0364   21632947.8214
       197.0004        197.0004
 -10903360.05148  -8469152.31846  23007791.998    23007791.4814   23007796.4954
       171.0004        173.0004
  -1838656.44348  -1401778.26446  24053843.198    24053842.9674   24053849.9524
       182.0004        183.0004
 21  2  5  1 59  0.0000000  0  9G30G22G28G21G01G14G17G19G09
 -21362520.20149 -16620820.23548  20495063.881    20495064.0484   20495070.8434
       214.0004        214.0004
  -5307883.00947  -4123268.76445  24686439.985    24686438.8414   24686442.0924
       140.0004        145.0004
  -3646299.60547  -2826725.89545  23021162.389    23021161.8284   23021167.1474
       159.0004        162.0004
  -1908734.38747  -1468475.77545  23614539.083    23614539.1894   23614543.3824
       157.0004        158.0004
 -19483013.60049 -15167298.22947  20990841.539    20990842.2474   20990850.1434
       195.0004        195.0004
  -6619182.77048  -5125319.03846  22378767.360    22378769.2054   22378773.2384
       176.0004        176.0004
 -13883366.09849 -10786558.84347  21630972.928    21630973.3624   21630978.0294
       197.0004        197.0004
 -10958812.68048  -8512362.17046  22997240.483    22997240.3894   22997244.0414
       173.0004        174.0004
  -1762903.85248  -1342750.30246  24068255.811    24068256.0154   24068265.7104
       182.0004        182.0004
 21  2  5  1 59 30.0000000  0  9G30G22G28G21G01G14G17G19G09
 -21401189.75049 -16650952.36048  20487705.868    20487705.7674   20487712.4694
       214.0004        214.0004
  -5327274.07347  -4138378.69545  24682747.213    24682747.4414   24682752.4254
       139.0004        143.0004
  -3675756.54847  -2849679.37445  23015556.638    23015556.5574   23015561.8104
       159.0004        161.0004
  -1820272.35847  -1399544.33045  23631372.895    23631372.9414   23631377.0614
       156.0004        158.0004
 -19443576.30149 -15136567.86047  20998346.292    20998346.8424   20998354.8494
       195.0004        195.0004
  -6654866.45448  -5153124.53246  22371978.583    22371978.7774   22371983.8724
       176.0004        177.0004
 -13893365.22549 -10794350.36247  21629070.505    21629071.1134   21629075.1964
       196.0004        196.0004
 -11013938.24048  -8555317.15446  22986750.894    22986749.6854   22986753.7824
       173.0004        174.0004
  -1687296.29048  -1283835.36646  24082645.299    24082645.2654   24082653.4314
       182.0004        183.0004
 21  2  5  2  0  0.0000000  0  9G30G22G28G21G01G14G17G19G09
 -21439363.26749 -16680697.94748  20480441.211    20480441.2534   20480448.4424
       214.0004        214.0004
  -5346512.14447  -4153369.40345  24679088.795    24679087.5644   24679090.2224
       138.0004        142.0004
  -3705348.84947  -2872738.27345  23009925.690    23009925.3544   23009930.4554
       160.0004        161.0004
  -1731546.96647  -1330407.65645  23648256.617    23648255.4464   23648260.9704
       154.0004        156.0004
 -19403549.14149 -15105377.85647  21005963.122    21005963.7364   21005971.7984
       195.0004        195.0004
  -6690612.41448  -5180978.51746  22365175.485    22365176.3404   22365181.3334
       176.0004        177.0004
 -13903016.09849 -10801870.50847  21627234.281    21627234.4074   21627238.8044
       196.0004        197.0004
 -11068736.88348  -8598017.39046  22976322.124    22976321.4754   22976326.1124
       172.0004        174.0004
  -1611836.07248  -1225035.20746  24097004.842    24097004.8694   24097012.4364
       181.0004        180.0004
 21  2  5  2  0 30.0000000  0  9G30G22G28G21G01G14G17G19G09
 -21477039.91249 -16710056.38248  20473271.464    20473272.0924   20473278.5964
       214.0004        214.0004
  -5365595.82547  -4168239.81945  24675457.108    24675456.9944   24675459.1054
       137.0004        141.0004
  -3735077.14247  -2895903.17545  23004268.026    23004268.0604   23004274.3224
       160.0004        162.0004
  -1642561.77547  -1261068.55545  23665190.742    23665190.3254   23665193.7324
       154.0004        156.0004
 -19362934.39349 -15073730.01247  21013692.022    21013692.7734   21013700.3234
       208.0004        211.0004
  -6726421.09948  -5208881.39546  22358361.974    22358362.0144   22358367.6734
       177.0004        176.0004
 -13912321.26149 -10809121.27347  21625463.234    21625463.6294   21625467.8874
       197.0004        198.0004
 -11123209.35848  -8640463.46646  22965956.966    22965956.2634   22965959.3224
       173.0004        175.0004
  -1536526.31348  -1166352.34446  24111336.039    24111335.3424   24111342.2424
       178.0004        177.0004
 21  2  5  2  1  0.0000000  0  9G30G22G28G21G01G14G17G19G09
 -21514216.23449 -16739024.94748  20466197.325    20466197.4984   20466203.8454
       214.0004        215.0004
  -5384521.36047  -4182986.99245  24671855.223    24671853.3804   24671858.8264
       137.0004        141.0004
  -3764940.06547  -2919172.98446  22998586.027    22998585.8284   22998590.6774
       161.0004        163.0004
  -1553317.25747  -1191527.37345  23682172.636    23682172.1774   23682176.5184
       154.0004        157.0004
 -19321731.82249 -15041624.10147  21021533.237    21021533.1794   21021540.8054
       212.0004        210.0004
  -6762290.42848  -5236831.51146  22351535.977    22351536.3594   22351540.7294
       176.0004        175.0004
 -13921280.83049 -10816102.75547  21623758.356    21623758.5304   21623763.1174
       197.0004        198.0004
 -11177354.28548  -8682654.30146  22955653.443    22955653.1914   22955656.2804
       173.0004        174.0004
  -1461367.62348  -1107787.22046  24125636.617    24125637.7384   24125644.6284
       176.0004        176.0004
 21  2  5  2  1 30.0000000  0  9G30G22G28G21G01G14G17G19G09
 -21550891.13149 -16767602.79648  20459218.630    20459218.5104   20459225.2494
       214.0004        215.0004
  -5403287.44547  -4197609.94245  24668282.749    24668283.5344   24668288.1984
       137.0004        142.0004
  -3794938.39547  -2942548.28346  22992877.765    22992877.4154   22992881.6934
       161.0004        163.0004
  -1463816.87347  -1121786.82845  23699204.163    23699205.2434   23699209.7774
       154.0004        157.0004
 -19279943.38549 -15009061.70048  21029484.890    21029485.5414   21029492.7954
       221.0004        225.0004
  -6798220.65648  -5264829.08146  22344698.065    22344698.5984   22344703.5964
       174.0004        175.0004
 -13929897.02949 -10822816.67447  21622118.349    21622118.4974   21622123.0854
       197.0004        196.0004
 -11231172.45648  -8724590.52846  22945411.943    22945411.2234   22945415.8224
       172.0004        173.0004
  -1386362.96848  -1049342.09546  24139910.641    24139910.8644   24139918.6804
       178.0004        180.0004
 21  2  5  2  2  0.0000000  0  9G30G22G28G21G01G14G17G19G09
 -21587062.14849 -16795787.99248  20452335.500    20452335.3834   20452342.2424
       215.0004        215.0004
  -5421891.32147  -4212106.44445  24664739.324    24664741.9014   24664749.7184
       136.0004        141.0004
  -3825071.37647  -2966028.53445  22987143.335    22987143.6014   22987146.6274
       160.0004        162.0004
  -1374062.35647  -1051848.24145  23716283.455    23716284.0594   23716289.7444
       155.0004        158.0004
 -19237569.87949 -14976043.36948  21037548.087    21037548.6014   21037556.2574
       224.0004        225.0004
  -6834210.42348  -5292873.06046  22337851.981    22337851.9904   22337855.1694
       176.0004        177.0004
 -13938170.78149 -10829263.74347  21620543.834    21620544.2664   21620548.9504
       195.0004        195.0004
 -11284663.02348  -8766271.47946  22935233.101    22935232.1524   22935236.1344
       172.0004        172.0004
  -1311513.77848   -991018.08346  24154153.050    24154153.8384   24154161.9924
       179.0004        180.0004
 21  2  5  2  2 30.0000000  0  9G30G22G28G21G01G14G17G19G09
 -21622727.60449 -16823579.25748  20445548.491    20445548.6374   20445555.3044
       215.0004        215.0004
  -5440330.77547  -4226474.85145  24661233.036    24661233.3044   24661236.5144
       136.0004        141.0004
  -3855339.11547  -2989613.79345  22981383.674    22981383.0364   22981388.2424
       160.0004        162.0004
  -1284057.03547   -981714.24945  23733411.570    23733411.2354   23733417.7954
       156.0004        159.0004
 -19194612.73849 -14942570.27748  21045722.380    21045723.2804   21045731.0664
       225.0004        225.0004
  -6870259.44148  -5320963.20146  22330989.258    22330990.1274   22330995.1234
       176.0004        176.0004
 -13946103.56349 -10835445.13847  21619034.614    21619034.8074   21619039.2284
       195.0004        196.0004
 -11337826.30648  -8807697.38446  22925116.914    22925115.9844   22925120.1264
       171.0004        172.0004
  -1236822.34248   -932817.00446  24168367.287    24168367.2024   24168374.7254
       178.0004        178.0004
 21  2  5  2  3  0.0000000  0  9G30G22G28G21G01G14G17G19G09
 -21657886.42449 -16850975.74648  20438857.840    20438857.9704   20438864.6494
       215.0004        215.0004
  -5458603.91147  -4240713.66645  24657758.118    24657756.9474   24657760.1684
       138.0004        143.0004
  -3885742.07447  -3013304.40746  22975597.707    22975597.2694   22975602.8374
       160.0004        163.0004
  -1193802.64647   -911386.17945  23750585.832    23750586.0954   23750593.0054
       157.0004        159.0004
 -19151074.03049 -14908644.01948  21054007.748    21054008.0274   21054015.8234
       225.0004        225.0004
  -6906367.66248  -5349099.47846  22324118.721    22324119.6424   22324123.8774
       176.0004        177.0004
 -13953697.91949 -10841362.80647  21617588.656    21617589.2294   21617594.1134
       196.0004        196.0004
 -11390662.92448  -8848868.77146  22915061.195    22915061.8604   22915065.0294
       170.0004        171.0004
  -1162291.44648   -874741.03846  24182549.554    24182549.5394   24182558.5854
       178.0004        178.0004
 21  2  5  2  3 30.0000000  0  9G30G22G28G21G01G14G17G19G09
 -21692536.54149 -16877975.82248  20432264.381    20432264.3744   20432271.4024
       215.0004        215.0004
  -5476708.71447  -4254821.30245  24654313.700    24654312.2884   24654315.4614
       137.0004        142.0004
  -3916280.23147  -3037100.37946  22969787.204    22969787.1494   22969791.9544
       162.0004        165.0004
  -1103302.17747   -840866.32845  23767806.428    23767807.0594   23767813.8564
       156.0004        157.0004
 -19106954.88349 -14874265.45448  21062403.196    21062404.1744   21062411.2094
       225.0004        224.0004
  -6942534.23048  -5377281.20246  22317236.955    22317237.1244   22317242.3354
       177.0004        177.0004
 -13960955.20449 -10847017.81247  21616209.198    21616208.8464   21616213.5444
       197.0004        198.0004
 -11443172.56948  -8889785.37546  22905070.103    22905069.6544   22905072.7364
       172.0004        174.0004
  -1087922.94948   -816791.60246  24196702.913    24196702.7254   24196709.7094
       179.0004        180.0004
 21  2  5  2  4  0.0000000  0 10G30G22G28G21G01G06G14G17G19G09
 -21726677.29449 -16904579.00748  20425767.393    20425767.4144   20425774.1374
       215.0004        215.0004
  -5494643.86347  -4268796.74745  24650901.083    24650902.4774   24650900.3444
       136.0004        140.0004
  -3946954.47847  -3061002.37646  22963949.332    22963949.5584   22963954.5724
       163.0004        164.0004
  -1012559.06047   -770157.43045  23785074.792    23785075.0994   23785082.8614
       155.0004        157.0004
 -19062257.85049 -14839436.59748  21070909.153    21070909.6034   21070917.2194
       225.0004        225.0004
  -1910581.53557  -1452889.42645  24042568.942    24042568.4185   24042578.6554
       143.0004        152.0004
  -6978759.69048  -5405508.81846  22310343.359    22310344.4234   22310347.8854
       176.0004        176.0004
 -13967878.18149 -10852412.34047  21614890.831    21614891.0594   21614896.1214
       196.0004        197.0004
 -11495356.65948  -8930448.28046  22895139.454    22895138.8644   22895142.3874
       173.0004        175.0004
  -1013720.01048   -758971.18446  24210823.830    24210823.3314   24210830.7584
       179.0004        179.0004
 21  2  5  2  4 30.0000000  0 10G30G22G28G21G01G06G14G17G19G09
 -21760305.48649 -16930782.80048  20419367.994    20419367.8494   20419374.7074
       214.0004        214.0004
  -5512405.69047  -4282637.12845  24647518.300    24647518.0704   24647522.0564
       137.0004        143.0004
  -3977763.18547  -3085009.16646  22958086.806    22958087.1704   22958091.4344
       162.0004        164.0004
   -921574.63847   -699260.49745  23802388.504    23802389.1664   23802395.3494
       153.0004        155.0004
 -19016982.86649 -14804157.39348  21079524.752    21079525.0844   21079532.8714
       225.0004        225.0004
  -2018758.74447  -1537183.31645  24021982.995    24021984.2434   24021992.3824
       149.0004        154.0004
  -7015041.81648  -5433780.60846  22303439.669    22303440.6604   22303444.7734
       177.0004        177.0004
 -13974466.71249 -10857546.26047  21613637.119    21613637.2424   21613641.7114
       196.0004        197.0004
 -11547213.75048  -8970856.40446  22885271.485    22885270.6694   22885274.1414
       174.0004        175.0004
   -939683.20948   -701280.21346  24224912.010    24224912.0804   24224919.8234
       179.0004        180.0004
 21  2  5  2  5  0.0000000  0 10G30G22G28G21G01G06G14G17G19G09
 -21793419.15749 -16956585.66648  20413066.435    20413066.5414   20413073.5724
       214.0004        215.0004
  -5529991.83547  -4296340.60245  24644170.939    24644171.0054   24644176.1894
       137.0004        142.0004
  -4008706.07047  -3109120.49946  22952198.443    22952198.0644   22952203.2614
       163.0004        165.0004
   -830350.72247   -628176.91745  23819748.476    23819747.5964   23819752.3174
       150.0004        153.0004
 -18971131.22549 -14768428.83848  21088249.471    21088250.0064   21088257.9834
       224.0004        224.0004
  -2126883.22547  -1621436.12445  24001407.517    24001408.9864   24001417.5054
       152.0004        155.0004
  -7051379.84148  -5462095.94946  22296524.375    22296524.8794   22296529.7684
       177.0004        178.0004
 -13980721.96849 -10862420.48147  21612447.161    21612447.3584   21612451.5254
       196.0004        196.0004
 -11598743.75248  -9011009.65046  22875464.773    22875464.5164   22875469.3724
       174.0004        175.0004
   -865814.45848   -643720.19946  24238968.872    24238969.0164   24238976.5224
       180.0004        181.0004
 21  2  5  2  5 30.0000000  0 10G30G22G28G21G01G06G14G17G19G09
 -21826016.94749 -16981986.54848  20406863.310    20406863.6724   20406870.3604
       214.0004        215.0004
  -5547400.49547  -4309905.80745  24640858.177    24640857.8584   24640863.9274
       137.0004        143.0004
  -4039783.45447  -3133336.61746  22946285.113    22946284.8804   22946289.0084
       163.0004        165.0004
   -738890.33347   -556909.07445  23837153.398    23837152.1944   23837157.0834
       150.0004        151.0004
 -18924704.75249 -14732252.36648  21097084.513    21097085.0854   21097092.6904
       224.0004        224.0004
  -2234952.56947  -1705645.97445  23980842.683    23980843.4174   23980852.4314
       152.0004        155.0004
  -7087773.42548  -5490454.59046  22289599.262    22289599.5914   22289604.0614
       178.0004        179.0004
 -13986646.15449 -10867036.71347  21611319.425    21611319.9314   21611323.8814
       195.0004        194.0004
 -11649947.07248  -9050908.33546  22865721.862    22865721.4134   22865724.6934
       174.0004        174.0004
   -792116.11348   -586292.99646  24252991.604    24252991.7754   24253000.9614
       180.0004        180.0004
 21  2  5  2  6  0.0000000  0 10G30G22G28G21G01G06G14G17G19G09
 -21858096.71049 -17006983.76848  20400758.993    20400759.2114   20400765.9994
       215.0004        215.0004
  -5564628.90747  -4323330.54745  24637580.458    24637580.2294   24637584.7344
       137.0004        142.0004
  -4070994.48147  -3157656.90246  22940345.711    22940346.0204   22940350.2574
       163.0004        164.0004
   -647195.38247   -485458.48245  23854602.160    23854601.9804   23854606.2674
       148.0004        151.0004
 -18877704.54149 -14695628.82348  21106027.228    21106028.3944   21106036.5684
       224.0004        224.0004
  -2342963.62147  -1789810.40245  23960289.116    23960290.3484   23960299.0154
       152.0004        155.0004
  -7124221.30448  -5518855.51946  22282662.059    22282663.4534   22282667.2994
       178.0004        178.0004
 -13992240.68348 -10871396.06747  21610254.722    21610255.2664   21610259.5564
       194.0004        195.0004
 -11700823.40448  -9090552.19346  22856040.937    22856040.2384   22856043.6514
       174.0004        176.0004
   -718589.73148   -528999.74246  24266982.965    24266983.5884   24266991.8174
       179.0004        180.0004
 21  2  5  2  6 30.0000000  0 10G30G22G28G21G01G06G14G17G19G09
 -21889657.23249 -17031576.40148  20394753.042    20394753.2654   20394759.9554
       215.0004        215.0004
  -5581675.36147  -4336613.48145  24634338.235    24634338.1474   24634341.4094
       139.0004        144.0004
  -4102339.59148  -3182081.66546  22934381.232    22934381.4164   22934386.2104
       165.0004        167.0004
   -555268.63447   -413827.27045  23872096.875    23872095.0974   23872098.2014
       147.0004        150.0004
 -18830132.40949 -14658559.63848  21115080.217    21115081.3224   21115088.9634
       223.0004        223.0004
  -2450914.02147  -1873927.57645  23939747.774    23939748.2864   23939756.6344
       153.0004        156.0004
  -7160723.29848  -5547298.64146  22275717.602    22275717.1694   22275722.0414
       178.0004        178.0004
 -13997507.42149 -10875500.01947  21609252.517    21609252.8934   21609257.1114
       195.0004        195.0004
 -11751373.01648  -9129941.48846  22846420.658    22846419.8924   22846424.7574
       173.0004        174.0004
   -645237.71848   -471842.38346  24280943.304    24280943.4794   24280949.6894
       181.0004        182.0004
 21  2  5  2  7  0.0000000  0 10G30G22G28G21G01G06G14G17G19G09
 -21920697.40249 -17055763.54948  20388846.642    20388846.6554   20388853.2294
       215.0004        215.0004
  -5598537.94347  -4349753.17245  24631131.106    24631129.6764   24631131.7374
       140.0004        145.0004
  -4133819.21448  -3206611.23246  22928390.730    22928390.9014   22928396.1224
       166.0004        167.0004
   -463113.37147   -342017.97545  23889632.861    23889632.5844   23889636.8624
       148.0004        151.0004
 -18781990.74449 -14621046.65148  21124241.602    21124242.3144   21124250.2594
       223.0004        223.0004
  -2558801.64847  -1957995.82645  23919217.361    23919217.4854   23919226.1114
       152.0004        154.0004
  -7197279.28148  -5575783.82046  22268760.465    22268761.2914   22268766.1994
       179.0004        178.0004
 -14002448.98249 -10879350.57047  21608312.576    21608312.7464   21608317.0614
       197.0004        197.0004
 -11801596.82648  -9169076.92846  22836863.385    22836863.1864   22836866.9294
       173.0004        174.0004
   -572062.72748   -414822.95946  24294866.885    24294867.8284   24294874.4404
       181.0004        182.0004
 21  2  5  2  7 30.0000000  0 10G30G22G28G21G01G06G14G17G19G09
 -21951214.63149 -17079543.20448  20383039.229    20383039.1514   20383046.4164
       215.0004        215.0004
  -5615213.87847  -4362747.39045  24627955.798    24627955.9044   24627958.1364
       139.0004        143.0004
  -4165432.03848  -3231244.58446  22922375.509    22922374.5644   22922380.4224
       166.0004        169.0004
   -370731.14147   -270031.82345  23907210.927    23907210.9984   23907215.5074
       147.0004        150.0004
 -18733280.07949 -14583090.29248  21133512.071    21133512.1814   21133519.6034
       223.0004        224.0004
  -2666622.81447  -2042012.27145  23898699.158    23898699.8534   23898707.6194
       151.0004        154.0004
  -7233887.55248  -5604309.74246  22261794.466    22261794.8964   22261800.3894
       179.0004        179.0004
 -14007065.73149 -10882948.02947  21607433.971    21607434.7424   21607438.8654
       197.0004        198.0004
 -11851494.03348  -9207957.85946  22827368.574    22827367.6794   22827371.9034
       174.0004        176.0004
   -499065.74548   -357942.22646  24308757.868    24308758.0194   24308765.5854
       181.0004        181.0004
 21  2  5  2  8  0.0000000  0 10G30G22G28G21G01G06G14G17G19G09
 -21981207.70549 -17102914.43548  20377331.852    20377331.8564   20377338.6714
       215.0004        215.0004
  -5631701.31847  -4375594.74345  24624819.239    24624818.3984   24624822.2224
       140.0004        144.0004
  -4197178.43048  -3255982.03646  22916334.714    22916334.3634   22916337.0974
       166.0004        166.0004
   -278124.65747   -197870.94645  23924834.623    23924832.7904   23924835.9454
       146.0004        148.0004
 -18684002.39849 -14544692.09948  21142888.753    21142888.9444   21142896.8864
       223.0004        223.0004
  -2774375.15847  -2125975.09445  23878194.624    23878194.8894   23878203.5494
       150.0004        151.0004
  -7270547.71048  -5632876.10246  22254818.010    22254819.0434   22254823.4284
       179.0004        180.0004
 -14011359.50749 -10886293.82147  21606616.935    21606617.2434   21606621.6084
       197.0004        198.0004
 -11901064.85248  -9246584.47946  22817935.846    22817934.9834   22817938.9684
       175.0004        176.0004
   -426249.21048   -301202.08446  24322615.089    24322615.6204   24322622.0524
       182.0004        183.0004
 21  2  5  2  8 30.0000000  0 10G30G22G28G21G01G06G14G17G19G09
 -22010674.24749 -17125875.36948  20371724.816    20371724.9214   20371731.2614
       215.0004        215.0004
  -5647997.05447  -4388292.69145  24621716.683    24621715.9844   24621720.0094
       140.0004        144.0004
  -4229057.23647  -3280822.64946  22910267.438    22910267.5744   22910271.3004
       164.0004        165.0004
   -185295.81447   -125536.80045  23942500.337    23942499.0304   23942502.1794
       146.0004        150.0004
 -18634158.56649 -14505852.74648  21152372.847    21152374.0744   21152382.0904
       223.0004        224.0004
  -2882055.12947  -2209881.53645  23857703.049    23857703.8014   23857712.4734
       149.0004        152.0004
  -7307258.29048  -5661481.73046  22247831.582    22247832.6984   22247837.5754
       179.0004        180.0004
 -14015331.55249 -10889388.90747  21605860.667    21605861.2224   21605865.5664
       198.0004        198.0004
 -11950309.41948  -9284956.84646  22808565.124    22808564.0554   22808568.4704
       175.0004        175.0004
   -353614.28648   -244603.50046  24336438.901    24336438.4004   24336444.3504
       184.0004        184.0004
 21  2  5  2  9  0.0000000  0 10G30G22G28G21G01G06G14G17G19G09
 -22039613.59649 -17148425.51848  20366217.650    20366217.7154   20366224.5794
       215.0004        216.0004
  -5664100.02147  -4400840.46545  24618652.703    24618651.7784   24618655.6594
       139.0004        142.0004
  -4261069.50747  -3305767.27046  22904176.445    22904176.1244   22904179.6284
       164.0004        166.0004
    -92247.65647    -53031.74645  23960205.349    23960204.1164   23960208.8714
       147.0004        150.0004
 -18583751.18349 -14466574.26848  21161965.702    21161966.5014   21161974.0904
       223.0004        223.0004
  -2989660.88547  -2293730.12345  23837226.385    23837226.6054   23837235.4624
       148.0004        152.0004
  -7344019.41748  -5690126.76946  22240837.964    22240838.6034   22240842.1434
       180.0004        180.0004
 -14018984.42349 -10892235.29447  21605165.561    21605165.9534   21605170.3994
       197.0004        197.0004
 -11999228.33848  -9323075.48746  22799255.542    22799254.8424   22799259.3634
       174.0004        174.0004
   -281163.81848   -188148.65846  24350223.679    24350223.8864   24350231.5774
       183.0004        183.0004
 21  2  5  2  9 30.0000000  0 10G30G22G28G21G01G06G14G17G19G09
 -22068023.14949 -17170562.83248  20360811.222    20360811.4604   20360818.2264
       215.0004        216.0004
  -5680007.28047  -4413235.70545  24615623.858    24615624.4414   24615630.1514
       136.0004        140.0004
  -4293213.70648  -3330814.69146  22898059.773    22898058.7344   22898063.0514
       166.0004        167.0004
      1018.08847     19642.84845  23977953.680    23977952.1754   23977957.5104
       148.0004        151.0004
 -18532780.86349 -14426857.12348  21171664.405    21171665.2444   21171673.3184
       223.0004        222.0004
  -3097188.60247  -2377517.89545  23816764.737    23816765.5524   23816773.8074
       150.0004        154.0004
  -7380829.26448  -5718809.74546  22233831.588    22233832.5624   22233836.9274
       179.0004        178.0004
 -14022318.65649 -10894833.37047  21604530.518    21604531.1764   21604536.4784
       197.0004        197.0004
 -12047820.94148  -9360939.81946  22790009.193    22790008.1854   22790012.3834
       173.0004        174.0004
   -208898.73648   -131838.21846  24363973.267    24363974.9064   24363983.8884
       182.0004        182.0004
 21  2  5  2 10  0.0000000  0 10G30G22G28G21G01G06G14G17G19G09
 -22095902.14749 -17192286.73948  20355506.248    20355506.3154   20355512.9954
       215.0004        216.0004
  -5695717.19847  -4425477.21045  24612637.226    24612636.2554   24612638.5764
       138.0004        143.0004
  -4325490.20048  -3355965.20846  22891916.380    22891917.0064   22891920.2204
       166.0004        167.0004
     94499.02247     92485.10545  23995742.451    23995741.8154   23995747.6384
       148.0004        151.0004
 -18481250.04849 -14386703.24548  21181470.105    21181471.2864   21181479.3164
       222.0004        223.0004
  -3204636.19247  -2461243.27745  23796317.729    23796318.4434   23796326.9154
       152.0004        155.0004
  -7417687.76048  -5747530.64946  22226817.777    22226818.6754   22226822.4644
       180.0004        181.0004
 -14025336.60649 -10897185.03047  21603957.671    21603958.0574   21603961.5404
       197.0004        198.0004
 -12096088.08548  -9398550.56846  22780823.766    22780823.3444   22780827.0844
       173.0004        174.0004
   -136821.64648    -75674.29946  24377689.592    24377690.5874   24377699.4404
       181.0004        180.0004
 21  2  5  2 10 30.0000000  0 10G30G22G28G21G01G06G14G17G19G09
 -22123248.62849 -17213595.68948  20350302.413    20350302.3864   20350309.4914
       215.0004        216.0004
  -5711226.85547  -4437562.63345  24609685.033    24609685.3864   24609689.1574
       139.0004        144.0004
  -4357898.38748  -3381218.35346  22885750.568    22885750.7794   22885753.7064
       166.0004        169.0004
    188192.05147    165492.65545  24013570.254    24013570.5734   24013576.2944
       149.0004        151.0004
 -18429160.06549 -14346113.65148  21191383.613    21191384.2064   21191391.6654
       223.0004        222.0004
  -3312000.63747  -2544903.85845  23775886.380    23775887.3274   23775895.7644
       152.0004        155.0004
  -7454593.70948  -5776288.51246  22219794.956    22219795.6034   22219800.6484
       181.0004        180.0004
 -14028040.01749 -10899291.58047  21603442.911    21603443.4994   21603447.2164
       198.0004        198.0004
 -12144029.57648  -9435907.55946  22771700.817    22771700.9804   22771704.4774
       173.0004        175.0004
    -64934.12048    -19658.10646  24391370.662    24391371.0174   24391378.8754
       180.0004        181.0004
 21  2  5  2 11  0.0000000  0 10G30G22G28G21G01G06G14G17G19G09
 -22150061.28949 -17234488.67348  20345199.997    20345200.1144   20345206.8664
       215.0004        216.0004
  -5726534.57947  -4449490.71745  24606771.936    24606772.2724   24606775.6014
       138.0004        143.0004
  -4390438.21648  -3406574.06646  22879557.881    22879558.2844   22879561.5464
       168.0004        170.0004
    282094.38647    238663.26945  24031440.416    24031439.7034   24031443.7134
       147.0004        149.0004
 -18376512.88049 -14305089.86248  21201402.803    21201402.7324   21201409.5414
       222.0004        222.0004
  -3419279.25247  -2628497.52145  23755473.013    23755473.6684   23755481.8214
       153.0004        157.0004
  -7491546.52648  -5805082.89446  22212762.600    22212763.4104   22212769.3354
       181.0004        181.0004
 -14030430.34749 -10901154.16247  21602987.615    21602987.7624   21602992.1364
       197.0004        197.0004
 -12191645.95148  -9473011.21446  22762639.825    22762638.7424   22762642.5884
       173.0004        175.0004
      6761.78148     36208.76346  24405015.227    24405015.7834   24405022.8274
       181.0004        181.0004
 21  2  5  2 11 30.0000000  0 10G30G22G28G21G01G06G14G17G19G09
 -22176339.62749 -17254965.31348  20340199.817    20340199.6984   20340206.5364
       216.0004        216.0004
  -5741639.16547  -4461260.54245  24603897.372    24603896.0544   24603898.1134
       136.0004        141.0004
  -4423110.63548  -3432033.09546  22873340.409    22873341.6304   22873344.8214
       169.0004        169.0004
    376203.54247    311995.08645  24049348.894    24049348.4474   24049353.7514
       147.0004        150.0004
 -18323311.18349 -14263633.98948  21211524.614    21211526.2104   21211533.7654
       222.0004        222.0004
  -3526470.23147  -2712022.92645  23735075.646    23735075.6144   23735084.4354
       154.0004        157.0004
  -7528546.27548  -5833913.85946  22205722.816    22205723.4154   22205727.9594
       181.0004        181.0004
 -14032510.48949 -10902775.05247  21602591.535    21602591.8594   21602596.4844
       196.0004        196.0004
 -12238938.31948  -9509862.40746  22753641.334    22753640.3674   22753643.5644
       175.0004        176.0004
     78263.19248     91924.06346  24418620.642    24418621.4364   24418628.7854
       180.0004        180.0004
 21  2  5  2 12  0.0000000  0 10G30G22G28G21G01G06G14G17G19G09
 -22202081.31749 -17275023.78348  20335300.875    20335301.2764   20335308.3404
       216.0004        216.0004
  -5756537.41146  -4472869.55645  24601061.670    24601061.7634   24601066.4744
       134.0004        140.0004
  -4455914.07048  -3457594.20346  22867097.487    22867097.2334   22867102.6904
       168.0004        169.0004
    470517.78847    385486.69445  24067297.543    24067296.5594   24067300.0554
       147.0004        150.0004
 -18269555.95149 -14221746.79548  21221754.950    21221755.6194   21221763.0494
       222.0004        222.0004
  -3633569.89447  -2795477.17345  23714696.039    23714695.8664   23714703.7814
       155.0004        157.0004
  -7565591.34848  -5862780.16246  22198673.322    22198674.0424   22198677.5584
       181.0004        178.0004
 -14034281.30949 -10904154.91447  21602255.438    21602255.1954   21602259.3084
       196.0004        196.0004
 -12285906.12848  -9546460.68846  22744702.389    22744701.4754   22744705.6494
       176.0004        177.0004
    149569.09048    147487.00846  24432189.429    24432190.2974   24432197.7944
       178.0004        178.0004
 21  2  5  2 12 30.0000000  0 10G30G22G28G21G01G06G14G17G19G09
 -22227285.58149 -17294663.48148  20330504.805    20330505.0584   20330511.8874
       216.0004        216.0004
  -5771227.94147  -4484316.73845  24598267.665    24598266.9604   24598271.0464
       135.0004        140.0004
  -4488848.88048  -3483257.69046  22860831.943    22860832.0414   22860834.9404
       168.0004        169.0004
    565033.52847    459135.29145  24085282.604    24085282.2944   24085285.8544
       147.0004        149.0004
 -18215249.60549 -14179430.16348  21232088.908    21232089.6304   21232097.2194
       222.0004        221.0004
  -3740576.11247  -2878858.64445  23694332.075    23694333.3034   23694340.3344
       155.0004        156.0004
  -7602681.44548  -5891681.55046  22191614.692    22191615.5944   22191619.3704
       179.0004        178.0004
 -14035744.96049 -10905295.42447  21601976.317    21601976.5624   21601981.3014
       197.0004        198.0004
 -12332550.23348  -9582806.75646  22735826.136    22735825.5554   22735829.7444
       176.0004        177.0004
    220677.01048    202895.69846  24445721.145    24445720.8514   24445729.2584
       177.0004        177.0004
 21  2  5  2 13  0.0000000  0 10G30G22G28G21G01G06G14G17G19G09
 -22251950.00749 -17313882.52248  20325811.202    20325811.1704   20325818.2034
       216.0004        216.0004
  -5785708.04147  -4495599.90845  24595509.762    24595510.0234   24595515.3994
       136.0004        142.0004
  -4521913.86248  -3509022.59846  22854538.989    22854538.7974   22854542.9634
       168.0004        168.0004
    659749.64447    532940.05245  24103307.340    24103305.3274   24103310.6194
       146.0004        149.0004
 -18160393.01949 -14136684.77748  21242527.486    21242528.6834   21242535.7944
       221.0004        221.0004
  -3847485.14547  -2962164.38945  23673987.674    23673988.9974   23673995.9704
       153.0004        156.0004
  -7639814.69548  -5920616.54146  22184549.081    22184549.2834   22184553.0254
       180.0004        180.0004
 -14036902.78149 -10906197.61547  21601756.161    21601756.5814   21601760.9724
       198.0004        199.0004
 -12378869.99548  -9618900.05946  22727012.425    22727011.2704   22727016.0794
       176.0004        176.0004
    291586.09348    258149.46446  24459214.403    24459214.1534   24459222.7304
       176.0004        177.0004
 21  2  5  2 13 30.0000000  0 10G30G22G28G21G01G06G14G17G19G09
 -22276073.72049 -17332680.23248  20321220.779    20321220.8414   20321227.6124
       216.0004        216.0004
  -5799975.65047  -4506717.50345  24592796.427    24592797.7214   24592801.3304
       136.0004        141.0004
  -4555109.43448  -3534889.26646  22848221.589    22848221.6194   22848226.6444
       168.0004        169.0004
    754662.86147    606898.38545  24121367.616    24121365.9794   24121371.6274
       145.0004        149.0004
 -18104988.56349 -14093512.47648  21253070.467    21253071.6524   21253078.7774
       221.0004        220.0004
  -3954294.61847  -3045392.51745  23653662.570    23653663.5244   23653671.8674
       156.0004        159.0004
  -7676990.78248  -5949584.91546  22177474.768    22177474.4284   22177480.1314
       181.0004        182.0004
 -14037756.35949 -10906862.72647  21601594.082    21601594.2504   21601598.0754
       198.0004        198.0004
 -12424866.24348  -9654741.27746  22718259.751    22718259.4694   22718262.5784
       175.0004        174.0004
    362293.98948    313246.48146  24472670.641    24472671.0534   24472677.6104
       178.0004        179.0004
 21  2  5  2 14  0.0000000  0 10G30G22G28G21G01G06G14G17G19G09
 -22299655.51449 -17351055.65848  20316733.065    20316733.3574   20316740.2194
       216.0004        216.0004
  -5814028.70347  -4517667.91345  24590123.342    24590123.1494   24590125.5714
       137.0004        143.0004
  -4588434.85748  -3560857.12446  22841879.925    22841880.5114   22841884.2004
       167.0004        167.0004
    849770.62847    681008.30845  24139464.508    24139465.2154   24139470.8584
       145.0004        150.0004
 -18049038.28449 -14049914.84348  21263717.797    21263718.5394   21263725.6054
       220.0004        220.0004
  -4061001.96447  -3128541.05645  23633357.663    23633358.0514   23633365.8924
       157.0004        159.0004
  -7714208.90648  -5978586.02546  22170391.949    22170392.5234   22170397.7574
       182.0004        182.0004
 -14038308.04849 -10907292.60247  21601488.620    21601488.7894   21601493.9144
       198.0004        198.0004
 -12470539.55048  -9690330.85846  22709568.266    22709568.0404   22709571.5874
       175.0004        177.0004
    432798.70748    368185.17346  24486088.254    24486087.4404   24486094.6834
       176.0004        176.0004
 21  2  5  2 14 30.0000000  0 10G30G22G28G21G01G06G14G17G19G09
 -22322693.28049 -17369007.17648  20312348.942    20312349.2674   20312356.4084
       216.0004        216.0004
  -5827864.36947  -4528448.95945  24587490.602    24587488.6164   24587493.5434
       138.0004        143.0004
  -4621889.39048  -3586925.59946  22835513.847    22835514.0634   22835518.1244
       168.0004        169.0004
    945071.13047    755268.41745  24157601.988    24157600.7694   24157605.2744
       147.0004        151.0004
 -17992543.29949 -14005892.77648  21274468.499    21274469.5804   21274476.4884
       220.0004        220.0004
  -4167603.55147  -3211607.23945  23613070.456    23613071.6744   23613079.2014
       156.0004        158.0004
  -7751467.45948  -6007618.67046  22163301.860    22163302.4914   22163306.2494
       182.0004        182.0004
 -14038559.08949 -10907488.22147  21601441.022    21601441.2404   21601445.4614
       198.0004        198.0004
 -12515889.38048  -9725668.38046  22700938.746    22700938.2644   22700941.4684
       177.0004        177.0004
    503099.11148    422964.62546  24499466.236    24499465.1074   24499472.4954
       174.0004        174.0004
 21  2  5  2 15  0.0000000  0 10G30G22G28G21G01G06G14G17G19G09
 -22345186.83549 -17386534.61948  20308069.016    20308069.1114   20308075.8764
       216.0004        216.0004
  -5841481.92247  -4539060.02145  24584896.843    24584896.8394   24584902.0054
       136.0004        141.0004
  -4655473.76348  -3613095.24346  22829123.954    22829123.2324   22829127.5364
       168.0004        169.0004
   1040561.31547    829676.31645  24175771.419    24175771.6954   24175777.0954
       147.0004        150.0004
 -17935506.72149 -13961448.68748  21285322.665    21285323.2654   21285330.2694
       220.0004        219.0004
  -4274097.77147  -3294589.72545  23592805.641    23592806.0984   23592815.2344
       155.0004        158.0004
  -7788766.64048  -6036682.96346  22156204.330    22156205.0764   22156209.4714
       182.0004        182.0004
 -14038512.03149 -10907451.54247  21601449.506    21601450.2294   21601454.3194
       198.0004        198.0004
 -12560917.17348  -9760754.95146  22692369.290    22692368.6214   22692372.6204
       178.0004        178.0004
    573192.40448    477582.69946  24512804.202    24512803.8124   24512811.4484
       173.0004        174.0004
 21  2  5  2 15 30.0000000  0 10G30G22G28G21G01G06G14G17G19G09
 -22367133.33949 -17403635.80748  20303892.668    20303892.8264   20303899.3874
       216.0004        216.0004
  -5854877.73747  -4549498.31445  24582348.912    24582348.0634   24582351.2114
       137.0004        142.0004
  -4689186.06948  -3639364.56746  22822707.579    22822708.2974   22822712.9474
       168.0004        170.0004
   1136239.41747    904230.69145  24193978.532    24193978.7554   24193983.1244
       147.0004        150.0004
 -17877928.94149 -13916582.88648  21296278.305    21296279.5804   21296286.9354
       220.0004        219.0004
  -4380480.26647  -3377485.15045  23572562.075    23572563.6944   23572571.4494
       155.0004        158.0004
  -7826104.04548  -6065777.04246  22149098.282    22149099.1834   22149103.8154
       182.0004        181.0004
 -14038167.31449 -10907182.92247  21601514.863    21601515.7464   21601519.8794
       198.0004        198.0004
 -12605621.98648  -9795589.85846  22683863.516    22683862.5654   22683865.8564
       178.0004        178.0004
    643078.20948    532039.08946  24526102.524    24526102.6074   24526109.9374
       172.0004        173.0004
 21  2  5  2 16  0.0000000  0 10G30G22G28G21G01G06G14G17G19G09
 -22388532.61149 -17420310.57248  20299819.980    20299820.4414   20299827.2004
       216.0004        216.0004
  -5868050.54347  -4559762.82845  24579842.886    24579841.8374   24579844.7314
       137.0004        144.0004
  -4723026.68748  -3665733.88146  22816268.835    22816267.9164   22816272.6304
       169.0004        169.0004
   1232102.75847    978929.37545  24212220.570    24212220.5854   24212225.8984
       146.0004        150.0004
 -17819812.98449 -13871297.73448  21307338.813    21307339.3284   21307346.1104
       220.0004        220.0004
  -4486749.29947  -3460292.13945  23552339.480    23552340.2794   23552349.1934
       157.0004        160.0004
  -7863479.71248  -6094900.95746  22141987.663    22141987.1084   22141991.9414
       183.0004        183.0004
 -14037527.92349 -10906684.68647  21601637.273    21601637.5414   21601641.7894
       198.0004        198.0004
 -12650004.99448  -9830174.00246  22675416.660    22675416.4104   22675420.6024
       177.0004        177.0004
    712753.72048    586331.62846  24539361.445    24539361.1754   24539368.7274
       173.0004        174.0004
 21  2  5  2 16 30.0000000  0 10G30G22G28G21G01G06G14G17G19G09
 -22409383.33049 -17436557.89148  20295853.037    20295852.7904   20295859.3444
       215.0004        216.0004
  -5880998.38547  -4569852.02445  24577378.742    24577377.3234   24577381.7564
       140.0004        145.0004
  -4756995.45648  -3692203.04746  22809803.886    22809803.1824   22809808.6034
       167.0004        167.0004
   1328148.45647   1053770.13145  24230497.542    24230497.4324   24230502.2154
       146.0004        149.0004
 -17761160.86049 -13825594.77948  21318499.684    21318500.3774   21318507.6044
       221.0004        220.0004
  -4592901.98747  -3543008.50745  23532140.754    23532141.4874   23532148.6864
       159.0004        161.0004
  -7900892.71548  -6124053.93146  22134867.561    22134867.5144   22134872.4874
       183.0004        183.0004
 -14036595.44849 -10905958.07547  21601815.101    21601815.2124   21601819.1184
       198.0004        198.0004
 -12694066.50248  -9864507.62246  22667032.742    22667032.0414   22667036.1064
       178.0004        179.0004
    782217.25248    640458.99946  24552580.506    24552580.0364   24552586.9974
       173.0004        174.0004
 21  2  5  2 17  0.0000000  0 10G30G22G28G21G01G06G14G17G19G09
 -22429684.15349 -17452376.72348  20291989.985    20291989.8684   20291996.7094
       216.0004        217.0004
  -5893719.04447  -4579764.22045  24574958.247    24574957.2164   24574960.9954
       140.0004        144.0004
  -4791091.69348  -3718771.55246  22803315.579    22803316.8084   22803320.0184
       167.0004        169.0004
   1424374.12247   1128751.17545  24248809.922    24248809.0924   24248813.4854
       146.0004        149.0004
 -17701974.40549 -13779475.47048  21329762.807    21329763.1974   21329770.5234
       220.0004        220.0004
  -4698935.42047  -3625631.95745  23511963.495    23511963.3784   23511970.8034
       158.0004        160.0004
  -7938341.94348  -6153235.16446  22127741.897    22127741.8164   22127746.6634
       184.0004        184.0004
 -14035371.26749 -10905004.15547  21602047.096    21602047.7364   21602052.0124
       198.0004        198.0004
 -12737807.05148  -9898591.15546  22658709.348    22658708.2274   22658711.8684
       178.0004        180.0004
    851467.01948    694419.75946  24565756.379    24565757.1514   24565764.6174
       171.0004        172.0004
 21  2  5  2 17 30.0000000  0 10G30G22G28G21G01G06G14G17G19G09
 -22449434.03449 -17467766.23448  20288231.236    20288231.7004   20288238.3724
       216.0004        217.0004
  -5906210.48647  -4589497.80945  24572581.311    24572580.8234   24572583.2484
       141.0004        146.0004
  -4825315.15948  -3745439.20246  22796804.432    22796802.9654   22796807.3594
       167.0004        170.0004
   1520777.36947   1203870.60345  24267153.452    24267153.8944   24267157.0864
       144.0004        146.0004
 -17642255.81049 -13732941.48948  21341126.055    21341126.9804   21341134.7554
       220.0004        220.0004
  -4804846.94447  -3708160.35945  23491807.874    23491809.1144   23491816.6564
       157.0004        158.0004
  -7975826.58748  -6182443.96446  22120607.426    22120607.7564   22120613.0844
       183.0004        183.0004
 -14033857.86749 -10903824.87047  21602335.453    21602336.0754   21602340.1324
       198.0004        199.0004
 -12781227.17448  -9932424.99046  22650446.313    22650446.2934   22650450.1034
       179.0004        181.0004
    920501.34448    748212.64846  24578894.573    24578894.3974   24578901.6954
       171.0004        172.0004
 21  2  5  2 18  0.0000000  0 10G30G22G28G21G01G06G14G17G19G09
 -22468630.90649 -17482724.84948  20284578.869    20284578.6674   20284585.2084
       216.0004        217.0004
  -5918469.73847  -4599050.46145  24570249.100    24570247.7504   24570251.5444
       142.0004        146.0004
  -4859664.68548  -3772205.07046  22790266.339    22790267.4964   22790270.8514
       167.0004        169.0004
   1617356.54747   1279127.06045  24285532.559    24285532.4034   24285536.9754
       145.0004        148.0004
 -17582006.27249 -13685993.80848  21352590.950    21352592.2684   21352599.9684
       221.0004        220.0004
  -4910632.85047  -3790590.91745  23471676.978    23471677.8744   23471686.4384
       155.0004        158.0004
  -8013344.73648  -6211678.89246  22113467.832    22113468.9604   22113473.8544
       183.0004        183.0004
 -14032056.14349 -10902420.92447  21602677.970    21602678.5474   21602682.8174
       198.0004        198.0004
 -12824326.39248  -9966008.79846  22642244.031    22642243.9194   22642247.2754
       178.0004        178.0004
    989319.25348    801836.91746  24591988.064    24591989.3294   24591998.6054
       171.0004        172.0004
 21  2  5  2 18 30.0000000  0 10G30G22G28G21G01G06G14G17G19G09
 -22487274.13149 -17497252.05148  20281031.136    20281031.2294   20281037.4604
       216.0004        217.0004
  -5930495.55547  -4608421.25545  24567958.154    24567956.8324   24567962.5584
       137.0004        141.0004
  -4894140.08448  -3799069.02346  22783706.138    22783706.5994   22783710.3634
       167.0004        169.0004
   1714108.46547   1354518.15445  24303944.066    24303942.8874   24303947.5584
       143.0004        147.0004
 -17521228.41449 -13638634.44348  21364157.568    21364157.8354   21364165.7644
       220.0004        220.0004
  -5016290.82247  -3872921.82545  23451570.859    23451572.5594   23451579.5854
       156.0004        159.0004
  -8050895.98348  -6240939.62946  22106323.459    22106323.8454   22106327.6804
       183.0004        183.0004
 -14029968.07149 -10900793.85247  21603074.803    21603075.7244   21603080.4804
       197.0004        197.0004
 -12867105.59948  -9999343.22446  22634104.172    22634102.8974   22634106.5134
       176.0004        176.0004
   1057918.54848    855290.82946  24605043.802    24605044.1074   24605051.8314
       171.0004        172.0004
 21  2  5  2 19  0.0000000  0 10G30G22G28G21G01G06G14G17G19G09
 -22505362.55949 -17511346.94048  20277588.551    20277588.7934   20277595.5534
       217.0004        217.0004
  -5942285.66047  -4617608.33645  24565715.095    24565715.8074   24565718.4234
       135.0004        141.0004
  -4928740.94948  -3826030.74346  22777122.382    22777123.0174   22777126.2844
       167.0004        168.0004
   1811030.53247   1430041.81345  24322388.033    24322387.9524   24322391.2184
       143.0004        147.0004
 -17459924.26549 -13590864.97948  21375822.182    21375823.3304   21375831.0024
       219.0004        219.0004
  -5121818.09147  -3955150.81545  23431489.744    23431490.9974   23431499.0044
       156.0004        158.0004
  -8088479.22148  -6270225.27646  22099171.016    22099171.5964   22099175.9364
       183.0004        183.0004
 -14027595.96249 -10898945.45147  21603527.401    21603527.7874   21603531.6584
       198.0004        199.0004
 -12909565.29348 -10032428.68746  22626024.482    22626023.4574   22626026.8824
       175.0004        177.0004
   1126297.60548    908573.13946  24618055.007    24618055.3044   24618063.4004
       169.0004        169.0004
