     2.11           OBSERVATION DATA    G (GPS)             RINEX VERSION / TYPE
teqc  2018Jun8                          20210202 03:10:41UTCPGM / RUN BY / DATE
Linux2.6.32-573.12.1.el6.x86_64|x86_64|gcc|Win64-MinGW64|=+ COMMENT
BIT 2 OF LLI FLAGS DATA COLLECTED UNDER A/S CONDITION       COMMENT
-Unknown-                                                   MARKER NAME
CRNO                                                        MARKER NUMBER
-Unknown-           -Unknown-                               OBSERVER / AGENCY
-Unknown-           ASHTECH             -Unknown-           REC # / TYPE / VERS
-Unknown-           -Unknown-                               ANT # / TYPE
   408077.4631 -6158369.2810  1605160.8670                  APPROX POSITION XYZ
        0.0000        0.0000        0.0000                  ANTENNA: DELTA H/E/N
     1     1                                                WAVELENGTH FACT L1/2
     7    L1    L2    C1    P1    P2    S1    S2            # / TYPES OF OBSERV
    30.0000                                                 INTERVAL
Forced Modulo Decimation to 30 seconds                      COMMENT
 SNR is mapped to RINEX snr flag value [1-9]                COMMENT
  L1: 1 -> 1;  90 -> 5; 210 -> 9                            COMMENT
  L2: 1 -> 1; 150 -> 5; 250 -> 9                            COMMENT
pseudorange smoothing corrections not applied               COMMENT
  2021     2     3     0     0   30.0000000     GPS         TIME OF FIRST OBS
                                                            END OF HEADER
 21  2  3  0  0 30.0000000  0  7G09G21G08G27G07G01G04
 -19179677.19649 -14915918.68048  20777739.051    20777739.3234   20777746.2434
       213.0004        214.0004
 -11511514.73248  -8782708.59946  22193009.739    22193009.1524   22193014.8294
       169.0004        170.0004
 -22367579.39249 -17114265.31947  20493432.352    20493432.7854   20493439.9394
       208.0004        209.0004
 -12143372.22649  -9199166.19447  22852571.091    22852571.4964   22852576.7414
       200.0004        201.0004
 -10205773.66648  -7939794.29346  22978030.759    22978032.3394   22978036.3634
       178.0004        178.0004
  -7897295.52347  -6143332.42445  23238254.159    23238254.9904   23238264.1954
       153.0004        156.0004
 -18825472.68649 -14379283.63047  20943802.886    20943803.5114   20943809.6454
       200.0004        199.0004
 21  2  3  0  1  0.0000000  0  7G09G21G08G27G07G01G04
 -19185172.84449 -14920201.00048  20776693.848    20776693.9864   20776700.3024
       213.0004        213.0004
 -11551076.82748  -8813536.15746  22185481.148    22185481.8554   22185486.6844
       169.0004        169.0004
 -22321545.54249 -17078394.77547  20502191.992    20502192.3334   20502200.2014
       208.0004        208.0004
 -12044750.87649  -9122318.38347  22871337.874    22871337.5104   22871343.5864
       201.0004        200.0004
 -10280390.29548  -7997937.12246  22963832.380    22963832.9194   22963837.8874
       178.0004        179.0004
  -7974453.52247  -6203455.50445  23223572.381    23223572.6274   23223582.1124
       154.0004        157.0004
 -18762579.31249 -14330275.80147  20955771.060    20955771.6164   20955778.1294
       200.0004        199.0004
 21  2  3  0  1 30.0000000  0  7G09G21G08G27G07G01G04
 -19190099.23349 -14924039.75448  20775755.695    20775755.9144   20775763.0904
       213.0004        213.0004
 -11590375.21848  -8844158.27446  22178002.680    22178002.2284   22178007.7634
       168.0004        169.0004
 -22275000.04349 -17042125.54747  20511049.213    20511049.9164   20511057.2294
       208.0004        208.0004
 -11945890.04649  -9045283.99147  22890149.971    22890150.2294   22890156.6974
       201.0004        200.0004
 -10355060.41548  -8056121.61746  22949623.394    22949623.1784   22949628.2174
       179.0004        180.0004
  -8051665.64347  -6263620.76445  23208878.269    23208879.6714   23208889.1884
       156.0004        159.0004
 -18699243.66649 -14280923.35747  20967823.692    20967824.0674   20967829.9384
       200.0004        198.0004
 21  2  3  0  2  0.0000000  0  7G09G21G08G27G07G01G04
 -19194456.76449 -14927435.22347  20774926.145    20774926.7484   20774933.3794
       212.0004        212.0004
 -11629407.54248  -8874573.04446  22170574.619    22170573.4944   22170579.6784
       167.0004        166.0004
 -22227945.84549 -17005459.92047  20520003.710    20520003.9764   20520011.2964
       208.0004        208.0004
 -11846793.08449  -8968065.57147  22909006.244    22909007.1374   22909014.6374
       200.0004        200.0004
 -10429783.10448  -8114347.07046  22935405.192    22935405.0324   22935409.1434
       180.0004        181.0004
  -8128929.31747  -6323826.20145  23194177.985    23194177.9654   23194185.4484
       158.0004        161.0004
 -18635468.35149 -14231228.31147  20979959.774    20979960.3394   20979966.2944
       200.0004        199.0004
 21  2  3  0  2 30.0000000  0  7G09G21G08G27G07G01G04
 -19198245.32249 -14930387.35348  20774206.404    20774206.4654   20774212.6464
       213.0004        214.0004
 -11668171.14748  -8904778.42846  22163197.276    22163197.3394   22163204.7304
       166.0004        168.0004
 -22180384.27049 -16968398.94447  20529054.481    20529055.0014   20529062.2954
       208.0004        208.0004
 -11747462.70749  -8890665.28647  22927907.758    22927909.3014   22927916.1574
       199.0004        198.0004
 -10504556.09948  -8172611.74646  22921175.733    22921176.5914   22921179.7854
       180.0004        181.0004
  -8206241.49347  -6384069.42445  23179464.553    23179465.1634   23179472.9744
       157.0004        160.0004
 -18571255.51549 -14181192.33847  20992179.287    20992179.2524   20992185.3214
       200.0004        198.0004
 21  2  3  0  3  0.0000000  0  7G09G21G08G27G07G01G04
 -19201464.49549 -14932895.80448  20773593.117    20773593.3984   20773600.4114
       213.0004        214.0004
 -11706662.69148  -8934771.81646  22155874.565    22155873.6124   22155879.5034
       167.0004        168.0004
 -22132317.19249 -16930944.06947  20538200.817    20538201.3274   20538209.1604
       208.0004        208.0004
 -11647901.33549  -8813084.99147  22946854.912    22946855.1744   22946861.5924
       198.0004        198.0004
 -10579377.08148  -8230913.80846  22906937.131    22906937.6734   22906942.4874
       180.0004        181.0004
  -8283598.70447  -6444347.73945  23164745.252    23164744.6504   23164753.3474
       159.0004        162.0004
 -18506606.87149 -14130816.78247  21004481.383    21004481.6304   21004487.8454
       199.0004        198.0004
 21  2  3  0  3 30.0000000  0  7G09G21G08G27G07G01G04
 -19204115.50249 -14934961.52348  20773088.714    20773088.9954   20773096.0794
       214.0004        214.0004
 -11744880.35748  -8964551.78746  22148601.745    22148601.6614   22148606.0094
       168.0004        170.0004
 -22083748.16449 -16893098.06347  20547443.035    20547443.4694   20547451.6374
       207.0004        207.0004
 -11548112.90549  -8735327.77247  22965845.035    22965844.3824   22965851.1024
       198.0004        198.0004
 -10654245.17148  -8289252.56046  22892690.231    22892691.4864   22892695.4744
       180.0004        182.0004
  -8360999.11947  -6504659.70345  23150015.300    23150016.0174   23150023.8584
       160.0004        162.0004
 -18441525.83749 -14080104.28847  21016865.215    21016865.9594   21016872.2154
       199.0004        197.0004
 21  2  3  0  4  0.0000000  0  7G09G21G08G27G07G01G04
 -19206198.15249 -14936584.36648  20772691.996    20772692.4804   20772699.6244
       214.0004        214.0004
 -11782820.91548  -8994115.85046  22141382.274    22141381.4984   22141387.6764
       170.0004        171.0004
 -22034678.62449 -16854862.05847  20556781.242    20556781.6444   20556789.1704
       207.0004        208.0004
 -11448100.07949  -8657395.70947  22984877.095    22984876.2804   22984882.9574
       198.0004        199.0004
 -10729158.13348  -8347626.28546  22878434.047    22878434.9814   22878439.8244
       180.0004        180.0004
  -8438439.47247  -6565002.79546  23135278.761    23135279.5454   23135287.9224
       161.0004        163.0004
 -18376014.39049 -14029056.41047  21029332.019    21029332.3054   21029338.6364
       199.0004        197.0004
 21  2  3  0  4 30.0000000  0  7G09G21G08G27G07G01G04
 -19207712.63549 -14937764.47448  20772403.838    20772404.2714   20772410.9354
       213.0004        214.0004
 -11820481.90248  -9023462.05446  22134215.530    22134215.1174   22134219.7154
       171.0004        173.0004
 -21985110.66049 -16816237.65347  20566214.055    20566214.1784   20566221.5064
       208.0004        208.0004
 -11347865.75749  -8579291.04747  23003950.382    23003950.5024   23003957.0654
       199.0004        198.0004
 -10804114.34748  -8406033.72046  22864170.636    22864171.3814   22864176.2274
       178.0004        179.0004
  -8515916.78647  -6625374.68646  23120535.757    23120536.4794   23120544.7914
       161.0004        163.0004
 -18310074.87949 -13977674.97247  21041879.471    21041879.9204   21041886.3124
       198.0004        196.0004
 21  2  3  0  5  0.0000000  0  7G09G21G08G27G07G01G04
 -19208658.53349 -14938501.54548  20772223.749    20772224.0664   20772231.1534
       213.0004        213.0004
 -11857860.11548  -9052587.92346  22127103.175    22127102.7384   22127107.1814
       172.0004        173.0004
 -21935045.90149 -16777226.14747  20575740.955    20575741.2374   20575748.6134
       208.0004        209.0004
 -11247412.25549  -8501015.59247  23023065.686    23023066.0114   23023073.0934
       198.0004        197.0004
 -10879111.04148  -8464472.68746  22849901.200    22849900.3204   22849904.5964
       179.0004        179.0004
  -8593427.52147  -6685772.62845  23105784.822    23105785.3564   23105794.1574
       160.0004        160.0004
 -18243709.03349 -13925961.33647  21054508.898    21054509.6064   21054515.0584
       198.0004        196.0004
 21  2  3  0  5 30.0000000  0  7G09G21G08G27G07G01G04
 -19209036.97549 -14938796.44548  20772151.998    20772152.3424   20772159.3444
       213.0004        214.0004
 -11894953.98148  -9081492.22946  22120043.415    22120044.1024   22120048.2224
       172.0004        172.0004
 -21884487.71249 -16737830.15447  20585362.036    20585362.3854   20585369.5644
       208.0004        209.0004
 -11146743.31949  -8422572.28047  23042222.615    23042223.0434   23042229.9094
       196.0004        196.0004
 -10954147.38848  -8522942.57646  22835622.086    22835622.5174   22835626.1924
       180.0004        181.0004
  -8670969.59747  -6746195.00345  23091028.525    23091029.7084   23091037.4434
       159.0004        161.0004
 -18176920.12449 -13873918.04647  21067218.771    21067218.9904   21067224.4364
       197.0004        195.0004
 21  2  3  0  6  0.0000000  0  7G09G21G08G27G07G01G04
 -19208848.39249 -14938649.50148  20772187.714    20772188.0754   20772194.9704
       213.0004        214.0004
 -11931760.79348  -9110172.83946  22113038.255    22113038.4084   22113044.6644
       172.0004        172.0004
 -21833438.24849 -16698051.34247  20595076.078    20595076.5254   20595084.0014
       208.0004        208.0004
 -11045862.00049  -8343963.45947  23061419.957    23061419.9214   23061426.6494
       195.0004        195.0004
 -11029221.53648  -8581441.90046  22821334.754    22821335.9874   22821338.4104
       179.0004        179.0004
  -8748540.18547  -6806639.60845  23076267.707    23076268.7524   23076276.7034
       159.0004        162.0004
 -18109710.66549 -13821547.03847  21080007.287    21080008.3804   21080014.1684
       197.0004        196.0004
 21  2  3  0  6 30.0000000  0  7G09G21G08G27G07G01G04
 -19208092.95049 -14938060.84548  20772331.190    20772331.6204   20772338.6174
       213.0004        214.0004
 -11968277.66448  -9138627.55546  22106089.529    22106089.8384   22106095.9984
       171.0004        172.0004
 -21781899.87049 -16657891.55847  20604882.808    20604883.3574   20604891.1314
       207.0004        207.0004
 -10944771.06749  -8265191.31547  23080655.476    23080656.4694   23080663.7174
       195.0004        195.0004
 -11104331.43548  -8639969.09646  22807043.715    22807043.0244   22807046.4814
       180.0004        181.0004
  -8826136.13147  -6867103.97846  23061503.175    23061503.8004   23061510.2394
       160.0004        163.0004
 -18042082.95849 -13768850.12747  21092877.269    21092877.6474   21092883.9414
       197.0004        197.0004
 21  2  3  0  7  0.0000000  0  7G09G21G08G27G07G01G04
 -19206772.66249 -14937032.04648  20772583.132    20772583.5244   20772590.2294
       214.0004        215.0004
 -12004503.70848  -9166855.63146  22099197.922    22099196.6104   22099201.4484
       171.0004        172.0004
 -21729876.06049 -16617353.52347  20614782.558    20614783.2224   20614791.0194
       207.0004        207.0004
 -10843475.20848  -8186259.48747  23099931.998    23099932.1214   23099939.6244
       194.0004        194.0004
 -11179476.77148  -8698523.90246  22792742.073    22792742.1544   22792746.6914
       179.0004        179.0004
  -8903756.17847  -6927587.08746  23046731.797    23046733.1574   23046740.4754
       161.0004        164.0004
 -17974041.08849 -13715830.47947  21105825.447    21105825.4094   21105832.0184
       198.0004        197.0004
 21  2  3  0  7 30.0000000  0  7G09G21G08G27G07G01G04
 -19204885.43649 -14935561.48448  20772941.847    20772942.4384   20772949.2814
       214.0004        214.0004
 -12040433.83448  -9194853.12646  22092359.369    22092360.0714   22092364.5224
       170.0004        170.0004
 -21677366.96049 -16576437.33647  20624776.074    20624776.1834   20624783.1034
       207.0004        207.0004
 -10741974.86148  -8107168.30447  23119246.322    23119246.8124   23119254.0054
       194.0004        192.0004
 -11254653.65248  -8757103.28046  22778435.315    22778436.2674   22778441.5734
       178.0004        178.0004
  -8981394.87547  -6988084.71146  23031957.169    23031957.5254   23031967.0284
       162.0004        163.0004
 -17905585.04249 -13662488.10947  21118851.501    21118851.7104   21118858.9854
       198.0004        196.0004
 21  2  3  0  8  0.0000000  0  7G09G21G08G27G07G01G04
 -19202431.01149 -14933648.94548  20773409.251    20773409.4844   20773416.6864
       214.0004        215.0004
 -12076064.95348  -9222617.60446  22085578.817    22085579.0984   22085583.8704
       169.0004        171.0004
 -21624374.00849 -16535144.11747  20634859.985    20634860.4084   20634867.6464
       207.0004        208.0004
 -10640272.25248  -8027919.52647  23138600.447    23138600.3524   23138607.8084
       193.0004        193.0004
 -11329859.06548  -8815704.88946  22764126.310    22764126.5124   22764130.3094
       178.0004        180.0004
  -9059048.60647  -7048594.08646  23017180.961    23017180.9134   23017189.3434
       161.0004        163.0004
 -17836716.61049 -13608824.40447  21131956.973    21131957.2424   21131963.4074
       197.0004        195.0004
 21  2  3  0  8 30.0000000  0  7G09G21G08G27G07G01G04
 -19199412.14149 -14931296.58848  20773983.518    20773984.0944   20773990.9464
       214.0004        215.0004
 -12111396.59148  -9250148.73446  22078856.291    22078855.4634   22078860.9814
       171.0004        172.0004
 -21570901.91449 -16493477.54247  20645035.488    20645035.6584   20645042.9654
       207.0004        208.0004
 -10538372.64148  -7948517.23147  23157989.343    23157990.8324   23157999.6404
       191.0004        191.0004
 -11405093.41548  -8874329.05946  22749809.280    22749809.7174   22749813.1314
       178.0004        179.0004
  -9136716.67647  -7109114.64646  23002399.327    23002400.7434   23002409.3684
       162.0004        163.0004
 -17767440.61849 -13554843.12347  21145139.820    21145140.0264   21145146.4244
       197.0004        195.0004
 21  2  3  0  9  0.0000000  0  7G09G21G08G27G07G01G04
 -19195827.84749 -14928503.64248  20774666.250    20774666.4714   20774673.0714
       214.0004        215.0004
 -12146424.19248  -9277442.94146  22072189.720    22072188.7904   22072195.0464
       171.0004        171.0004
 -21516951.72049 -16451438.41347  20655301.837    20655302.1464   20655309.0344
       207.0004        207.0004
 -10436277.50448  -7868962.59647  23177417.871    23177418.6334   23177427.3594
       190.0004        190.0004
 -11480353.38748  -8932973.18546  22735487.471    22735488.3024   22735491.5404
       178.0004        178.0004
  -9214394.66547  -7169642.91446  22987619.474    22987620.0724   22987627.8394
       162.0004        163.0004
 -17697758.13149 -13500545.08847  21158400.512    21158400.6784   21158407.4384
       197.0004        196.0004
 21  2  3  0  9 30.0000000  0  7G09G21G08G27G07G01G04
 -19191680.22449 -14925271.72748  20775454.868    20775455.2834   20775462.1674
       214.0004        214.0004
 -12181148.09148  -9304500.51846  22065581.487    22065580.7384   22065588.4274
       170.0004        172.0004
 -21462527.58549 -16409029.98747  20665657.598    20665657.8044   20665665.1614
       206.0004        206.0004
 -10333991.47448  -7789259.19447  23196883.092    23196883.2864   23196892.3894
       190.0004        191.0004
 -11555638.68548  -8991637.04746  22721160.416    22721160.2494   22721165.4044
       177.0004        177.0004
  -9292081.11047  -7230177.78646  22972836.022    22972836.7754   22972845.5244
       161.0004        163.0004
 -17627673.26149 -13445933.51047  21171737.050    21171737.1484   21171743.0114
       197.0004        195.0004
 21  2  3  0 10  0.0000000  0  7G09G21G08G27G07G01G04
 -19186969.72149 -14921601.20448  20776351.337    20776351.5464   20776358.5774
       214.0004        214.0004
 -12215564.99148  -9331318.87446  22059033.677    22059032.6154   22059037.5324
       171.0004        171.0004
 -21407631.41349 -16366253.75047  20676103.620    20676104.1204   20676111.8284
       205.0004        206.0004
 -10231517.27048  -7709409.18347  23216383.675    23216382.8974   23216391.5034
       189.0004        188.0004
 -11630947.26148  -9050319.04246  22706830.586    22706830.4484   22706834.3654
       178.0004        180.0004
  -9369773.00347  -7290716.90246  22958051.256    22958051.7884   22958059.9274
       161.0004        163.0004
 -17557188.47049 -13391010.29647  21185149.933    21185150.0834   21185156.0034
       197.0004        196.0004
 21  2  3  0 10 30.0000000  0  7G09G21G08G27G07G01G04
 -19181698.21749 -14917493.54548  20777354.743    20777355.0104   20777361.4464
       214.0004        214.0004
 -12249673.49648  -9357896.92246  22052542.370    22052541.9594   22052547.1224
       172.0004        173.0004
 -21352267.48049 -16323113.02347  20686639.988    20686640.0514   20686647.6794
       206.0004        206.0004
 -10128859.23848  -7629415.93747  23235920.744    23235919.2934   23235926.8174
       189.0004        188.0004
 -11706278.15648  -9109018.44046  22692495.690    22692495.4994   22692499.5414
       180.0004        180.0004
  -9447468.62347  -7351258.91645  22943266.771    22943265.7624   22943275.4014
       160.0004        162.0004
 -17486307.61149 -13335778.47247  21198637.202    21198637.8574   21198644.2934
       197.0004        195.0004
 21  2  3  0 11  0.0000000  0  7G09G21G08G27G07G01G04
 -19175864.70949 -14912947.95648  20778465.235    20778465.1704   20778471.7584
       214.0004        214.0004
 -12283469.29148  -9384231.27946  22046110.919    22046111.3904   22046115.3864
       172.0004        173.0004
 -21296435.99749 -16279607.96147  20697264.487    20697264.6344   20697271.8804
       206.0004        206.0004
 -10026018.71648  -7549280.46747  23255489.725    23255489.5164   23255497.4004
       189.0004        190.0004
 -11781628.10148  -9167732.68846  22678156.519    22678157.5854   22678161.5684
       179.0004        180.0004
  -9525163.32747  -7411800.19845  22928479.914    22928481.5464   22928489.9594
       160.0004        161.0004
 -17415031.71149 -13280238.80647  21212201.188    21212201.2094   21212208.1734
       196.0004        195.0004
 21  2  3  0 11 30.0000000  0  7G09G21G08G27G07G01G04
 -19169468.51449 -14907963.90748  20779681.524    20779681.7054   20779689.1404
       214.0004        214.0004
 -12316949.26148  -9410319.56546  22039741.459    22039741.0284   22039745.2424
       173.0004        175.0004
 -21240138.70349 -16235739.93547  20707977.645    20707977.7834   20707984.9834
       206.0004        207.0004
  -9922997.19348  -7469003.97146  23275091.676    23275093.2894   23275100.4614
       188.0004        187.0004
 -11856994.04248  -9226459.37446  22663814.506    22663814.7044   22663820.0594
       179.0004        180.0004
  -9602852.88047  -7472337.47845  22913697.495    22913698.0094   22913706.7174
       160.0004        162.0004
 -17343361.96649 -13224392.26147  21225839.310    21225839.6294   21225846.8084
       196.0004        195.0004
 21  2  3  0 12  0.0000000  0  7G09G21G08G27G07G01G04
 -19162511.30149 -14902542.71248  20781005.819    20781005.9354   20781012.7744
       214.0004        214.0004
 -12350111.31548  -9436160.13746  22033430.623    22033429.9314   22033434.4184
       173.0004        173.0004
 -21183378.50049 -16191511.19947  20718779.032    20718779.1874   20718785.8114
       206.0004        207.0004
  -9819798.77948  -7388589.61647  23294729.970    23294731.4294   23294739.3244
       189.0004        190.0004
 -11932374.75248  -9285197.59046  22649469.519    22649469.9984   22649475.0784
       179.0004        180.0004
  -9680535.24647  -7532869.15246  22898916.089    22898916.5734   22898924.3914
       161.0004        163.0004
 -17271302.06349 -13168241.70047  21239551.814    21239552.2864   21239558.7944
       196.0004        194.0004
 21  2  3  0 12 30.0000000  0  7G09G21G08G27G07G01G04
 -19154993.20849 -14896684.46048  20782435.858    20782436.4714   20782443.2874
       213.0004        214.0004
 -12382952.99248  -9461751.02746  22027180.467    22027179.7284   22027184.6244
       174.0004        175.0004
 -21126157.63049 -16146923.49547  20729667.391    20729667.6144   20729674.7334
       206.0004        206.0004
  -9716425.77148  -7308039.23647  23314401.934    23314401.9544   23314409.5404
       188.0004        188.0004
 -12007767.90148  -9343945.47846  22635122.532    22635123.1534   22635128.1554
       180.0004        181.0004
  -9758206.87447  -7593392.45545  22884135.320    22884136.1644   22884142.9164
       161.0004        162.0004
 -17198854.04049 -13111788.69847  21253338.310    21253338.9614   21253344.6584
       195.0004        193.0004
 21  2  3  0 13  0.0000000  0  7G09G21G08G27G07G01G04
 -19146916.82449 -14890391.19148  20783973.283    20783973.4984   20783980.1564
       213.0004        214.0004
 -12415473.53448  -9487091.70546  22020992.549    22020991.6964   22020996.1314
       174.0004        175.0004
 -21068480.87649 -16101980.56847  20740642.346    20740642.5984   20740650.1264
       205.0004        204.0004
  -9612882.98648  -7227356.56247  23334106.613    23334106.0944   23334113.2074
       188.0004        188.0004
 -12083173.17348  -9402702.82346  22620774.902    22620775.0014   22620779.3454
       181.0004        182.0004
  -9835866.57747  -7653906.47945  22869356.396    22869356.7464   22869365.0984
       160.0004        161.0004
 -17126022.41849 -13055036.78647  21267197.573    21267197.4404   21267204.1734
       195.0004        194.0004
 21  2  3  0 13 30.0000000  0  7G09G21G08G27G07G01G04
 -19138282.88349 -14883663.44948  20785615.819    20785616.2714   20785623.2344
       213.0004        213.0004
 -12447670.28448  -9512180.06846  22014864.459    22014865.0294   22014869.8914
       174.0004        174.0004
 -21010350.10849 -16056683.87347  20751703.814    20751704.5894   20751712.0694
       205.0004        205.0004
  -9509173.37648  -7146543.87047  23353841.732    23353841.9634   23353848.7754
       188.0004        189.0004
 -12158588.52248  -9461468.04546  22606423.388    22606424.4664   22606427.2854
       182.0004        182.0004
  -9913511.49547  -7714408.98346  22854581.159    22854581.6604   22854589.8804
       160.0004        163.0004
 -17052809.84349 -12997988.03847  21281129.467    21281129.8334   21281135.6664
       195.0004        193.0004
 21  2  3  0 14  0.0000000  0  7G09G21G08G27G07G01G04
 -19129092.05649 -14876501.76648  20787365.211    20787365.5594   20787372.2924
       213.0004        214.0004
 -12479540.67548  -9537014.13546  22008800.740    22008800.2224   22008804.8474
       174.0004        175.0004
 -20951767.99049 -16011035.46747  20762852.067    20762852.4334   20762859.3694
       204.0004        204.0004
  -9405299.76848  -7065603.43347  23373608.576    23373608.1444   23373615.9364
       189.0004        191.0004
 -12234011.81948  -9520239.45346  22592071.132    22592071.4494   22592074.7294
       182.0004        184.0004
  -9991138.16147  -7774897.26746  22839811.037    22839810.3614   22839818.5324
       161.0004        163.0004
 -16979218.86749 -12940644.42047  21295134.184    21295134.4114   21295139.6724
       195.0004        193.0004
 21  2  3  0 14 30.0000000  0  7G09G21G08G27G07G01G04
 -19119345.31249 -14868906.89748  20789219.680    20789219.7904   20789226.9774
       213.0004        213.0004
 -12511083.09248  -9561592.62246  22002798.704    22002797.7574   22002802.5054
       174.0004        175.0004
 -20892737.45549 -15965037.64247  20774085.707    20774086.5734   20774093.0514
       205.0004        205.0004
  -9301265.28948  -6984537.60447  23393405.157    23393405.5474   23393413.1074
       191.0004        191.0004
 -12309441.30348  -9579015.64746  22577716.967    22577717.8684   22577721.9324
       184.0004        185.0004
 -10068743.86147  -7835369.22646  22825042.326    22825042.4504   22825050.1814
       162.0004        165.0004
 -16905252.38149 -12883008.19447  21309208.274    21309209.3084   21309215.2014
       195.0004        194.0004
 21  2  3  0 15  0.0000000  0  7G09G21G08G27G07G01G04
 -19109041.09449 -14860877.64148  20791180.705    20791181.0844   20791187.8564
       213.0004        213.0004
 -12542292.19248  -9585911.38646  21996860.030    21996858.7574   21996863.7384
       174.0004        174.0004
 -20833258.58649 -15918690.44947  20785404.010    20785404.8444   20785411.5154
       205.0004        206.0004
  -9197070.39048  -6903346.77647  23413232.810    23413233.1604   23413240.6374
       191.0004        192.0004
 -12384872.55048  -9637793.22446  22563362.898    22563363.8744   22563367.6854
       184.0004        184.0004
 -10146323.16747  -7895820.59146  22810277.545    22810278.9314   22810287.6814
       162.0004        163.0004
 -16830910.64449 -12825079.57347  21323354.944    21323355.7414   21323362.4414
       195.0004        194.0004
 21  2  3  0 15 30.0000000  0  7G09G21G08G27G07G01G04
 -19098180.69849 -14852415.00748  20793247.782    20793247.6534   20793254.5164
       213.0004        213.0004
 -12573165.82548  -9609968.75646  21990983.672    21990983.7174   21990987.7254
       173.0004        173.0004
 -20773334.29449 -15871996.18847  20796807.092    20796807.3244   20796814.8444
       205.0004        205.0004
  -9092718.50448  -6822033.64547  23433089.938    23433090.7274   23433098.7514
       192.0004        192.0004
 -12460303.98748  -9696570.96946  22549008.694    22549009.9694   22549013.0744
       184.0004        185.0004
 -10223873.44247  -7956249.33746  22795521.900    22795521.8754   22795530.0834
       162.0004        164.0004
 -16756196.75649 -12766860.96747  21337573.342    21337573.8574   21337579.4664
       195.0004        193.0004
 21  2  3  0 16  0.0000000  0  7G09G21G08G27G07G01G04
 -19086766.05849 -14843520.48848  20795419.572    20795419.7524   20795426.5714
       213.0004        213.0004
 -12603702.89748  -9633763.87446  21985173.403    21985173.0234   21985176.7984
       172.0004        172.0004
 -20712968.05449 -15824957.55847  20808294.189    20808294.7564   20808302.3664
       204.0004        205.0004
  -8988213.62148  -6740601.26047  23452976.788    23452977.1004   23452983.7334
       191.0004        190.0004
 -12535734.60948  -9755348.06646  22534654.528    22534654.6744   22534658.8814
       184.0004        184.0004
 -10301392.76247  -8016653.97246  22780769.412    22780770.5374   22780778.8294
       163.0004        166.0004
 -16681114.57648 -12708355.36947  21351860.912    21351861.1514   21351867.6564
       194.0004        192.0004
 21  2  3  0 16 30.0000000  0  7G09G21G08G27G07G01G04
 -19074798.56649 -14834195.17048  20797696.844    20797697.1504   20797704.2694
       213.0004        214.0004
 -12633901.60748  -9657295.32646  21979424.564    21979425.9954   21979431.3954
       173.0004        173.0004
 -20652163.21649 -15777577.16647  20819865.397    20819865.7514   20819872.7544
       204.0004        204.0004
  -8883559.02648  -6659052.24847  23472891.565    23472892.5494   23472899.2894
       190.0004        190.0004
 -12611162.83348  -9814123.30046  22520301.381    22520301.6264   22520305.6924
       185.0004        186.0004
 -10378878.44748  -8077032.40646  22766025.843    22766025.3724   22766033.2294
       165.0004        168.0004
 -16605667.26248 -12649565.27047  21366218.257    21366218.5904   21366224.6394
       194.0004        193.0004
 21  2  3  0 17  0.0000000  0  7G09G21G08G27G07G01G04
 -19062279.23249 -14824439.85348  20800079.244    20800079.5584   20800086.5154
       213.0004        213.0004
 -12663759.64248  -9680561.30346  21973744.117    21973744.0994   21973749.2934
       173.0004        174.0004
 -20590922.70649 -15729857.28547  20831518.645    20831518.9904   20831526.0264
       203.0004        203.0004
  -8778757.72148  -6577388.87047  23492835.009    23492835.8994   23492842.3894
       189.0004        190.0004
 -12686586.51948  -9872895.00446  22505949.343    22505949.7594   22505953.3984
       186.0004        186.0004
 -10456327.46748  -8137382.26846  22751286.637    22751287.5194   22751296.0504
       167.0004        169.0004
 -16529857.57648 -12590492.78947  21380644.427    21380644.6624   21380650.6914
       194.0004        192.0004
 21  2  3  0 17 30.0000000  0  7G09G21G08G27G07G01G04
 -19049208.48249 -14814254.85948  20802566.321    20802566.7194   20802573.8934
       213.0004        214.0004
 -12693274.05248  -9703559.53446  21968126.897    21968126.4574   21968132.4474
       172.0004        173.0004
 -20529248.31449 -15681799.30547  20843255.010    20843255.3794   20843262.0854
       203.0004        204.0004
  -8673812.21748  -6495613.18247  23512805.422    23512806.0664   23512812.4694
       189.0004        189.0004
 -12762003.50348  -9931661.46846  22491597.632    22491598.2414   22491601.2414
       185.0004        185.0004
 -10533736.32648  -8197700.82446  22736557.172    22736557.2374   22736564.7454
       167.0004        169.0004
 -16453687.79148 -12531139.70847  21395138.532    21395139.2334   21395145.5084
       193.0004        192.0004
 21  2  3  0 18  0.0000000  0  7G09G21G08G27G07G01G04
 -19035587.99449 -14803641.49648  20805158.499    20805158.5594   20805165.7884
       213.0004        214.0004
 -12722443.28248  -9726288.78246  21962577.174    21962576.8284   21962581.2994
       172.0004        172.0004
 -20467143.18849 -15633405.69147  20855074.350    20855074.3094   20855080.2484
       204.0004        204.0004
  -8568725.92048  -6413727.75946  23532803.245    23532802.7704   23532809.2934
       188.0004        187.0004
 -12837412.11348  -9990421.42046  22477247.625    22477248.0584   22477252.2694
       186.0004        186.0004
 -10611102.48848  -8257986.12446  22721835.621    22721836.0964   22721843.3844
       167.0004        168.0004
 -16377161.26948 -12471508.65847  21409701.505    21409702.1834   21409708.3484
       193.0004        192.0004
 21  2  3  0 18 30.0000000  0  7G09G21G08G27G07G01G04
 -19021416.60349 -14792598.86148  20807855.157    20807855.2324   20807862.3204
       213.0004        213.0004
 -12751262.57048  -9748745.35946  21957092.586    21957092.5914   21957097.2034
       172.0004        174.0004
 -20404608.13649 -15584677.06447  20866973.625    20866973.7384   20866981.1964
       204.0004        204.0004
  -8463499.66648  -6331733.30947  23552826.643    23552827.0614   23552833.3964
       188.0004        189.0004
 -12912808.18748 -10049171.59546  22462900.281    22462900.1174   22462904.5684
       186.0004        186.0004
 -10688420.78048  -8318234.11846  22707120.803    22707121.7434   22707128.9784
       167.0004        168.0004
 -16300278.67848 -12411600.14447  21424331.368    21424332.0634   21424338.4024
       193.0004        193.0004
 21  2  3  0 19  0.0000000  0  7G09G21G08G27G07G01G04
 -19006696.30749 -14781128.50748  20810656.539    20810656.5404   20810663.7544
       213.0004        213.0004
 -12779731.14248  -9770928.64846  21951675.294    21951674.8974   21951681.4444
       172.0004        173.0004
 -20341646.79449 -15535616.28347  20878954.186    20878954.6774   20878962.3904
       203.0004        203.0004
  -8358137.20548  -6249632.67947  23572875.928    23572876.6274   23572883.5614
       188.0004        188.0004
 -12988190.08048 -10107910.74947  22448555.005    22448556.5224   22448559.9314
       186.0004        188.0004
 -10765689.00148  -8378443.10946  22692416.735    22692417.4374   22692426.2034
       168.0004        170.0004
 -16223043.68148 -12351417.03747  21439029.328    21439029.6644   21439036.2394
       193.0004        192.0004
 21  2  3  0 19 30.0000000  0  7G09G21G08G27G07G01G04
 -18991428.73949 -14769231.70748  20813561.591    20813561.9324   20813568.8464
       213.0004        214.0004
 -12807846.68248  -9792836.84346  21946325.561    21946325.5724   21946330.8974
       173.0004        175.0004
 -20278262.14549 -15486225.64847  20891015.688    20891016.3294   20891023.7694
       203.0004        203.0004
  -8252642.04648  -6167428.67547  23592950.710    23592951.4354   23592958.8414
       189.0004        188.0004
 -13063556.38048 -10166637.72846  22434213.785    22434214.3394   22434218.1214
       187.0004        187.0004
 -10842904.55548  -8438611.03446  22677723.682    22677724.0564   22677731.8574
       169.0004        171.0004
 -16145459.64048 -12290961.93347  21453792.565    21453793.1294   21453799.6594
       193.0004        192.0004
 21  2  3  0 20  0.0000000  0  7G09G21G08G27G07G01G04
 -18975614.78349 -14756909.15248  20816571.125    20816571.5594   20816578.0334
       213.0004        214.0004
 -12835607.09848  -9814468.33446  21941042.488    21941042.3954   21941046.5644
       174.0004        175.0004
 -20214456.73749 -15436507.14547  20903157.399    20903157.7074   20903165.8974
       202.0004        202.0004
  -8147016.85448  -6085123.32346  23613050.525    23613051.3974   23613058.2114
       186.0004        185.0004
 -13138905.18748 -10225351.06346  22419874.935    22419875.4364   22419879.5974
       186.0004        186.0004
 -10920064.20748  -8498735.40746  22663040.277    22663040.6454   22663048.4654
       169.0004        170.0004
 -16067529.20148 -12230236.92147  21468622.559    21468622.9434   21468628.7444
       193.0004        191.0004
 21  2  3  0 20 30.0000000  0  7G09G21G08G27G07G01G04
 -18959255.90549 -14744161.98348  20819683.576    20819684.1564   20819691.2494
       213.0004        213.0004
 -12863010.51748  -9835821.62446  21935827.597    21935826.9334   21935832.7604
       174.0004        175.0004
 -20150233.60049 -15386463.13747  20915378.949    20915379.4204   20915386.2844
       202.0004        203.0004
  -8041264.71248  -6002719.10146  23633174.173    23633175.6824   23633183.0074
       185.0004        184.0004
 -13214234.34148 -10284049.09546  22405540.407    22405541.1384   22405545.4874
       186.0004        187.0004
 -10997164.99048  -8558813.91946  22648366.971    22648367.9094   22648376.6294
       168.0004        169.0004
 -15989255.27748 -12169244.25347  21483517.516    21483517.8264   21483523.7684
       192.0004        191.0004
 21  2  3  0 21  0.0000000  0  7G09G21G08G27G07G01G04
 -18942351.99749 -14730990.10848  20822900.380    20822900.7294   20822907.4874
       213.0004        213.0004
 -12890053.26648  -9856893.87346  21930681.735    21930681.5654   21930687.8664
       175.0004        176.0004
 -20085594.80549 -15336095.23047  20927679.439    20927679.5254   20927686.9174
       202.0004        202.0004
  -7935387.40548  -5920217.30446  23653324.447    23653323.9274   23653330.4334
       184.0004        184.0004
 -13289540.50748 -10342729.21746  22391209.933    22391210.5564   22391214.1824
       186.0004        187.0004
 -11074202.71648  -8618843.29046  22633709.272    22633708.9224   22633717.7784
       169.0004        171.0004
 -15910639.64848 -12107985.33347  21498476.573    21498477.8354   21498484.3874
       192.0004        192.0004
 21  2  3  0 21 30.0000000  0  7G09G21G08G27G07G01G04
 -18924907.01949 -14717396.63148  20826220.218    20826220.5914   20826227.5224
       213.0004        213.0004
 -12916735.99848  -9877685.61446  21925605.415    21925604.0624   21925608.8204
       176.0004        176.0004
 -20020545.26249 -15285407.27747  20940057.710    20940057.9864   20940065.4404
       201.0004        201.0004
  -7829390.55848  -5837622.37446  23673494.449    23673495.0804   23673501.7494
       183.0004        184.0004
 -13364824.44148 -10401392.03146  22376884.672    22376884.7674   22376888.2464
       186.0004        187.0004
 -11151177.06148  -8678823.28346  22619061.804    22619062.3874   22619070.2644
       171.0004        172.0004
 -15831687.99248 -12046464.57247  21513501.029    21513501.7924   21513508.2994
       192.0004        190.0004
 21  2  3  0 22  0.0000000  0  7G09G21G08G27G07G01G04
 -18906921.51849 -14703381.95948  20829643.268    20829643.4574   20829650.1724
       213.0004        214.0004
 -12943055.65248  -9898194.42046  21920596.405    21920595.9154   21920601.3794
       176.0004        176.0004
 -19955087.16649 -15234400.96347  20952513.357    20952514.0854   20952521.8324
       201.0004        201.0004
  -7723276.41448  -5754936.01446  23693688.251    23693688.0184   23693693.6494
       184.0004        185.0004
 -13440083.23648 -10460035.24846  22362563.276    22362563.5414   22362567.5704
       186.0004        187.0004
 -11228084.18248  -8738750.88146  22604426.445    22604427.3074   22604435.2584
       170.0004        171.0004
 -15752402.39948 -11984683.59947  21528588.555    21528589.0234   21528596.3094
       192.0004        190.0004
 21  2  3  0 22 30.0000000  0  7G09G21G08G27G07G01G04
 -18888396.78449 -14688947.10948  20833167.749    20833168.0594   20833174.8154
       213.0004        213.0004
 -12969009.98448  -9918418.56346  21915656.989    21915656.0694   21915661.8044
       176.0004        176.0004
 -19889223.32949 -15183078.49047  20965047.056    20965047.4174   20965055.3354
       201.0004        201.0004
  -7617047.77748  -5672160.47746  23713903.380    23713902.9114   23713908.2354
       186.0004        186.0004
 -13515314.65348 -10518657.12446  22348246.762    22348247.4004   22348250.6694
       186.0004        186.0004
 -11304921.01048  -8798623.71446  22589804.681    22589804.9384   22589813.8274
       170.0004        171.0004
 -15672785.75348 -11922644.66247  21543740.184    21543740.2614   21543745.9884
       191.0004        191.0004
 21  2  3  0 23  0.0000000  0  7G09G21G08G27G07G01G04
 -18869333.45749 -14674092.56548  20836795.336    20836795.7424   20836803.1444
       213.0004        214.0004
 -12994596.66348  -9938356.22546  21910787.470    21910787.9334   21910792.6314
       176.0004        177.0004
 -19822955.82849 -15131441.46947  20977657.102    20977658.0614   20977665.6414
       201.0004        201.0004
  -7510706.89948  -5589297.45546  23734140.228    23734138.8204   23734144.5794
       185.0004        185.0004
 -13590516.15548 -10577255.68446  22333936.313    22333936.3134   22333941.0914
       185.0004        186.0004
 -11381683.76448  -8858438.82146  22575196.442    22575196.7124   22575205.4194
       169.0004        170.0004
 -15592840.22548 -11860349.45247  21558952.530    21558953.3344   21558958.6844
       192.0004        191.0004
 21  2  3  0 23 30.0000000  0  8G30G09G21G08G27G07G01G04
  -1398699.38056  -1060239.94045  24270989.490                    24270996.4924
       122.0004        153.0004
 -18849731.38349 -14658818.22848  20840525.744    20840526.1894   20840533.4894
       214.0004        214.0004
 -13019811.93048  -9958004.46446  21905989.915    21905989.2484   21905995.2044
       177.0004        179.0004
 -19756285.81349 -15079490.79847  20990345.041    20990345.1024   20990352.3904
       201.0004        201.0004
  -7404255.21848  -5506348.10846  23754396.058    23754395.7124   23754401.4274
       185.0004        185.0004
 -13665683.96648 -10635827.98546  22319631.929    22319632.1334   22319636.9764
       186.0004        187.0004
 -11458367.85048  -8918192.60746  22560604.702    22560604.4734   22560612.7644
       169.0004        169.0004
 -15512567.31048 -11797799.13647  21574227.303    21574228.3894   21574234.8924
       191.0004        190.0004
 21  2  3  0 24  0.0000000  0  8G30G09G21G08G27G07G01G04
  -1482940.06747  -1125882.01445  24254957.020    24254959.0594   24254965.9274
       149.0004        155.0004
 -18829591.91549 -14643125.14348  20844358.467    20844358.7134   20844365.3584
       214.0004        214.0004
 -13044653.46548  -9977361.50546  21901263.230    21901262.5224   21901267.9864
       178.0004        178.0004
 -19689216.79949 -15027229.22847  21003107.028    21003107.4744   21003115.2754
       200.0004        200.0004
  -7297695.57448  -5423314.63546  23774671.511    23774671.8114   23774679.4564
       183.0004        183.0004
 -13740816.04848 -10694372.46047  22305336.206    22305335.8114   22305340.0154
       187.0004        188.0004
 -11534970.26248  -8977882.80246  22546027.895    22546028.5454   22546035.5914
       168.0004        169.0004
 -15431969.93348 -11734995.99547  21589565.343    21589565.7744   21589572.1124
       192.0004        191.0004
 21  2  3  0 24 30.0000000  0  8G30G09G21G08G27G07G01G04
  -1567287.20847  -1191607.03745  24238908.588    24238908.0194   24238915.3414
       152.0004        155.0004
 -18808918.09349 -14627015.68348  20848292.245    20848292.5264   20848299.6474
       213.0004        213.0004
 -13069120.47948  -9996426.69146  21896607.093    21896606.2284   21896611.4324
       178.0004        179.0004
 -19621752.60949 -14974659.73347  21015944.616    21015945.5334   21015953.1444
       199.0004        199.0004
  -7191032.62848  -5340200.66946  23794968.264    23794969.1484   23794976.9354
       182.0004        182.0004
 -13815911.81748 -10752888.64146  22291044.969    22291045.5794   22291049.3984
       187.0004        187.0004
 -11611489.35848  -9037508.06546  22531466.433    22531467.2264   22531475.4314
       168.0004        169.0004
 -15351052.65648 -11671943.58147  21604962.914    21604963.4234   21604970.2794
       191.0004        190.0004
 21  2  3  0 25  0.0000000  0  8G30G09G21G08G27G07G01G04
  -1651739.72047  -1257414.15745  24222837.316    24222837.4064   24222844.8684
       152.0004        155.0004
 -18787711.48749 -14610491.06748  20852327.800    20852328.2954   20852334.8754
       213.0004        213.0004
 -13093211.93448 -10015199.26746  21892022.640    21892021.8434   21892026.4144
       178.0004        178.0004
 -19553896.50349 -14921784.84747  21028857.465    21028857.8144   21028865.3254
       199.0004        199.0004
  -7084269.30048  -5257008.49046  23815285.835    23815286.5604   23815292.5194
       181.0004        180.0004
 -13890969.26748 -10811374.96447  22276761.957    22276762.8854   22276766.9544
       187.0004        188.0004
 -11687922.26048  -9097066.15846  22516921.096    22516922.3164   22516930.3224
       169.0004        170.0004
 -15269818.59448 -11608644.32747  21620421.522    21620422.2964   21620428.1364
       190.0004        189.0004
 21  2  3  0 25 30.0000000  0  8G30G09G21G08G27G07G01G04
  -1736295.03347  -1323301.38845  24206746.696    24206746.9914   24206754.4234
       153.0004        156.0004
 -18765972.30449 -14593551.44847  20856464.799    20856464.9904   20856471.4434
       213.0004        212.0004
 -13116924.20348 -10033676.34346  21887509.837    21887509.8134   21887514.7384
       178.0004        178.0004
 -19485650.38649 -14868606.05147  21041844.998    21041844.9664   21041852.2214
       199.0004        199.0004
  -6977407.23348  -5173739.35046  23835620.785    23835621.5714   23835628.7214
       180.0004        180.0004
 -13965984.92448 -10869828.71746  22262487.456    22262487.1464   22262491.8824
       187.0004        187.0004
 -11764264.67048  -9156553.72546  22502394.839    22502394.8914   22502403.3724
       169.0004        170.0004
 -15188269.43748 -11545099.53647  21635940.338    21635940.6404   21635946.7414
       190.0004        190.0004
 21  2  3  0 26  0.0000000  0  8G30G09G21G08G27G07G01G04
  -1820950.66947  -1389266.79345  24190635.693    24190637.3624   24190645.1704
       154.0004        157.0004
 -18743700.69849 -14576196.94848  20860703.006    20860703.2104   20860709.7834
       213.0004        213.0004
 -13140253.82848 -10051855.26846  21883069.948    21883069.5084   21883075.6854
       178.0004        179.0004
 -19417015.49349 -14815124.30947  21054905.411    21054905.8494   21054913.3614
       199.0004        199.0004
  -6870448.08448  -5090394.52946  23855974.631    23855975.1374   23855980.8254
       180.0004        180.0004
 -14040955.31448 -10928247.19646  22248220.299    22248220.5214   22248225.3704
       186.0004        186.0004
 -11840512.15648  -9215967.31446  22487884.860    22487884.7684   22487893.2574
       169.0004        170.0004
 -15106406.87548 -11481310.53247  21651518.107    21651518.1554   21651524.8014
       190.0004        190.0004
 21  2  3  0 26 30.0000000  0  8G30G09G21G08G27G07G01G04
  -1905705.29647  -1455309.33545  24174508.694    24174509.0714   24174517.6974
       155.0004        158.0004
 -18720898.16049 -14558428.74348  20865042.378    20865042.7154   20865049.1884
       213.0004        214.0004
 -13163198.77448 -10069734.42346  21878703.628    21878703.7304   21878709.2524
       177.0004        179.0004
 -19347994.72949 -14761341.88447  21068039.761    21068039.9884   21068047.2774
       199.0004        199.0004
  -6763394.67948  -5006976.32246  23876345.509    23876346.5274   23876352.9884
       180.0004        181.0004
 -14115878.36948 -10986628.78846  22233962.601    22233963.1684   22233968.2564
       186.0004        186.0004
 -11916661.60548  -9275304.51846  22473393.620    22473394.6244   22473402.5484
       169.0004        171.0004
 -15024233.88548 -11417279.63247  21667154.991    21667155.2464   21667162.1324
       191.0004        190.0004
 21  2  3  0 27  0.0000000  0  8G30G09G21G08G27G07G01G04
  -1990557.86947  -1521428.20845  24158362.474    24158362.2424   24158369.0004
       156.0004        158.0004
 -18697566.49249 -14540248.23248  20869481.170    20869481.7614   20869488.8744
       213.0004        213.0004
 -13185757.51348 -10087312.65646  21874411.380    21874410.9704   21874416.5294
       178.0004        178.0004
 -19278591.39749 -14707261.36447  21081245.929    21081246.4334   21081254.7774
       198.0004        198.0004
  -6656250.12748  -4923487.06046  23896734.441    23896735.2504   23896741.9334
       181.0004        182.0004
 -14190752.07748 -11044971.93547  22219715.645    22219715.8144   22219719.9244
       187.0004        188.0004
 -11992710.12348  -9334563.08546  22458923.689    22458923.5974   22458930.5014
       170.0004        170.0004
 -14941753.62948 -11353009.31947  21682849.920    21682850.9664   21682857.1974
       191.0004        190.0004
 21  2  3  0 27 30.0000000  0  8G30G09G21G08G27G07G01G04
  -2075508.84847  -1587623.76645  24142197.058    24142196.4564   24142204.0344
       156.0004        158.0004
 -18673708.96049 -14521657.96148  20874021.701    20874022.0344   20874029.1614
       212.0004        213.0004
 -13207929.57648 -10104589.59646  21870192.472    21870192.1444   21870196.9024
       178.0004        179.0004
 -19208810.07449 -14652886.31647  21094524.982    21094525.5204   21094533.6994
       197.0004        198.0004
  -6549019.02948  -4839930.38846  23917141.070    23917140.7794   23917148.0284
       179.0004        179.0004
 -14265576.01748 -11103276.29847  22205476.769    22205477.6144   22205481.0954
       188.0004        189.0004
 -12068656.37248  -9393741.97646  22444470.763    22444471.1764   22444478.4254
       169.0004        171.0004
 -14858970.90948 -11288503.31747  21698603.593    21698603.7674   21698610.1524
       191.0004        189.0004
 21  2  3  0 28  0.0000000  0  8G30G09G21G08G27G07G01G04
  -2160555.94147  -1653894.21245  24126012.136    24126012.7644   24126020.0914
       156.0004        158.0004
 -18649326.17349 -14502658.37948  20878661.573    20878661.8684   20878668.7844
       213.0004        213.0004
 -13229712.28248 -10121563.10946  21866048.153    21866047.1784   21866052.0124
       179.0004        179.0004
 -19138652.67949 -14598218.20747  21107875.804    21107876.2974   21107883.6474
       197.0004        197.0004
  -6441703.31848  -4756307.74446  23937563.048    23937562.0614   23937569.6674
       178.0004        177.0004
 -14340346.85548 -11161539.27447  22191248.615    22191249.3354   22191253.1954
       189.0004        190.0004
 -12144496.19648  -9452837.90646  22430039.394    22430039.5794   22430047.3524
       169.0004        171.0004
 -14775887.70248 -11223763.16047  21714413.676    21714414.0644   21714420.4444
       190.0004        189.0004
 21  2  3  0 28 30.0000000  0  8G30G09G21G08G27G07G01G04
  -2245697.42047  -1720238.18345  24109810.007    24109809.9594   24109817.4814
       156.0004        158.0004
 -18624419.23249 -14483250.38048  20883401.391    20883401.6794   20883408.6504
       213.0004        213.0004
 -13251103.08148 -10138231.24146  21861976.183    21861975.7824   21861981.0864
       178.0004        179.0004
 -19068121.36049 -14543258.73047  21121297.760    21121297.9954   21121305.7294
       197.0004        197.0004
  -6334305.23648  -4672620.94746  23958000.295    23957999.6874   23958005.4364
       177.0004        178.0004
 -14415061.88448 -11219758.78647  22177030.610    22177030.9264   22177035.5934
       189.0004        189.0004
 -12220226.02448  -9511848.12846  22415627.650    22415628.0304   22415636.1334
       170.0004        172.0004
 -14692506.55348 -11158790.84247  21730281.204    21730281.5804   21730287.2704
       190.0004        190.0004
 21  2  3  0 29  0.0000000  0  8G30G09G21G08G27G07G01G04
  -2330932.18147  -1786654.85445  24093591.891    24093591.5354   24093597.4624
       156.0004        158.0004
 -18598990.09249 -14463435.47147  20888240.286    20888240.3924   20888247.7284
       212.0004        212.0004
 -13272100.29048 -10154592.68046  21857980.727    21857980.5054   21857985.2134
       177.0004        177.0004
 -18997220.33749 -14488011.18247  21134789.268    21134790.0654   21134797.8164
       197.0004        198.0004
  -6226828.04548  -4588872.51146  23978450.197    23978450.3644   23978457.7164
       175.0004        174.0004
 -14489719.53248 -11277933.57646  22162823.455    22162823.3504   22162828.4114
       188.0004        187.0004
 -12295843.08248  -9570770.48946  22401237.968    22401238.5764   22401247.2714
       171.0004        171.0004
 -14608830.79848 -11093588.96347  21746203.806    21746204.1844   21746210.1544
       189.0004        188.0004
 21  2  3  0 29 30.0000000  0  8G30G09G21G08G27G07G01G04
  -2416258.18547  -1853142.63645  24077354.459    24077355.0004   24077360.9644
       156.0004        158.0004
 -18573039.63249 -14443214.33247  20893178.427    20893178.8134   20893185.9084
       212.0004        212.0004
 -13292701.35448 -10170645.44346  21854060.543    21854059.7144   21854064.8074
       177.0004        177.0004
 -18925950.86149 -14432476.51247  21148351.352    21148351.8534   21148360.1264
       197.0004        197.0004
  -6119273.79948  -4505064.04546  23998917.868    23998917.9344   23998925.1664
       174.0004        175.0004
 -14564316.75648 -11336061.26347  22148628.486    22148628.4744   22148632.5144
       188.0004        189.0004
 -12371343.37248  -9629601.85246  22386871.274    22386870.9824   22386878.3734
       170.0004        171.0004
 -14524862.65848 -11028159.24846  21762182.691    21762182.6144   21762188.6534
       189.0004        187.0004
 21  2  3  0 30  0.0000000  0  8G30G09G21G08G27G07G01G04
  -2501675.23347  -1919701.32445  24061100.680    24061099.6074   24061106.8754
       157.0004        160.0004
 -18546570.73949 -14422589.22547  20898215.133    20898215.7624   20898222.4524
       212.0004        212.0004
 -13312905.55648 -10186388.95746  21850216.131    21850215.4224   21850220.6844
       178.0004        178.0004
 -18854317.25249 -14376658.12047  21161982.845    21161983.1384   21161991.2184
       196.0004        196.0004
  -6011646.51348  -4421198.63046  24019398.922    24019398.4694   24019405.3144
       171.0004        171.0004
 -14638852.25748 -11394140.87247  22134444.443    22134444.9494   22134449.4564
       190.0004        190.0004
 -12446724.99848  -9688340.77346  22372525.763    22372526.3274   22372534.5334
       171.0004        174.0004
 -14440606.37548 -10962505.00947  21778215.225    21778216.0844   21778222.3434
       189.0004        188.0004
 21  2  3  0 30 30.0000000  0  8G30G09G21G08G27G07G01G04
  -2587180.57747  -1986328.83145  24044827.995    24044828.4954   24044835.5254
       158.0004        161.0004
 -18519583.61649 -14401560.30747  20903351.102    20903351.0504   20903358.0864
       212.0004        212.0004
 -13332709.65848 -10201820.71846  21846447.241    21846446.2534   21846452.6874
       178.0004        178.0004
 -18782321.22049 -14320557.32147  21175683.378    21175683.6794   21175691.5464
       196.0004        197.0004
  -5903947.59848  -4337277.43446  24039894.026    24039893.1634   24039900.6754
       172.0004        173.0004
 -14713322.35548 -11452169.52247  22120273.194    22120274.6994   22120278.4984
       191.0004        192.0004
 -12521983.43748  -9746983.69446  22358204.685    22358205.5274   22358213.8354
       172.0004        174.0004
 -14356063.54248 -10896627.48846  21794303.512    21794303.5804   21794309.8804
       188.0004        186.0004
 21  2  3  0 31  0.0000000  0  8G30G09G21G08G27G07G01G04
  -2672773.14747  -2053024.31545  24028540.689    24028540.8884   24028548.9014
       160.0004        162.0004
 -18492080.35949 -14380129.21247  20908584.250    20908584.8414   20908591.5914
       211.0004        212.0004
 -13352112.04748 -10216939.44446  21842755.320    21842754.9544   21842759.6964
       178.0004        177.0004
 -18709966.03449 -14264176.65547  21189452.422    21189452.8954   21189460.0844
       196.0004        197.0004
  -5796180.12648  -4253302.79746  24060400.215    24060400.0834   24060407.1624
       171.0004        171.0004
 -14787724.90048 -11510145.53147  22106115.323    22106115.8124   22106120.0214
       191.0004        191.0004
 -12597115.76248  -9805528.34446  22343908.299    22343908.1154   22343916.3844
       173.0004        174.0004
 -14271237.46848 -10830529.25546  21810444.981    21810445.7884   21810451.7284
       187.0004        186.0004
 21  2  3  0 31 30.0000000  0  8G30G09G21G08G27G07G01G04
  -2758451.68847  -2119786.79045  24012236.932    24012237.2344   24012244.0054
       159.0004        160.0004
 -18464062.76249 -14358297.32247  20913916.176    20913916.4684   20913923.3044
       211.0004        212.0004
 -13371110.86548 -10231743.69846  21839140.178    21839139.2564   21839143.9284
       179.0004        179.0004
 -18637254.38449 -14207518.21447  21203289.102    21203289.2664   21203296.8854
       197.0004        197.0004
  -5688347.07148  -4169277.07146  24080919.705    24080920.1354   24080927.2934
       173.0004        174.0004
 -14862058.53648 -11568067.82947  22091969.724    22091969.7484   22091973.8834
       190.0004        189.0004
 -12672118.99648  -9863972.41346  22329635.312    22329636.0324   22329643.6864
       174.0004        175.0004
 -14186131.33948 -10764212.79346  21826641.160    21826641.1894   21826647.0964
       188.0004        187.0004
 21  2  3  0 32  0.0000000  0  8G30G09G21G08G27G07G01G04
  -2844214.12947  -2186614.65345  23995916.483    23995917.0644   23995922.8484
       156.0004        156.0004
 -18435532.00449 -14336065.56747  20919345.051    20919345.5694   20919352.8724
       211.0004        212.0004
 -13389703.91548 -10246231.76946  21835601.516    21835600.9904   21835606.6454
       179.0004        179.0004
 -18564188.91849 -14150584.06947  21217192.368    21217192.4144   21217200.8594
       196.0004        195.0004
  -5580450.57048  -4085201.85346  24101452.293    24101452.8364   24101459.9334
       174.0004        175.0004
 -14936319.89848 -11625933.83147  22077839.193    22077838.9294   22077842.4834
       190.0004        191.0004
 -12746989.35348  -9922312.91646  22315388.327    22315388.3214   22315396.0384
       174.0004        175.0004
 -14100747.54848 -10697679.97146  21842888.340    21842889.0334   21842895.0184
       187.0004        186.0004
 21  2  3  0 32 30.0000000  0  8G30G09G21G08G27G07G01G04
  -2930060.17747  -2253507.68645  23979581.262    23979580.8914   23979587.5684
       155.0004        156.0004
 -18406490.86049 -14313436.11447  20924871.557    20924871.8704   20924878.9674
       211.0004        212.0004
 -13407890.27248 -10260402.94946  21832140.700    21832140.2394   21832146.4764
       179.0004        180.0004
 -18490774.09849 -14093377.72547  21231162.424    21231162.9314   21231171.7244
       195.0004        195.0004
  -5472494.39848  -4001080.20046  24121996.169    24121996.6494   24122002.9694
       173.0004        174.0004
 -15010507.65648 -11683742.48647  22063721.380    22063721.8084   22063725.7834
       191.0004        192.0004
 -12821724.63548  -9980548.20446  22301165.408    22301166.0974   22301174.6364
       174.0004        175.0004
 -14015090.17848 -10630933.98946  21859188.013    21859188.6514   21859195.0324
       186.0004        184.0004
 21  2  3  0 33  0.0000000  0  8G30G09G21G08G27G07G01G04
  -3015987.64547  -2320464.14045  23963229.165    23963229.1474   23963237.4314
       156.0004        159.0004
 -18376940.42749 -14290409.79547  20930494.701    20930495.0054   20930502.0854
       211.0004        211.0004
 -13425667.27348 -10274255.12646  21828757.645    21828757.5654   21828762.4684
       179.0004        179.0004
 -18417011.32949 -14035900.23847  21245200.253    21245200.4214   21245207.7294
       195.0004        196.0004
  -5364480.68548  -3916913.65346  24142550.645    24142551.0344   24142557.7134
       173.0004        174.0004
 -15084618.69248 -11741491.33547  22049617.804    22049618.5714   22049622.4314
       192.0004        191.0004
 -12896321.06448 -10038675.27546  22286970.386    22286970.9454   22286979.6614
       174.0004        174.0004
 -13929161.54648 -10563976.60046  21875540.371    21875540.3824   21875546.5414
       185.0004        185.0004
 21  2  3  0 33 30.0000000  0  8G30G09G21G08G27G07G01G04
  -3101995.13147  -2387482.94045  23946861.468    23946862.6214   23946870.3954
       156.0004        158.0004
 -18346882.51449 -14266988.06647  20936215.174    20936215.2814   20936221.6574
       211.0004        212.0004
 -13443033.45748 -10287787.22046  21825453.425    21825453.2954   21825458.0754
       179.0004        179.0004
 -18342904.46849 -13978154.62647  21259301.766    21259302.1544   21259309.6874
       195.0004        195.0004
  -5256412.13548  -3832704.44946  24163116.269    24163116.0214   24163122.6664
       174.0004        176.0004
 -15158650.81148 -11799178.71047  22035529.898    22035530.7114   22035534.7064
       191.0004        191.0004
 -12970775.40248 -10096691.63146  22272802.566    22272803.0464   22272812.3734
       173.0004        174.0004
 -13842964.70748 -10496810.25346  21891942.045    21891943.0724   21891949.7484
       185.0004        185.0004
 21  2  3  0 34  0.0000000  0  8G30G09G21G08G27G07G01G04
  -3188080.63247  -2454562.51445  23930481.480    23930480.0024   23930487.7604
       155.0004        156.0004
 -18316318.48249 -14243171.94247  20942031.050    20942031.3144   20942038.3164
       211.0004        212.0004
 -13459986.32548 -10300997.23546  21822226.406    21822226.8754   21822232.0934
       179.0004        179.0004
 -18268455.47849 -13920142.41447  21273468.403    21273469.0844   21273476.1924
       195.0004        195.0004
  -5148291.03448  -3748454.24146  24183689.438    24183689.7504   24183696.9024
       174.0004        175.0004
 -15232601.17848 -11856802.37947  22021457.926    22021458.5554   22021462.7454
       192.0004        192.0004
 -13045083.96648 -10154594.38846  22258661.861    22258662.6724   22258670.9354
       174.0004        176.0004
 -13756502.21748 -10429436.88946  21908396.506    21908396.6314   21908403.3714
       185.0004        185.0004
 21  2  3  0 34 30.0000000  0  8G30G09G21G08G27G07G01G04
  -3274243.64047  -2521702.49445  23914083.173    23914084.3374   23914091.6514
       155.0004        158.0004
 -18285251.07549 -14218963.57347  20947942.563    20947943.0474   20947950.1584
       211.0004        211.0004
 -13476525.24548 -10313884.69446  21819080.343    21819080.0964   21819084.5254
       179.0004        180.0004
 -18193668.08349 -13861866.51147  21287700.061    21287700.5854   21287708.5224
       195.0004        196.0004
  -5040121.00548  -3664165.95746  24204274.973    24204274.5174   24204281.4084
       173.0004        174.0004
 -15306468.61348 -11914361.40447  22007401.550    22007401.8194   22007405.7374
       192.0004        192.0004
 -13119244.44648 -10212381.75046  22244550.001    22244550.3094   22244558.2864
       175.0004        176.0004
 -13669777.99948 -10361859.57646  21924899.092    21924899.3894   21924906.3264
       185.0004        184.0004
 21  2  3  0 35  0.0000000  0  9G30G17G09G21G08G27G07G01G04
  -3360487.79147  -2588905.74045  23897674.312    23897674.0264   23897679.5434
       157.0004        160.0004
  -1224127.03557   -912841.25845  24309851.782    24309852.3005   24309858.7564
       139.0004        143.0004
 -18253687.41249 -14194368.51347  20953949.556    20953949.9834   20953955.8854
       211.0004        211.0004
 -13492653.63348 -10326452.25946  21816012.008    21816011.0514   21816015.5124
       180.0004        180.0004
 -18118550.69248 -13803333.47847  21301994.384    21301994.8514   21302002.9484
       194.0004        194.0004
  -4931910.01648  -3579845.70146  24224865.884    24224866.5964   24224872.8594
       175.0004        177.0004
 -15380255.47748 -11971857.66147  21993360.037    21993360.9524   21993365.1684
       192.0004        193.0004
 -13193258.89448 -10270055.33446  22230465.864    22230466.2884   22230473.3334
       175.0004        177.0004
 -13582800.33748 -10294084.79146  21941451.266    21941451.3384   21941457.4594
       185.0004        185.0004
 21  2  3  0 35 30.0000000  0  9G30G17G09G21G08G27G07G01G04
  -3446804.27547  -2656165.30845  23881247.817    23881247.6574   23881254.8234
       158.0004        160.0004
  -1322186.35747   -989251.03445  24291192.311    24291192.0704   24291198.3894
       139.0004        144.0004
 -18221621.86949 -14169382.38747  20960050.975    20960051.2374   20960058.1864
       211.0004        211.0004
 -13508362.21048 -10338692.68546  21813021.251    21813021.5364   21813026.1594
       180.0004        180.0004
 -18043098.90248 -13744539.88247  21316353.286    21316353.5044   21316360.4644
       194.0004        195.0004
  -4823653.28248  -3495489.81746  24245467.067    24245467.4194   24245472.9974
       176.0004        177.0004
 -15453952.45748 -12029283.87547  21979336.735    21979336.5434   21979341.1024
       193.0004        193.0004
 -13267116.71448 -10327606.85046  22216411.354    22216411.4264   22216419.4484
       175.0004        176.0004
 -13495564.84448 -10226109.08746  21958050.895    21958051.1944   21958057.6514
       185.0004        185.0004
 21  2  3  0 36  0.0000000  0  9G30G17G09G21G08G27G07G01G04
  -3533191.12547  -2723479.70645  23864808.367    23864808.9944   23864815.8324
       157.0004        158.0004
  -1420031.93447  -1065494.28845  24272572.313    24272571.9524   24272579.5634
       139.0004        144.0004
 -18189056.00449 -14144006.39247  20966248.229    20966248.5234   20966255.4784
       211.0004        211.0004
 -13523648.78648 -10350604.27246  21810112.300    21810112.8374   21810118.3004
       180.0004        181.0004
 -17967315.17649 -13685487.61847  21330775.170    21330775.1164   21330782.1624
       195.0004        196.0004
  -4715353.14648  -3411100.11046  24266076.062    24266076.0084   24266082.9634
       179.0004        180.0004
 -15527556.64448 -12086637.77847  21965329.797    21965330.3704   21965334.0564
       193.0004        193.0004
 -13340814.21848 -10385033.44846  22202385.905    22202386.5574   22202395.4864
       175.0004        176.0004
 -13408074.14148 -10157934.52946  21974699.791    21974700.1464   21974706.0574
       184.0004        183.0004
 21  2  3  0 36 30.0000000  0  9G30G17G09G21G08G27G07G01G04
  -3619646.79447  -2790847.75645  23848356.193    23848355.9854   23848363.7174
       153.0004        155.0004
  -1517661.37547  -1141569.10245  24253993.834    24253994.1734   24254000.0574
       136.0004        139.0004
 -18155991.72549 -14118242.03247  20972540.566    20972540.8544   20972547.2664
       211.0004        211.0004
 -13538511.56148 -10362185.64746  21807284.749    21807283.7054   21807289.6234
       181.0004        181.0004
 -17891202.71049 -13626179.21347  21345257.674    21345258.8184   21345265.9914
       196.0004        196.0004
  -4607012.28948  -3326678.70146  24286693.304    24286692.7234   24286698.9134
       178.0004        178.0004
 -15601065.08048 -12143917.09847  21951340.988    21951342.5144   21951346.1664
       192.0004        192.0004
 -13414348.22148 -10442332.65446  22188393.662    22188393.2334   22188402.2644
       175.0004        176.0004
 -13320331.21848 -10089563.42846  21991396.885    21991397.5504   21991403.4454
       183.0004        183.0004
 21  2  3  0 37  0.0000000  0  9G30G17G09G21G08G27G07G01G04
  -3706170.87947  -2858269.10545  23831891.431    23831891.6104   23831898.7044
       151.0004        154.0004
  -1615074.09546  -1217475.05545  24235456.193    24235456.0504   24235461.0374
       131.0004        136.0004
 -18122432.04549 -14092091.63047  20978926.396    20978927.1234   20978933.4894
       211.0004        211.0004
 -13552950.00348 -10373436.34646  21804536.661    21804536.4504   21804541.8074
       181.0004        181.0004
 -17814765.39749 -13566617.65747  21359802.822    21359803.7564   21359811.3234
       195.0004        194.0004
  -4498634.39248  -3242228.39246  24307316.849    24307316.5524   24307321.7714
       175.0004        174.0004
 -15674477.05748 -12201121.21847  21937371.174    21937371.7694   21937376.2874
       192.0004        193.0004
 -13487716.51348 -10499502.74346  22174432.103    22174432.5624   22174440.1334
       177.0004        178.0004
 -13232340.28048 -10020999.05846  22008140.909    22008141.7414   22008148.1714
       184.0004        184.0004
 21  2  3  0 37 30.0000000  0  9G30G17G09G21G08G27G07G01G04
  -3792762.47947  -2925743.07645  23815413.205    23815413.2574   23815421.9204
       152.0004        155.0004
  -1712268.04946  -1293210.59045  24216961.716    24216962.1144   24216968.1254
       134.0004        141.0004
 -18088379.66549 -14065557.31647  20985406.632    20985406.7654   20985413.1414
       211.0004        212.0004
 -13566963.32848 -10384355.80746  21801869.611    21801869.7234   21801874.1764
       180.0004        180.0004
 -17738006.40348 -13506805.46047  21374410.300    21374410.9914   21374418.1104
       194.0004        195.0004
  -4390222.96848  -3157751.95246  24327947.032    24327946.4394   24327952.0724
       173.0004        173.0004
 -15747790.75748 -12258248.76547  21923421.066    21923421.3474   21923425.0604
       193.0004        194.0004
 -13560916.70648 -10556541.83846  22160501.934    22160502.7594   22160510.8334
       176.0004        177.0004
 -13144105.04548  -9952244.34946  22024931.965    22024932.2854   22024938.4554
       184.0004        183.0004
 21  2  3  0 38  0.0000000  0  9G30G17G09G21G08G27G07G01G04
  -3879419.14647  -2993267.72845  23798924.155    23798924.1364   23798931.0964
       154.0004        158.0004
  -1809240.78747  -1368773.67345  24198509.066    24198509.4404   24198513.0614
       138.0004        144.0004
 -18053835.62049 -14038639.87547  20991980.459    20991980.5884   20991986.8174
       211.0004        211.0004
 -13580548.86048 -10394941.92546  21799284.908    21799284.0704   21799289.0904
       180.0004        181.0004
 -17660928.73348 -13446744.92647  21389077.916    21389078.6354   21389085.8554
       194.0004        195.0004
  -4281779.60048  -3073250.65346  24348583.193    24348582.7444   24348587.5274
       170.0004        168.0004
 -15821002.79648 -12315297.10947  21909488.604    21909488.9084   21909493.4254
       194.0004        193.0004
 -13633944.62948 -10613446.68746  22146604.215    22146605.8334   22146613.5384
       176.0004        177.0004
 -13055627.64148  -9883300.92646  22041768.711    22041768.8064   22041774.3184
       183.0004        182.0004
 21  2  3  0 38 30.0000000  0  9G30G17G09G21G08G27G07G01G04
  -3966140.61747  -3060842.90645  23782421.193    23782421.5084   23782428.4544
       157.0004        160.0004
  -1905991.12847  -1444163.48045  24180097.683    24180098.5824   24180103.5254
       142.0004        147.0004
 -18018803.27849 -14011341.96947  20998646.381    20998646.3784   20998653.6204
       210.0004        210.0004
 -13593706.43548 -10405194.56446  21796780.705    21796780.5214   21796784.4514
       180.0004        180.0004
 -17583536.14648 -13386439.01547  21403804.844    21403805.7204   21403812.8274
       194.0004        194.0004
  -4173308.39648  -2988727.60246  24369224.987    24369224.8294   24369229.4964
       170.0004        171.0004
 -15894112.43948 -12372265.65847  21895575.570    21895576.5504   21895581.1974
       193.0004        193.0004
 -13706798.30248 -10670215.78946  22132741.455    22132742.3884   22132750.8964
       176.0004        179.0004
 -12966912.52048  -9814172.26146  22058650.252    22058650.4134   22058657.0394
       183.0004        183.0004
 21  2  3  0 39  0.0000000  0  9G30G17G09G21G08G27G07G01G04
  -4052924.34347  -3128466.58445  23765906.835    23765906.6744   23765914.7524
       159.0004        161.0004
  -2002516.34747  -1519377.87445  24161728.139    24161728.9674   24161734.7154
       143.0004        148.0004
 -17983283.68149 -13983664.36347  21005404.867    21005405.5354   21005412.6654
       210.0004        210.0004
 -13606433.61148 -10415111.84746  21794359.172    21794359.3134   21794363.2304
       180.0004        181.0004
 -17505830.64848 -13325889.26847  21418591.681    21418591.9764   21418599.7424
       194.0004        194.0004
  -4064811.02148  -2904184.20846  24389870.758    24389870.8904   24389876.4014
       171.0004        172.0004
 -15967115.81248 -12429151.39647  21881684.449    21881684.7874   21881688.8114
       193.0004        194.0004
 -13779473.60448 -10726845.86846  22118911.934    22118912.8054   22118920.7634
       177.0004        178.0004
 -12877961.65048  -9744859.90446  22075576.180    22075576.4654   22075583.9604
       183.0004        182.0004
 21  2  3  0 39 30.0000000  0  9G30G17G09G21G08G27G07G01G04
  -4139768.88747  -3196137.62745  23749379.714    23749380.0004   23749388.7094
       159.0004        161.0004
  -2098814.23747  -1594415.14745  24143404.507    24143404.7574   24143410.1944
       147.0004        151.0004
 -17947279.00249 -13955608.78747  21012256.601    21012257.0054   21012264.4264
       210.0004        210.0004
 -13618728.83348 -10424692.53246  21792019.974    21792019.7264   21792023.4584
       180.0004        181.0004
 -17427815.77448 -13265098.46647  21433437.932    21433438.3064   21433445.2404
       194.0004        194.0004
  -3956290.09948  -2819622.51546  24410521.973    24410521.9734   24410526.9704
       171.0004        172.0004
 -16040010.62448 -12485952.54747  21867812.883    21867813.6504   21867817.8974
       194.0004        194.0004
 -13851967.41948 -10783334.54746  22105117.172    22105118.0374   22105124.9304
       177.0004        177.0004
 -12788778.34148  -9675366.43246  22092547.759    22092548.0844   22092554.8144
       183.0004        182.0004
 21  2  3  0 40  0.0000000  0  9G30G17G09G21G08G27G07G01G04
  -4226672.29047  -3263854.52445  23732842.414    23732843.1234   23732850.7314
       159.0004        160.0004
  -2194881.92247  -1669273.00545  24125122.411    24125123.4954   24125129.5564
       148.0004        152.0004
 -17910791.00949 -13927176.58947  21019200.517    21019200.6884   21019207.5694
       210.0004        210.0004
 -13630590.03148 -10433935.01546  21789762.709    21789762.9154   21789767.3464
       181.0004        182.0004
 -17349493.89148 -13204068.42047  21448341.940    21448342.3894   21448349.9854
       193.0004        193.0004
  -3847748.01648  -2735044.22846  24431176.872    24431176.8364   24431181.5264
       169.0004        170.0004
 -16112794.20748 -12542667.02747  21853963.010    21853963.9294   21853967.6184
       194.0004        195.0004
 -13924276.19948 -10839679.02646  22091357.494    22091357.2704   22091365.5084
       177.0004        178.0004
 -12699365.27348  -9605693.91746  22109562.329    22109562.6554   22109569.0134
       183.0004        182.0004
 21  2  3  0 40 30.0000000  0  9G30G17G09G21G08G27G07G01G04
  -4313632.27547  -3331615.53645  23716294.680    23716295.3464   23716301.9484
       157.0004        158.0004
  -2290716.84747  -1743949.50045  24106885.981    24106886.2764   24106892.2444
       149.0004        153.0004
 -17873821.05049 -13898368.83647  21026235.150    21026235.8414   21026242.9154
       209.0004        210.0004
 -13642015.04248 -10442837.60646  21787588.666    21787588.0654   21787593.7894
       182.0004        183.0004
 -17270867.32648 -13142800.97347  21463304.290    21463304.9864   21463312.5094
       193.0004        193.0004
  -3739186.73448  -2650451.07346  24451834.791    24451834.3354   24451841.1374
       167.0004        168.0004
 -16185463.58649 -12599292.51047  21840135.119    21840135.3504   21840139.5654
       196.0004        196.0004
 -13996395.93348 -10895876.20346  22077634.275    22077634.1824   22077642.5054
       178.0004        179.0004
 -12609724.77848  -9535844.18746  22126620.887    22126621.5194   22126627.8124
       183.0004        184.0004
 21  2  3  0 41  0.0000000  0  9G30G17G09G21G08G27G07G01G04
  -4400648.57547  -3399420.43745  23699736.878    23699737.4954   23699744.2914
       155.0004        156.0004
  -2386318.35147  -1818444.07445  24088694.528    24088694.8774   24088700.2234
       151.0004        154.0004
 -17836372.64949 -13869188.26147  21033361.432    21033361.8834   21033368.9104
       209.0004        210.0004
 -13653003.55748 -10451400.06646  21785497.135    21785496.6314   21785502.1874
       182.0004        182.0004
 -17191940.87048 -13081299.82347  21478323.522    21478323.9584   21478331.4224
       193.0004        193.0004
  -3630610.20948  -2565845.97946  24472496.627    24472496.1974   24472501.6204
       168.0004        170.0004
 -16258017.51049 -12655828.02847  21826328.323    21826328.8594   21826332.6814
       195.0004        195.0004
 -14068324.85648 -10951924.69546  22063945.458    22063945.6394   22063955.1924
       178.0004        179.0004
 -12519861.32248  -9465820.71146  22143721.538    22143722.0034   22143727.9034
       184.0004        184.0004
 21  2  3  0 41 30.0000000  0  9G30G17G09G21G08G27G07G01G04
  -4487718.96047  -3467267.49245  23683167.953    23683168.4084   23683174.5974
       155.0004        158.0004
  -2481683.49547  -1892754.52745  24070547.027    24070546.5904   24070552.3514
       152.0004        155.0004
 -17798447.29749 -13839636.03947  21040577.419    21040578.2134   21040585.9144
       209.0004        210.0004
 -13663553.74648 -10459620.98946  21783488.780    21783488.8464   21783494.2174
       181.0004        181.0004
 -17112716.26648 -13019566.35147  21493399.346    21493399.3094   21493407.2584
       193.0004        193.0004
  -3522020.40748  -2481230.60746  24493158.735    24493159.3414   24493166.3014
       168.0004        169.0004
 -16330452.86149 -12712271.14747  21812543.523    21812544.3854   21812548.3804
       195.0004        194.0004
 -14140059.09548 -11007821.48946  22050295.139    22050295.8274   22050303.8084
       178.0004        179.0004
 -12429777.35848  -9395625.41446  22160863.675    22160863.8694   22160870.7284
       183.0004        181.0004
 21  2  3  0 42  0.0000000  0  9G30G17G09G21G08G27G07G01G04
  -4574841.77147  -3535155.40745  23666588.986    23666588.9614   23666596.0134
       157.0004        159.0004
  -2576810.54247  -1966879.45345  24052444.770    24052445.6124   24052449.4314
       152.0004        154.0004
 -17760047.17449 -13809713.88747  21047886.032    21047886.0624   21047892.9144
       209.0004        209.0004
 -13673663.99048 -10467499.10946  21781564.887    21781565.4914   21781569.4854
       180.0004        180.0004
 -17033197.06748 -12957603.34847  21508531.228    21508531.4384   21508538.5504
       192.0004        192.0004
  -3413419.86348  -2396606.83246  24513822.836    24513824.6714   24513832.4544
       168.0004        170.0004
 -16402767.33749 -12768620.10847  21798783.038    21798783.4304   21798787.3654
       195.0004        196.0004
 -14211595.46248 -11063564.11546  22036681.929    22036683.0294   22036690.3684
       178.0004        178.0004
 -12339475.96248  -9325260.70546  22178047.804    22178048.1554   22178053.5274
       181.0004        181.0004
 21  2  3  0 42 30.0000000  0  9G30G17G09G21G08G27G07G01G04
  -4662014.78647  -3603082.43145  23650001.058    23650000.9114   23650008.1244
       158.0004        161.0004
  -2671696.40347  -2040816.42445  24034389.378    24034389.2914   24034392.8564
       149.0004        151.0004
 -17721173.87849 -13779423.01247  21055283.617    21055283.6914   21055290.4454
       209.0004        210.0004
 -13683332.36148 -10475032.88646  21779725.644    21779725.4334   21779729.3854
       180.0004        180.0004
 -16953385.36148 -12895412.40147  21523718.672    21523719.4824   21523726.7684
       191.0004        192.0004
  -3304810.71248  -2311976.29046  24534490.612    24534492.6954   24534499.4744
       169.0004        170.0004
 -16474957.74949 -12824872.36247  21785045.222    21785045.4674   21785050.0594
       195.0004        195.0004
 -14282930.07048 -11119149.50246  22023106.577    22023107.6374   22023115.9764
       178.0004        179.0004
 -12248959.64948  -9254728.51946  22195272.064    22195272.2094   22195278.3964
       181.0004        181.0004
 21  2  3  0 43  0.0000000  0  9G30G17G09G21G08G27G07G01G04
  -4749236.20947  -3671047.15145  23633403.442    23633402.5204   23633410.2964
       160.0004        162.0004
  -2766338.96847  -2114563.85945  24016379.162    24016379.3634   24016382.8214
       147.0004        150.0004
 -17681829.43849 -13748765.01047  21062770.221    21062770.6184   21062777.5624
       209.0004        209.0004
 -13692557.19048 -10482221.05946  21777970.101    21777970.0114   21777974.1204
       180.0004        180.0004
 -16873284.02548 -12832995.76347  21538961.556    21538962.3934   21538969.1684
       192.0004        193.0004
  -3196195.30448  -2227340.92946  24555159.066    24555160.4604   24555169.0184
       166.0004        166.0004
 -16547021.41349 -12881025.85647  21771332.402    21771332.5534   21771336.6514
       195.0004        195.0004
 -14354059.67748 -11174575.15746  22009570.488    22009572.3724   22009580.9874
       178.0004        178.0004
 -12158231.38048  -9184031.15546  22212537.289    22212537.8324   22212544.1304
       181.0004        180.0004
 21  2  3  0 43 30.0000000  0  9G30G17G09G21G08G27G07G01G04
  -4836504.96547  -3739048.75645  23616796.356    23616796.4154   23616803.3854
       160.0004        161.0004
  -2860736.95547  -2188120.70945  23998415.292    23998415.6854   23998419.6794
       149.0004        153.0004
 -17642016.66449 -13717742.08347  21070346.459    21070346.7424   21070353.5604
       209.0004        209.0004
 -13701337.57948 -10489062.92846  21776299.936    21776299.4254   21776302.8904
       181.0004        182.0004
 -16792896.92348 -12770356.45747  21554259.608    21554260.2394   21554266.4184
       192.0004        192.0004
  -3087576.86248  -2142703.24146  24575830.056    24575830.3954   24575838.8674
       167.0004        170.0004
 -16618956.44549 -12937079.12747  21757643.044    21757643.5344   21757648.0534
       195.0004        195.0004
 -14424981.52448 -11229838.91546  21996075.296    21996076.8274   21996084.8694
       178.0004        179.0004
 -12067294.75548  -9113171.45946  22229841.408    22229842.1084   22229848.1014
       180.0004        180.0004
 21  2  3  0 44  0.0000000  0  8G30G17G09G21G08G07G01G04
  -4923818.58247  -3807085.30445  23600181.047    23600180.9084   23600188.2954
       160.0004        162.0004
  -2954887.50347  -2261484.69045  23980498.693    23980498.9764   23980503.4994
       150.0004        154.0004
 -17601737.02849 -13686355.35547  21078011.870    21078011.8334   21078018.6314
       209.0004        209.0004
 -13709671.49748 -10495556.87646  21774713.757    21774713.2094   21774717.4874
       181.0004        182.0004
 -16712225.87548 -12707495.88347  21569610.159    21569611.0454   21569617.3954
       192.0004        192.0004
 -16690759.89949 -12993029.86247  21743979.532    21743980.2634   21743984.2724
       195.0004        196.0004
 -14495691.66748 -11284937.69646  21982620.458    21982620.7304   21982628.4774
       179.0004        179.0004
 -11976152.11648  -9042151.21046  22247185.300    22247185.2044   22247192.3994
       180.0004        179.0004
 21  2  3  0 44 30.0000000  0  8G30G17G09G21G08G07G01G04
  -5011175.58747  -3875155.70446  23583558.242    23583558.0504   23583565.5044
       162.0004        164.0004
  -3048788.75747  -2334654.44745  23962629.440    23962629.9044   23962635.6454
       153.0004        156.0004
 -17560992.98449 -13654606.76347  21085764.693    21085765.0584   21085772.0754
       209.0004        209.0004
 -13717557.85248 -10501702.08346  21773212.581    21773212.5664   21773216.8854
       182.0004        182.0004
 -16631274.54848 -12644416.93847  21585014.661    21585014.9124   21585021.0504
       190.0004        190.0004
 -16762429.16749 -13048876.04247  21730341.799    21730341.8404   21730346.0514
       196.0004        196.0004
 -14566187.11048 -11339869.21046  21969205.944    21969205.7734   21969213.1014
       179.0004        179.0004
 -11884806.81248  -8970973.06146  22264567.767    22264568.6354   22264575.2004
       180.0004        179.0004
 21  2  3  0 45  0.0000000  0  8G30G17G09G21G08G07G01G04
  -5098574.43347  -3943258.69145  23566926.330    23566926.0134   23566932.7674
       161.0004        162.0004
  -3142438.73247  -2407628.36945  23944808.735    23944809.5104   23944815.3024
       155.0004        158.0004
 -17519786.90849 -13622498.13747  21093605.936    21093605.9934   21093613.2144
       209.0004        208.0004
 -13724995.21048 -10507497.42746  21771796.969    21771796.9924   21771801.5834
       182.0004        182.0004
 -16550046.12748 -12581122.06047  21600471.954    21600471.9644   21600478.6524
       189.0004        190.0004
 -16833961.88549 -13104615.83047  21716729.242    21716729.7054   21716733.9144
       196.0004        196.0004
 -14636464.74348 -11394630.96546  21955832.156    21955832.4444   21955841.0964
       179.0004        179.0004
 -11793261.95848  -8899639.42846  22281988.688    22281988.1824   22281995.0024
       179.0004        177.0004
 21  2  3  0 45 30.0000000  0  8G30G17G09G21G08G07G01G04
  -5186013.49347  -4011393.01446  23550287.581    23550287.2194   23550294.7384
       162.0004        165.0004
  -3235835.38747  -2480404.91945  23927035.974    23927036.2274   23927042.5684
       156.0004        158.0004
 -17478121.23149 -13590031.38747  21101534.148    21101534.9684   21101542.0884
       208.0004        209.0004
 -13731982.38648 -10512941.96446  21770468.283    21770467.8674   21770472.7134
       182.0004        183.0004
 -16468543.60648 -12517613.60047  21615982.199    21615982.1004   21615988.7504
       190.0004        191.0004
 -16905355.91349 -13160247.52847  21703143.649    21703143.7894   21703147.8394
       196.0004        196.0004
 -14706521.43948 -11449220.58946  21942500.967    21942500.7634   21942509.2294
       179.0004        180.0004
 -11701520.82748  -8828152.82546  22299446.788    22299447.0584   22299452.4034
       177.0004        176.0004
 21  2  3  0 46  0.0000000  0  9G30G17G09G21G08G14G07G01G04
  -5273491.29847  -4079557.52946  23533640.271    23533640.3034   23533647.6024
       164.0004        165.0004
  -3328976.92447  -2552982.67345  23909311.431    23909312.2494   23909317.3874
       156.0004        158.0004
 -17435998.46249 -13557208.45247  21109550.552    21109550.9994   21109557.7284
       209.0004        209.0004
 -13738518.23748 -10518034.81146  21769224.825    21769223.9054   21769229.2984
       182.0004        182.0004
 -16386770.03248 -12453893.91947  21631542.846    21631543.2624   21631550.1634
       191.0004        191.0004
  -1232905.83754   -951601.937 4                                  23584594.786
        74.0004        114.000
 -16976608.74749 -13215769.21347  21689584.424    21689584.5884   21689588.5894
       196.0004        196.0004
 -14776354.22448 -11503635.73446  21929212.169    21929212.4194   21929220.1694
       179.0004        180.0004
 -11609586.67148  -8756515.82046  22316941.672    22316942.3444   22316947.7794
       177.0004        177.0004
 21  2  3  0 46 30.0000000  0  9G30G17G09G21G08G14G07G01G04
  -5361004.98348  -4147749.99046  23516987.914    23516987.2164   23516994.4614
       165.0004        167.0004
  -3421860.29747  -2625359.27445  23891636.831    23891636.9324   23891641.9624
       157.0004        159.0004
 -17393419.80049 -13524030.27847  21117652.810    21117652.9034   21117660.4014
       209.0004        209.0004
 -13744600.45848 -10522774.19746  21768066.388    21768066.2194   21768072.7314
       183.0004        183.0004
 -16304727.35548 -12389964.56647  21647154.662    21647154.7044   21647162.2894
       191.0004        191.0004
  -1083321.75544   -835527.865 3                                  23575820.309
        74.0004         74.000
 -17047716.64449 -13271177.95847  21676052.444    21676053.4294   21676057.1634
       196.0004        196.0004
 -14845958.73348 -11557872.99846  21915966.449    21915967.2694   21915974.8724
       179.0004        181.0004
 -11517461.49848  -8684729.97446  22334472.033    22334472.3324   22334478.0244
       177.0004        177.0004
 21  2  3  0 47  0.0000000  0  9G30G17G09G21G08G14G07G01G04
  -5448553.72348  -4215969.76746  23500328.213    23500327.7214   23500334.5004
       165.0004        167.0004
  -3514484.51647  -2697533.93545  23874009.942    23874010.6354   23874016.2964
       156.0004        158.0004
 -17350388.55149 -13490499.44247  21125841.423    21125841.7944   21125848.7794
       208.0004        209.0004
 -13750228.67048 -10527159.80646  21766994.683    21766994.7294   21767000.5704
       183.0004        182.0004
 -16222419.73448 -12325828.75247  21662816.432    21662817.5734   21662824.4344
       189.0004        189.0004
  -1110668.15944   -856836.89145  23570468.493
        74.0004        155.0004
 -17118677.95049 -13326472.47847  21662549.559    21662549.8894   21662553.7754
       196.0004        196.0004
 -14915332.68048 -11611930.59946  21902765.728    21902766.0894   21902773.9354
       180.0004        182.0004
 -11425149.30848  -8612798.40146  22352037.646    22352038.3934   22352045.0194
       177.0004        177.0004
 21  2  3  0 47 30.0000000  0  9G30G17G09G21G08G14G07G01G04
  -5536134.13447  -4284214.24446  23483661.164    23483661.4174   23483667.3854
       164.0004        165.0004
  -3606845.98747  -2769503.87245  23856434.754    23856435.3284   23856441.1644
       156.0004        159.0004
 -17306905.40149 -13456616.47747  21134116.393    21134116.4634   21134122.9474
       208.0004        208.0004
 -13755399.97448 -10531189.39646  21766011.838    21766011.0964   21766015.8704
       182.0004        182.0004
 -16139848.44148 -12261487.48547  21678530.123    21678530.4164   21678537.8484
       189.0004        189.0004
  -1137512.33946   -877754.40845  23565360.976                    23565366.7994
       105.0004        157.0004
 -17189488.74949 -13381649.72447  21649074.240    21649074.4334   21649079.4664
       196.0004        196.0004
 -14984471.19948 -11665804.75946  21889608.567    21889609.3124   21889617.2254
       181.0004        182.0004
 -11332651.55848  -8540722.24046  22369638.517    22369639.1644   22369646.4124
       176.0004        175.0004
 21  2  3  0 48  0.0000000  0  9G30G17G09G21G08G14G07G01G04
  -5623744.70548  -4352482.21646  23466988.955    23466989.8094   23466996.6334
       165.0004        167.0004
  -3698942.69647  -2841267.48945  23838908.859    23838909.4404   23838914.8724
       156.0004        159.0004
 -17262973.05649 -13422383.49147  21142475.946    21142476.0234   21142483.2784
       208.0004        208.0004
 -13760113.43748 -10534862.21546  21765115.567    21765114.4874   21765119.3174
       182.0004        183.0004
 -16057016.88648 -12196943.41547  21694293.360    21694293.3844   21694299.2794
       190.0004        191.0004
  -1164304.76747   -898631.61245  23560263.948    23560262.6634   23560267.9284
       148.0004        155.0004
 -17260146.93649 -13436708.04447  21635628.015    21635628.9584   21635633.4414
       197.0004        197.0004
 -15053371.43348 -11719493.24046  21876496.456    21876497.6174   21876505.9934
       181.0004        181.0004
 -11239971.63348  -8468504.12946  22387275.445    22387275.9514   22387282.6314
       175.0004        174.0004
 21  2  3  0 48 30.0000000  0  9G30G17G09G21G08G14G07G01G04
  -5711385.72647  -4420773.93246  23450311.387    23450311.9644   23450318.1324
       164.0004        165.0004
  -3790774.89247  -2912825.01645  23821434.319    23821434.1294   23821439.7324
       155.0004        156.0004
 -17218595.89749 -13387803.88747  21150920.854    21150921.4014   21150928.1224
       208.0004        209.0004
 -13764369.90948 -10538178.93246  21764306.012    21764305.0994   21764308.3074
       182.0004        183.0004
 -15973929.96149 -12132200.35847  21710103.673    21710103.9014   21710110.6004
       206.0004        209.0004
  -1191048.72547   -919471.05445  23555173.351    23555173.4184   23555177.4884
       151.0004        154.0004
 -17330651.78449 -13491646.87747  21622211.923    21622212.1824   21622216.9144
       197.0004        197.0004
 -15122032.10348 -11772995.04846  21863431.359    21863431.9764   21863439.9124
       181.0004        182.0004
 -11147114.61948  -8396148.02646  22404947.118    22404947.0244   22404953.0544
       175.0004        176.0004
 21  2  3  0 49  0.0000000  0  9G30G17G09G21G08G14G07G01G04
  -5799053.94747  -4489086.81746  23433627.979    23433628.8594   23433635.5364
       163.0004        163.0004
  -3882339.21847  -2984173.78645  23804010.273    23804010.0444   23804014.8524
       152.0004        152.0004
 -17173774.86849 -13352878.41247  21159450.321    21159450.4584   21159457.5604
       209.0004        209.0004
 -13768166.81048 -10541137.55346  21763582.495    21763581.1494   21763585.7814
       182.0004        181.0004
 -15890589.24049 -12067259.53247  21725962.644    21725962.7244   21725969.6514
       209.0004        207.0004
  -1217744.04147   -940272.58645  23550092.891    23550093.4024   23550097.7054
       153.0004        157.0004
 -17400999.08949 -13546462.95147  21608825.684    21608826.2574   21608829.6934
       197.0004        197.0004
 -15190448.53248 -11826306.53946  21850412.321    21850413.3394   21850420.5754
       181.0004        181.0004
 -11054082.13348  -8323655.17746  22422649.408    22422650.2324   22422655.9994
       175.0004        175.0004
 21  2  3  0 49 30.0000000  0  9G30G17G09G21G08G14G07G01G04
  -5886747.25747  -4557419.28146  23416940.850    23416941.4304   23416947.6744
       162.0004        163.0004
  -3973633.16947  -3055311.85645  23786637.300    23786636.9674   23786642.4084
       147.0004        149.0004
 -17128512.10849 -13317608.73747  21168062.053    21168062.8904   21168070.3054
       208.0004        208.0004
 -13771502.47948 -10543736.76546  21762947.161    21762946.7714   21762951.5534
       182.0004        182.0004
 -15806997.64749 -12002123.21348  21741869.682    21741869.5714   21741876.3824
       216.0004        220.0004
  -1244391.77847   -961037.03845  23545021.973    23545022.7164   23545027.7974
       156.0004        159.0004
 -17471185.89449 -13601153.97747  21595469.622    21595470.0374   21595474.2624
       197.0004        198.0004
 -15258617.24248 -11879424.99946  21837439.877    21837441.1464   21837448.8134
       181.0004        182.0004
 -10960876.95848  -8251027.77346  22440385.934    22440386.0734   22440393.3614
       176.0004        177.0004
 21  2  3  0 50  0.0000000  0  9G30G17G09G21G08G14G07G01G04
  -5974463.63247  -4625769.69446  23400249.581    23400250.2074   23400257.8554
       164.0004        167.0004
  -4064654.85847  -3126237.78445  23769317.035    23769317.5194   23769322.4284
       151.0004        156.0004
 -17082809.83349 -13281996.58547  21176760.504    21176760.7434   21176767.1764
       209.0004        209.0004
 -13774375.63548 -10545975.58046  21762399.936    21762400.2854   21762405.3354
       183.0004        184.0004
 -15723157.87949 -11936793.52148  21757823.549    21757823.8904   21757830.5344
       220.0004        220.0004
  -1270993.11947   -981765.34445  23539960.618    23539960.9704   23539965.0964
       156.0004        158.0004
 -17541210.21249 -13655718.37047  21582144.769    21582144.7494   21582149.1454
       198.0004        198.0004
 -15326534.77148 -11932347.72246  21824515.732    21824516.4234   21824524.4844
       182.0004        182.0004
 -10867501.98748  -8178268.05646  22458154.230    22458155.2394   22458161.2494
       176.0004        176.0004
 21  2  3  0 50 30.0000000  0  9G30G17G09G21G08G14G07G01G04
  -6062201.19048  -4694136.59846  23383552.924    23383553.5004   23383560.5694
       165.0004        166.0004
  -4155402.24147  -3196949.97245  23752048.826    23752048.3204   23752052.8264
       155.0004        157.0004
 -17036670.48249 -13246043.85247  21185539.974    21185540.4854   21185547.4744
       209.0004        209.0004
 -13776785.03648 -10547853.03146  21761942.449    21761942.3634   21761948.0484
       185.0004        186.0004
 -15639072.95249 -11871272.81048  21773824.830    21773824.6564   21773831.9264
       221.0004        221.0004
  -1297549.33247  -1002458.50545  23534906.635    23534906.5744   23534911.3354
       155.0004        158.0004
 -17611068.43349 -13710153.34047  21568850.363    21568850.9384   21568855.5064
       198.0004        198.0004
 -15394197.92348 -11985072.25046  21811640.515    21811640.9234   21811648.6414
       182.0004        183.0004
 -10773960.24048  -8105378.40146  22475955.286    22475955.7594   22475962.2974
       175.0004        176.0004
 21  2  3  0 51  0.0000000  0  9G30G17G09G21G08G14G07G01G04
  -6149958.29347  -4762518.77746  23366854.152    23366854.6194   23366860.0004
       163.0004        163.0004
  -4245873.63847  -3267447.11245  23734831.150    23734832.0684   23734836.6884
       155.0004        158.0004
 -16990096.66449 -13209752.55947  21194402.593    21194402.9694   21194409.9134
       208.0004        208.0004
 -13778729.97648 -10549368.54146  21761572.564    21761572.1944   21761577.4964
       186.0004        186.0004
 -15554745.90749 -11805563.41948  21789871.982    21789872.1424   21789878.7494
       222.0004        221.0004
  -1324061.87747  -1023117.62945  23529860.556    23529861.4674   23529867.2914
       159.0004        162.0004
 -17680758.53149 -13764457.31647  21555589.533    21555589.6944   21555593.4034
       198.0004        197.0004
 -15461603.61248 -12037596.14146  21798813.095    21798813.5314   21798821.7674
       182.0004        183.0004
 -10680254.91448  -8032361.26446  22493787.380    22493787.5594   22493793.2794
       175.0004        176.0004
 21  2  3  0 51 30.0000000  0  9G30G17G09G21G08G14G07G01G04
  -6237732.42547  -4830914.19146  23350151.692    23350151.2294   23350158.9564
       162.0004        164.0004
  -4336066.56547  -3337727.24145  23717669.207    23717669.3714   23717674.7824
       158.0004        161.0004
 -16943090.19049 -13173124.15247  21203348.146    21203348.6264   21203355.1374
       208.0004        208.0004
 -13780208.57448 -10550520.68546  21761290.233    21761290.1074   21761296.8484
       187.0004        186.0004
 -15470179.32349 -11739667.37648  21805964.790    21805964.2314   21805971.3634
       221.0004        219.0004
  -1350531.42247  -1043743.24446  23524824.899    23524825.3074   23524830.1134
       162.0004        165.0004
 -17750277.38549 -13818627.85347  21542359.481    21542360.5224   21542364.5914
       197.0004        197.0004
 -15528747.96948 -12089916.39746  21786036.077    21786036.6854   21786045.1294
       183.0004        183.0004
 -10586388.47448  -7959218.59146  22511648.399    22511649.6294   22511655.8514
       176.0004        176.0004
 21  2  3  0 52  0.0000000  0  9G30G17G09G21G08G14G07G01G04
  -6325522.58147  -4899322.08046  23333445.899    23333446.3674   23333452.9854
       163.0004        165.0004
  -4425979.52347  -3407789.24645  23700559.278    23700558.3944   23700564.1254
       158.0004        160.0004
 -16895654.43849 -13136161.22547  21212374.722    21212374.7084   21212381.5354
       208.0004        207.0004
 -13781220.45548 -10551309.14546  21761097.881    21761097.6644   21761105.2854
       187.0004        187.0004
 -15385376.26349 -11673587.06448  21822101.264    21822101.6624   21822108.4764
       220.0004        219.0004
  -1376960.16947  -1064337.07146  23519795.490    23519795.9604   23519800.8294
       164.0004        166.0004
 -17819623.20149 -13872663.53747  21529163.149    21529163.8614   21529168.8344
       197.0004        198.0004
 -15595628.62748 -12142031.18346  21773308.669    21773308.9774   21773317.6584
       183.0004        184.0004
 -10492364.82648  -7885953.39946  22529540.756    22529541.5264   22529548.7814
       176.0004        177.0004
 21  2  3  0 52 30.0000000  0  9G30G17G09G21G08G14G07G01G04
  -6413326.57947  -4967740.76946  23316736.691    23316736.9044   23316743.8974
       164.0004        165.0004
  -4515610.27847  -3477631.33645  23683502.707    23683502.5744   23683507.3204
       156.0004        157.0004
 -16847791.53149 -13098865.45747  21221482.595    21221483.0514   21221489.7494
       207.0004        207.0004
 -13781763.89848 -10551732.58346  21760994.880    21760994.6774   21761001.7824
       187.0004        187.0004
 -15300340.07149 -11607325.10548  21838283.333    21838283.4444   21838290.3084
       220.0004        219.0004
  -1403349.07647  -1084899.85246  23514772.910    23514773.7784   23514778.4464
       163.0004        164.0004
 -17888792.96449 -13926562.06347  21516001.752    21516001.9514   21516005.9464
       198.0004        199.0004
 -15662242.05148 -12193937.72746  21760632.502    21760632.5824   21760641.8164
       183.0004        183.0004
 -10398186.66048  -7812567.82646  22547462.883    22547462.9524   22547469.3944
       176.0004        175.0004
 21  2  3  0 53  0.0000000  0  9G30G17G09G21G08G14G07G01G04
  -6501141.99147  -5036168.34746  23300025.840    23300026.0664   23300033.4234
       164.0004        167.0004
  -4604956.56847  -3547251.79145  23666499.447    23666500.3864   23666505.5374
       154.0004        156.0004
 -16799503.54249 -13061238.47047  21230671.699    21230671.8664   21230678.7484
       207.0004        207.0004
 -13781838.04548 -10551790.34047  21760980.688    21760980.2884   21760986.9794
       187.0004        188.0004
 -15215073.60049 -11540883.70648  21854508.792    21854509.3184   21854516.0744
       219.0004        219.0004
  -1429699.00147  -1105432.26846  23509759.283    23509759.8874   23509765.4574
       162.0004        163.0004
 -17957783.84549 -13980321.20347  21502873.675    21502873.9254   21502877.3904
       198.0004        199.0004
 -15728584.52148 -12245633.14746  21748009.227    21748009.5404   21748016.8844
       183.0004        185.0004
 -10303856.59448  -7739063.88046  22565413.292    22565413.6534   22565420.4984
       176.0004        176.0004
 21  2  3  0 53 30.0000000  0  9G30G17G09G21G08G14G07G01G04
  -6588966.58148  -5104603.06146  23283313.907    23283313.6144   23283320.3194
       165.0004        167.0004
  -4694016.25947  -3616648.89445  23649550.768    23649551.7894   23649557.7254
       153.0004        155.0004
 -16750792.68649 -13023281.96447  21239940.838    21239941.3334   21239947.9804
       207.0004        207.0004
 -13781441.51648 -10551481.33246  21761056.178    21761055.0114   21761062.5204
       187.0004        187.0004
 -15129578.89749 -11474264.45348  21870778.923    21870778.9524   21870785.1164
       219.0004        219.0004
  -1456010.88947  -1125935.02446  23504752.541    23504752.9044   23504758.1394
       162.0004        163.0004
 -18026592.22149 -14033938.11547  21489778.618    21489779.4964   21489783.8134
       198.0004        198.0004
 -15794652.52948 -12297114.70946  21735436.355    21735436.5114   21735444.3354
       184.0004        184.0004
 -10209377.31748  -7665443.66246  22583391.711    22583392.4764   22583399.0884
       176.0004        176.0004
 21  2  3  0 54  0.0000000  0  9G30G17G09G21G08G14G07G01G04
  -6676799.02548  -5173043.90746  23266598.891    23266599.5864   23266606.2774
       165.0004        167.0004
  -4782787.89647  -3685821.53045  23632660.495    23632660.3944   23632664.0224
       153.0004        156.0004
 -16701661.98549 -12984998.29947  21249289.994    21249290.2474   21249297.8494
       207.0004        207.0004
 -13780573.68748 -10550805.09346  21761221.369    21761220.7434   21761227.3914
       186.0004        186.0004
 -15043859.77449 -11407470.32548  21887090.456    21887090.5084   21887096.7774
       219.0004        218.0004
  -1482286.58747  -1146409.57946  23499752.850    23499753.3624   23499758.2494
       162.0004        164.0004
 -18095216.49049 -14087411.57647  21476720.387    21476720.8424   21476724.4684
       198.0004        199.0004
 -15860443.37648 -12348380.28346  21722915.637    21722916.2954   21722925.2394
       184.0004        184.0004
 -10114752.44748  -7591710.00746  22601397.889    22601398.8304   22601404.6094
       176.0004        175.0004
 21  2  3  0 54 30.0000000  0  9G30G17G09G21G08G14G07G01G04
  -6764637.31148  -5241489.30446  23249883.638    23249884.4134   23249892.1544
       167.0004        169.0004
  -4871269.56647  -3754768.25945  23615823.182    23615822.9474   23615826.4074
       154.0004        157.0004
 -16652114.00949 -12946389.48947  21258718.430    21258719.0054   21258726.1764
       207.0004        207.0004
 -13779233.51048 -10549760.76946  21761475.861    21761475.7094   21761481.8154
       185.0004        184.0004
 -14957919.07949 -11340503.54748  21903444.759    21903444.8744   21903450.7404
       219.0004        218.0004
  -1508527.37047  -1166856.91946  23494759.645    23494759.0874   23494764.8724
       164.0004        165.0004
 -18163653.88249 -14140739.40747  21463697.062    21463697.6004   21463701.5824
       198.0004        198.0004
 -15925953.84748 -12399427.38746  21710450.017    21710450.3694   21710459.2864
       184.0004        185.0004
 -10019984.98048  -7517865.22946  22619431.965    22619433.0124   22619439.4044
       175.0004        175.0004
 21  2  3  0 55  0.0000000  0  9G30G17G09G21G08G14G07G01G04
  -6852479.27748  -5309937.55346  23233167.353    23233168.4334   23233175.6774
       168.0004        168.0004
  -4959459.47647  -3823487.63645  23599038.828    23599040.0324   23599044.4344
       153.0004        155.0004
 -16602151.03549 -12907457.31247  21268225.836    21268226.6394   21268233.8104
       206.0004        206.0004
 -13777419.81748 -10548347.50246  21761820.969    21761820.5674   21761825.6544
       184.0004        184.0004
 -14871759.67349 -11273366.34548  21919839.624    21919839.7534   21919846.3964
       218.0004        217.0004
  -1534734.19247  -1187277.82146  23489771.950    23489772.4924   23489777.4624
       163.0004        164.0004
 -18231901.51449 -14193919.37747  21450709.675    21450710.4604   21450714.5544
       198.0004        198.0004
 -15991180.41148 -12450253.27346  21698039.130    21698039.3044   21698047.2004
       184.0004        186.0004
  -9925077.69048  -7443911.51046  22637491.870    22637492.0154   22637499.2664
       173.0004        172.0004
 21  2  3  0 55 30.0000000  0  9G30G17G09G21G08G14G07G01G04
  -6940322.95648  -5378387.15946  23216451.425    23216452.0864   23216459.7104
       166.0004        167.0004
  -5047355.50247  -3891978.01745  23582315.769    23582315.5824   23582318.8804
       156.0004        160.0004
 -16551775.59349 -12868203.73147  21277812.197    21277812.5214   21277820.0084
       206.0004        206.0004
 -13775131.56948 -10546564.44046  21762256.613    21762256.2574   21762261.1974
       183.0004        184.0004
 -14785384.24149 -11206060.81948  21936275.981    21936276.3814   21936283.1754
       218.0004        218.0004
  -1560908.32347  -1207673.24546  23484790.710    23484791.5954   23484796.3994
       163.0004        165.0004
 -18299956.90849 -14246949.55947  21437759.333    21437760.0054   21437764.2524
       199.0004        199.0004
 -16056119.87648 -12500855.44446  21685680.663    21685681.2154   21685689.2834
       185.0004        185.0004
  -9830033.57448  -7369851.16246  22655578.099    22655578.9874   22655585.4414
       173.0004        173.0004
 21  2  3  0 56  0.0000000  0  9G30G17G09G21G08G14G07G01G04
  -7028166.00048  -5446836.28546  23199737.344    23199737.1504   23199744.1374
       167.0004        170.0004
  -5134955.60247  -3960237.80445  23565644.977    23565644.7934   23565649.4414
       157.0004        160.0004
 -16500990.00649 -12828630.54247  21287476.936    21287477.1804   21287484.1414
       207.0004        207.0004
 -13772367.39348 -10544410.52946  21762782.282    21762782.1724   21762786.6854
       183.0004        182.0004
 -14698795.54849 -11138589.10748  21952753.279    21952753.5584   21952760.7534
       218.0004        217.0004
  -1587050.81947  -1228043.98646  23479816.870    23479817.4554   23479821.2724
       164.0004        165.0004
 -18367816.72349 -14299827.32947  21424846.444    21424846.3264   21424850.6254
       199.0004        199.0004
 -16120768.71048 -12551231.14046  21673377.925    21673378.9984   21673385.8854
       184.0004        185.0004
  -9734855.33748  -7295686.30146  22673689.787    22673690.2044   22673697.7244
       173.0004        174.0004
 21  2  3  0 56 30.0000000  0  9G30G17G09G21G08G14G07G01G04
  -7116007.32948  -5515284.05646  23183021.346    23183021.0684   23183028.0464
       169.0004        171.0004
  -5222258.33947  -4028265.86945  23549032.155    23549032.6414   23549037.2294
       159.0004        162.0004
 -16449797.72449 -12788740.46647  21297218.443    21297218.5864   21297225.8234
       206.0004        205.0004
 -13769127.33448 -10541885.79846  21763398.953    21763399.4474   21763402.4384
       182.0004        182.0004
 -14611996.98849 -11070953.86848  21969271.231    21969271.1474   21969277.5344
       218.0004        217.0004
  -1613163.73247  -1248391.69746  23474847.387    23474847.8874   23474852.9764
       164.0004        164.0004
 -18435479.32849 -14352551.44147  21411969.571    21411970.5564   21411975.1784
       199.0004        199.0004
 -16185124.57348 -12601378.56546  21661131.558    21661133.0354   21661139.3844
       184.0004        186.0004
  -9639546.87248  -7221419.97546  22691827.189    22691827.5734   22691833.1344
       172.0004        172.0004
 21  2  3  0 57  0.0000000  0  9G30G17G09G21G08G14G07G01G04
  -7203844.79248  -5583728.84146  23166306.244    23166305.9304   23166312.7154
       170.0004        171.0004
  -5309262.22347  -4096061.05345  23532475.102    23532475.5284   23532480.8204
       159.0004        160.0004
 -16398201.20049 -12748535.38147  21307036.288    21307036.7384   21307044.0184
       205.0004        204.0004
 -13765410.76648 -10538989.76546  21764106.368    21764106.5244   21764109.4614
       182.0004        182.0004
 -14524991.68849 -11003157.53548  21985827.288    21985827.3214   21985834.7164
       217.0004        217.0004
  -1639248.16747  -1268717.20246  23469883.127    23469884.0804   23469889.9154
       162.0004        163.0004
 -18502941.88549 -14405119.67347  21399132.794    21399133.3294   21399137.6474
       199.0004        200.0004
 -16249184.11448 -12651295.07546  21648941.254    21648941.7514   21648949.6794
       185.0004        186.0004
  -9544111.06248  -7147054.41146  22709988.081    22709988.8984   22709994.6354
       171.0004        171.0004
 21  2  3  0 57 30.0000000  0  9G30G17G09G21G08G14G07G01G04
  -7291675.72848  -5652168.51646  23149591.910    23149592.6644   23149599.5414
       170.0004        171.0004
  -5395964.47547  -4163621.23745  23515975.796    23515976.7054   23515981.8334
       155.0004        157.0004
 -16346202.38749 -12708016.84147  21316931.198    21316931.7514   21316939.2824
       204.0004        205.0004
 -13761215.90848 -10535721.05146  21764904.174    21764904.7484   21764908.7284
       181.0004        181.0004
 -14437782.31449 -10935202.20148  22002422.382    22002422.9714   22002429.8194
       217.0004        217.0004
  -1665304.73747  -1289021.04246  23464924.938    23464925.8704   23464930.6284
       162.0004        163.0004
 -18570200.89049 -14457529.28647  21386333.415    21386333.9094   21386338.6554
       200.0004        201.0004
 -16312943.43448 -12700977.65646  21636807.778    21636808.2764   21636816.1654
       185.0004        185.0004
  -9448550.17748  -7072591.38746  22728172.712    22728173.0354   22728179.3184
       170.0004        171.0004
 21  2  3  0 58  0.0000000  0  9G30G17G09G21G08G14G07G01G04
  -7379497.66548  -5720601.17446  23132879.872    23132880.4774   23132887.4944
       171.0004        173.0004
  -5482363.10047  -4230944.79545  23499534.192    23499535.0984   23499540.7184
       156.0004        158.0004
 -16293803.45649 -12667186.51447  21326903.193    21326903.2874   21326910.3094
       204.0004        205.0004
 -13756541.28448 -10532078.46646  21765795.098    21765793.7734   21765797.9604
       181.0004        182.0004
 -14350371.31249 -10867089.73148  22019056.395    22019056.5904   22019063.8684
       217.0004        216.0004
  -1691334.26747  -1309303.78746  23459972.102    23459972.2424   23459976.8154
       162.0004        163.0004
 -18637253.39549 -14509777.98847  21373574.288    21373574.3754   21373578.7404
       200.0004        200.0004
 -16376398.92148 -12750423.48346  21624732.552    21624733.4564   21624741.4344
       185.0004        186.0004
  -9352866.88248  -6998032.99146  22746381.227    22746381.1914   22746386.6874
       169.0004        169.0004
 21  2  3  0 58 30.0000000  0  9G30G17G09G21G08G14G07G01G04
  -7467308.31048  -5789025.04946  23116170.437    23116170.7564   23116177.5584
       171.0004        171.0004
  -5568455.91847  -4298030.09445  23483152.481    23483152.6604   23483157.1164
       156.0004        158.0004
 -16241006.79349 -12626046.25947  21336949.699    21336950.1794   21336957.1004
       205.0004        204.0004
 -13751385.86448 -10528061.23846  21766775.508    21766774.7184   21766777.7774
       181.0004        181.0004
 -14262760.59749 -10798821.63048  22035728.542    22035728.7664   22035735.3334
       217.0004        216.0004
  -1717337.73447  -1329566.20446  23455023.739    23455024.5694   23455028.4654
       162.0004        163.0004
 -18704096.56449 -14561863.56947  21360854.640    21360855.1434   21360858.8634
       200.0004        200.0004
 -16439547.10248 -12799629.83946  21612717.096    21612717.2464   21612725.2014
       186.0004        186.0004
  -9257063.86248  -6923381.30146  22764610.665    22764611.6274   22764618.2124
       169.0004        171.0004
 21  2  3  0 59  0.0000000  0  9G30G17G09G21G08G14G07G01G04
  -7555107.28048  -5857439.81646  23099463.061    23099462.3494   23099469.2334
       170.0004        169.0004
  -5654242.78047  -4364876.95445  23466827.872    23466827.8644   23466832.3164
       154.0004        156.0004
 -16187816.73249 -12584599.46647  21347071.573    21347071.9714   21347079.0594
       205.0004        205.0004
 -13745750.52248 -10523670.06746  21767846.855    21767847.3324   21767850.4794
       180.0004        181.0004
 -14174955.48649 -10730402.05948  22052437.115    22052437.4004   22052443.9514
       217.0004        216.0004
  -1743318.02747  -1349810.58345  23450079.447    23450079.8164   23450084.8084
       162.0004        162.0004
 -18770729.23749 -14613785.13547  21348174.305    21348174.9504   21348179.2524
       200.0004        201.0004
 -16502386.45348 -12848595.55846  21600759.288    21600759.8044   21600767.7064
       186.0004        187.0004
  -9161145.78748  -6848639.93846  22782864.804    22782864.8474   22782870.6124
       169.0004        170.0004
 21  2  3  0 59 30.0000000  0  9G30G17G09G21G08G14G07G01G04
  -7642890.93548  -5925842.67146  23082758.073    23082758.3454   23082764.9204
       168.0004        168.0004
  -5739720.20847  -4431482.71245  23450560.910    23450560.8984   23450566.2624
       155.0004        159.0004
 -16134234.32549 -12542846.94347  21357268.589    21357268.4554   21357275.5374
       205.0004        205.0004
 -13739633.10148 -10518903.22946  21769011.792    21769011.0754   21769015.3814
       181.0004        182.0004
 -14086956.56249 -10661831.48348  22069181.900    22069182.4804   22069189.3244
       215.0004        214.0004
  -1769274.79947  -1370036.65745  23445140.671    23445141.2234   23445145.1144
       160.0004        161.0004
 -18837146.93149 -14665539.18047  21335535.323    21335536.3184   21335540.2184
       201.0004        201.0004
 -16564912.19948 -12897316.90847  21588861.522    21588861.5754   21588869.2934
       187.0004        188.0004
  -9065114.05848  -6773810.02046  22801137.346    22801138.3634   22801144.4154
       169.0004        169.0004
 21  2  3  1  0  0.0000000  0  9G30G17G09G21G08G14G07G01G04
  -7730656.87448  -5994231.71046  23066056.029    23066056.4344   23066064.5464
       169.0004        171.0004
  -5824886.11047  -4497845.72145  23434354.619    23434355.7644   23434359.6204
       157.0004        160.0004
 -16080261.87949 -12500790.50247  21367538.740    21367538.9534   21367545.6984
       204.0004        204.0004
 -13733032.70248 -10513760.05946  21770266.707    21770266.2804   21770271.5484
       181.0004        181.0004
 -13998767.02549 -10593112.37548  22085964.370    22085964.4174   22085971.6614
       215.0004        215.0004
  -1795208.91847  -1390245.06145  23440204.654    23440204.6924   23440211.4604
       158.0004        160.0004
 -18903346.72349 -14717123.45147  21322938.276    21322938.9164   21322942.7384
       201.0004        201.0004
 -16627120.78148 -12945791.11247  21577022.770    21577023.0794   21577030.7654
       188.0004        188.0004
  -8968971.24648  -6698893.57446  22819432.288    22819432.7254   22819439.5414
       167.0004        167.0004
 21  2  3  1  0 30.0000000  0  9G30G17G09G21G08G14G07G01G04
  -7818403.13948  -6062605.40046  23049359.794    23049359.6564   23049367.6064
       171.0004        174.0004
  -5909738.86447  -4563964.72945  23418208.091    23418208.7514   23418212.1904
       159.0004        161.0004
 -16025902.23949 -12458432.34247  21377882.391    21377883.1494   21377890.2684
       203.0004        203.0004
 -13725948.07248 -10508239.55546  21771615.448    21771615.1054   21771620.3914
       181.0004        182.0004
 -13910389.70449 -10524246.93348  22102781.835    22102782.6084   22102789.4444
       216.0004        216.0004
  -1821121.82447  -1410436.87745  23435274.122    23435274.9664   23435280.0784
       158.0004        159.0004
 -18969325.76349 -14768535.69347  21310382.858    21310383.0544   21310387.2334
       201.0004        200.0004
 -16689009.17348 -12994015.82746  21565245.071    21565245.5744   21565252.6664
       187.0004        186.0004
  -8872720.52748  -6623893.02046  22837748.665    22837749.1884   22837755.8554
       167.0004        168.0004
 21  2  3  1  1  0.0000000  0  9G30G17G09G21G08G14G07G01G04
  -7906128.99848  -6130963.19646  23032665.491    23032665.6684   23032672.7644
       172.0004        173.0004
  -5994277.78447  -4629839.20046  23402120.199    23402120.1324   23402125.4384
       161.0004        163.0004
 -15971159.45049 -12415775.62247  21388299.778    21388300.5464   21388308.1574
       203.0004        204.0004
 -13718380.19248 -10502342.49046  21773056.507    21773055.9294   21773060.1284
       182.0004        183.0004
 -13821828.88849 -10455238.50448  22119634.271    22119635.0354   22119641.9294
       216.0004        215.0004
  -1847016.00347  -1430614.15745  23430346.715    23430347.2664   23430351.7154
       159.0004        161.0004
 -19035083.10949 -14819775.17347  21297868.957    21297869.7654   21297874.5724
       201.0004        201.0004
 -16750575.53048 -13041989.58446  21553529.243    21553530.1344   21553537.9844
       186.0004        187.0004
  -8776366.21048  -6548811.72746  22856085.283    22856084.9854   22856091.6694
       167.0004        168.0004
 21  2  3  1  1 30.0000000  0  9G30G17G09G21G08G14G07G01G04
  -7993832.60748  -6199303.68246  23015977.097    23015977.1374   23015983.6854
       172.0004        174.0004
  -6078501.59147  -4695468.13246  23386094.000    23386093.7864   23386098.6914
       163.0004        165.0004
 -15916036.48849 -12372822.66647  21398790.694    21398790.3554   21398797.0324
       203.0004        203.0004
 -13710328.77148 -10496068.64446  21774588.722    21774587.8074   21774592.0054
       183.0004        183.0004
 -13733087.62349 -10386089.47448  22136521.914    22136521.8964   22136528.5614
       214.0004        213.0004
  -1872892.97047  -1450778.02445  23425421.981    23425422.7514   23425427.8244
       158.0004        159.0004
 -19100616.34849 -14870840.03247  21285398.572    21285399.2754   21285403.6914
       201.0004        201.0004
 -16811816.99948 -13089710.19146  21541876.489    21541876.6664   21541884.5164
       186.0004        187.0004
  -8679911.56048  -6473652.26746  22874439.986    22874440.1394   22874447.3634
       167.0004        168.0004
 21  2  3  1  2  0.0000000  0  9G30G17G09G21G08G14G07G01G04
  -8081510.47748  -6267624.09546  22999293.219    22999293.0014   22999298.2234
       172.0004        172.0004
  -6162407.69347  -4760849.47546  23370126.230    23370126.2014   23370131.9684
       163.0004        165.0004
 -15860534.68149 -12329574.51647  21409351.558    21409351.8084   21409358.4174
       203.0004        203.0004
 -13701791.48548 -10489416.19846  21776211.931    21776211.6674   21776217.2464
       183.0004        183.0004
 -13644167.71749 -10316801.23947  22153442.647    22153442.0014   22153449.4784
       213.0004        212.0004
  -1898752.57047  -1470928.31945  23420500.538    23420501.5714   23420506.9784
       158.0004        161.0004
 -19165921.23849 -14921726.95647  21272972.063    21272972.3024   21272976.3774
       201.0004        201.0004
 -16872729.00348 -13137174.07546  21530284.934    21530285.7224   21530293.1944
       186.0004        186.0004
  -8583358.11448  -6398415.81746  22892814.000    22892814.2374   22892819.8424
       168.0004        170.0004
 21  2  3  1  2 30.0000000  0  9G30G17G09G21G08G14G07G01G04
  -8169161.15448  -6335923.33246  22982612.492    22982611.9124   22982618.8654
       171.0004        170.0004
  -6245994.71247  -4825982.16946  23354219.996    23354220.2174   23354226.2894
       164.0004        166.0004
 -15804657.40649 -12286033.78647  21419984.318    21419984.7764   21419991.4284
       203.0004        203.0004
 -13692768.54048 -10482385.34246  21777928.951    21777929.3824   21777934.3084
       183.0004        183.0004
 -13555072.74549 -10247376.59147  22170395.729    22170396.1644   22170403.9014
       212.0004        212.0004
  -1924596.61247  -1491066.52345  23415583.490    23415583.8584   23415589.0804
       159.0004        161.0004
 -19230995.36349 -14972434.06447  21260588.610    21260589.2594   21260593.3134
       201.0004        201.0004
 -16933309.04148 -13184379.29346  21518757.173    21518757.0844   21518765.3544
       186.0004        186.0004
  -8486709.52948  -6323105.24546  22911204.247    22911204.6644   22911211.3234
       168.0004        167.0004
 21  2  3  1  3  0.0000000  0  9G30G17G09G21G08G14G07G01G04
  -8256780.94048  -6404198.47146  22965939.185    22965939.4644   22965946.4774
       171.0004        173.0004
  -6329259.25447  -4890863.58046  23338374.725    23338375.8634   23338381.1954
       164.0004        165.0004
 -15748405.83049 -12242201.39847  21430688.970    21430689.1464   21430696.2834
       203.0004        204.0004
 -13683257.79048 -10474974.33846  21779739.209    21779738.4984   21779744.0314
       183.0004        184.0004
 -13465803.36449 -10177816.03247  22187383.458    22187383.6634   22187391.1054
       212.0004        212.0004
  -1950424.78747  -1511192.33945  23410668.566    23410669.1714   23410673.4414
       160.0004        162.0004
 -19295834.84749 -15022958.33847  21248250.450    21248250.8774   21248255.0754
       202.0004        202.0004
 -16993552.41948 -13231322.15746  21507291.576    21507292.2744   21507301.0584
       186.0004        186.0004
  -8389967.17048  -6247721.58746  22929612.877    22929613.3274   22929620.2424
       166.0004        167.0004
 21  2  3  1  3 30.0000000  0  9G30G17G09G21G08G14G07G01G04
  -8344368.04948  -6472448.15246  22949270.905    22949271.4314   22949278.8464
       171.0004        170.0004
  -6412199.89848  -4955492.62146  23322593.044    23322593.3304   23322597.9614
       166.0004        168.0004
 -15691783.08049 -12198079.78247  21441463.359    21441464.2404   21441470.6344
       202.0004        202.0004
 -13673258.64948 -10467182.78446  21781642.077    21781641.4654   21781647.1664
       184.0004        184.0004
 -13376363.57549 -10108122.70147  22204403.558    22204403.7114   22204411.1504
       212.0004        212.0004
  -1976238.61547  -1531307.00645  23405756.445    23405756.4024   23405761.2534
       160.0004        160.0004
 -19360437.40849 -15073297.99147  21235956.733    21235957.2054   21235961.1574
       202.0004        201.0004
 -17053456.35048 -13278000.51647  21495893.285    21495894.2244   21495902.3414
       187.0004        189.0004
  -8293134.32948  -6172267.43846  22948042.035    22948041.6554   22948047.6164
       168.0004        169.0004
 21  2  3  1  4  0.0000000  0  9G30G17G09G21G08G14G07G01G04
  -8431922.30148  -6540672.24246  22932609.077    22932610.1484   22932617.7494
       168.0004        170.0004
  -6494817.34448  -5019869.81846  23306871.857    23306871.1474   23306878.1364
       167.0004        168.0004
 -15634793.88549 -12153672.62647  21452309.244    21452309.2064   21452315.9754
       202.0004        203.0004
 -13662772.67548 -10459011.89146  21783637.708    21783637.1724   21783642.0194
       184.0004        184.0004
 -13286757.29249 -10038299.63847  22221456.369    22221455.8834   22221462.8894
       212.0004        212.0004
  -2002041.27047  -1551412.97345  23400846.798    23400846.6004   23400851.4324
       157.0004        158.0004
 -19424801.89949 -15123452.14447  21223709.369    21223709.5134   21223713.0004
       202.0004        202.0004
 -17113019.60048 -13324413.44847  21484561.155    21484561.4744   21484567.7244
       191.0004        193.0004
  -8196215.99948  -6096746.66246  22966482.915    22966484.2294   22966490.6524
       168.0004        168.0004
 21  2  3  1  4 30.0000000  0 10G28G30G17G09G21G08G14G07G01G04
   -641678.54154   -470035.893 3                                  24705470.765
        74.0004         74.000
  -8519439.63848  -6608867.54046  22915955.735    22915955.7284   22915963.5574
       169.0004        170.0004
  -6577107.53048  -5083992.02346  23291210.644    23291211.0174   23291218.4534
       166.0004        167.0004
 -15577439.08849 -12108980.57447  21463223.027    21463223.0874   21463230.2204
       202.0004        202.0004
 -13651797.47448 -10450459.77446  21785726.234    21785726.1864   21785730.7944
       185.0004        185.0004
 -13196986.07549  -9968348.03847  22238538.047    22238538.3574   22238545.5424
       212.0004        211.0004
  -2027832.09647  -1571509.70845  23395938.611    23395938.0764   23395943.2694
       155.0004        157.0004
 -19488923.50449 -15173417.02047  21211506.549    21211506.7104   21211511.3874
       202.0004        202.0004
 -17172237.19348 -13370557.02847  21473291.622    21473292.2874   21473297.5034
       192.0004        192.0004
  -8099213.11048  -6021160.00046  22984943.992    22984943.6874   22984948.5494
       167.0004        168.0004
 21  2  3  1  5  0.0000000  0  9G30G17G09G21G08G14G07G01G04
  -8606918.77048  -6677033.11246  22899309.519    22899309.5394   22899316.5274
       169.0004        171.0004
  -6659069.87248  -5147858.77046  23275615.260    23275614.7694   23275619.1524
       165.0004        165.0004
 -15519722.38249 -12064006.52547  21474204.422    21474205.6464   21474213.1724
       201.0004        201.0004
 -13640333.27848 -10441526.63646  21787907.372    21787907.2864   21787911.9184
       185.0004        186.0004
 -13107053.76549  -9898270.92547  22255650.237    22255651.2504   22255658.9974
       211.0004        210.0004
  -2053613.07447  -1591598.77745  23391032.220    23391032.0024   23391037.6744
       154.0004        155.0004
 -19552800.95449 -15223191.66247  21199350.564    21199351.5674   21199355.6214
       202.0004        202.0004
 -17231106.89048 -13416429.53147  21462087.231    21462088.2884   21462095.6354
       190.0004        188.0004
  -8002129.60348  -5945510.51646  23003416.446    23003417.2604   23003423.5654
       167.0004        167.0004
 21  2  3  1  5 30.0000000  0 10G28G30G17G09G21G08G14G07G01G04
  -1368210.55244  -1059184.053 3                                  23701854.601
        74.0004         74.000
  -8694357.25248  -6745166.98246  22882669.831    22882670.2314   22882678.5094
       170.0004        172.0004
  -6740702.48647  -5211468.58246  23260081.216    23260081.2324   23260086.0754
       164.0004        166.0004
 -15461646.29149 -12018752.43947  21485257.339    21485257.1244   21485264.3734
       201.0004        201.0004
 -13628379.44848 -10432211.95546  21790182.599    21790182.7794   21790187.1084
       186.0004        186.0004
 -13016962.73949  -9828070.13247  22272796.052    22272795.5644   22272802.6854
       211.0004        211.0004
  -2079385.20547  -1611680.98745  23386127.618    23386127.5874   23386134.2304
       154.0004        158.0004
 -19616430.97549 -15272773.49547  21187243.245    21187243.3354   21187247.2744
       202.0004        203.0004
 -17289625.37948 -13462028.31146  21450950.016    21450951.1794   21450960.0234
       187.0004        187.0004
  -7904968.09248  -5869800.25046  23021906.185    23021905.9254   23021914.0104
       167.0004        169.0004
 21  2  3  1  6  0.0000000  0 10G28G30G17G09G21G08G14G07G01G04
  -1384278.20644  -1071705.00644  23698798.296
        74.0004        108.0004
  -8781752.62148  -6813267.25546  22866039.870    22866040.5834   22866047.0024
       171.0004        172.0004
  -6822003.40248  -5274819.91346  23244610.507    23244610.5794   23244614.2324
       165.0004        166.0004
 -15403213.29949 -11973220.24547  21496376.734    21496376.8764   21496384.1854
       201.0004        201.0004
 -13615935.19448 -10422515.12946  21792550.841    21792550.3444   21792555.3744
       186.0004        185.0004
 -12926715.68849  -9757747.76147  22289969.650    22289969.1604   22289976.2744
       211.0004        210.0004
  -2105149.33847  -1631756.92145  23381225.899    23381225.0044   23381229.7424
       154.0004        155.0004
 -19679810.53549 -15322160.17347  21175182.354    21175182.6244   21175186.3324
       202.0004        203.0004
 -17347789.18048 -13507350.72446  21439882.561    21439883.1814   21439891.9164
       186.0004        187.0004
  -7807731.16648  -5794031.22846  23040410.000    23040410.1934   23040417.0644
       166.0004        167.0004
 21  2  3  1  6 30.0000000  0 10G28G30G17G09G21G08G14G07G01G04
  -1397313.43644  -1081863.007 4                                  23696321.668
        74.0004        131.000
  -8869103.21048  -6881332.63246  22849417.437    22849417.6434   22849425.0894
       171.0004        172.0004
  -6902971.71647  -5337912.06146  23229202.462    23229202.0304   23229206.4814
       163.0004        164.0004
 -15344426.77949 -11927412.57747  21507563.216    21507563.2944   21507570.7024
       201.0004        201.0004
 -13603000.65148 -10412436.24646  21795012.041    21795011.4504   21795016.8644
       185.0004        185.0004
 -12836315.83349  -9687306.32147  22307170.447    22307170.9034   22307178.5884
       210.0004        209.0004
  -2130907.21847  -1651828.00545  23376322.962    23376323.2124   23376329.2954
       153.0004        154.0004
 -19742937.28249 -15371349.84647  21163169.037    21163170.0674   21163174.1784
       203.0004        203.0004
 -17405595.76148 -13552394.80147  21428884.050    21428884.3364   21428891.5894
       188.0004        190.0004
  -7710422.35548  -5718206.17746  23058926.882    23058927.6904   23058933.2134
       166.0004        167.0004
 21  2  3  1  7  0.0000000  0 10G28G30G17G09G21G08G14G07G01G04
  -1375362.45954  -1064758.431 5                                  23700496.813
        74.0004        133.000
  -8956405.87948  -6949360.68546  22832805.073    22832804.7534   22832811.4434
       172.0004        172.0004
  -6983604.80847  -5400743.04645  23213857.997    23213858.3494   23213859.5004
       160.0004        159.0004
 -15285288.60149 -11881330.88747  21518817.327    21518817.3864   21518824.3244
       201.0004        202.0004
 -13589574.36448 -10401974.20246  21797566.156    21797566.3344   21797571.6564
       185.0004        185.0004
 -12745765.34349  -9616747.49547  22324401.658    22324401.8384   22324410.2124
       209.0004        208.0004
  -2156659.03947  -1671894.34645  23371423.229    23371422.9554   23371428.8284
       153.0004        156.0004
 -19805807.93449 -15420339.95447  21151205.728    21151206.1464   21151210.0904
       202.0004        202.0004
 -17463041.09648 -13597157.39647  21417953.029    21417953.3204   21417960.4094
       190.0004        192.0004
  -7613043.67148  -5642326.68846  23077457.815    23077458.8304   23077464.4374
       166.0004        167.0004
 21  2  3  1  7 30.0000000  0 10G28G30G17G09G21G08G14G07G01G04
  -1240823.92944   -960391.313 4                                  23690329.791
        74.0004        124.000
  -9043658.55448  -7017349.77946  22816200.441    22816200.8244   22816207.7954
       171.0004        173.0004
  -7063901.36547  -5463311.79545  23198578.048    23198578.1704   23198579.0604
       157.0004        157.0004
 -15225801.73549 -11834977.48747  21530136.949    21530137.0594   21530144.9294
       201.0004        202.0004
 -13575656.00848 -10391128.71946  21800215.072    21800214.6724   21800220.3074
       185.0004        185.0004
 -12655066.95349  -9546073.42547  22341660.906    22341661.2644   22341668.9654
       208.0004        207.0004
  -2182406.06647  -1691956.94745  23366523.553    23366524.4174   23366528.8064
       154.0004        157.0004
 -19868419.60349 -15469128.27647  21139291.201    21139291.5034   21139295.4734
       203.0004        203.0004
 -17520122.22948 -13641636.19447  21407090.516    21407090.9864   21407097.5534
       191.0004        192.0004
  -7515598.00948  -5566395.01546  23096001.232    23096001.7384   23096007.1354
       165.0004        164.0004
 21  2  3  1  8  0.0000000  0 10G28G30G17G09G21G08G14G07G01G04
  -1254302.85344   -970894.486 5                                  23687761.139
        74.0004        139.000
  -9130858.60248  -7085297.86246  22799608.026    22799607.4994   22799614.8784
       175.0004        178.0004
  -7143859.09047  -5525616.48545  23183360.866    23183361.5934   23183365.0114
       155.0004        158.0004
 -15165968.66949 -11788354.31847  21541523.928    21541523.6714   21541530.4634
       202.0004        202.0004
 -13561244.76448 -10379899.16446  21802957.613    21802957.1624   21802962.4644
       185.0004        185.0004
 -12564222.67349  -9475285.68147  22358948.890    22358948.8994   22358955.8784
       207.0004        207.0004
  -2208149.17447  -1712016.47345  23361625.004    23361625.3064   23361630.7264
       156.0004        159.0004
 -19930768.86749 -15517712.11047  21127426.022    21127426.5994   21127430.6534
       203.0004        203.0004
 -17576835.77248 -13685828.55947  21396299.146    21396299.4364   21396305.6164
       192.0004        192.0004
  -7418088.04347  -5490413.24746  23114555.621    23114556.8504   23114562.3954
       163.0004        163.0004
 21  2  3  1  8 30.0000000  0 10G28G30G17G09G21G08G14G07G01G04
  -1271255.50346   -984104.35545  23684528.245    23684528.9204   23684532.9884
       131.0004        142.0004
  -9218004.20248  -7153203.51946  22783024.952    22783025.1064   22783031.2884
       177.0004        179.0004
  -7223477.19247  -5587656.58345  23168211.395    23168212.1234   23168214.2984
       157.0004        161.0004
 -15105792.59049 -11741463.88147  21552974.034    21552974.2534   21552981.9394
       202.0004        202.0004
 -13546340.79048 -10368285.67646  21805793.858    21805793.9034   21805798.4514
       185.0004        186.0004
 -12473236.55749  -9404387.42747  22376262.481    22376262.4544   22376270.0864
       208.0004        207.0004
  -2233889.83947  -1732074.12045  23356727.159    23356727.0574   23356731.5374
       158.0004        160.0004
 -19992853.89249 -15566090.06747  21115612.021    21115612.4244   21115616.1654
       203.0004        203.0004
 -17633178.99248 -13729732.36847  21385576.245    21385576.6344   21385584.5384
       192.0004        192.0004
  -7320517.02047  -5414383.89146  23133124.806    23133124.8184   23133130.2114
       163.0004        164.0004
 21  2  3  1  9  0.0000000  0 10G28G30G17G09G21G08G14G07G01G04
  -1286198.42947   -995748.16845  23681684.666    23681685.2764   23681690.6764
       137.0004        142.0004
  -9305094.98248  -7221066.45946  22766451.489    22766451.6694   22766457.9104
       177.0004        178.0004
  -7302756.00147  -5649432.26246  23153125.766    23153125.8474   23153129.4154
       160.0004        163.0004
 -15045278.24949 -11694309.85947  21564490.323    21564490.4484   21564496.5154
       202.0004        202.0004
 -13530945.39248 -10356289.25946  21808723.643    21808723.0104   21808728.5464
       185.0004        185.0004
 -12382112.49549  -9333381.66447  22393602.512    22393602.9624   22393611.1444
       207.0004        207.0004
  -2259631.09347  -1752132.23745  23351828.210    23351828.5904   23351833.3764
       159.0004        160.0004
 -20054673.79049 -15614261.41847  21103848.001    21103848.0894   21103852.3634
       203.0004        203.0004
 -17689150.77048 -13773346.72747  21374924.814    21374925.4254   21374933.1304
       191.0004        191.0004
  -7222889.67347  -5338310.62446  23151702.451    23151701.9224   23151709.8514
       163.0004        164.0004
 21  2  3  1  9 30.0000000  0 10G28G30G17G09G21G08G14G07G01G04
  -1301127.84747  -1007381.46845  23678844.888    23678845.4024   23678849.4264
       139.0004        143.0004
  -9392128.19748  -7288884.53146  22749889.643    22749890.2734   22749895.9654
       177.0004        179.0004
  -7381693.22247  -5710941.76446  23138103.759    23138103.9614   23138110.6204
       164.0004        167.0004
 -14984427.98549 -11646894.06747  21576069.226    21576069.5944   21576076.3034
       202.0004        203.0004
 -13515058.00648 -10343909.46846  21811746.167    21811746.1874   21811751.0734
       185.0004        184.0004
 -12290853.28149  -9262270.60147  22410968.406    22410969.1104   22410976.8884
       206.0004        206.0004
  -2285373.57447  -1772191.30245  23346929.815    23346929.3604   23346934.8174
       158.0004        160.0004
 -20116225.09949 -15662223.48547  21092134.321    21092135.1024   21092139.9214
       203.0004        203.0004
 -17744747.48948 -13816668.83047  21364344.644    21364345.0074   21364353.7544
       190.0004        189.0004
  -7125208.44947  -5262195.39246  23170288.336    23170289.8144   23170297.1564
       162.0004        163.0004
 21  2  3  1 10  0.0000000  0 10G28G30G17G09G21G08G14G07G01G04
  -1316044.63847  -1019004.94745  23676006.173    23676005.1904   23676010.2354
       140.0004        145.0004
  -9479100.96048  -7356655.51446  22733339.618    22733339.5694   22733345.9144
       179.0004        181.0004
  -7460286.93948  -5772183.59446  23123147.919    23123147.6444   23123154.1104
       168.0004        170.0004
 -14923244.08649 -11599218.30047  21587712.884    21587712.7404   21587719.7274
       203.0004        203.0004
 -13498677.78648 -10331145.64146  21814863.945    21814863.7254   21814868.3124
       184.0004        184.0004
 -12199460.91949  -9191055.77647  22428360.693    22428360.7634   22428367.9134
       206.0004        205.0004
  -2311117.83947  -1792251.75845  23342030.738    23342031.0294   23342035.9154
       157.0004        159.0004
 -20177504.44749 -15709973.62147  21080474.116    21080474.6304   21080478.2904
       203.0004        203.0004
 -17799965.58048 -13859695.89747  21353836.479    21353837.3274   21353845.9434
       189.0004        188.0004
  -7027475.58747  -5186039.92746  23188887.861    23188887.2754   23188894.1054
       161.0004        163.0004
 21  2  3  1 10 30.0000000  0 10G28G30G17G09G21G08G14G07G01G04
  -1330949.14847  -1030618.84945  23673168.795    23673168.6264   23673175.5744
       141.0004        146.0004
  -9566009.65748  -7424376.56846  22716801.930    22716802.0334   22716807.5014
       181.0004        183.0004
  -7538533.85448  -5833155.17646  23108257.833    23108258.2684   23108264.9744
       169.0004        170.0004
 -14861728.05449 -11551283.72747  21599417.773    21599418.5264   21599425.8354
       202.0004        202.0004
 -13481803.04348 -10317996.49146  21818074.433    21818074.2964   21818079.1664
       184.0004        184.0004
 -12107936.86849  -9119738.33147  22445777.842    22445777.2454   22445784.8914
       206.0004        207.0004
  -2336863.63947  -1812313.41445  23337131.198    23337132.1274   23337136.1714
       158.0004        160.0004
 -20238507.60249 -15757508.56047  21068866.100    21068866.2804   21068869.7624
       203.0004        203.0004
 -17854800.64348 -13902424.49947  21343402.008    21343402.5484   21343410.9434
       188.0004        189.0004
  -6929692.61747  -5109845.43046  23207495.290    23207495.7494   23207503.1694
       162.0004        163.0004
 21  2  3  1 11  0.0000000  0 10G28G30G17G09G21G08G14G07G01G04
  -1345842.58247  -1042224.09345  23670334.111    23670335.4684   23670340.0164
       142.0004        146.0004
  -9652851.67248  -7492045.67446  22700275.880    22700275.6204   22700282.1974
       180.0004        179.0004
  -7616432.67048  -5893855.53746  23093434.264    23093434.2674   23093441.4924
       168.0004        168.0004
 -14799882.48849 -11503092.39147  21611187.699    21611187.6374   21611193.7854
       202.0004        202.0004
 -13464433.04348 -10304461.41846  21821380.135    21821380.0324   21821385.1414
       184.0004        185.0004
 -12016283.49349  -9048320.12347  22463216.278    22463217.3854   22463226.1514
       206.0004        206.0004
  -2362611.76847  -1832376.88445  23332231.725    23332231.7504   23332237.0394
       159.0004        160.0004
 -20299231.76549 -15804826.09447  21057309.415    21057310.2254   21057314.9064
       203.0004        203.0004
 -17909249.37048 -13944852.06747  21333040.768    21333040.9514   21333049.7074
       189.0004        189.0004
  -6831862.13647  -5033613.90445  23226112.977    23226112.4994   23226118.8474
       161.0004        162.0004
 21  2  3  1 11 30.0000000  0 10G28G30G17G09G21G08G14G07G01G04
  -1360726.64947  -1053822.06445  23667502.866    23667503.1774   23667507.3394
       145.0004        149.0004
  -9739624.74648  -7559661.05446  22683763.735    22683763.5074   22683769.3384
       178.0004        177.0004
  -7693981.95348  -5954283.50546  23078677.671    23078678.2544   23078683.7974
       170.0004        174.0004
 -14737710.29949 -11454646.52747  21623017.830    21623018.3754   21623025.2494
       201.0004        201.0004
 -13446567.64548 -10290540.31546  21824779.021    21824779.0964   21824784.6344
       184.0004        184.0004
 -11924503.56849  -8976803.29147  22480683.096    22480683.2434   22480690.8544
       206.0004        206.0004
  -2388363.41847  -1852443.10145  23327330.471    23327331.1214   23327337.0284
       159.0004        162.0004
 -20359674.07049 -15851923.99047  21045808.551    21045808.6104   21045812.6244
       203.0004        203.0004
 -17963308.72748 -13986976.23747  21322754.385    21322754.4644   21322762.7254
       189.0004        190.0004
  -6733986.98047  -4957347.54045  23244737.480    23244737.4654   23244744.5144
       160.0004        162.0004
 21  2  3  1 12  0.0000000  0 10G28G30G17G09G21G08G14G07G01G04
  -1375603.20647  -1065414.16845  23664672.146    23664672.7034   23664677.5604
       147.0004        151.0004
  -9826327.30548  -7627221.49146  22667264.031    22667264.2874   22667269.5564
       176.0004        178.0004
  -7771180.45948  -6014438.14146  23063987.733    23063987.3954   23063993.3264
       171.0004        171.0004
 -14675215.03549 -11405948.93147  21634910.038    21634910.2564   21634917.4214
       200.0004        200.0004
 -13428207.29248 -10276233.54146  21828273.841    21828273.7714   21828278.7224
       184.0004        183.0004
 -11832600.73049  -8905190.69847  22498172.032    22498171.9294   22498179.1704
       205.0004        205.0004
  -2414120.37647  -1872513.45145  23322430.757    23322430.6474   23322435.6274
       159.0004        159.0004
 -20419832.53649 -15898800.74647  21034361.430    21034361.8324   21034364.9004
       203.0004        204.0004
 -18016976.45848 -14028795.23747  21312541.976    21312542.0474   21312549.3314
       190.0004        191.0004
  -6636070.72147  -4881049.14745  23263368.853    23263369.6864   23263376.2204
       160.0004        161.0004
 21  2  3  1 12 30.0000000  0 10G28G30G17G09G21G08G14G07G01G04
  -1390473.92347  -1077001.72245  23661841.321    23661842.1084   23661847.2344
       147.0004        150.0004
  -9912956.71348  -7694724.94346  22650779.083    22650779.8044   22650785.6734
       180.0004        181.0004
  -7848027.06348  -6074318.59346  23049362.916    23049363.6614   23049369.3874
       170.0004        171.0004
 -14612399.42049 -11357001.69547  21646863.675    21646863.8664   21646871.2734
       200.0004        200.0004
 -13409351.56448 -10261540.75546  21831860.919    21831861.3754   21831866.5634
       184.0004        184.0004
 -11740577.47649  -8833484.26647  22515683.073    22515682.9394   22515690.3294
       204.0004        203.0004
  -2439883.49347  -1892588.58945  23317527.392    23317528.0664   23317532.2734
       156.0004        157.0004
 -20479704.27449 -15945454.04147  21022967.691    21022967.8094   21022972.1744
       204.0004        204.0004
 -18070249.34948 -14070306.58047  21302404.175    21302404.5654   21302411.8604
       191.0004        191.0004
  -6538115.94947  -4804720.74946  23282009.831    23282010.3514   23282016.2044
       161.0004        163.0004
 21  2  3  1 13  0.0000000  0 10G28G30G17G09G21G08G14G07G01G04
  -1405339.77547  -1088585.50645  23659013.400    23659013.2184   23659018.5734
       148.0004        152.0004
  -9999510.30748  -7762169.27346  22634308.884    22634309.0074   22634315.9964
       181.0004        183.0004
  -7924519.50448  -6133923.07246  23034807.118    23034808.0694   23034812.3474
       168.0004        168.0004
 -14549265.83349 -11307806.69947  21658877.602    21658877.6384   21658884.6694
       199.0004        198.0004
 -13389999.94048 -10246461.57246  21835543.707    21835544.0024   21835549.0374
       184.0004        184.0004
 -11648436.10349  -8761685.79447  22533215.974    22533216.2994   22533224.2344
       203.0004        202.0004
  -2465653.39647  -1912669.01845  23312624.172    23312623.8214   23312629.2644
       156.0004        159.0004
 -20539285.94549 -15991881.31947  21011629.193    21011629.8674   21011634.2954
       204.0004        204.0004
 -18123123.93248 -14111507.54247  21292342.383    21292343.0154   21292350.4684
       192.0004        193.0004
  -6440125.08347  -4728364.24846  23300656.906    23300657.6134   23300663.7614
       162.0004        164.0004
 21  2  3  1 13 30.0000000  0 10G28G30G17G09G21G08G14G07G01G04
  -1420203.41247  -1100167.56445  23656186.264    23656185.7434   23656189.3134
       149.0004        153.0004
 -10085986.74348  -7829553.52846  22617852.883    22617852.8014   22617859.6114
       181.0004        180.0004
  -8000657.72548  -6193251.54046  23020318.918    23020318.9324   23020323.5404
       168.0004        170.0004
 -14485818.36449 -11258367.12547  21670950.116    21670950.4774   21670958.9504
       198.0004        198.0004
 -13370153.31948 -10230996.66946  21839321.946    21839320.8994   21839326.1464
       184.0004        184.0004
 -11556179.91349  -8689797.86647  22550772.679    22550772.8604   22550780.1004
       203.0004        203.0004
  -2491432.31847  -1932756.49045  23307718.331    23307719.2004   23307724.2014
       157.0004        160.0004
 -20598575.78649 -16038081.21547  21000347.330    21000347.2374   21000351.1194
       204.0004        203.0004
 -18175598.38548 -14152396.72647  21282356.834    21282357.7164   21282365.7714
       193.0004        194.0004
  -6342102.02147  -4651982.64646  23319308.700    23319310.1954   23319316.6424
       162.0004        163.0004
 21  2  3  1 14  0.0000000  0 10G28G30G17G09G21G08G14G07G01G04
  -1435066.06147  -1111748.84145  23653355.507    23653356.6354   23653360.3614
       150.0004        152.0004
 -10172383.33148  -7896875.53346  22601412.183    22601412.0874   22601418.3094
       181.0004        182.0004
  -8076439.84948  -6252302.51946  23005897.631    23005898.4004   23005902.3864
       168.0004        168.0004
 -14422059.49249 -11208684.89147  21683083.714    21683084.0644   21683091.2234
       198.0004        198.0004
 -13349811.02048 -10215145.51846  21843192.390    21843191.8464   21843197.5314
       184.0004        185.0004
 -11463811.91149  -8617822.79247  22568350.139    22568349.8304   22568357.6274
       203.0004        204.0004
  -2517220.88947  -1952851.48545  23302810.273    23302810.8644   23302815.3184
       158.0004        158.0004
 -20657570.51449 -16084051.12647  20989119.918    20989121.0134   20989124.9964
       203.0004        204.0004
 -18227669.37848 -14192971.52147  21272448.917    21272449.1974   21272456.3754
       193.0004        194.0004
  -6244049.21447  -4575577.87845  23337969.033    23337969.7344   23337975.3814
       161.0004        162.0004
 21  2  3  1 14 30.0000000  0 10G28G30G17G09G21G08G14G07G01G04
  -1449929.44847  -1123330.69645  23650529.033    23650528.8444   23650533.0454
       150.0004        154.0004
 -10258698.09748  -7964133.79646  22584986.584    22584986.6144   22584993.5684
       180.0004        180.0004
  -8151864.83248  -6311075.20146  22991545.049    22991545.0924   22991549.7144
       168.0004        171.0004
 -14357992.53749 -11158762.62047  21695276.076    21695276.3134   21695282.8494
       198.0004        199.0004
 -13328973.52448 -10198908.50446  21847157.237    21847156.6394   21847161.9394
       184.0004        185.0004
 -11371334.84549  -8545762.74947  22585946.325    22585947.2144   22585955.4194
       203.0004        203.0004
  -2543020.66447  -1972955.17945  23297900.881    23297900.8304   23297906.3084
       156.0004        158.0004
 -20716268.12949 -16129789.53347  20977951.046    20977951.6534   20977955.0434
       204.0004        204.0004
 -18279334.28248 -14233229.89247  21262617.068    21262617.3884   21262624.8454
       194.0004        194.0004
  -6145969.88647  -4499152.43145  23356632.306    23356633.0214   23356639.1094
       160.0004        162.0004
 21  2  3  1 15  0.0000000  0 10G28G30G17G09G21G08G14G07G01G04
  -1464793.63247  -1134913.18745  23647700.359    23647700.3184   23647704.3894
       151.0004        154.0004
 -10344927.21048  -8031325.30146  22568577.941    22568577.7644   22568585.1954
       180.0004        180.0004
  -8226929.83948  -6369567.41446  22977259.744    22977260.4474   22977263.6844
       168.0004        168.0004
 -14293618.97549 -11108601.39847  21707525.500    21707525.8144   21707532.8334
       198.0004        199.0004
 -13307639.27348 -10182284.39746  21851216.831    21851217.2944   21851221.2444
       184.0004        184.0004
 -11278750.21749  -8473618.88847  22603565.139    22603565.3804   22603573.8454
       202.0004        202.0004
  -2568831.14747  -1993067.24745  23292990.726    23292990.7624   23292994.5214
       157.0004        160.0004
 -20774664.32949 -16175293.06847  20966838.985    20966839.0214   20966842.6744
       204.0004        204.0004
 -18330588.75048 -14273168.43247  21252862.981    21252863.8504   21252871.5674
       194.0004        194.0004
  -6047865.34547  -4422707.33145  23375302.669    23375303.2534   23375306.7984
       160.0004        162.0004
 21  2  3  1 15 30.0000000  0 10G28G30G17G09G21G08G14G07G01G04
  -1479661.45947  -1146498.48245  23644870.668    23644870.4514   23644874.7654
       151.0004        153.0004
 -10431069.44748  -8098449.12046  22552184.828    22552185.6594   22552192.3174
       178.0004        178.0004
  -8301634.50148  -6427778.82846  22963046.068    22963045.3944   22963048.4334
       167.0004        168.0004
 -14228942.86549 -11058204.42847  21719832.572    21719833.0344   21719840.6934
       198.0004        199.0004
 -13285809.27548 -10165273.99546  21855371.409    21855370.6844   21855375.6424
       184.0004        184.0004
 -11186061.40249  -8401393.85447  22621202.806    22621203.3704   22621212.2014
       201.0004        201.0004
  -2594654.58447  -2013189.38845  23288075.220    23288075.7254   23288080.6314
       158.0004        160.0004
 -20832757.43149 -16220560.42547  20955783.702    20955783.9994   20955787.8814
       204.0004        204.0004
 -18381431.00948 -14312785.77147  21243187.641    21243188.2434   21243196.4634
       193.0004        193.0004
  -5949739.56647  -4346245.69345  23393975.573    23393975.4274   23393980.4624
       160.0004        160.0004
 21  2  3  1 16  0.0000000  0 10G28G30G17G09G21G08G14G07G01G04
  -1494534.43847  -1158087.79645  23642040.299    23642040.4834   23642045.6134
       151.0004        155.0004
 -10517122.77548  -8165503.64346  22535810.323    22535809.9784   22535817.4314
       178.0004        179.0004
  -8375978.15148  -6485708.93046  22948897.746    22948898.3524   22948901.4844
       169.0004        170.0004
 -14163967.46149 -11007574.25347  21732197.736    21732198.2414   21732204.8644
       199.0004        199.0004
 -13263483.79848 -10147877.51746  21859618.333    21859618.6244   21859624.5054
       183.0004        184.0004
 -11093271.67049  -8329090.17547  22638859.880    22638861.0584   22638868.7054
       201.0004        201.0004
  -2620492.31647  -2033322.67345  23283157.885    23283158.1564   23283163.2424
       159.0004        160.0004
 -20890544.94149 -16265589.66047  20944787.201    20944787.8514   20944791.6414
       204.0004        204.0004
 -18431858.43848 -14352079.86747  21233592.279    21233592.3064   21233600.9004
       193.0004        193.0004
  -5851595.61147  -4269769.87345  23412650.389    23412650.5584   23412657.0164
       159.0004        160.0004
 21  2  3  1 16 30.0000000  0 10G28G30G17G09G21G08G14G07G01G04
  -1509412.17147  -1169680.79945  23639209.405    23639208.7864   23639213.0414
       151.0004        153.0004
 -10603082.83648  -8232485.51546  22519453.088    22519452.2084   22519459.1894
       177.0004        177.0004
  -8449957.12448  -6543354.88746  22934819.800    22934819.6744   22934824.9944
       171.0004        173.0004
 -14098693.79049 -10956711.64747  21744618.989    21744619.0224   21744626.7564
       198.0004        199.0004
 -13240661.41648 -10130093.83546  21863962.965    21863962.3794   21863967.1984
       184.0004        184.0004
 -11000381.98049  -8256708.59847  22656537.110    22656537.5214   22656545.1484
       201.0004        201.0004
  -2646343.51747  -2053466.47145  23278238.784    23278239.9394   23278245.0324
       160.0004        162.0004
 -20948022.35649 -16310377.25447  20933850.054    20933849.7084   20933854.0194
       204.0004        204.0004
 -18481866.24948 -14391046.97547  21224075.718    21224076.9704   21224084.5864
       193.0004        193.0004
  -5753434.34347  -4193280.55945  23431328.742    23431329.8484   23431335.6804
       157.0004        158.0004
 21  2  3  1 17  0.0000000  0 10G28G30G17G09G21G08G14G07G01G04
  -1524297.50247  -1181279.75945  23636375.700    23636375.7934   23636381.3904
       148.0004        150.0004
 -10688948.36948  -8299393.72946  22503113.530    22503112.7054   22503120.0214
       177.0004        179.0004
  -8523571.53748  -6600716.76546  22920811.387    22920812.5744   22920815.8894
       170.0004        172.0004
 -14033125.96249 -10905619.84847  21757096.014    21757095.9874   21757103.2944
       199.0004        199.0004
 -13217342.27848 -10111923.09146  21868399.789    21868399.5354   21868404.3454
       183.0004        184.0004
 -10907396.07949  -8184252.06347  22674231.671    22674231.5364   22674239.9744
       200.0004        200.0004
  -2672210.39047  -2073622.42646  23273316.775    23273317.7374   23273323.3534
       161.0004        163.0004
 -21005187.82249 -16354921.78847  20922971.368    20922971.8224   20922976.1104
       205.0004        206.0004
 -18531452.70748 -14429685.77647  21214639.655    21214640.1404   21214648.4014
       192.0004        191.0004
  -5655259.73547  -4116780.87645  23450011.454    23450011.9764   23450018.2824
       156.0004        157.0004
 21  2  3  1 17 30.0000000  0 10G28G30G17G09G21G08G14G07G01G04
  -1539192.46047  -1192886.21345  23633542.157    23633541.5784   23633545.9994
       147.0004        150.0004
 -10774717.69648  -8366226.97146  22486791.114    22486791.1114   22486798.3364
       178.0004        179.0004
  -8596820.79548  -6657794.09446  22906872.596    22906873.1404   22906877.9624
       170.0004        171.0004
 -13967267.65849 -10854301.70047  21769627.357    21769628.0514   21769635.4434
       197.0004        197.0004
 -13193527.69748 -10093366.26146  21872931.674    21872931.6014   21872935.8204
       183.0004        183.0004
 -10814316.79049  -8111722.77447  22691944.550    22691944.1274   22691952.8924
       200.0004        200.0004
  -2698094.64347  -2093791.95645  23268389.985    23268390.5834   23268396.1514
       159.0004        159.0004
 -21062039.69949 -16399221.95947  20912152.942    20912152.8574   20912157.0694
       205.0004        205.0004
 -18580615.66348 -14467994.56947  21205283.097    21205284.3554   21205292.7134
       191.0004        191.0004
  -5557075.27047  -4040273.50645  23468695.279    23468696.2204   23468701.9884
       156.0004        157.0004
 21  2  3  1 18  0.0000000  0 10G28G30G17G09G21G08G14G07G01G04
  -1554098.07347  -1204500.96945  23630704.762    23630705.3354   23630710.1374
       148.0004        152.0004
 -10860387.70848  -8432982.80646  22470488.108    22470488.4064   22470496.8994
       179.0004        180.0004
  -8669702.56148  -6714585.06546  22893003.616    22893003.7654   22893008.5424
       171.0004        173.0004
 -13901121.09849 -10802758.93047  21782215.826    21782215.5164   21782222.6844
       197.0004        197.0004
 -13169217.07048 -10074422.90246  21877557.699    21877557.5164   21877562.3214
       183.0004        184.0004
 -10721146.61849  -8039122.63947  22709672.676    22709672.9994   22709682.3124
       198.0004        198.0004
  -2723996.54047  -2113975.25645  23263462.461    23263462.8304   23263466.6154
       158.0004        160.0004
 -21118574.14349 -16443274.76747  20901394.315    20901395.0794   20901399.4984
       205.0004        205.0004
 -18629351.48448 -14505970.53447  21196010.693    21196011.0174   21196018.0074
       192.0004        193.0004
  -5458882.98847  -3963760.04345  23487381.146    23487381.3634   23487386.6564
       155.0004        156.0004
 21  2  3  1 18 30.0000000  0 10G28G30G17G09G21G08G14G07G01G04
  -1569015.83047  -1216125.20545  23627866.944    23627867.3264   23627871.8124
       149.0004        152.0004
 -10945956.34748  -8499659.64246  22454205.352    22454205.1654   22454212.5714
       178.0004        179.0004
  -8742216.12948  -6771089.13046  22879204.256    22879204.7904   22879210.2384
       172.0004        175.0004
 -13834689.56849 -10750994.10247  21794857.187    21794857.6964   21794864.4144
       197.0004        197.0004
 -13144411.15648 -10055093.61246  21882279.372    21882278.3504   21882283.3044
       184.0004        184.0004
 -10627888.52549  -7966454.00947  22727418.804    22727419.9994   22727428.7864
       198.0004        199.0004
  -2749917.53047  -2134173.44546  23258529.248    23258529.5954   23258534.5094
       160.0004        163.0004
 -21174789.03649 -16487078.58347  20890697.318    20890697.6014   20890701.9694
       205.0004        205.0004
 -18677657.71348 -14543611.73947  21186817.644    21186818.0884   21186826.4774
       192.0004        193.0004
  -5360685.98647  -3887242.88245  23506068.572    23506068.4514   23506072.8234
       153.0004        155.0004
 21  2  3  1 19  0.0000000  0 10G28G30G17G09G21G08G14G07G01G04
  -1583946.97847  -1227759.86845  23625025.224    23625025.6614   23625029.4654
       149.0004        152.0004
 -11031420.78848  -8566255.30746  22437942.765    22437942.4934   22437949.9134
       179.0004        181.0004
  -8814360.30948  -6827305.37546  22865477.142    22865477.0894   22865481.4964
       173.0004        173.0004
 -13767975.73649 -10699009.29547  21807552.199    21807552.5804   21807559.2764
       196.0004        196.0004
 -13119109.03648 -10035377.67146  21887093.145    21887093.0504   21887097.9554
       184.0004        185.0004
 -10534544.49749  -7893718.41247  22745182.846    22745182.5954   22745192.0084
       199.0004        200.0004
  -2775858.21647  -2154386.95846  23253594.473    23253594.0704   23253598.6394
       162.0004        164.0004
 -21230680.84849 -16530630.65447  20880061.375    20880062.1224   20880065.6964
       205.0004        205.0004
 -18725531.07848 -14580915.65647  21177707.457    21177708.8174   21177716.3814
       193.0004        194.0004
  -5262486.66647  -3810723.92245  23524754.173    23524754.5444   23524760.0584
       154.0004        156.0004
 21  2  3  1 19 30.0000000  0 10G28G30G17G09G21G08G14G07G01G04
  -1598893.65747  -1239406.60845  23622181.944    23622180.8414   23622185.0824
       149.0004        151.0004
 -11116779.40648  -8632768.52346  22421698.211    22421699.1014   22421705.9834
       179.0004        180.0004
  -8886134.11748  -6883232.98546  22851818.452    22851818.3824   22851822.8904
       172.0004        172.0004
 -13700983.31249 -10646807.41147  21820300.418    21820301.0674   21820307.4624
       196.0004        197.0004
 -13093311.53048 -10015275.70946  21892001.509    21892001.7044   21892006.6424
       184.0004        184.0004
 -10441117.94449  -7820918.50247  22762960.371    22762961.1434   22762969.7934
       198.0004        198.0004
  -2801820.43447  -2174617.22446  23248652.641    23248653.1354   23248658.0894
       163.0004        164.0004
 -21286247.98549 -16573929.72547  20869486.812    20869487.6344   20869491.5294
       205.0004        205.0004
 -18772969.74648 -14617880.84347  21168681.080    21168681.3624   21168689.3274
       194.0004        195.0004
  -5164288.53247  -3734205.89445  23543440.990    23543440.6104   23543447.2604
       154.0004        156.0004
 21  2  3  1 20  0.0000000  0 10G28G30G17G09G21G08G14G07G01G04
  -1613855.77547  -1251065.39645  23619334.619    23619334.7574   23619338.9984
       150.0004        155.0004
 -11202028.47648  -8699196.36446  22405476.583    22405476.5824   22405483.9844
       180.0004        180.0004
  -8957535.30248  -6938870.26346  22838230.225    22838231.2064   22838237.1504
       173.0004        176.0004
 -13633714.06649 -10594389.83247  21833102.158    21833102.4724   21833108.8834
       197.0004        198.0004
 -13067017.84148  -9994787.11246  21897006.307    21897005.0764   21897010.2154
       184.0004        183.0004
 -10347610.51349  -7748055.58147  22780754.453    22780755.0074   22780764.0004
       197.0004        196.0004
  -2827803.93947  -2194864.08046  23243708.858    23243709.0874   23243713.8304
       164.0004        165.0004
 -21341486.24949 -16616972.52947  20858975.294    20858975.9654   20858979.9634
       205.0004        205.0004
 -18819969.60249 -14654504.10047  21159737.152    21159737.7724   21159745.7624
       195.0004        195.0004
  -5066093.09947  -3657689.98145  23562127.856    23562126.9044   23562133.3384
       154.0004        157.0004
 21  2  3  1 20 30.0000000  0 10G28G30G17G09G21G08G14G07G01G04
  -1628835.91347  -1262738.21845  23616483.180    23616483.6384   23616488.3114
       152.0004        155.0004
 -11287166.46948  -8765537.66346  22389276.266    22389275.8824   22389282.4564
       181.0004        181.0004
  -9028563.03248  -6994216.54846  22824715.592    22824714.8544   22824720.1794
       175.0004        175.0004
 -13566171.85949 -10541759.55447  21845955.016    21845955.1424   21845961.6674
       197.0004        196.0004
 -13040229.20248  -9973912.85446  21902103.778    21902103.2044   21902107.4894
       183.0004        184.0004
 -10254025.55249  -7675132.24447  22798562.605    22798563.5594   22798573.3064
       195.0004        195.0004
  -2853810.58048  -2215128.99046  23238760.168    23238760.7674   23238765.7074
       165.0004        167.0004
 -21396394.12949 -16659757.89947  20848526.977    20848527.4314   20848531.6354
       205.0004        205.0004
 -18866528.70249 -14690783.91547  21150876.676    21150877.5354   21150885.5294
       195.0004        195.0004
  -4967904.01847  -3581179.01345  23580811.317    23580811.6734   23580818.7324
       154.0004        156.0004
 21  2  3  1 21  0.0000000  0 10G28G30G17G09G21G08G14G07G01G04
  -1643835.39147  -1274426.10945  23613629.988    23613629.8984   23613632.7384
       153.0004        155.0004
 -11372190.36548  -8831790.04046  22373097.028    22373096.9214   22373103.2164
       181.0004        183.0004
  -9099216.25248  -7049270.96446  22811270.038    22811270.2484   22811275.7874
       174.0004        173.0004
 -13498359.15149 -10488918.46747  21858858.903    21858858.8104   21858866.2404
       195.0004        195.0004
 -13012945.09448  -9952652.49746  21907294.247    21907294.6024   21907300.4724
       183.0004        183.0004
 -10160364.81948  -7602149.86947  22816387.077    22816386.8234   22816395.2004
       194.0004        194.0004
  -2879840.80948  -2235412.26346  23233807.429    23233806.9154   23233811.3984
       166.0004        167.0004
 -21450968.05549 -16702283.03447  20838142.202    20838142.4234   20838146.7734
       205.0004        205.0004
 -18912643.75749 -14726717.71347  21142101.735    21142102.1874   21142109.7774
       195.0004        195.0004
  -4869723.44147  -3504674.65945  23599494.874    23599493.6684   23599501.7634
       153.0004        154.0004
 21  2  3  1 21 30.0000000  0 10G28G30G17G09G21G08G14G07G01G04
  -1658855.27847  -1286129.89345  23610771.181    23610770.8054   23610776.0164
       154.0004        157.0004
 -11457097.49048  -8897951.43746  22356938.665    22356939.2434   22356945.7834
       183.0004        184.0004
  -9169493.51148  -7104032.45146  22797896.612    22797896.8614   22797902.5224
       172.0004        172.0004
 -13430278.72348 -10435868.79247  21871813.772    21871814.4054   21871821.3544
       194.0004        195.0004
 -12985165.59148  -9931006.12746  21912581.906    21912581.6024   21912585.9774
       183.0004        183.0004
 -10066631.03249  -7529110.55847  22834224.042    22834224.4774   22834231.9204
       195.0004        196.0004
  -2905895.41048  -2255714.53746  23228849.395    23228849.8684   23228853.0894
       166.0004        167.0004
 -21505205.20149 -16744545.74347  20827820.950    20827821.3034   20827825.9414
       205.0004        206.0004
 -18958311.82149 -14762303.21247  21133411.446    21133412.2684   21133419.7574
       196.0004        196.0004
  -4771553.83847  -3428178.86945  23618174.825    23618175.3774   23618181.4714
       151.0004        153.0004
 21  2  3  1 22  0.0000000  0 10G28G30G17G09G21G08G14G07G01G04
  -1673897.50347  -1297851.07945  23607909.365    23607908.6634   23607914.0404
       154.0004        156.0004
 -11541885.95048  -8964020.37346  22340803.660    22340804.2474   22340810.7644
       184.0004        184.0004
  -9239394.02048  -7158500.35546  22784595.601    22784596.0544   22784600.7524
       173.0004        174.0004
 -13361934.14248 -10382613.28647  21884819.375    21884819.1774   21884827.7294
       194.0004        194.0004
 -12956891.63548  -9908974.46046  21917962.714    21917961.9004   21917967.5234
       183.0004        184.0004
  -9972827.57749  -7456016.95447  22852074.187    22852074.3484   22852082.2764
       196.0004        196.0004
  -2931975.97748  -2276037.05746  23223886.254    23223885.4824   23223890.5234
       166.0004        165.0004
 -21559103.53649 -16786544.44847  20817564.236    20817564.9514   20817569.4134
       206.0004        207.0004
 -19003530.73549 -14797538.72847  21124806.893    21124807.2224   21124814.8274
       196.0004        197.0004
  -4673398.54447  -3351694.23945  23636852.362    23636853.9104   23636860.2434
       151.0004        153.0004
 21  2  3  1 22 30.0000000  0 10G28G30G17G09G21G08G14G07G01G04
  -1688962.64647  -1309590.14645  23605041.959    23605042.7474   23605046.5804
       154.0004        155.0004
 -11626552.42048  -9029994.25546  22324692.953    22324692.8884   22324699.3584
       184.0004        185.0004
  -9308915.86648  -7212673.22146  22771366.272    22771366.0914   22771370.8564
       173.0004        175.0004
 -13293327.56748 -10329153.62147  21897873.044    21897873.6054   21897882.3764
       192.0004        192.0004
 -12928122.41748  -9886556.88846  21923436.235    21923436.6654   21923440.6364
       183.0004        183.0004
  -9878955.87349  -7382870.18247  22869936.683    22869937.2274   22869945.9014
       196.0004        195.0004
  -2958082.62747  -2296379.89846  23218917.518    23218917.9294   23218921.9054
       164.0004        163.0004
 -21612659.38249 -16828276.27947  20807374.074    20807374.0744   20807377.9744
       206.0004        207.0004
 -19048296.94949 -14832421.48647  21116287.413    21116288.2764   21116295.8024
       196.0004        196.0004
  -4575259.42947  -3275222.20545  23655529.644    23655528.7624   23655534.9614
       151.0004        154.0004
 21  2  3  1 23  0.0000000  0 10G28G30G17G09G21G08G14G07G01G04
  -1704052.37747  -1321348.36645  23602171.071    23602171.0894   23602174.7644
       153.0004        156.0004
 -11711094.95948  -9095871.56646  22308604.840    22308604.7534   22308611.5194
       185.0004        185.0004
  -9378058.46348  -7266550.56246  22758208.389    22758208.7044   22758212.9584
       173.0004        173.0004
 -13224462.50348 -10275492.57647  21910977.697    21910978.0034   21910986.5564
       191.0004        190.0004
 -12898858.76848  -9863754.05846  21929005.108    21929005.4374   21929010.1834
       183.0004        183.0004
  -9785018.61248  -7309672.33547  22887813.968    22887813.2464   22887821.7624
       194.0004        193.0004
  -2984216.87247  -2316744.26646  23213943.176    23213943.6294   23213948.5274
       162.0004        163.0004
 -21665870.73349 -16869739.68647  20797246.900    20797247.6994   20797252.0024
       206.0004        206.0004
 -19092608.23549 -14866949.76247  21107855.008    21107856.2714   21107864.0054
       197.0004        197.0004
  -4477139.63347  -3198765.24845  23674200.919    23674201.6784   23674206.6114
       152.0004        156.0004
 21  2  3  1 23 30.0000000  0 10G28G30G17G09G21G08G14G07G01G04
  -1719168.80647  -1333127.38045  23599294.986    23599293.6894   23599298.5344
       153.0004        156.0004
 -11795511.46548  -9161650.65146  22292540.047    22292540.4734   22292547.8394
       185.0004        185.0004
  -9446821.12648  -7320131.85146  22745123.293    22745122.7624   22745127.1804
       171.0004        170.0004
 -13155342.40648 -10221632.77147  21924131.650    21924131.8444   21924139.0374
       190.0004        190.0004
 -12869101.29048  -9840566.40146  21934668.554    21934667.9214   21934673.0154
       183.0004        183.0004
  -9691019.31448  -7236426.13047  22905698.965    22905700.1764   22905708.8504
       193.0004        193.0004
  -3010379.95747  -2337131.04946  23208964.130    23208965.5634   23208971.0124
       162.0004        165.0004
 -21718735.15449 -16910932.73747  20787187.248    20787188.3664   20787192.2874
       206.0004        207.0004
 -19136462.36649 -14901121.80247  21099510.587    21099511.5254   21099519.1084
       197.0004        197.0004
  -4379042.35147  -3122325.80845  23692867.029    23692868.3664   23692874.2184
       154.0004        157.0004
 21  2  3  1 24  0.0000000  0 10G28G30G17G09G21G08G14G07G01G04
  -1734312.05647  -1344927.28045  23596411.803    23596411.3874   23596417.4324
       153.0004        155.0004
 -11879798.27548  -9227328.68646  22276501.526    22276501.6134   22276508.2374
       185.0004        186.0004
  -9515201.73648  -7373415.42446  22732110.778    22732110.6224   22732114.9234
       169.0004        169.0004
 -13085969.10348 -10167575.64647  21937334.141    21937334.4224   21937341.7424
       192.0004        194.0004
 -12838849.52648  -9816993.58446  21940424.494    21940424.4214   21940429.1904
       183.0004        183.0004
  -9596959.15348  -7163132.51147  22923598.597    22923599.1774   22923608.1034
       193.0004        193.0004
  -3036571.72947  -2357540.21846  23203982.418    23203981.6964   23203985.8854
       164.0004        165.0004
 -21771248.71849 -16951852.40547  20777194.896    20777195.2654   20777199.7004
       206.0004        207.0004
 -19179855.44349 -14934934.57247  21091252.917    21091253.1444   21091261.4864
       197.0004        196.0004
  -4280969.04747  -3045905.04445  23711529.884    23711530.7894   23711538.5254
       156.0004        159.0004
 21  2  3  1 24 30.0000000  0 10G28G30G17G09G21G08G14G07G01G04
  -1749483.83847  -1356749.43045  23593525.082    23593524.7404   23593529.3594
       152.0004        155.0004
 -11963953.13448  -9292903.91346  22260487.217    22260487.9394   22260494.3654
       186.0004        186.0004
  -9583199.19148  -7426400.43946  22719169.527    22719171.2234   22719175.5324
       169.0004        171.0004
 -13016345.94249 -10113323.83247  21950583.500    21950583.7034   21950590.3284
       195.0004        196.0004
 -12808104.22248  -9793036.19446  21946275.408    21946274.8154   21946281.1284
       182.0004        182.0004
  -9502841.11448  -7089793.79847  22941510.077    22941509.2924   22941517.6624
       193.0004        192.0004
  -3062793.46647  -2377972.73246  23198990.789    23198990.3114   23198996.5544
       163.0004        164.0004
 -21823409.42949 -16992497.11447  20767268.477    20767268.9994   20767273.6444
       206.0004        207.0004
 -19222785.15249 -14968386.28347  21083083.874    21083084.2954   21083092.0074
       196.0004        197.0004
  -4182922.64947  -2969505.25145  23730188.328    23730188.5094   23730195.9344
       156.0004        158.0004
 21  2  3  1 25  0.0000000  0 10G28G30G17G09G21G08G14G07G01G04
  -1764685.70747  -1368595.06045  23590632.198    23590632.5684   23590636.7304
       152.0004        155.0004
 -12047973.69748  -9358374.46746  22244497.829    22244498.7454   22244506.2094
       186.0004        187.0004
  -9650812.59148  -7479086.19146  22706304.575    22706304.6724   22706308.2724
       171.0004        172.0004
 -12946475.97949 -10058879.70647  21963879.198    21963879.4194   21963885.9004
       196.0004        196.0004
 -12776865.18548  -9768694.07946  21952219.509    21952219.3684   21952225.1904
       182.0004        182.0004
  -9408667.67348  -7016411.88247  22959430.368    22959430.6064   22959438.3384
       193.0004        194.0004
  -3089046.17947  -2398429.39845  23193994.962    23193996.4174   23194001.4104
       161.0004        162.0004
 -21875214.05849 -17032864.36247  20757411.282    20757411.2274   20757415.2804
       206.0004        207.0004
 -19265248.94349 -15001474.94447  21075002.824    21075003.4394   21075011.5264
       196.0004        196.0004
  -4084905.91947  -2893128.59545  23748840.026    23748840.1344   23748847.0504
       154.0004        155.0004
 21  2  3  1 25 30.0000000  0 10G28G30G17G09G21G08G14G07G01G04
  -1779919.86047  -1380465.79945  23587733.094    23587732.3754   23587736.7454
       152.0004        154.0004
 -12131858.27848  -9423739.08447  22228536.943    22228536.7544   22228543.1634
       188.0004        189.0004
  -9718041.98448  -7531472.70046  22693510.342    22693510.4214   22693515.7384
       171.0004        170.0004
 -12876363.12749 -10004246.32047  21977222.409    21977222.5674   21977227.5884
       197.0004        197.0004
 -12745134.10248  -9743968.55646  21958258.863    21958258.1654   21958263.0424
       182.0004        182.0004
  -9314442.10448  -6942989.36947  22977360.957    22977361.3534   22977368.9884
       192.0004        192.0004
  -3115331.60947  -2418911.58145  23188993.724    23188994.2594   23188998.4104
       160.0004        160.0004
 -21926661.07749 -17072952.95747  20747620.320    20747621.0414   20747625.2734
       206.0004        207.0004
 -19307245.08149 -15034199.20247  21067010.822    21067011.9044   21067019.5114
       196.0004        196.0004
  -3986922.45947  -2816777.84645  23767484.579    23767486.3404   23767492.7584
       153.0004        154.0004
 21  2  3  1 26  0.0000000  0 10G28G30G17G09G21G08G14G07G01G04
  -1795186.57947  -1392361.96445  23584827.529    23584827.5574   23584831.7394
       150.0004        152.0004
 -12215603.24948  -9488994.91247  22212600.353    22212600.0634   22212607.2354
       189.0004        190.0004
  -9784885.16048  -7583558.27346  22680790.630    22680791.2434   22680796.1784
       171.0004        173.0004
 -12806009.29049  -9949425.14847  21990609.539    21990609.7294   21990615.8644
       196.0004        196.0004
 -12712910.24648  -9718859.05646  21964390.042    21964389.4694   21964394.9214
       182.0004        182.0004
  -9220166.28948  -6869527.71147  22995300.820    22995300.7584   22995309.4644
       192.0004        191.0004
  -3141649.65747  -2439419.15846  23183984.560    23183986.1834   23183990.7214
       160.0004        163.0004
 -21977746.72649 -17112759.96547  20737899.894    20737900.1394   20737904.3314
       207.0004        207.0004
 -19348769.83949 -15066556.15047  21059109.128    21059109.9424   21059117.6864
       195.0004        195.0004
  -3888973.72147  -2740454.17145  23786124.956    23786124.5564   23786130.8244
       153.0004        156.0004
 21  2  3  1 26 30.0000000  0 10G28G30G17G09G21G08G14G07G01G04
  -1810487.60047  -1404284.83845  23581916.308    23581915.7694   23581919.8204
       147.0004        148.0004
 -12299206.32648  -9554140.15247  22196690.750    22196690.6514   22196698.2684
       189.0004        188.0004
  -9851341.40048  -7635342.34746  22668146.105    22668146.0124   22668149.5144
       173.0004        175.0004
 -12735417.77649  -9894418.77147  22004042.112    22004041.7484   22004049.2144
       196.0004        195.0004
 -12680194.36448  -9693366.16046  21970615.571    21970615.4104   21970620.8624
       182.0004        182.0004
  -9125842.16548  -6796028.42847  23013251.378    23013250.4944   23013258.3584
       192.0004        192.0004
  -3168001.41747  -2459953.00146  23178971.120    23178970.6284   23178976.6784
       162.0004        165.0004
 -22028468.74849 -17152283.61847  20728246.843    20728248.0724   20728252.1084
       207.0004        207.0004
 -19389820.87849 -15098543.96347  21051297.464    21051298.0854   21051306.1094
       195.0004        195.0004
  -3791062.66847  -2664159.82745  23804755.423    23804756.3734   23804763.2484
       153.0004        155.0004
 21  2  3  1 27  0.0000000  0 10G28G30G17G09G21G08G14G07G01G04
  -1825824.99347  -1416236.03345  23578998.006    23578997.8984   23579003.3424
       146.0004        150.0004
 -12382665.65448  -9619173.39946  22180809.674    22180808.9564   22180815.5664
       188.0004        187.0004
  -9917410.53548  -7686824.76146  22655573.091    22655572.8704   22655575.8964
       172.0004        172.0004
 -12664592.28348  -9839230.07547  22017518.306    22017519.2984   22017527.2714
       194.0004        193.0004
 -12646987.51348  -9667490.68146  21976934.684    21976934.5024   21976939.0174
       182.0004        182.0004
  -9031473.36748  -6722494.29847  23031208.287    23031208.7344   23031216.3744
       193.0004        194.0004
  -3194388.52048  -2480514.37846  23173950.290    23173950.8694   23173955.1614
       165.0004        168.0004
 -22078824.85949 -17191522.15147  20718664.991    20718665.4124   20718669.6314
       207.0004        207.0004
 -19430396.35349 -15130161.19747  21043576.549    21043576.7944   21043584.9684
       195.0004        195.0004
  -3693192.61047  -2587897.45445  23823380.683    23823381.4854   23823387.4514
       155.0004        158.0004
 21  2  3  1 27 30.0000000  0 10G28G30G17G09G21G08G14G07G01G04
  -1841199.15047  -1428215.88945  23576071.209    23576070.9124   23576077.0184
       147.0004        150.0004
 -12465977.78248  -9684091.95147  22164954.865    22164955.2384   22164962.0914
       187.0004        188.0004
  -9983090.48048  -7738003.92446  22643073.044    22643074.5054   22643078.1904
       171.0004        173.0004
 -12593534.90648  -9783860.70547  22031039.838    22031040.5254   22031048.6564
       192.0004        191.0004
 -12613289.24948  -9641232.27546  21983347.526    21983346.0674   21983353.1924
       182.0004        182.0004
  -8937061.62548  -6648926.71047  23049175.155    23049174.7544   23049182.1314
       193.0004        194.0004
  -3220810.96548  -2501103.25146  23168923.673    23168924.0124   23168926.6904
       167.0004        170.0004
 -22128811.59849 -17230472.86047  20709153.347    20709153.4174   20709157.4794
       207.0004        207.0004
 -19470492.77748 -15161405.15447  21035946.399    21035946.4504   21035954.5464
       194.0004        195.0004
  -3595365.26447  -2511668.36845  23841998.617    23841998.0964   23842003.3284
       156.0004        158.0004
 21  2  3  1 28  0.0000000  0 10G28G30G17G09G21G08G14G07G01G04
  -1856612.42747  -1440226.24945  23573139.116    23573138.3764   23573141.6524
       144.0004        147.0004
 -12549141.37648  -9748894.74746  22149129.262    22149128.9644   22149136.6334
       186.0004        187.0004
 -10048381.65648  -7788880.15846  22630648.782    22630649.8524   22630653.8574
       172.0004        173.0004
 -12522249.88148  -9728313.94547  22044604.786    22044605.3184   22044614.3344
       191.0004        191.0004
 -12579101.41148  -9614592.40746  21989852.643    21989852.7344   21989857.4024
       182.0004        184.0004
  -8842610.19948  -6575328.20647  23067148.731    23067148.3464   23067155.6894
       194.0004        194.0004
  -3247270.82048  -2521721.29346  23163888.760    23163888.9724   23163892.3684
       169.0004        171.0004
 -22178427.63049 -17269134.71147  20699711.412    20699711.8944   20699715.9134
       208.0004        208.0004
 -19510108.77848 -15192274.76047  21028406.967    21028407.8354   21028415.9354
       194.0004        195.0004
  -3497584.27747  -2435475.42845  23860605.107    23860604.1034   23860611.4364
       155.0004        155.0004
 21  2  3  1 28 30.0000000  0 10G28G30G17G09G21G08G14G07G01G04
  -1872065.02647  -1452267.17445  23570199.803    23570197.9604   23570202.8514
       142.0004        145.0004
 -12632152.40648  -9813578.65346  22133333.572    22133333.0434   22133340.2034
       186.0004        187.0004
 -10113281.49048  -7839451.45246  22618300.647    22618300.3204   22618303.7904
       173.0004        175.0004
 -12450738.81048  -9672591.05147  22058212.783    22058213.7984   22058220.8964
       190.0004        190.0004
 -12544423.39748  -9587570.57646  21996451.993    21996451.5304   21996457.2044
       182.0004        182.0004
  -8748120.29948  -6501699.71247  23085127.738    23085127.9854   23085137.0804
       193.0004        193.0004
  -3273767.49348  -2542368.06746  23158843.667    23158843.1464   23158849.2524
       166.0004        164.0004
 -22227668.73849 -17307504.40947  20690340.922    20690341.5374   20690345.4304
       208.0004        208.0004
 -19549240.44349 -15222766.95847  21020961.419    21020961.4714   21020969.1904
       195.0004        196.0004
  -3399850.95647  -2359319.59445  23879202.236    23879202.6484   23879209.5874
       152.0004        154.0004
 21  2  3  1 29  0.0000000  0 10G28G30G17G09G21G08G14G07G01G04
  -1887558.07447  -1464339.67645  23567250.964    23567250.0734   23567253.6744
       145.0004        150.0004
 -12715008.18248  -9878141.60247  22117566.243    22117566.4944   22117573.2304
       187.0004        188.0004
 -10177788.67348  -7889716.76446  22606025.425    22606025.3244   22606028.2174
       175.0004        177.0004
 -12379004.59648  -9616694.28647  22071865.441    22071865.6414   22071872.1314
       190.0004        192.0004
 -12509254.97648  -9560166.61946  22003145.496    22003144.4714   22003148.9254
       182.0004        183.0004
  -8653594.31048  -6428043.11747  23103115.182    23103115.3074   23103124.9984
       192.0004        192.0004
  -3300301.72047  -2563044.11346  23153791.880    23153793.8014   23153800.6584
       162.0004        163.0004
 -22276532.24649 -17345579.88047  20681042.531    20681042.9784   20681047.2134
       208.0004        209.0004
 -19587885.18449 -15252879.73847  21013606.251    21013607.2234   21013615.9584
       195.0004        195.0004
  -3302167.74047  -2283202.80645  23897792.628    23897791.2984   23897796.5054
       151.0004        153.0004
 21  2  3  1 29 30.0000000  0 10G28G30G17G09G21G08G14G07G01G04
  -1903093.43547  -1476445.15045  23564293.600    23564293.9574   23564299.0834
       148.0004        153.0004
 -12797706.54848  -9942581.88247  22101829.495    22101829.6594   22101836.7524
       188.0004        189.0004
 -10241903.52648  -7939676.38446  22593823.185    22593823.0044   22593828.6364
       175.0004        176.0004
 -12307050.64448  -9560626.27647  22085557.648    22085558.0324   22085564.4934
       191.0004        192.0004
 -12473597.39748  -9532381.47346  22009929.887    22009929.9574   22009935.0094
       182.0004        182.0004
  -8559035.30148  -6354360.77247  23121109.181    23121109.7384   23121118.1954
       191.0004        191.0004
  -3326874.79247  -2583750.40945  23148737.791    23148739.3574   23148743.3614
       161.0004        162.0004
 -22325016.17949 -17383359.56947  20671816.347    20671816.8504   20671821.3434
       208.0004        209.0004
 -19626040.85849 -15282611.42347  21006346.304    21006347.0744   21006354.8634
       195.0004        195.0004
  -3204537.60947  -2207127.38245  23916369.539    23916371.0064   23916375.3444
       150.0004        152.0004
 21  2  3  1 30  0.0000000  0 10G28G30G17G09G21G08G14G07G01G04
  -1918671.70547  -1488584.07345  23561328.200    23561328.4954   23561333.9084
       149.0004        151.0004
 -12880244.36248 -10006897.05847  22086124.026    22086123.7594   22086129.7114
       188.0004        188.0004
 -10305624.24748  -7989328.89946  22581698.200    22581698.5714   22581702.8924
       176.0004        178.0004
 -12234879.50148  -9504389.00647  22099291.173    22099291.7764   22099298.9304
       192.0004        193.0004
 -12437450.82548  -9504215.29746  22016808.265    22016808.0214   22016812.6754
       182.0004        181.0004
  -8464444.46548  -6280653.62947  23139108.317    23139109.3804   23139119.7224
       191.0004        193.0004
  -3353487.07447  -2604487.23146  23143676.519    23143676.3954   23143679.8064
       164.0004        166.0004
 -22373116.74349 -17420840.53747  20662663.617    20662664.1194   20662667.6974
       208.0004        209.0004
 -19663704.49149 -15311959.69747  20999178.513    20999179.6874   20999187.6504
       195.0004        195.0004
  -3106962.62047  -2131094.91145  23934936.909    23934937.1474   23934943.3394
       149.0004        152.0004
 21  2  3  1 30 30.0000000  0 10G28G30G17G09G21G08G14G07G01G04
  -1934294.46947  -1500757.63245  23558356.494    23558355.5094   23558360.7854
       147.0004        150.0004
 -12962619.53948 -10071085.50546  22070446.915    22070447.2384   22070454.1784
       187.0004        187.0004
 -10368950.13148  -8038673.71646  22569647.640    22569647.8664   22569653.3794
       177.0004        178.0004
 -12162494.64248  -9447985.22747  22113065.222    22113064.9794   22113072.9704
       192.0004        192.0004
 -12400816.23648  -9475668.86146  22023780.306    22023779.8284   22023784.5864
       182.0004        182.0004
  -8369825.44748  -6206924.53047  23157113.938    23157114.9294   23157124.4794
       192.0004        192.0004
  -3380139.83947  -2625255.57246  23138602.598    23138603.5154   23138608.0484
       164.0004        164.0004
 -22420831.99549 -17458021.24347  20653583.510    20653583.7254   20653587.6644
       208.0004        209.0004
 -19700874.08249 -15340923.00247  20992106.153    20992106.9534   20992114.7534
       195.0004        196.0004
  -3009445.79047  -2055107.76145  23953492.949    23953492.9834   23953501.3594
       149.0004        152.0004
 21  2  3  1 31  0.0000000  0 10G28G30G17G09G21G08G14G07G01G04
  -1949963.04147  -1512966.89245  23555375.513    23555375.9314   23555378.5994
       147.0004        150.0004
 -13044829.21248 -10135144.97446  22054802.209    22054803.2174   22054810.4554
       186.0004        187.0004
 -10431880.30748  -8087710.20446  22557671.881    22557672.0704   22557677.2734
       176.0004        176.0004
 -12089898.75848  -9391417.00447  22126879.102    22126879.9694   22126887.7234
       191.0004        191.0004
 -12363693.63248  -9446742.14146  22030844.644    22030844.0574   22030848.2184
       182.0004        182.0004
  -8275179.80848  -6133174.69047  23175125.777    23175126.2994   23175134.1314
       191.0004        191.0004
  -3406833.55347  -2646055.89346  23133522.640    23133521.8134   23133527.2414
       162.0004        163.0004
 -22468159.16749 -17494899.56547  20644577.241    20644577.7794   20644581.7474
       208.0004        209.0004
 -19737546.96649 -15369499.27347  20985128.178    20985128.2134   20985135.8354
       196.0004        196.0004
  -2911989.35647  -1979167.70745  23972038.229    23972039.2164   23972046.9574
       149.0004        151.0004
 21  2  3  1 31 30.0000000  0 12G28G30G17G09G21G08G19G14G22G07G01G04
  -1965679.49147  -1525213.48045  23552384.065    23552383.8614   23552388.1774
       146.0004        149.0004
 -13126871.54448 -10199074.09747  22039191.836    22039191.9434   22039197.8764
       187.0004        188.0004
 -10494414.88348  -8136438.44446  22545771.661    22545772.1284   22545776.1714
       176.0004        178.0004
 -12017095.76348  -9334687.42547  22140734.043    22140733.7654   22140741.7374
       190.0004        190.0004
 -12326085.07848  -9417436.78346  22038001.216    22038000.6514   22038004.8444
       182.0004        182.0004
  -8180511.04248  -6059406.84247  23193140.063    23193141.1544   23193148.9764
       190.0004        190.0004
  -1463641.92157  -1109024.89745  24853179.253                    24853185.2264
       139.0004        152.0004
  -3433569.99347  -2666889.48546  23128434.252    23128435.2374   23128440.3814
       164.0004        167.0004
   2271130.96154   1795953.263 3                                  24792207.030
        74.0004         74.000
 -22515096.65849 -17531474.24647  20635645.428    20635645.9264   20635650.0064
       208.0004        209.0004
 -19773721.55349 -15397687.26447  20978244.609    20978244.8174   20978252.5694
       196.0004        197.0004
  -2814596.68347  -1903277.36545  23990573.653    23990572.0534   23990579.4984
       147.0004        149.0004
 21  2  3  1 32  0.0000000  0 12G28G30G17G09G21G08G19G14G22G07G01G04
  -1981445.24547  -1537498.47145  23549383.986    23549383.8914   23549388.9804
       147.0004        150.0004
 -13208744.03348 -10262870.83646  22023611.547    22023611.2834   22023618.2194
       187.0004        186.0004
 -10556553.03448  -8184857.75846  22533947.968    22533947.6744   22533952.0154
       177.0004        178.0004
 -11944088.77548  -9277798.88147  22154626.965    22154627.2754   22154633.5174
       190.0004        191.0004
 -12287991.45648  -9387753.43746  22045248.746    22045249.2084   22045254.2654
       181.0004        182.0004
  -8085821.44148  -5985622.76447  23211159.474    23211159.6424   23211168.0204
       189.0004        189.0004
  -1555310.68647  -1180455.05145  24835733.676    24835734.4824   24835739.7764
       149.0004        154.0004
  -3460350.04247  -2687757.04546  23123337.861    23123338.4874   23123344.3704
       164.0004        164.0004
   2271130.96144   1795953.263 3                                  24792207.030
        74.0004         76.000
 -22561642.07949 -17567743.39747  20626788.647    20626788.8084   20626792.7734
       209.0004        210.0004
 -19809395.53549 -15425485.18447  20971454.390    20971455.3724   20971463.9404
       197.0004        196.0004
  -2717270.40447  -1827438.73745  24009093.073    24009093.9984   24009098.8614
       146.0004        149.0004
 21  2  3  1 32 30.0000000  0 12G28G30G17G09G21G08G19G14G22G07G01G04
  -1997262.35747  -1549823.45745  23546373.975    23546373.5074   23546378.2854
       147.0004        151.0004
 -13290444.59148 -10326533.59146  22008063.445    22008063.9224   22008071.2944
       186.0004        187.0004
 -10618294.50848  -8232967.97946  22522198.474    22522198.2624   22522203.6724
       177.0004        178.0004
 -11870881.29848  -9220754.09347  22168557.933    22168557.8394   22168565.2394
       190.0004        191.0004
 -12249413.60748  -9357692.76946  22052590.062    22052590.5424   22052595.0264
       181.0004        181.0004
  -7991113.88848  -5911824.67447  23229182.831    23229182.0564   23229190.2064
       189.0004        189.0004
  -1646775.91047  -1251726.61345  24818328.626    24818328.2914   24818334.3104
       149.0004        153.0004
  -3487174.96747  -2708659.56045  23118233.052    23118233.2964   23118240.5064
       161.0004        162.0004
   2271130.96144   1795953.263 3                                  24792207.030
        74.0004         76.000
 -22607792.94349 -17603705.11447  20618005.278    20618006.1384   20618010.7374
       209.0004        209.0004
 -19844567.03749 -15452891.53447  20964761.655    20964762.8704   20964770.6284
       196.0004        197.0004
  -2620013.60947  -1751654.21445  24027598.910    24027600.7024   24027605.8054
       144.0004        146.0004
 21  2  3  1 33  0.0000000  0 11G28G30G17G09G21G08G19G14G07G01G04
  -2013131.70247  -1562189.19045  23543354.251    23543353.2714   23543358.5264
       148.0004        152.0004
 -13371970.81148 -10390060.50047  21992550.343    21992550.3174   21992557.4454
       187.0004        189.0004
 -10679638.44548  -8280768.42646  22510524.362    22510525.6024   22510530.7044
       178.0004        180.0004
 -11797476.56248  -9163555.59347  22182526.073    22182526.3994   22182533.6964
       190.0004        190.0004
 -12210352.23548  -9327255.33346  22060023.885    22060023.6024   22060028.2224
       181.0004        181.0004
  -7896391.28448  -5838014.86447  23247207.392    23247207.3624   23247215.0924
       188.0004        188.0004
  -1738036.06847  -1322838.38445  24800963.285    24800962.8414   24800967.3374
       148.0004        150.0004
  -3514045.76347  -2729597.84645  23113120.168    23113120.4224   23113125.8094
       159.0004        160.0004
 -22653547.01349 -17639357.63147  20609299.274    20609299.9044   20609303.9204
       209.0004        210.0004
 -19879233.88949 -15479904.64747  20958165.324    20958165.7724   20958173.6334
       197.0004        197.0004
  -2522828.91647  -1675925.86345  24046093.476    24046093.4564   24046099.3274
       142.0004        147.0004
 21  2  3  1 33 30.0000000  0 11G28G30G17G09G21G08G19G14G07G01G04
  -2029053.51347  -1574595.76145  23540323.926    23540323.9614   23540328.4644
       149.0004        153.0004
 -13453318.71548 -10453448.47047  21977070.038    21977070.4744   21977077.0144
       188.0004        189.0004
 -10740582.76548  -8328257.49146  22498928.815    22498928.2244   22498933.5294
       180.0004        181.0004
 -11723876.27848  -9106204.73247  22196532.610    22196532.2784   22196538.8524
       189.0004        189.0004
 -12170807.18248  -9296440.99446  22067549.485    22067548.7794   22067553.6044
       181.0004        182.0004
  -7801653.93548  -5764193.55647  23265235.802    23265235.3014   23265242.7914
       189.0004        189.0004
  -1829088.45547  -1393788.27445  24783635.827    24783634.7714   24783639.6344
       145.0004        147.0004
  -3540961.92847  -2750571.45545  23107997.418    23107997.7114   23108003.4124
       160.0004        161.0004
 -22698900.16449 -17674697.75347  20600668.911    20600669.1364   20600673.4624
       209.0004        209.0004
 -19913392.48149 -15506521.72647  20951665.670    20951666.2224   20951673.6354
       197.0004        198.0004
  -2425717.56547  -1600254.69045  24064575.526    24064573.3574   24064580.2474
       142.0004        147.0004
 21  2  3  1 34  0.0000000  0 11G28G30G17G09G21G08G19G14G07G01G04
  -2045028.55747  -1587043.84745  23537283.877    23537284.9314   23537289.1064
       151.0004        154.0004
 -13534485.12548 -10516695.02847  21961625.366    21961624.7234   21961631.6924
       189.0004        190.0004
 -10801126.71048  -8375434.58146  22487406.836    22487407.2234   22487412.2644
       181.0004        182.0004
 -11650082.92848  -9048703.42747  22210573.908    22210574.2604   22210582.5564
       190.0004        190.0004
 -12130778.49248  -9265249.80846  22075165.779    22075166.0114   22075170.5814
       180.0004        180.0004
  -7706904.16448  -5690362.57046  23283264.184    23283264.6654   23283274.1964
       188.0004        187.0004
  -1919930.97947  -1464574.58245  24766348.323    24766346.8734   24766353.6684
       141.0004        144.0004
  -3567923.64047  -2771580.59146  23102868.008    23102868.8464   23102873.5934
       162.0004        164.0004
 -22743849.61249 -17709723.30347  20592114.779    20592115.5104   20592119.7494
       209.0004        209.0004
 -19947039.88949 -15532740.49547  20945262.600    20945263.3444   20945270.8444
       198.0004        198.0004
  -2328681.42347  -1524642.13745  24083040.476    24083040.2444   24083044.9854
       142.0004        146.0004
 21  2  3  1 34 30.0000000  0 11G28G30G17G09G21G08G19G14G07G01G04
  -2061057.55147  -1599533.98345  23534234.075    23534233.6554   23534238.7094
       150.0004        152.0004
 -13615466.85048 -10579797.67447  21946215.122    21946215.2364   21946221.6804
       190.0004        190.0004
 -10861268.67248  -8422298.42046  22475961.743    22475962.6784   22475967.8354
       181.0004        182.0004
 -11576098.93848  -8991053.58147  22224652.385    22224652.5434   22224660.0334
       189.0004        189.0004
 -12090266.40248  -9233681.93846  22082875.676    22082874.7394   22082880.1714
       180.0004        180.0004
  -7612143.41748  -5616523.03646  23301295.569    23301296.4254   23301306.1474
       186.0004        186.0004
  -2010560.96647  -1535195.34545  24749102.314    24749101.0624   24749107.1904
       139.0004        144.0004
  -3594931.16347  -2792625.41946  23097728.595    23097729.6354   23097734.8824
       164.0004        166.0004
 -22788392.10649 -17744431.74347  20583638.709    20583639.3104   20583643.6614
       209.0004        209.0004
 -19980173.31549 -15558558.73947  20938957.460    20938957.9304   20938965.7104
       198.0004        198.0004
  -2231722.51047  -1449089.76245  24101489.230    24101490.8074   24101496.0804
       143.0004        148.0004
 21  2  3  1 35  0.0000000  0 11G28G30G17G09G21G08G19G14G07G01G04
  -2077142.03047  -1612067.32945  23531173.505    23531173.8334   23531178.1524
       148.0004        150.0004
 -13696261.42348 -10642754.49947  21930840.505    21930840.0944   21930847.2544
       191.0004        191.0004
 -10921008.06748  -8468848.58546  22464593.982    22464593.9124   22464598.9114
       181.0004        181.0004
 -11501927.53148  -8933257.69847  22238766.680    22238767.3264   22238774.4184
       188.0004        189.0004
 -12049271.92248  -9201738.20046  22090676.515    22090676.5034   22090681.5294
       180.0004        180.0004
  -7517374.09848  -5542676.81346  23319328.558    23319330.4504   23319340.2624
       186.0004        186.0004
  -2100977.66047  -1605649.87745  24731895.980    24731896.5594   24731900.8114
       141.0004        145.0004
  -3621985.36648  -2813706.61046  23092581.992    23092581.1944   23092586.1274
       165.0004        167.0004
 -22832525.36849 -17778821.30947  20575240.532    20575241.0094   20575245.3034
       209.0004        209.0004
 -20012790.61749 -15583974.81747  20932751.022    20932751.3874   20932758.4974
       198.0004        198.0004
  -2134843.41247  -1373599.56145  24119925.345    24119926.3104   24119931.7174
       146.0004        149.0004
 21  2  3  1 35 30.0000000  0 11G28G30G17G09G21G08G19G14G07G01G04
  -2093283.81847  -1624645.35045  23528100.951    23528100.4584   23528105.6974
       146.0004        149.0004
 -13776866.99148 -10705564.03647  21915501.193    21915501.3974   21915508.2424
       190.0004        190.0004
 -10980345.28948  -8515085.37446  22453302.746    22453302.6584   22453307.3734
       180.0004        179.0004
 -11427572.48748  -8875318.71547  22252916.596    22252917.2104   22252924.3064
       188.0004        189.0004
 -12007796.68248  -9169419.83346  22098568.745    22098568.1634   22098573.5534
       180.0004        179.0004
  -7422599.69948  -5468826.65246  23337365.223    23337365.9154   23337374.9074
       185.0004        184.0004
  -2191179.81247  -1675937.21345  24714732.304    24714731.9524   24714735.5264
       141.0004        145.0004
  -3649087.90447  -2834825.42245  23087421.807    23087422.6604   23087428.3574
       163.0004        162.0004
 -22876247.60349 -17812890.58947  20566920.877    20566921.2864   20566925.1734
       209.0004        210.0004
 -20044890.38449 -15608987.61747  20926641.949    20926642.7264   20926650.2424
       198.0004        198.0004
  -2038047.38047  -1298174.13145  24138346.222    24138346.4754   24138351.9754
       146.0004        149.0004
 21  2  3  1 36  0.0000000  0 11G28G30G17G09G21G08G19G14G07G01G04
  -2109484.20147  -1637268.98545  23525019.682    23525020.4534   23525023.5404
       146.0004        151.0004
 -13857281.15648 -10768224.41347  21900198.701    21900199.2434   21900205.7934
       190.0004        191.0004
 -11039279.42448  -8561008.05146  22442088.229    22442088.4344   22442092.8434
       181.0004        182.0004
 -11353037.10948  -8817239.19247  22267100.169    22267100.4734   22267107.6974
       188.0004        188.0004
 -11965841.57548  -9136727.53246  22106553.663    22106552.7394   22106556.0794
       179.0004        179.0004
  -7327822.24148  -5394974.09146  23355404.229    23355402.6754   23355411.2564
       185.0004        186.0004
  -2281165.94947  -1746056.25745  24697610.150    24697608.7294   24697611.0064
       142.0004        147.0004
  -3676239.61347  -2855982.61346  23082256.949    23082256.7644   23082260.9104
       163.0004        165.0004
 -22919556.19849 -17846637.54747  20558678.598    20558679.5534   20558683.8504
       209.0004        209.0004
 -20076470.58049 -15633595.55747  20920632.818    20920633.3024   20920640.6884
       198.0004        199.0004
  -1941337.07247  -1222815.47345  24156748.467    24156748.2284   24156755.0094
       146.0004        150.0004
 21  2  3  1 36 30.0000000  0 11G28G30G17G09G21G08G19G14G07G01G04
  -2125746.06947  -1649940.56445  23521924.343    23521924.2444   23521929.2044
       147.0004        150.0004
 -13937502.87548 -10830734.84047  21884933.281    21884933.7954   21884940.7774
       192.0004        193.0004
 -11097811.49148  -8606617.44446  22430950.771    22430950.9494   22430954.6594
       181.0004        182.0004
 -11278326.02348  -8759022.76746  22281316.900    22281317.3084   22281324.3624
       187.0004        186.0004
 -11923408.94748  -9103663.14446  22114627.249    22114626.7554   22114631.4894
       179.0004        179.0004
  -7233046.06848  -5321122.54046  23373440.802    23373438.8854   23373446.8524
       187.0004        187.0004
  -2370935.92447  -1816006.85245  24680526.767    24680526.4924   24680527.1714
       141.0004        144.0004
  -3703442.97547  -2877180.04346  23077080.569    23077080.2224   23077085.6954
       164.0004        166.0004
 -22962450.19749 -17880061.44247  20550516.708    20550517.2234   20550521.3154
       209.0004        210.0004
 -20107530.69349 -15657798.23947  20914722.100    20914722.8984   20914730.1504
       198.0004        199.0004
  -1844716.59947  -1147526.81145  24175135.397    24175134.3164   24175140.4884
       145.0004        148.0004
 21  2  3  1 37  0.0000000  0 11G28G30G17G09G21G08G19G14G07G01G04
  -2142069.01847  -1662659.72245  23518818.657    23518817.5834   23518822.8364
       147.0004        150.0004
 -14017527.72548 -10893091.87047  21869704.582    21869705.1984   21869712.4024
       193.0004        194.0004
 -11155938.98448  -8651911.59146  22419887.618    22419888.9604   22419893.6214
       181.0004        182.0004
 -11203440.49548  -8700670.42946  22295566.520    22295567.1814   22295574.6014
       185.0004        185.0004
 -11880498.02048  -9070226.06846  22122793.421    22122793.4064   22122797.4324
       179.0004        180.0004
  -7138271.74448  -5247272.44946  23391475.662    23391474.9584   23391480.5154
       187.0004        187.0004
  -2460486.91647  -1885786.82045  24663485.431    24663484.0334   24663486.3894
       139.0004        144.0004
  -3730696.93847  -2898416.87446  23071892.878    23071893.4154   23071899.2564
       164.0004        165.0004
 -23004925.72549 -17913159.26947  20542434.415    20542434.4644   20542438.2484
       209.0004        210.0004
 -20138066.74849 -15681592.57347  20908912.159    20908912.4604   20908919.6554
       199.0004        199.0004
  -1748186.68547  -1072308.73345  24193502.377    24193502.6744   24193508.8214
       144.0004        148.0004
 21  2  3  1 37 30.0000000  0 11G28G30G17G09G21G08G19G14G07G01G04
  -2158453.76947  -1675427.07945  23515700.264    23515700.8864   23515705.0874
       148.0004        151.0004
 -14097352.60948 -10955293.07047  21854515.441    21854515.3304   21854521.9774
       193.0004        193.0004
 -11213661.45348  -8696890.14346  22408904.347    22408905.2074   22408909.2264
       181.0004        181.0004
 -11128383.08648  -8642184.14746  22309850.246    22309850.1974   22309857.8204
       185.0004        185.0004
 -11837109.62548  -9036416.93546  22131049.849    22131049.0754   22131054.4684
       179.0004        179.0004
  -7043500.57648  -5173424.78546  23409506.545    23409507.2804   23409514.1714
       186.0004        186.0004
  -2549816.94247  -1955394.55445  24646484.628    24646483.7964   24646489.5764
       139.0004        143.0004
  -3758001.68648  -2919693.29646  23066697.903    23066698.0064   23066702.7404
       165.0004        166.0004
 -23046979.74249 -17945928.63947  20534431.414    20534431.8144   20534435.8604
       209.0004        210.0004
 -20168076.10449 -15704976.48747  20903201.018    20903201.4544   20903209.2714
       199.0004        199.0004
  -1651749.20947   -997162.66845  24211855.363    24211856.2094   24211861.0354
       145.0004        149.0004
 21  2  3  1 38  0.0000000  0 11G28G30G17G09G21G08G19G14G07G01G04
  -2174900.49247  -1688242.69845  23512570.746    23512571.1424   23512575.3244
       149.0004        153.0004
 -14176973.89548 -11017335.63747  21839364.273    21839364.0634   21839370.4214
       193.0004        193.0004
 -11270977.02848  -8741551.60646  22397997.536    22397997.8854   22398001.1864
       180.0004        181.0004
 -11053155.86548  -8583565.52946  22324165.416    22324165.4224   22324172.6834
       185.0004        185.0004
 -11793243.54448  -9002235.56946  22139396.308    22139396.3244   22139401.1794
       179.0004        179.0004
  -6948734.38048  -5099581.01446  23427540.576    23427540.7534   23427549.1404
       186.0004        186.0004
  -2638923.41347  -2024828.16445  24629529.353    24629527.8734   24629530.7574
       137.0004        142.0004
  -3785357.05847  -2941009.12846  23061491.447    23061492.0434   23061497.1904
       164.0004        165.0004
 -23088608.97949 -17978366.99647  20526509.510    20526509.8784   20526514.2554
       209.0004        210.0004
 -20197555.68949 -15727947.57647  20897591.409    20897591.6174   20897599.2564
       199.0004        199.0004
  -1555405.68947   -922089.79945  24230187.883    24230188.6864   24230194.6524
       147.0004        149.0004
 21  2  3  1 38 30.0000000  0 11G28G30G17G09G21G08G19G14G07G01G04
  -2191411.35947  -1701108.31645  23509427.660    23509427.3374   23509431.9924
       146.0004        146.0004
 -14256389.80048 -11079218.17547  21824250.763    21824251.3854   21824258.1184
       194.0004        194.0004
 -11327886.11748  -8785896.34346  22387168.261    22387167.8934   22387171.0744
       180.0004        180.0004
 -10977762.73648  -8524817.66946  22338511.946    22338512.4774   22338519.6084
       184.0004        184.0004
 -11748901.56048  -8967683.36546  22147834.471    22147834.0514   22147839.0744
       178.0004        178.0004
  -6853975.80948  -5025743.20246  23445573.227    23445572.8124   23445579.9914
       184.0004        184.0004
  -2727805.78847  -2094087.14145  24612615.532    24612614.6204   24612617.3774
       138.0004        142.0004
  -3812764.58747  -2962365.64246  23056276.459    23056277.3704   23056282.1794
       164.0004        166.0004
 -23129811.98249 -18010473.24447  20518669.025    20518669.2544   20518673.3524
       209.0004        210.0004
 -20226504.29449 -15750504.92847  20892081.694    20892082.4814   20892090.5054
       199.0004        199.0004
  -1459159.43347   -847092.73845  24248502.680    24248503.4704   24248510.6674
       147.0004        150.0004
 21  2  3  1 39  0.0000000  0 11G28G30G17G09G21G08G19G14G07G01G04
  -2207987.95147  -1714025.14945  23506274.302    23506273.4014   23506279.2174
       145.0004        149.0004
 -14335598.08748 -11140938.91147  21809177.650    21809178.1834   21809185.0574
       194.0004        194.0004
 -11384388.36648  -8829924.06146  22376415.425    22376416.1514   22376420.3994
       180.0004        180.0004
 -10902207.10848  -8465943.14546  22352890.465    22352890.7404   22352897.0964
       184.0004        184.0004
 -11704085.04248  -8932761.40346  22156363.498    22156363.2804   22156367.5034
       178.0004        179.0004
  -6759227.60848  -4951913.44046  23463601.924    23463602.3364   23463610.2914
       183.0004        184.0004
  -2816462.57147  -2163170.30045  24595742.569    24595741.2644   24595745.2494
       135.0004        139.0004
  -3840225.40648  -2983763.67246  23051052.204    23051051.6304   23051056.7244
       166.0004        167.0004
 -23170586.31149 -18042245.45247  20510910.318    20510910.4554   20510914.6524
       210.0004        210.0004
 -20254920.22149 -15772647.20547  20886674.584    20886674.7304   20886683.4214
       199.0004        199.0004
  -1363013.14647   -772173.55745  24266798.048    24266799.9814   24266806.1244
       147.0004        150.0004
 21  2  3  1 39 30.0000000  0 11G28G30G17G09G21G08G19G14G07G01G04
  -2224631.19047  -1726993.90945  23503107.118    23503107.7074   23503111.5884
       147.0004        151.0004
 -14414595.59948 -11202495.41447  21794146.090    21794146.2634   21794151.7864
       194.0004        194.0004
 -11440482.77448  -8873633.95446  22365741.639    22365741.8824   22365746.4464
       179.0004        180.0004
 -10826491.57548  -8406944.02646  22367298.850    22367298.9324   22367305.6734
       184.0004        186.0004
 -11658794.64848  -8897470.18446  22164981.879    22164982.0734   22164985.9344
       178.0004        179.0004
  -6664491.61448  -4878093.19846  23481628.811    23481629.1474   23481638.5494
       183.0004        183.0004
  -2904891.92147  -2232076.25345  24578917.253    24578917.3044   24578919.3124
       137.0004        143.0004
  -3867739.75448  -3005203.40746  23045813.986    23045814.7834   23045821.0154
       166.0004        167.0004
 -23210929.10349 -18073681.38947  20503233.124    20503233.2384   20503237.6324
       210.0004        211.0004
 -20282800.95149 -15794372.43447  20881369.495    20881370.0204   20881377.6424
       198.0004        199.0004
  -1266968.89447   -697333.90645  24285075.311    24285076.1694   24285081.7534
       146.0004        148.0004
 21  2  3  1 40  0.0000000  0 11G28G30G17G09G21G08G19G14G07G01G04
  -2241342.23347  -1740015.51245  23499926.063    23499927.0254   23499931.5134
       148.0004        151.0004
 -14493379.82448 -11263885.73447  21779153.605    21779153.7334   21779160.4554
       194.0004        194.0004
 -11496169.25648  -8917026.02946  22355144.430    22355145.0304   22355149.3074
       180.0004        180.0004
 -10750619.23748  -8347822.73346  22381737.076    22381736.8114   22381743.5844
       185.0004        185.0004
 -11613031.33048  -8861810.45246  22173689.886    22173689.8974   22173694.9114
       178.0004        178.0004
  -6569770.13148  -4804284.26146  23499654.486    23499655.0514   23499663.2634
       184.0004        186.0004
  -2993092.46347  -2300803.89945  24562133.787    24562132.8234   24562135.6204
       142.0004        147.0004
  -3895308.43348  -3026685.50646  23040568.366    23040569.0794   23040574.3774
       165.0004        165.0004
 -23250838.08849 -18104779.31847  20495637.916    20495638.6914   20495642.9644
       210.0004        210.0004
 -20310144.58149 -15815679.15747  20876166.259    20876166.3244   20876174.4294
       198.0004        198.0004
  -1171029.11747   -622575.66945  24303330.531    24303333.0334   24303339.7164
       144.0004        147.0004
 21  2  3  1 40 30.0000000  0 11G28G30G17G09G21G08G19G14G07G01G04
  -2258122.73947  -1753091.21745  23496733.293    23496733.3644   23496737.7784
       148.0004        151.0004
 -14571948.73148 -11325108.25647  21764202.206    21764202.1654   21764208.9074
       194.0004        194.0004
 -11551447.73748  -8960100.16246  22344624.277    22344625.7664   22344629.5374
       179.0004        179.0004
 -10674593.80748  -8288582.15846  22396202.456    22396203.0394   22396210.8234
       183.0004        182.0004
 -11566796.96248  -8825783.68546  22182488.072    22182488.5794   22182492.1754
       178.0004        178.0004
  -6475065.91248  -4730488.78646  23517676.175    23517676.6194   23517684.5494
       185.0004        185.0004
  -3081063.32447  -2369352.60745  24545392.853    24545392.0434   24545397.9874
       146.0004        150.0004
  -3922932.77448  -3048210.95646  23035312.265    23035312.6724   23035318.0024
       166.0004        168.0004
 -23290311.55749 -18135537.87947  20488126.908    20488127.2514   20488131.2334
       210.0004        211.0004
 -20336949.74649 -15836566.29747  20871064.167    20871065.5484   20871073.5874
       198.0004        198.0004
  -1075196.85347   -547901.21445  24321566.439    24321568.9544   24321575.0474
       143.0004        147.0004
 21  2  3  1 41  0.0000000  0 11G28G30G17G09G21G08G19G14G07G01G04
  -2274973.61547  -1766221.76845  23493526.638    23493526.9554   23493532.6244
       150.0004        155.0004
 -14650299.18448 -11386160.57547  21749293.483    21749293.2054   21749299.1734
       194.0004        195.0004
 -11606317.22148  -9002855.59146  22334184.241    22334184.6274   22334188.9854
       180.0004        181.0004
 -10598417.80548  -8229224.26646  22410699.104    22410699.6304   22410707.1644
       183.0004        184.0004
 -11520092.12048  -8789390.30246  22191375.708    22191376.4354   22191380.0284
       177.0004        178.0004
  -6380380.90248  -4656708.28446  23535694.150    23535695.1934   23535702.9494
       186.0004        186.0004
  -3168802.65547  -2437720.88345  24528697.699    24528696.2484   24528700.8514
       148.0004        151.0004
  -3950612.98748  -3069779.92246  23030043.030    23030043.7474   23030050.3854
       166.0004        167.0004
 -23329346.68849 -18165954.87147  20480698.568    20480699.0854   20480703.6474
       210.0004        211.0004
 -20363213.97049 -15857031.93647  20866067.450    20866067.7344   20866075.3314
       198.0004        198.0004
   -979474.00947   -473312.00845  24339783.621    24339785.8734   24339789.9024
       143.0004        147.0004
 21  2  3  1 41 30.0000000  0 11G28G30G17G09G21G08G19G14G07G01G04
  -2291896.85747  -1779408.71945  23490308.413    23490307.9974   23490310.9724
       154.0004        158.0004
 -14728429.27249 -11447041.15847  21734425.055    21734425.3174   21734432.0474
       195.0004        195.0004
 -11660778.27048  -9045292.75346  22323820.405    22323820.6064   22323824.9984
       181.0004        182.0004
 -10522095.04248  -8169751.96846  22425222.444    22425222.6274   22425230.3224
       182.0004        182.0004
 -11472918.57648  -8752631.67446  22200351.907    22200352.8204   22200357.5274
       177.0004        178.0004
  -6285717.79548  -4582944.82146  23553709.243    23553709.5624   23553716.8824
       186.0004        187.0004
  -3256309.87247  -2505908.27145  24512045.611    24512044.5294   24512047.7954
       149.0004        152.0004
  -3978350.44748  -3091393.52246  23024766.824    23024767.0114   23024771.5884
       167.0004        167.0004
 -23367941.72649 -18196028.92247  20473354.020    20473354.6824   20473359.1014
       210.0004        212.0004
 -20388936.11549 -15877075.14447  20861172.133    20861172.7714   20861180.3954
       198.0004        198.0004
   -883863.68847   -398810.47445  24357978.930    24357979.3324   24357984.4474
       143.0004        147.0004
 21  2  3  1 42  0.0000000  0 11G28G30G17G09G21G08G19G14G07G01G04
  -2308893.50147  -1792652.80645  23487073.279    23487072.8934   23487076.5824
       154.0004        157.0004
 -14806336.47549 -11507748.05947  21719599.946    21719599.7794   21719607.0134
       195.0004        196.0004
 -11714830.39848  -9087411.27846  22313534.204    22313535.5664   22313539.5004
       182.0004        182.0004
 -10445628.63848  -8110167.76246  22439774.234    22439774.9524   22439781.6904
       182.0004        182.0004
 -11425277.39948  -8715508.68246  22209419.608    22209417.9184   22209423.5754
       178.0004        178.0004
  -6191079.08148  -4509200.40146  23571719.431    23571718.9294   23571726.3214
       186.0004        186.0004
  -3343583.31847  -2573913.52745  24495435.862    24495435.8464   24495441.1924
       148.0004        151.0004
  -4006145.99948  -3113052.37846  23019477.441    23019477.6984   23019482.3494
       166.0004        167.0004
 -23406094.34949 -18225758.24447  20466094.226    20466094.5724   20466098.8024
       211.0004        211.0004
 -20414114.33549 -15896694.52447  20856381.279    20856381.6554   20856389.2154
       198.0004        198.0004
   -788368.44547   -324398.58945  24376150.108    24376150.7784   24376157.8734
       143.0004        145.0004
 21  2  3  1 42 30.0000000  0 11G28G30G17G09G21G08G19G14G07G01G04
  -2325964.54647  -1805954.92545  23483824.417    23483824.1484   23483828.0414
       154.0004        157.0004
 -14884017.70049 -11568278.89447  21704817.580    21704818.0304   21704824.5614
       195.0004        196.0004
 -11768472.73748  -9129210.49246  22303325.442    22303326.2684   22303330.9454
       181.0004        180.0004
 -10369021.26848  -8050473.70446  22454351.890    22454352.2994   22454359.9634
       182.0004        181.0004
 -11377169.58248  -8678022.06946  22218573.467    22218573.9664   22218577.8574
       178.0004        178.0004
  -6096466.22648  -4435476.12346  23589721.789    23589722.2404   23589729.2454
       185.0004        184.0004
  -3430621.21247  -2641735.22545  24478873.546    24478872.5994   24478877.8354
       149.0004        152.0004
  -4033999.91048  -3134756.71146  23014175.351    23014176.4824   23014182.3604
       166.0004        166.0004
 -23443802.02449 -18255140.85847  20458918.478    20458918.9344   20458923.2684
       210.0004        211.0004
 -20438746.32949 -15915888.29247  20851693.211    20851694.4254   20851702.7174
       198.0004        199.0004
   -692990.21947   -250077.90545  24394299.542    24394301.4634   24394308.1064
       141.0004        145.0004
 21  2  3  1 43  0.0000000  0 11G28G30G17G09G21G08G19G14G07G01G04
  -2343109.60847  -1819314.69145  23480563.079    23480563.9034   23480566.2304
       155.0004        158.0004
 -14961468.85749 -11628630.44647  21690079.315    21690079.5294   21690086.3854
       196.0004        196.0004
 -11821703.70148  -9170689.16546  22293196.368    22293197.4054   22293202.0904
       181.0004        183.0004
 -10292274.42048  -7990670.97546  22468956.694    22468957.1694   22468963.7534
       182.0004        183.0004
 -11328594.77048  -8640171.55746  22227816.348    22227816.3454   22227821.0824
       177.0004        178.0004
  -6001880.21548  -4361772.75746  23607721.412    23607721.1514   23607729.4734
       184.0004        184.0004
  -3517420.81747  -2709371.25045  24462356.161    24462355.1494   24462359.7104
       147.0004        150.0004
  -4061911.36348  -3156505.87946  23008865.890    23008866.0204   23008870.1344
       165.0004        166.0004
 -23481061.05249 -18284173.86947  20451828.268    20451829.1044   20451833.3224
       211.0004        211.0004
 -20462828.79049 -15934653.83847  20847111.114    20847111.8094   20847119.5794
       198.0004        198.0004
   -597729.88847   -175849.11445  24412426.145    24412428.8724   24412436.0504
       138.0004        141.0004
 21  2  3  1 43 30.0000000  0 11G28G30G17G09G21G08G19G14G07G01G04
  -2360330.48147  -1832733.52045  23477286.120    23477285.4934   23477288.8784
       154.0004        155.0004
 -15038688.30849 -11688801.45947  21675384.722    21675385.0074   21675391.8784
       196.0004        196.0004
 -11874523.62348  -9211847.54946  22283146.139    22283146.1014   22283151.4424
       183.0004        185.0004
 -10215392.26148  -7930762.82946  22483587.181    22483588.0304   22483593.9284
       183.0004        184.0004
 -11279555.28348  -8601958.98446  22237148.265    22237147.7594   22237152.7914
       177.0004        178.0004
  -5907324.03448  -4288092.62746  23625712.647    23625713.3634   23625723.3234
       182.0004        182.0004
  -3603981.71747  -2776821.29745  24445884.945    24445884.2804   24445887.4874
       147.0004        151.0004
  -4089881.99747  -3178301.18146  23003543.488    23003542.8884   23003548.0074
       164.0004        165.0004
 -23517869.92049 -18312856.11247  20444823.736    20444824.0634   20444828.7344
       211.0004        211.0004
 -20486360.91649 -15952990.56947  20842632.262    20842633.1804   20842641.5924
       198.0004        198.0004
   -502590.81247   -101714.80145  24430533.184    24430532.2144   24430539.2514
       138.0004        142.0004
 21  2  3  1 44  0.0000000  0 11G28G30G17G09G21G08G19G14G07G01G04
  -2377628.36947  -1846212.38345  23473993.618    23473992.4864   23473997.2614
       150.0004        152.0004
 -15115673.08749 -11748789.60247  21660734.860    21660735.1294   21660741.7874
       195.0004        195.0004
 -11926932.26848  -9252685.44346  22273173.784    22273173.8164   22273177.7204
       184.0004        184.0004
 -10138377.50448  -7870751.34146  22498241.516    22498241.5764   22498250.0334
       182.0004        181.0004
 -11230052.06848  -8563385.04246  22246568.897    22246567.9484   22246573.6694
       177.0004        178.0004
  -5812799.58848  -4214437.22646  23643699.649    23643701.2774   23643709.9134
       183.0004        183.0004
  -3690302.28147  -2844084.03045  24429457.927    24429457.0314   24429462.2504
       148.0004        151.0004
  -4117912.19648  -3200142.87946  22998207.505    22998209.0234   22998214.6324
       165.0004        166.0004
 -23554226.02949 -18341185.55247  20437905.686    20437906.1134   20437910.1664
       211.0004        212.0004
 -20509340.55249 -15970896.77447  20838260.305    20838260.4524   20838268.1224
       198.0004        198.0004
   -407575.05347    -27676.58545  24448613.996    24448614.9914   24448619.3624
       136.0004        141.0004
 21  2  3  1 44 30.0000000  0 11G28G30G17G09G21G08G19G14G07G01G04
  -2395003.43447  -1859751.43445  23470683.029    23470683.1234   23470690.0654
       147.0004        149.0004
 -15192419.73349 -11808592.17047  21646130.853    21646130.3014   21646137.8154
       195.0004        195.0004
 -11978928.25548  -9293201.78246  22263278.062    22263278.9224   22263283.5544
       184.0004        184.0004
 -10061232.32848  -7810638.22946  22512921.285    22512921.9784   22512930.1614
       181.0004        182.0004
 -11180085.06348  -8524449.70746  22256077.509    22256077.2114   22256081.5334
       177.0004        179.0004
  -5718308.56748  -4140807.85046  23661682.549    23661682.2864   23661691.6814
       181.0004        181.0004
  -3776379.93747  -2911157.50245  24413078.925    24413078.2984   24413081.1834
       148.0004        151.0004
  -4146001.75748  -3222030.82846  22992864.662    22992864.3294   22992868.9034
       167.0004        169.0004
 -23590126.66649 -18369160.08147  20431074.557    20431074.9444   20431078.6434
       211.0004        212.0004
 -20531765.14749 -15988370.47647  20833991.959    20833993.0144   20834000.6004
       197.0004        197.0004
   -312684.15847     46264.35645  24466671.504    24466671.5034   24466677.1764
       136.0004        141.0004
 21  2  3  1 45  0.0000000  0 11G28G30G17G09G21G08G19G14G07G01G04
  -2412457.82447  -1873352.27245  23467363.311    23467364.5474   23467369.7944
       147.0004        152.0004
 -15268926.42249 -11868207.76047  21631571.050    21631571.8404   21631578.8214
       195.0004        196.0004
 -12030512.08548  -9333396.96846  22253461.377    22253462.2854   22253467.3444
       184.0004        184.0004
  -9983960.63048  -7750426.52046  22527626.793    22527627.0014   22527634.3284
       181.0004        182.0004
 -11129657.10948  -8485155.18846  22265672.157    22265672.6104   22265678.6494
       177.0004        177.0004
  -5623853.19648  -4067206.27646  23679656.861    23679656.8964   23679665.6124
       180.0004        182.0004
  -3862214.71147  -2978041.76045  24396745.581    24396744.5124   24396747.3844
       149.0004        152.0004
  -4174152.18648  -3243966.20846  22987505.898    22987506.8834   22987511.6874
       167.0004        167.0004
 -23625569.65349 -18396777.99347  20424329.413    20424329.7794   20424334.1594
       211.0004        212.0004
 -20553633.78349 -16005410.96547  20829832.088    20829831.7594   20829839.4114
       197.0004        198.0004
   -217921.25747    120105.53945  24484702.622    24484704.6734   24484711.0864
       135.0004        140.0004
 21  2  3  1 45 30.0000000  0 11G28G30G17G09G21G08G19G14G07G01G04
  -2429992.34247  -1887015.49145  23464031.259    23464030.0804   23464031.5674
       151.0004        155.0004
 -15345190.34649 -11927634.20547  21617060.002    21617060.1664   21617065.9874
       196.0004        196.0004
 -12081683.58048  -9373270.85446  22243724.963    22243725.6844   22243729.7384
       185.0004        186.0004
  -9906565.27548  -7690118.44746  22542355.570    22542355.6094   22542362.5544
       182.0004        183.0004
 -11078768.82648  -8445501.97346  22275356.670    22275357.1314   22275362.0544
       177.0004        178.0004
  -5529435.92348  -3993634.40046  23697625.645    23697623.7804   23697632.9964
       180.0004        179.0004
  -3947804.75647  -3044735.28345  24380458.006    24380456.9154   24380459.8824
       149.0004        151.0004
  -4202363.85848  -3265949.32746  22982138.641    22982139.0534   22982141.9434
       166.0004        166.0004
 -23660552.93549 -18424037.69547  20417672.065    20417672.9584   20417676.8274
       211.0004        212.0004
 -20574944.54249 -16022016.74547  20825774.716    20825776.2774   20825784.2564
       197.0004        197.0004
   -123288.41647    193845.36245  24502712.336    24502710.4474   24502717.8734
       135.0004        140.0004
 21  2  3  1 46  0.0000000  0 11G28G30G17G09G21G08G19G14G07G01G04
  -2447609.60547  -1900743.23945  23460677.847    23460677.4024   23460679.5024
       153.0004        155.0004
 -15421210.16049 -11986870.42547  21602594.092    21602593.6444   21602599.5314
       196.0004        196.0004
 -12132443.84248  -9412824.28746  22234065.252    22234065.8974   22234070.3064
       185.0004        186.0004
  -9829050.56548  -7629717.37246  22557105.181    22557105.3434   22557113.0984
       182.0004        183.0004
 -11027422.54148  -8405491.88446  22285127.795    22285127.1034   22285132.4354
       177.0004        176.0004
  -5435060.10248  -3920094.82946  23715581.828    23715582.4874   23715591.5704
       179.0004        179.0004
  -4033149.74147  -3111237.81945  24364216.803    24364216.5804   24364219.3324
       151.0004        155.0004
  -4230638.79648  -3287981.74246  22976757.481    22976758.0514   22976763.1354
       167.0004        169.0004
 -23695076.10449 -18450938.87547  20411102.631    20411103.1524   20411107.3354
       211.0004        212.0004
 -20595697.02149 -16038187.51347  20821826.535    20821827.1034   20821835.0794
       197.0004        198.0004
    -28789.40847    267480.92245  24520692.042    24520693.6414   24520700.0204
       135.0004        140.0004
 21  2  3  1 46 30.0000000  0 11G28G30G17G09G21G08G19G14G07G01G04
  -2465308.77247  -1914534.79045  23457307.055    23457306.2124   23457312.4684
       152.0004        152.0004
 -15496981.18249 -12045912.77047  21588173.875    21588174.3814   21588181.5004
       196.0004        196.0004
 -12182790.03548  -9452055.07546  22224484.832    22224485.0954   22224489.9654
       185.0004        185.0004
  -9751417.57648  -7569224.14146  22571877.472    22571877.9454   22571885.1684
       181.0004        181.0004
 -10975617.94048  -8365124.67946  22294985.411    22294985.3684   22294991.1614
       176.0004        177.0004
  -5340725.70948  -3846587.52246  23733531.999    23733532.8504   23733542.2304
       178.0004        178.0004
  -4118246.71247  -3177547.14245  24348023.547    24348022.3834   24348026.7424
       152.0004        155.0004
  -4258975.57348  -3310062.33246  22971365.186    22971365.8734   22971370.6524
       170.0004        171.0004
 -23729134.25349 -18477477.69848  20404622.200    20404622.4834   20404626.5684
       211.0004        213.0004
 -20615887.57549 -16053920.41847  20817984.817    20817985.2974   20817993.1074
       197.0004        197.0004
     65575.55847    341012.00345  24538650.823    24538651.1984   24538658.7324
       137.0004        143.0004
 21  2  3  1 47  0.0000000  0 11G28G30G17G09G21G08G19G14G07G01G04
  -2483089.78447  -1928390.11245  23453922.172    23453923.6384   23453927.9834
       149.0004        152.0004
 -15572500.04449 -12104758.65247  21573803.882    21573803.9634   21573810.2324
       196.0004        196.0004
 -12232721.84048  -9490962.97246  22214982.741    22214983.2464   22214988.1524
       185.0004        187.0004
  -9673668.52548  -7508640.47946  22586672.458    22586673.3314   22586680.1504
       180.0004        180.0004
 -10923355.77748  -8324400.91346  22304930.982    22304930.6084   22304936.6894
       176.0004        177.0004
  -5246434.28448  -3773113.70246  23751476.654    23751476.8524   23751485.4314
       177.0004        178.0004
  -4203093.51247  -3243661.52945  24331877.352    24331876.5844   24331880.3934
       151.0004        154.0004
  -4287373.98648  -3332190.97346  22965960.956    22965962.4134   22965966.2904
       169.0004        170.0004
 -23762724.58849 -18503652.00647  20398229.950    20398230.2134   20398234.4204
       212.0004        212.0004
 -20635513.77049 -16069213.55047  20814249.573    20814250.5854   20814258.1774
       197.0004        198.0004
    159804.95947    414437.46545  24556581.262    24556582.7834   24556590.6454
       138.0004        143.0004
 21  2  3  1 47 30.0000000  0 11G28G30G17G09G21G08G19G14G07G01G04
  -2500955.16347  -1942311.17445  23450524.405    23450523.7394   23450527.9114
       148.0004        152.0004
 -15647765.15149 -12163406.78847  21559481.061    21559481.3924   21559488.4234
       196.0004        197.0004
 -12282239.72948  -9529548.32046  22205560.351    22205560.9234   22205565.1124
       184.0004        185.0004
  -9595807.55148  -7447969.61946  22601489.612    22601490.0404   22601497.8574
       180.0004        182.0004
 -10870638.53848  -8283322.54346  22314962.428    22314962.2944   22314967.3494
       176.0004        177.0004
  -5152188.77448  -3699675.67746  23769412.395    23769411.6214   23769420.4594
       178.0004        179.0004
  -4287690.15147  -3309580.96945  24315779.216    24315778.7124   24315782.8474
       151.0004        154.0004
  -4315835.77648  -3354368.95146  22960545.585    22960546.6234   22960550.8984
       169.0004        170.0004
 -23795846.21049 -18529461.06048  20391926.620    20391927.3764   20391931.4964
       211.0004        213.0004
 -20654575.10049 -16084066.52847  20810621.803    20810622.6744   20810630.9294
       197.0004        197.0004
    253895.31247    487754.56345  24574485.962    24574486.4714   24574494.6504
       137.0004        141.0004
 21  2  3  1 48  0.0000000  0 11G28G30G17G09G21G08G19G14G07G01G04
  -2518906.46747  -1956299.20245  23447108.958    23447109.3274   23447113.4414
       151.0004        155.0004
 -15722774.31249 -12221855.49047  21545207.830    21545207.6984   21545214.7264
       197.0004        197.0004
 -12331344.45348  -9567811.73046  22196215.053    22196215.5574   22196220.3944
       184.0004        185.0004
  -9517838.15148  -7387214.24946  22616327.818    22616327.7214   22616334.4344
       182.0004        183.0004
 -10817467.40548  -8241890.48946  22325080.940    22325080.3944   22325085.2874
       175.0004        176.0004
  -5057991.72148  -3626275.39046  23787335.196    23787336.0974   23787344.6894
       177.0004        177.0004
  -4372035.67147  -3375304.73945  24299728.348    24299727.5524   24299733.3204
       153.0004        155.0004
  -4344361.92548  -3376597.11046  22955116.946    22955117.2834   22955121.5904
       168.0004        168.0004
 -23828497.40249 -18554903.55648  20385714.390    20385714.6094   20385718.2044
       212.0004        213.0004
 -20673070.43249 -16098478.47147  20807102.530    20807103.4974   20807111.3374
       197.0004        198.0004
    347844.03647    560961.34545  24592365.241    24592365.4174   24592371.9134
       138.0004        142.0004
 21  2  3  1 48 30.0000000  0 11G28G30G17G09G21G08G19G14G07G01G04
  -2536945.21647  -1970355.36145  23443675.606    23443675.3424   23443680.3624
       153.0004        156.0004
 -15797525.39649 -12280103.09747  21530983.173    21530983.0704   21530989.9774
       198.0004        198.0004
 -12380036.14648  -9605753.31846  22186949.649    22186950.6004   22186954.5394
       184.0004        184.0004
  -9439763.81948  -7326377.11146  22631184.052    22631184.0484   22631191.0204
       181.0004        181.0004
 -10763844.65448  -8200106.53046  22335284.756    22335284.7224   22335289.6214
       176.0004        178.0004
  -4963845.86848  -3552914.98446  23805250.256    23805251.1414   23805262.5604
       178.0004        178.0004
  -4456129.21047  -3440832.17345  24283725.103    24283725.2114   24283730.2534
       151.0004        152.0004
  -4372953.52748  -3398876.30046  22949674.964    22949675.9994   22949680.1544
       168.0004        168.0004
 -23860676.20449 -18579977.96047  20379590.201    20379590.4324   20379594.8874
       212.0004        212.0004
 -20690998.66849 -16112448.52347  20803691.851    20803692.3074   20803699.9644
       198.0004        199.0004
    441648.25847    634055.49545  24610215.659    24610216.1714   24610220.8554
       137.0004        141.0004
 21  2  3  1 49  0.0000000  0 11G28G30G17G09G21G08G19G14G07G01G04
  -2555070.46847  -1984478.93645  23440227.479    23440226.8614   23440232.0864
       155.0004        157.0004
 -15872013.99649 -12338146.17547  21516808.715    21516808.5854   21516815.0294
       198.0004        199.0004
 -12428313.05448  -9643371.69346  22177763.945    22177763.6554   22177768.0314
       185.0004        186.0004
  -9361585.84148  -7265459.21046  22646061.377    22646060.6824   22646067.4504
       180.0004        180.0004
 -10709769.97548  -8157970.41746  22345574.761    22345574.3174   22345579.8034
       176.0004        176.0004
  -4869751.55248  -3479594.76346  23823157.236    23823157.8214   23823166.5004
       177.0004        178.0004
  -4539967.32347  -3506160.53645  24267771.748    24267771.7504   24267776.1424
       149.0004        151.0004
  -4401609.44448  -3421205.58346  22944222.987    22944223.6574   22944228.1334
       168.0004        169.0004
 -23892379.10849 -18604681.52948  20373557.309    20373557.9574   20373562.1884
       212.0004        213.0004
 -20708356.60749 -16125974.19447  20800387.778    20800388.5914   20800396.8034
       198.0004        197.0004
    535307.56547    707036.74345  24628037.969    24628039.0134   24628045.0234
       137.0004        142.0004
 21  2  3  1 49 30.0000000  0 11G28G30G17G09G21G08G19G14G07G01G04
  -2573284.84847  -1998671.92745  23436761.616    23436761.2734   23436763.9114
       154.0004        157.0004
 -15946238.68849 -12395983.58847  21502684.438    21502684.0554   21502690.8674
       199.0004        200.0004
 -12476176.09648  -9680667.53746  22168654.923    22168655.2164   22168660.8754
       185.0004        184.0004
  -9283308.45748  -7204463.85546  22660955.706    22660956.8104   22660964.1044
       180.0004        182.0004
 -10655246.26548  -8115484.41046  22355950.982    22355950.6374   22355955.3684
       175.0004        176.0004
  -4775711.61848  -3406316.90446  23841052.552    23841052.8104   23841060.9704
       175.0004        176.0004
  -4623550.34447  -3571290.14145  24251867.305    24251866.5664   24251870.8014
       148.0004        151.0004
  -4430331.41948  -3443586.31046  22938757.114    22938758.1594   22938762.6444
       169.0004        171.0004
 -23923605.28649 -18629013.61748  20367615.087    20367615.5294   20367619.6744
       212.0004        213.0004
 -20725143.84849 -16139055.15547  20797193.880    20797194.1704   20797201.9554
       197.0004        197.0004
    628818.38247    779902.30345  24645832.412    24645833.1264   24645839.5964
       137.0004        142.0004
 21  2  3  1 50  0.0000000  0 11G28G30G17G09G21G08G19G14G07G01G04
  -2591588.85947  -2012934.78945  23433277.924    23433277.0614   23433281.6094
       153.0004        156.0004
 -16020196.36949 -12453612.95447  21488610.144    21488610.4234   21488616.9244
       200.0004        200.0004
 -12523624.87748  -9717640.61046  22159626.211    22159626.2704   22159631.4134
       185.0004        186.0004
  -9204934.25348  -7143393.05046  22675870.088    22675870.6224   22675878.5454
       181.0004        182.0004
 -10600274.60248  -8072649.35146  22366410.616    22366410.0424   22366415.5684
       175.0004        175.0004
  -4681727.85448  -3333082.81546  23858938.839    23858938.6894   23858946.1814
       176.0004        177.0004
  -4706876.44347  -3636219.56045  24236011.465    24236010.7064   24236014.1894
       147.0004        149.0004
  -4459119.55148  -3466018.62046  22933279.185    22933279.7564   22933284.8064
       170.0004        170.0004
 -23954351.79249 -18652971.93747  20361763.817    20361764.7634   20361768.7204
       212.0004        212.0004
 -20741358.58049 -16151690.00147  20794108.177    20794108.7474   20794117.0494
       197.0004        198.0004
    722178.93947    852650.79645  24663599.603    24663599.0024   24663604.2724
       137.0004        141.0004
 21  2  3  1 50 30.0000000  0 11G28G30G17G09G21G08G19G14G07G01G04
  -2609983.39347  -2027268.18945  23429777.327    23429777.8164   23429782.7284
       155.0004        158.0004
 -16093884.28249 -12511032.10747  21474587.885    21474588.0184   21474594.7774
       200.0004        200.0004
 -12570658.98648  -9754290.55847  22150676.050    22150676.8864   22150681.0264
       186.0004        188.0004
  -9126466.09148  -7082249.03346  22690803.233    22690802.8774   22690809.8084
       181.0004        182.0004
 -10544855.43948  -8029465.59646  22376957.081    22376956.7324   22376962.4614
       174.0004        175.0004
  -4587802.36448  -3259894.14146  23876811.679    23876811.7014   23876819.4074
       174.0004        175.0004
  -4789944.21347  -3700947.67145  24220203.142    24220203.1354   24220207.0384
       147.0004        151.0004
  -4487974.26248  -3488502.81546  22927787.767    22927789.0504   22927792.6684
       169.0004        168.0004
 -23984616.55349 -18676554.87848  20356005.814    20356005.8094   20356010.0854
       212.0004        214.0004
 -20756999.15149 -16163877.46247  20791132.288    20791132.7354   20791140.6004
       198.0004        198.0004
    815387.19547    925280.57245  24681334.943    24681336.3834   24681343.4864
       138.0004        143.0004
 21  2  3  1 51  0.0000000  0 11G28G30G17G09G21G08G19G14G07G01G04
  -2628469.05947  -2041672.62445  23426260.097    23426260.9514   23426262.8504
       154.0004        157.0004
 -16167299.34649 -12568238.66847  21460618.483    21460617.6434   21460624.4564
       200.0004        200.0004
 -12617278.41248  -9790617.37547  22141804.319    22141804.8114   22141809.3934
       188.0004        189.0004
  -9047906.53648  -7021033.81846  22705752.192    22705752.0854   22705759.6524
       180.0004        179.0004
 -10488990.84048  -7985934.73546  22387588.498    22387587.8854   22387592.5494
       175.0004        175.0004
  -4493936.55148  -3186752.00246  23894673.259    23894673.7014   23894680.7414
       176.0004        177.0004
  -4872752.26847  -3765473.43145  24204445.900    24204444.2264   24204448.1444
       149.0004        152.0004
  -4516895.68148  -3511038.98646  22922285.045    22922285.5604   22922289.4144
       168.0004        169.0004
 -24014397.43449 -18699760.79048  20350337.705    20350338.2164   20350342.7204
       212.0004        213.0004
 -20772063.75149 -16175616.11247  20788265.354    20788266.0794   20788273.9334
       198.0004        199.0004
    908441.30347    997790.22945  24699044.037    24699043.3544   24699049.8454
       140.0004        144.0004
 21  2  3  1 51 30.0000000  0 11G28G30G17G09G21G08G19G14G07G01G04
  -2647047.03147  -2056148.95845  23422724.453    23422724.4724   23422727.5394
       155.0004        158.0004
 -16240438.93349 -12625230.55147  21446699.516    21446699.8504   21446706.5704
       200.0004        202.0004
 -12663482.73648  -9826620.74747  22133012.402    22133012.3794   22133017.2674
       188.0004        189.0004
  -8969258.58348  -6959749.70746  22720718.397    22720718.6554   22720725.4254
       179.0004        180.0004
 -10432682.08248  -7942057.77946  22398303.094    22398302.7084   22398307.8254
       174.0004        175.0004
  -4400132.71648  -3113658.08446  23912523.913    23912524.2854   23912532.6284
       179.0004        181.0004
  -4955299.32547  -3829795.79545  24188737.564    24188737.1414   24188740.4174
       151.0004        155.0004
  -4545884.31848  -3533627.50646  22916767.593    22916768.3134   22916772.6874
       168.0004        167.0004
 -24043692.08849 -18722587.80648  20344763.452    20344764.0734   20344767.7374
       212.0004        213.0004
 -20786550.97249 -16186904.84247  20785507.918    20785508.8864   20785516.5614
       198.0004        197.0004
   1001339.05547   1070178.06345  24716720.129    24716721.2894   24716726.6574
       138.0004        142.0004
 21  2  3  1 52  0.0000000  0 11G28G30G17G09G21G08G19G14G07G01G04
  -2665717.96247  -2070697.72445  23419171.677    23419170.4454   23419174.8314
       154.0004        157.0004
 -16313300.21049 -12682005.57947  21432834.719    21432834.6544   21432841.4334
       201.0004        201.0004
 -12709271.92248  -9862300.63047  22124298.812    22124299.3934   22124302.4944
       188.0004        188.0004
  -8890525.00948  -6898398.87346  22735700.124    22735700.9234   22735708.6104
       178.0004        178.0004
 -10375929.99848  -7897835.38746  22409101.762    22409102.0754   22409107.4844
       173.0004        173.0004
  -4306391.96848  -3040613.39346  23930362.204    23930362.0694   23930369.8044
       178.0004        177.0004
  -5037584.01747  -3893913.70645  24173078.894    24173077.8624   24173082.5164
       153.0004        156.0004
  -4574940.46548  -3556268.67846  22911240.089    22911239.4664   22911244.6734
       168.0004        169.0004
 -24072498.31849 -18745034.23348  20339281.931    20339282.3454   20339286.3274
       212.0004        214.0004
 -20800459.22149 -16197742.43647  20782862.282    20782862.2084   20782870.1124
       198.0004        198.0004
   1094078.43747   1142442.47145  24734367.680    24734368.5984   24734375.4204
       137.0004        141.0004
 21  2  3  1 52 30.0000000  0 10G28G30G17G09G21G08G19G14G07G01
  -2684480.22047  -2085317.62945  23415601.032    23415600.8964   23415605.2154
       154.0004        156.0004
 -16385877.96049 -12738559.66747  21419022.474    21419022.7854   21419030.2334
       200.0004        201.0004
 -12754643.60348  -9897655.16946  22115663.878    22115664.4824   22115669.3374
       187.0004        187.0004
  -8811706.27748  -6836981.68346  22750698.854    22750699.1014   22750706.9604
       177.0004        177.0004
 -10318733.85448  -7853266.96946  22419987.050    22419986.8864   22419991.2514
       174.0004        175.0004
  -4212714.19248  -2967617.71246  23948188.718    23948188.7904   23948196.8844
       178.0004        179.0004
  -5119602.55947  -3957824.20945  24157468.787    24157469.3544   24157474.9274
       153.0004        155.0004
  -4604062.09448  -3578960.83746  22905696.372    22905697.5774   22905703.4784
       169.0004        170.0004
 -24100811.45449 -18767096.42048  20333893.906    20333894.2064   20333898.4174
       213.0004        213.0004
 -20813784.61549 -16208125.85347  20780325.190    20780326.3134   20780334.7444
       198.0004        199.0004
 21  2  3  1 53  0.0000000  0 10G28G30G17G09G21G08G19G14G07G01
  -2703338.29347  -2100012.24045  23412013.225    23412012.5944   23412016.3634
       155.0004        157.0004
 -16458172.62349 -12794893.18647  21405265.330    21405265.9564   21405272.8794
       200.0004        201.0004
 -12799600.70148  -9932686.68447  22107109.839    22107110.5084   22107114.2184
       187.0004        189.0004
  -8732808.48248  -6775502.88646  22765713.058    22765713.4244   22765720.5624
       176.0004        176.0004
 -10261098.48548  -7808356.29046  22430954.956    22430954.0144   22430958.0844
       174.0004        173.0004
  -4119104.49448  -2894675.12246  23966001.287    23966002.1464   23966009.8434
       178.0004        178.0004
  -5201356.64347  -4021528.68645  24141913.545    24141912.1124   24141917.8994
       153.0004        155.0004
  -4633252.83348  -3601706.86946  22900141.828    22900143.1594   22900147.6764
       168.0004        168.0004
 -24128632.63549 -18788775.28148  20328599.666    20328600.2944   20328604.2614
       212.0004        214.0004
 -20826528.97649 -16218056.52347  20777901.701    20777901.6624   20777909.0904
       198.0004        199.0004
 21  2  3  1 53 30.0000000  0 10G28G30G17G09G21G08G19G14G07G01
  -2722293.44047  -2114782.46945  23408405.635    23408406.1174   23408409.2564
       156.0004        158.0004
 -16530182.01449 -12851004.39147  21391562.868    21391562.6324   21391570.2084
       200.0004        200.0004
 -12844143.84748  -9967395.61347  22098633.745    22098634.0724   22098638.8274
       189.0004        190.0004
  -8653835.04148  -6713965.15146  22780741.711    22780741.7254   22780748.4754
       177.0004        178.0004
 -10203025.72348  -7763104.78246  22442005.546    22442004.9184   22442009.3154
       172.0004        174.0004
  -4025564.59748  -2821786.89046  23983802.139    23983802.0504   23983809.6444
       176.0004        175.0004
  -5282845.62247  -4085026.58645  24126405.848    24126404.9824   24126410.5944
       150.0004        152.0004
  -4662513.53748  -3624507.40946  22894574.508    22894574.6724   22894579.3734
       168.0004        169.0004
 -24155960.57649 -18810069.78948  20323399.293    20323399.8204   20323404.0044
       213.0004        214.0004
 -20838691.43349 -16227533.74647  20775586.685    20775587.2164   20775594.6274
       198.0004        198.0004
 21  2  3  1 54  0.0000000  0 10G28G30G17G09G21G08G19G14G07G01
  -2741345.93647  -2129628.55445  23404778.550    23404779.4964   23404783.2874
       155.0004        157.0004
 -16601902.76149 -12906890.69447  21377914.707    21377915.0974   21377922.2594
       200.0004        201.0004
 -12888272.15548 -10001781.30647  22090235.371    22090236.1874   22090240.7224
       189.0004        188.0004
  -8574788.18748  -6652370.21446  22795783.505    22795784.1764   22795790.9024
       177.0004        177.0004
 -10144516.40248  -7717513.10946  22453140.094    22453140.0204   22453143.3804
       172.0004        173.0004
  -3932096.58248  -2748954.71646  24001591.983    24001589.9964   24001596.2714
       174.0004        175.0004
  -5364067.70647  -4148316.49245  24110951.920    24110950.6184   24110954.9764
       153.0004        157.0004
  -4691843.97948  -3647362.30146  22888992.590    22888993.1774   22888998.3584
       168.0004        169.0004
 -24182792.32449 -18830977.65348  20318293.600    20318294.0014   20318298.0494
       213.0004        214.0004
 -20850269.98149 -16236555.98447  20773383.485    20773383.7754   20773391.4004
       198.0004        198.0004
 21  2  3  1 54 30.0000000  0 10G28G30G17G09G21G08G19G14G07G01
  -2760497.13047  -2144551.56645  23401135.521    23401134.8814   23401139.9864
       155.0004        156.0004
 -16673332.78049 -12962550.44747  21364321.928    21364322.1064   21364329.4174
       200.0004        200.0004
 -12931986.51248 -10035844.44347  22081917.408    22081917.6354   22081922.3164
       188.0004        188.0004
  -8495671.46048  -6590720.84146  22810837.912    22810838.8024   22810846.8794
       177.0004        178.0004
 -10085572.61448  -7671582.88546  22464357.329    22464355.9864   22464359.8824
       172.0004        172.0004
  -3838702.59348  -2676180.18546  24019360.679    24019360.5364   24019368.5324
       175.0004        175.0004
  -5445022.21147  -4211397.94245  24095546.219    24095545.4934   24095549.6164
       153.0004        155.0004
  -4721245.18948  -3670272.32646  22883398.191    22883398.8694   22883403.0004
       168.0004        169.0004
 -24209126.52849 -18851497.81748  20313282.680    20313282.9404   20313286.9694
       213.0004        214.0004
 -20861263.98049 -16245122.73347  20771290.948    20771291.3664   20771299.9344
       198.0004        199.0004
 21  2  3  1 55  0.0000000  0 10G28G30G17G09G21G08G19G14G07G01
  -2779746.43047  -2159550.99645  23397472.622    23397472.1224   23397476.6014
       153.0004        155.0004
 -16744467.69249 -13017980.25547  21350785.569    21350786.0264   21350792.5294
       200.0004        200.0004
 -12975285.17548 -10069583.62047  22073677.644    22073677.8424   22073682.8054
       188.0004        189.0004
  -8416486.10648  -6529017.96846  22825907.995    22825908.1444   22825914.3274
       176.0004        176.0004
 -10026194.56848  -7625314.25946  22475655.241    22475655.1424   22475658.8674
       172.0004        173.0004
  -3745382.49148  -2603463.21946  24037117.158    24037117.7254   24037127.1744
       173.0004        174.0004
  -5525706.52647  -4274268.78245  24080191.323    24080191.6034   24080194.8774
       152.0004        155.0004
  -4750715.84048  -3693236.47246  22877788.873    22877790.1414   22877794.3674
       168.0004        168.0004
 -24234959.77249 -18871627.62548  20308366.380    20308366.8904   20308371.3464
       213.0004        214.0004
 -20871670.47049 -16253231.67547  20769311.209    20769311.6644   20769319.8244
       199.0004        199.0004
 21  2  3  1 55 30.0000000  0 10G28G30G17G09G21G08G19G14G07G01
  -2799094.52747  -2174627.41145  23393789.965    23393790.1784   23393794.5474
       155.0004        160.0004
 -16815304.82749 -13073178.02047  21337305.523    21337305.7454   21337312.8394
       200.0004        201.0004
 -13018168.20248 -10102998.96247  22065517.574    22065517.7344   22065523.1784
       189.0004        189.0004
  -8337234.95948  -6467263.80746  22840988.852    22840988.9464   22840995.6924
       175.0004        175.0004
  -9966384.03948  -7578708.66446  22487037.584    22487036.3444   22487040.4024
       172.0004        172.0004
  -3652138.40748  -2530805.50946  24054859.622    24054861.0374   24054870.8944
       176.0004        177.0004
  -5606119.12247  -4336927.92445  24064890.648    24064890.4394   24064894.6264
       156.0004        159.0004
  -4780256.32848  -3716255.04146  22872169.307    22872169.9094   22872173.8324
       168.0004        169.0004
 -24260290.33249 -18891365.72248  20303546.179    20303546.5584   20303550.6224
       213.0004        214.0004
 -20881488.22649 -16260881.86047  20767443.372    20767443.7394   20767450.7744
       199.0004        199.0004
 21  2  3  1 56  0.0000000  0 10G28G30G17G09G21G08G19G14G07G01
  -2818542.58447  -2189781.75345  23390089.813    23390089.3994   23390092.9984
       155.0004        157.0004
 -16885841.49449 -13128141.65947  21323883.135    21323883.2804   21323890.6824
       201.0004        202.0004
 -13060635.96048 -10136090.71047  22057435.999    22057436.5584   22057440.9474
       189.0004        190.0004
  -8257920.98448  -6405460.71546  22856080.037    22856080.7824   22856088.7874
       174.0004        174.0004
  -9906142.09148  -7531766.88446  22498499.861    22498500.3114   22498503.4204
       171.0004        171.0004
  -3558972.08848  -2458208.43946  24072587.256    24072589.4914   24072599.5944
       173.0004        173.0004
  -5686258.80847  -4399374.40045  24049639.615    24049639.6314   24049644.3334
       157.0004        158.0004
  -4809867.12648  -3739328.39446  22866533.997    22866534.5424   22866538.2814
       169.0004        169.0004
 -24285115.49249 -18910710.00448  20298822.388    20298822.8694   20298826.6574
       213.0004        215.0004
 -20890716.07749 -16268072.39147  20765686.415    20765687.1974   20765695.1804
       199.0004        199.0004
 21  2  3  1 56 30.0000000  0 10G28G30G17G09G21G08G19G14G07G01
  -2838091.06247  -2205014.31645  23386368.750    23386368.9814   23386374.1304
       153.0004        155.0004
 -16956074.61949 -13182868.77947  21310518.637    21310518.6014   21310525.2284
       201.0004        201.0004
 -13102688.02048 -10168858.54247  22049433.338    22049433.6314   22049438.7914
       189.0004        189.0004
  -8178546.66848  -6343610.60346  22871185.404    22871185.8614   22871192.8804
       173.0004        174.0004
  -9845470.37848  -7484490.20946  22510046.536    22510046.8744   22510049.4274
       171.0004        172.0004
  -3465885.24248  -2385673.26246  24090303.881    24090304.8854   24090313.3234
       173.0004        173.0004
  -5766124.16847  -4461607.16445  24034441.986    24034441.4994   24034445.2344
       154.0004        156.0004
  -4839548.15548  -3762456.45846  22860885.545    22860886.3604   22860891.4744
       168.0004        168.0004
 -24309433.36349 -18929659.01148  20294194.686    20294194.9284   20294199.3774
       214.0004        215.0004
 -20899352.43349 -16274802.01747  20764043.452    20764044.0804   20764051.1644
       199.0004        199.0004
 21  2  3  1 57  0.0000000  0 10G28G30G17G09G21G08G19G14G07G01
  -2857742.71047  -2220327.28545  23382629.978    23382630.5624   23382634.2454
       155.0004        159.0004
 -17026003.43249 -13237358.76847  21297211.133    21297211.4024   21297218.4984
       201.0004        201.0004
 -13144326.21148 -10201303.87947  22041510.603    22041510.8384   22041515.2474
       189.0004        189.0004
  -8099116.80548  -6281717.21246  22886300.866    22886300.4014   22886308.6494
       174.0004        176.0004
  -9784371.98748  -7436881.07346  22521673.172    22521673.2974   22521675.9144
       171.0004        170.0004
  -3372881.07748  -2313202.49346  24108002.818    24108002.5424   24108012.2234
       173.0004        173.0004
  -5845716.08047  -4523626.82345  24019297.436    24019296.0514   24019298.4664
       154.0004        156.0004
  -4869301.61248  -3785640.97146  22855224.435    22855224.2994   22855228.7524
       168.0004        171.0004
 -24333244.22949 -18948212.94448  20289663.756    20289664.2394   20289668.2284
       214.0004        215.0004
 -20907398.06949 -16281071.33547  20762512.225    20762512.7744   20762520.4844
       199.0004        199.0004
 21  2  3  1 57 30.0000000  0 10G28G30G17G09G21G08G19G14G07G01
  -2877497.54047  -2235720.64945  23378870.625    23378871.1944   23378874.9094
       156.0004        157.0004
 -17095624.69349 -13291609.09747  21283962.544    21283962.6734   21283970.2164
       201.0004        202.0004
 -13185550.47348 -10233426.66547  22033665.836    22033666.3774   22033670.4484
       189.0004        189.0004
  -8019633.73048  -6219782.35646  22901425.664    22901426.1734   22901434.4624
       175.0004        176.0004
  -9722848.72548  -7388940.86946  22533379.782    22533379.7914   22533383.1744
       171.0004        172.0004
  -3279961.15048  -2240797.40246  24125687.553    24125686.4374   24125693.2414
       173.0004        175.0004
  -5925032.69847  -4585431.94845  24004203.241    24004202.0934   24004203.6574
       153.0004        154.0004
  -4899127.37448  -3808881.79546  22849546.811    22849547.9484   22849553.7324
       168.0004        169.0004
 -24356545.06949 -18966369.44548  20285229.494    20285229.8264   20285234.4254
       214.0004        215.0004
 -20914851.30649 -16286879.04147  20761093.687    20761094.4384   20761101.9864
       198.0004        198.0004
 21  2  3  1 58  0.0000000  0 10G28G30G17G09G21G08G19G14G07G01
  -2897357.36947  -2251195.83145  23375090.594    23375091.3874   23375094.7684
       154.0004        156.0004
 -17164936.12549 -13345618.01147  21270773.050    21270773.3654   21270780.4374
       201.0004        202.0004
 -13226361.38148 -10265227.35947  22025899.468    22025899.9524   22025904.7004
       188.0004        188.0004
  -7940100.73448  -6157808.61946  22916560.597    22916560.9044   22916568.2404
       175.0004        175.0004
  -9660901.63748  -7340670.41546  22545168.688    22545167.8834   22545172.7064
       171.0004        173.0004
  -3187127.67248  -2168459.66946  24143351.509    24143351.7164   24143359.6544
       175.0004        176.0004
  -6004073.64347  -4647022.26945  23989160.707    23989160.1874   23989162.9134
       151.0004        153.0004
  -4929026.15748  -3832179.55246  22843859.418    22843859.2354   22843863.5064
       168.0004        169.0004
 -24379334.84949 -18984127.73148  20280892.930    20280893.4434   20280897.6414
       214.0004        215.0004
 -20921711.48949 -16292224.63747  20759789.226    20759789.1564   20759796.8834
       199.0004        199.0004
 21  2  3  1 58 30.0000000  0 10G28G30G17G09G21G08G19G14G07G01
  -2917321.55347  -2266752.33745  23371291.861    23371292.0294   23371297.0954
       154.0004        158.0004
 -17233933.92649 -13399382.54147  21257643.817    21257643.7564   21257650.4534
       202.0004        202.0004
 -13266757.92148 -10296705.17447  22018212.465    22018212.2764   22018217.3704
       188.0004        188.0004
  -7860519.56448  -6095797.32846  22931704.675    22931704.7904   22931711.7224
       173.0004        173.0004
  -9598531.76348  -7292070.50546  22557037.434    22557036.6884   22557040.8314
       171.0004        172.0004
  -3094381.16548  -2096189.69846  24160999.447    24161000.5684   24161008.2474
       175.0004        177.0004
  -6082836.05147  -4708395.58445  23974173.127    23974172.5774   23974176.9434
       154.0004        157.0004
  -4958997.12748  -3855533.57646  22838155.625    22838156.0984   22838160.1134
       168.0004        167.0004
 -24401610.43749 -19001485.33948  20276654.330    20276654.7074   20276658.6854
       214.0004        215.0004
 -20927976.43749 -16297106.40347  20758595.810    20758596.7844   20758604.6404
       199.0004        198.0004
 21  2  3  1 59  0.0000000  0 10G28G30G17G09G21G08G19G14G07G01
  -2937390.47147  -2282390.44345  23367473.809    23367474.2454   23367477.5624
       155.0004        158.0004
 -17302614.83949 -13452900.12947  21244573.037    21244573.4984   21244580.9854
       202.0004        201.0004
 -13306739.65048 -10327859.76547  22010603.627    22010604.7734   22010610.0414
       188.0004        189.0004
  -7780892.48548  -6033750.23646  22946856.522    22946857.3214   22946863.7914
       172.0004        174.0004
  -9535740.51848  -7243142.26646  22568985.881    22568985.6874   22568989.2434
       172.0004        173.0004
  -3001723.03848  -2023988.60546  24178631.384    24178632.0184   24178641.8444
       175.0004        176.0004
  -6161318.58247  -4769550.76945  23959237.951    23959237.8954   23959242.1714
       154.0004        157.0004
  -4989040.11148  -3878943.68046  22832437.983    22832439.1754   22832443.4854
       167.0004        169.0004
 -24423369.49549 -19018440.45848  20272513.858    20272514.0094   20272517.8784
       214.0004        215.0004
 -20933644.54649 -16301523.09447  20757517.066    20757517.8584   20757525.4954
       198.0004        198.0004
 21  2  3  1 59 30.0000000  0 10G28G30G17G09G21G08G19G14G07G01
  -2957565.56547  -2298111.28045  23363634.315    23363634.3264   23363637.8924
       154.0004        156.0004
 -17370976.90149 -13506169.27047  21231565.108    21231564.8544   21231572.0174
       201.0004        201.0004
 -13346307.38048 -10358691.74247  22003075.308    22003074.8394   22003079.4044
       189.0004        189.0004
  -7701223.04748  -5971670.15146  22962018.206    22962017.8744   22962025.1564
       174.0004        175.0004
  -9472530.18648  -7193887.45546  22581015.141    22581013.6814   22581017.8384
       172.0004        173.0004
  -2909155.30748  -1951857.93246  24196246.391    24196247.0984   24196255.7914
       173.0004        172.0004
  -6239520.90047  -4830487.62245  23944358.455    23944357.2154   23944360.7094
       155.0004        158.0004
  -5019155.97348  -3902410.60946  22826707.864    22826708.9704   22826712.4284
       169.0004        170.0004
 -24444611.04449 -19034992.32148  20268471.254    20268471.7124   20268475.8024
       214.0004        215.0004
 -20938715.48749 -16305474.46947  20756552.088    20756553.1284   20756560.8984
       198.0004        198.0004
 21  2  3  2  0  0.0000000  0 10G28G30G17G09G21G08G19G14G07G01
  -2977848.21947  -2313915.92545  23359774.987    23359774.1804   23359778.8324
       154.0004        156.0004
 -17439017.89849 -13559188.22847  21218616.567    21218616.7474   21218624.3134
       201.0004        202.0004
 -13385461.83748 -10389201.68347  21995623.460    21995624.0944   21995628.2454
       188.0004        188.0004
  -7621514.57248  -5909559.66246  22977185.925    22977185.9874   22977193.7594
       175.0004        175.0004
  -9408902.96248  -7144307.80746  22593121.568    22593121.9944   22593125.6434
       173.0004        174.0004
  -2816680.70848  -1879799.84946  24213844.549    24213844.8444   24213854.1334
       172.0004        174.0004
  -6317442.49247  -4891205.72345  23929530.047    23929528.7904   23929532.7884
       154.0004        157.0004
  -5049345.59348  -3925934.98246  22820963.088    22820963.3584   22820969.3294
       169.0004        169.0004
 -24465333.51149 -19051139.70848  20264527.664    20264528.4034   20264532.2214
       214.0004        215.0004
 -20943188.75249 -16308960.12247  20755701.487    20755701.5964   20755709.5514
       198.0004        199.0004
 21  2  3  2  0 30.0000000  0 10G28G30G17G09G21G08G19G14G07G01
  -2998239.20647  -2329805.00745  23355894.034    23355894.0794   23355898.3024
       155.0004        156.0004
 -17506735.24249 -13611954.99847  21205731.109    21205731.1674   21205738.1764
       202.0004        203.0004
 -13424203.49948 -10419389.98946  21988251.400    21988251.8704   21988256.0404
       188.0004        187.0004
  -7541769.99848  -5847421.05546  22992359.778    22992359.4584   22992368.6894
       174.0004        174.0004
  -9344860.74348  -7094404.78146  22605309.915    22605308.6584   22605312.8204
       174.0004        175.0004
  -2724300.53348  -1807815.35146  24231424.362    24231424.8214   24231433.6064
       175.0004        176.0004
  -6395082.10847  -4951704.11845  23914755.602    23914754.5644   23914759.0154
       156.0004        159.0004
  -5079609.31748  -3949517.09846  22815202.636    22815204.1724   22815209.6784
       168.0004        168.0004
 -24485535.42149 -19066881.47448  20260683.636    20260684.1444   20260688.0444
       214.0004        215.0004
 -20947063.54949 -16311979.43447  20754964.824    20754964.9134   20754972.6314
       198.0004        199.0004
 21  2  3  2  1  0.0000000  0 10G28G30G17G09G21G08G19G14G07G01
  -3018737.56447  -2345777.75045  23351994.191    23351993.8394   23351996.4174
       152.0004        154.0004
 -17574124.43849 -13664466.04947  21192907.105    21192907.2404   21192914.0864
       202.0004        203.0004
 -13462530.95248 -10449255.50547  21980957.851    21980958.7074   21980962.8974
       188.0004        190.0004
  -7461990.31548  -5785255.06646  23007541.426    23007542.1424   23007549.7904
       174.0004        174.0004
  -9280403.51048  -7044178.35446  22617574.749    22617574.8794   22617578.2314
       174.0004        174.0004
  -2632014.88648  -1735904.48746  24248986.662    24248985.9414   24248994.7174
       174.0004        174.0004
  -6472436.86047  -5011980.50245  23900034.890    23900035.2244   23900039.1634
       158.0004        161.0004
  -5109945.52848  -3973155.70246  22809431.293    22809431.7014   22809436.4184
       168.0004        168.0004
 -24505213.26349 -19082214.85248  20256939.073    20256939.3214   20256943.6844
       214.0004        215.0004
 -20950337.07749 -16314530.22047  20754340.703    20754341.3944   20754349.5324
       199.0004        198.0004
 21  2  3  2  1 30.0000000  0 10G28G30G17G09G21G08G19G14G07G01
  -3039345.64947  -2361836.00245  23348072.777    23348072.3794   23348075.3694
       153.0004        156.0004
 -17641184.49649 -13716720.64547  21180145.518    21180145.9974   21180153.2384
       202.0004        203.0004
 -13500445.77348 -10478799.51347  21973742.401    21973742.7894   21973747.8194
       189.0004        188.0004
  -7382179.96848  -5723065.19946  23022729.594    23022730.1334   23022735.7874
       173.0004        172.0004
  -9215534.35248  -6993630.95946  22629919.335    22629918.8174   22629923.5054
       174.0004        175.0004
  -2539826.94348  -1664069.76846  24266530.585    24266529.6794   24266537.1814
       174.0004        174.0004
  -6549507.50647  -5072035.56445  23885368.847    23885368.4074   23885372.3434
       158.0004        160.0004
  -5140356.16248  -3996852.28146  22803643.351    22803644.0794   22803649.8624
       168.0004        168.0004
 -24524366.70249 -19097139.62448  20253294.598    20253294.9264   20253298.8984
       214.0004        216.0004
 -20953010.07749 -16316613.07247  20753831.806    20753832.9444   20753841.2034
       198.0004        199.0004
 21  2  3  2  2  0.0000000  0 10G28G30G17G09G21G08G19G14G07G01
  -3060063.87947  -2377980.05045  23344128.232    23344128.3774   23344134.4604
       154.0004        156.0004
 -17707912.35449 -13768716.37747  21167448.281    21167448.5364   21167455.5694
       203.0004        204.0004
 -13537948.51348 -10508022.41446  21966606.454    21966606.4944   21966611.1424
       188.0004        187.0004
  -7302341.44448  -5660853.37046  23037922.989    23037922.9074   23037929.7164
       172.0004        173.0004
  -9150254.70948  -6942763.71146  22642340.295    22642340.4394   22642346.7254
       175.0004        176.0004
  -2447738.26348  -1592312.38646  24284050.036    24284052.3054   24284061.1834
       173.0004        174.0004
  -6626292.65447  -5131868.11946  23870759.187    23870758.1024   23870761.3374
       160.0004        163.0004
  -5170841.09548  -4020606.75546  22797843.208    22797843.5864   22797847.9444
       168.0004        169.0004
 -24542993.90549 -19111654.33848  20249749.974    20249750.1924   20249754.0934
       214.0004        215.0004
 -20955081.35449 -16318227.04347  20753437.904    20753438.9134   20753446.8144
       199.0004        199.0004
 21  2  3  2  2 30.0000000  0 10G28G30G17G09G21G08G19G14G07G01
  -3080892.36247  -2394210.02545  23340165.252    23340164.9144   23340170.0524
       154.0004        156.0004
 -17774304.64649 -13820450.63147  21154814.692    21154814.4194   21154821.4244
       204.0004        205.0004
 -13575038.61048 -10536923.77347  21959548.394    21959549.0524   21959553.9864
       188.0004        190.0004
  -7222476.81748  -5598621.19446  23053119.711    23053120.0914   23053127.5774
       171.0004        171.0004
  -9084565.63448  -6891577.42346  22654840.785    22654841.0844   22654846.3954
       174.0004        175.0004
  -2355749.79348  -1520633.08646  24301556.143    24301557.6034   24301565.9974
       173.0004        174.0004
  -6702790.46347  -5191476.77545  23856199.287    23856199.2844   23856204.8964
       159.0004        160.0004
  -5201399.84248  -4044418.77846  22792027.454    22792027.5464   22792032.5354
       168.0004        168.0004
 -24561092.16449 -19125756.88448  20246305.876    20246306.1134   20246310.4384
       214.0004        216.0004
 -20956549.36949 -16319370.94247  20753158.776    20753159.5774   20753166.8974
       199.0004        198.0004
 21  2  3  2  3  0.0000000  0 10G28G30G17G09G21G08G19G14G07G01
  -3101832.10147  -2410526.69845  23336181.178    23336180.4484   23336186.0454
       154.0004        156.0004
 -17840358.84949 -13871921.44047  21142244.603    21142244.5494   21142251.6334
       204.0004        204.0004
 -13611716.38048 -10565503.85547  21952569.347    21952569.5204   21952573.4684
       190.0004        191.0004
  -7142589.01548  -5536370.97046  23068321.355    23068322.8614   23068329.8084
       170.0004        171.0004
  -9018469.00548  -6840073.56246  22667418.733    22667418.4524   22667424.4194
       174.0004        175.0004
  -2263863.57748  -1449033.47546  24319042.292    24319042.1994   24319051.8974
       170.0004        170.0004
  -6778999.78847  -5250860.64845  23841698.910    23841697.8534   23841701.8194
       160.0004        162.0004
  -5232032.72148  -4068288.58446  22786197.943    22786198.3804   22786202.9614
       167.0004        168.0004
 -24578660.05349 -19139446.16248  20242962.530    20242963.3044   20242967.2734
       215.0004        216.0004
 -20957413.42349 -16320044.22747  20752993.877    20752994.8204   20753002.8034
       199.0004        199.0004
 21  2  3  2  3 30.0000000  0 10G28G30G17G09G21G08G19G14G07G01
  -3122884.27847  -2426930.98545  23332174.146    23332174.7494   23332178.4354
       152.0004        154.0004
 -17906072.81749 -13923127.13247  21129740.471    21129739.9414   21129746.6214
       204.0004        205.0004
 -13647982.53148 -10593763.17247  21945667.272    21945667.9524   21945672.3384
       190.0004        190.0004
  -7062681.33448  -5474105.23946  23083527.607    23083528.1864   23083535.3414
       171.0004        171.0004
  -8951967.32748  -6788254.07246  22680073.625    22680073.1784   22680079.2694
       174.0004        175.0004
  -2172080.85248  -1377514.51446  24336507.994    24336508.2454   24336516.5574
       169.0004        170.0004
  -6854920.57447  -5310019.68645  23827251.417    23827250.7094   23827254.4674
       160.0004        162.0004
  -5262740.45448  -4092216.68546  22780354.495    22780354.9974   22780359.5204
       167.0004        168.0004
 -24595696.66449 -19152721.45348  20239720.518    20239721.0844   20239725.4814
       215.0004        215.0004
 -20957673.26249 -16320246.69447  20752945.363    20752945.7054   20752953.3764
       199.0004        199.0004
 21  2  3  2  4  0.0000000  0 10G28G30G17G09G21G08G19G14G07G01
  -3144049.96147  -2443423.73545  23328145.810    23328146.3304   23328152.2604
       152.0004        155.0004
 -17971444.41049 -13974066.03547  21117299.665    21117299.9754   21117307.1044
       205.0004        206.0004
 -13683838.33348 -10621702.75947  21938844.668    21938844.7404   21938849.1484
       189.0004        189.0004
  -6982757.05348  -5411826.62146  23098736.776    23098737.2334   23098744.3444
       171.0004        172.0004
  -8885063.07548  -6736120.90946  22692804.227    22692804.4434   22692810.5184
       173.0004        173.0004
  -2080404.10248  -1306078.11146  24353954.064    24353954.2494   24353962.5154
       171.0004        173.0004
  -6930552.17847  -5368953.37945  23812859.022    23812858.1634   23812862.3734
       160.0004        162.0004
  -5293523.77448  -4116203.69746  22774498.491    22774498.5074   22774501.8384
       168.0004        169.0004
 -24612200.82149 -19165581.84748  20236579.620    20236580.2044   20236584.7894
       215.0004        216.0004
 -20957328.67149 -16319978.17747  20753010.658    20753011.1174   20753019.1064
       199.0004        199.0004
 21  2  3  2  4 30.0000000  0 10G28G30G17G09G21G08G19G14G07G01
  -3165329.35247  -2460005.05945  23324098.244    23324097.8514   23324102.2334
       153.0004        156.0004
 -18036470.52549 -14024735.73147  21104925.934    21104925.9464   21104932.9994
       205.0004        206.0004
 -13719283.55348 -10649322.39447  21932099.946    21932099.9874   21932103.8604
       190.0004        189.0004
  -6902818.50848  -5349536.86146  23113948.766    23113949.1194   23113957.2744
       171.0004        173.0004
  -8817757.83148  -6683675.26846  22705612.851    22705612.6344   22705618.7174
       173.0004        175.0004
  -1988834.68648  -1234725.40346  24371379.731    24371379.9044   24371386.9994
       171.0004        172.0004
  -7005893.13947  -5427660.62745  23798521.815    23798520.7084   23798524.6634
       160.0004        161.0004
  -5324382.38148  -4140249.37746  22768625.259    22768624.5494   22768630.1074
       167.0004        167.0004
 -24628170.21149 -19178025.54148  20233540.963    20233541.6414   20233545.9224
       215.0004        216.0004
 -20956378.41349 -16319237.71047  20753191.831    20753192.3274   20753199.6344
       199.0004        200.0004
 21  2  3  2  5  0.0000000  0 10G28G30G17G09G21G08G19G14G07G01
  -3186723.49447  -2476675.81945  23320025.124    23320025.1434   23320030.5104
       151.0004        153.0004
 -18101148.57749 -14075134.22147  21092618.135    21092618.1814   21092625.1844
       206.0004        207.0004
 -13754318.77848 -10676622.56747  21925432.546    21925432.9694   21925437.1064
       190.0004        190.0004
  -6822868.54048  -5287238.18746  23129163.654    23129163.4514   23129169.9624
       170.0004        170.0004
  -8750053.27948  -6630918.48346  22718497.062    22718496.5074   22718502.5124
       174.0004        174.0004
  -1897374.14048  -1163457.45446  24388782.885    24388783.6454   24388791.1524
       169.0004        169.0004
  -7080942.73347  -5486140.80945  23784238.980    23784238.8464   23784243.4574
       159.0004        160.0004
  -5355316.55048  -4164353.91846  22762736.301    22762738.0164   22762743.8704
       166.0004        166.0004
 -24643603.72749 -19190051.66648  20230604.040    20230604.6024   20230609.1544
       215.0004        216.0004
 -20954821.92349 -16318024.85647  20753487.371    20753487.8714   20753495.2864
       199.0004        199.0004
 21  2  3  2  5 30.0000000  0 10G28G30G17G09G21G08G19G14G07G01
  -3208232.50747  -2493436.09245  23315933.999    23315933.7374   23315937.9804
       152.0004        155.0004
 -18165475.44049 -14125259.04547  21080376.514    21080377.0394   21080384.1324
       206.0004        206.0004
 -13788943.87548 -10703603.14747  21918843.996    21918844.0434   21918848.6284
       190.0004        190.0004
  -6742909.35048  -5224932.30946  23144378.752    23144379.2654   23144386.3564
       169.0004        170.0004
  -8681950.15048  -6577851.11746  22731456.617    22731456.0414   22731461.3534
       173.0004        172.0004
  -1806023.87148  -1092275.48446  24406164.132    24406165.9094   24406175.6704
       169.0004        170.0004
  -7155699.21447  -5544392.59846  23770014.751    23770013.5414   23770017.5994
       160.0004        163.0004
  -5386325.87248  -4188517.03446  22756837.883    22756837.8594   22756843.0374
       167.0004        169.0004
 -24658498.91549 -19201658.31448  20227769.462    20227770.0464   20227774.7794
       215.0004        216.0004
 -20952658.01349 -16316338.68247  20753899.186    20753899.4314   20753906.9664
       198.0004        199.0004
 21  2  3  2  6  0.0000000  0 10G28G30G17G09G21G08G19G14G07G01
  -3229857.20147  -2510286.50345  23311819.126    23311819.1194   23311822.4714
       153.0004        157.0004
 -18229448.91149 -14175108.50047  21068203.170    21068203.4234   21068210.2524
       206.0004        206.0004
 -13823159.76948 -10730264.86147  21912331.755    21912332.8214   21912336.9934
       189.0004        189.0004
  -6662944.14448  -5162621.78846  23159594.494    23159595.1384   23159603.4054
       168.0004        168.0004
  -8613451.32148  -6524475.40046  22744491.525    22744491.0204   22744495.8094
       172.0004        172.0004
  -1714785.70448  -1021180.82746  24423529.264    24423529.4044   24423536.7994
       169.0004        170.0004
  -7230162.14547  -5602415.64646  23755845.048    23755844.1384   23755847.5664
       161.0004        163.0004
  -5417410.95048  -4212739.15546  22750923.126    22750922.3954   22750928.1704
       169.0004        171.0004
 -24672854.77249 -19212844.70248  20225037.930    20225038.4234   20225042.8834
       215.0004        216.0004
 -20949886.47349 -16314179.03047  20754426.993    20754427.5964   20754434.7804
       199.0004        198.0004
 21  2  3  2  6 30.0000000  0 10G28G30G17G09G21G08G19G14G07G01
  -3251598.54047  -2527227.78645  23307681.688    23307681.7504   23307684.9444
       154.0004        158.0004
 -18293066.55049 -14224680.69347  21056097.929    21056097.8004   21056103.8104
       206.0004        207.0004
 -13856966.99948 -10756608.15047  21905899.064    21905899.3074   21905903.7804
       189.0004        190.0004
  -6582975.86248  -5100308.87046  23174813.909    23174813.8114   23174820.3594
       167.0004        169.0004
  -8544559.00948  -6470793.07446  22757601.820    22757601.1524   22757606.2974
       172.0004        173.0004
  -1623661.32048   -950174.83246  24440868.194    24440869.1304   24440878.5524
       169.0004        171.0004
  -7304330.76347  -5660209.37245  23741729.981    23741729.4204   23741733.8534
       161.0004        162.0004
  -5448572.11648  -4237020.59646  22744992.418    22744992.9014   22744998.0984
       170.0004        171.0004
 -24686670.09749 -19223609.89848  20222408.732    20222409.0584   20222413.8834
       215.0004        216.0004
 -20946506.93249 -16311545.61947  20755070.141    20755070.7254   20755077.8274
       199.0004        199.0004
 21  2  3  2  7  0.0000000  0 10G28G30G17G09G21G08G19G14G07G01
  -3273456.36647  -2544259.88345  23303524.160    23303522.8404   23303526.2924
       156.0004        158.0004
 -18356324.99449 -14273972.97947  21044059.538    21044060.0024   21044066.6134
       207.0004        207.0004
 -13890365.35248 -10782632.81347  21899543.258    21899543.4194   21899548.1774
       189.0004        189.0004
  -6503006.52148  -5037995.10146  23190031.349    23190030.7894   23190037.9564
       168.0004        171.0004
  -8475274.65648  -6416805.26446  22770785.533    22770785.3354   22770791.1414
       172.0004        173.0004
  -1532651.22248   -879257.90246  24458189.259    24458188.5154   24458197.1484
       170.0004        171.0004
  -7378203.72647  -5717772.67046  23727673.535    23727672.9244   23727676.1324
       163.0004        165.0004
  -5479808.77948  -4261360.84746  22739048.180    22739048.7094   22739053.3514
       169.0004        170.0004
 -24699942.55549 -19233952.08448  20219883.214    20219883.8944   20219888.2954
       215.0004        216.0004
 -20942518.06949 -16308437.41247  20755828.950    20755829.6214   20755836.7444
       199.0004        198.0004
 21  2  3  2  7 30.0000000  0 10G28G30G17G09G21G08G19G14G07G01
  -3295432.85247  -2561384.38045  23299337.877    23299338.7104   23299343.6484
       153.0004        154.0004
 -18419222.77949 -14322984.24047  21032091.185    21032091.1044   21032097.3484
       207.0004        207.0004
 -13923356.64748 -10808340.31447  21893266.020    21893266.3014   21893270.5424
       190.0004        190.0004
  -6423039.95148  -4975683.51246  23205247.326    23205247.3784   23205255.8294
       169.0004        170.0004
  -8405600.61048  -6362513.79746  22784044.334    22784043.5994   22784049.0294
       171.0004        172.0004
  -1441758.56948   -808432.49846  24475485.253    24475485.1734   24475493.7334
       171.0004        172.0004
  -7451781.21847  -5775105.75645  23713672.582    23713671.1474   23713674.7854
       162.0004        162.0004
  -5511122.15648  -4285760.88746  22733089.452    22733089.7814   22733094.1284
       169.0004        170.0004
 -24712671.82349 -19243871.00448  20217460.902    20217461.5354   20217466.1494
       215.0004        217.0004
 -20937920.46349 -16304854.85847  20756703.962    20756704.4014   20756711.6284
       199.0004        199.0004
 21  2  3  2  8  0.0000000  0 10G28G30G17G09G21G08G19G14G07G01
  -3317526.93947  -2578600.55545  23295135.471    23295135.7234   23295139.4744
       154.0004        158.0004
 -18481755.81449 -14371711.28647  21020191.751    21020191.4724   21020197.4604
       207.0004        207.0004
 -13955939.79848 -10833729.76747  21887064.900    21887065.5084   21887069.9004
       190.0004        189.0004
  -6343077.39948  -4913375.02546  23220462.406    23220463.5094   23220472.1564
       167.0004        167.0004
  -8335537.66848  -6307919.29346  22797376.391    22797375.5524   22797381.4074
       170.0004        169.0004
  -1350983.24648   -737698.52546  24492756.874    24492757.8144   24492766.6184
       168.0004        167.0004
  -7525060.34347  -5832206.34846  23699727.924    23699727.6094   23699730.7784
       162.0004        164.0004
  -5542510.87348  -4310219.61146  22727115.742    22727116.0394   22727122.0724
       169.0004        170.0004
 -24724854.94149 -19253364.34348  20215142.473    20215142.9284   20215147.5744
       215.0004        216.0004
 -20932712.13449 -16300796.40947  20757695.122    20757695.7044   20757703.3484
       199.0004        199.0004
 21  2  3  2  8 30.0000000  0 10G28G30G17G09G21G08G19G14G07G01
  -3339739.01347  -2595908.65945  23290908.458    23290908.9124   23290913.9034
       155.0004        157.0004
 -18543921.21649 -14420151.86447  21008361.552    21008361.3654   21008367.9784
       208.0004        208.0004
 -13988115.44048 -10858801.70347  21880941.904    21880942.5014   21880946.6894
       190.0004        190.0004
  -6263121.28648  -4851071.58246  23235679.796    23235679.9064   23235686.4684
       166.0004        168.0004
  -8265087.45648  -6253023.02146  22810782.642    22810782.4484   22810787.4094
       170.0004        170.0004
  -1260326.48848   -667056.91446  24510010.714    24510010.8644   24510017.3764
       168.0004        169.0004
  -7598040.24047  -5889073.77745  23685840.736    23685839.4874   23685843.3264
       160.0004        160.0004
  -5573974.72148  -4334736.91446  22721129.948    22721130.0974   22721134.3304
       169.0004        169.0004
 -24736490.57349 -19262431.08448  20212928.809    20212929.2404   20212932.9994
       215.0004        216.0004
 -20926892.34049 -16296261.50247  20758802.891    20758803.2494   20758810.2374
       199.0004        198.0004
 21  2  3  2  9  0.0000000  0 10G28G30G17G09G21G08G19G14G07G01
  -3362071.71347  -2613310.76545  23286660.048    23286658.9454   23286663.9464
       154.0004        156.0004
 -18605718.38149 -14468305.49747  20996601.387    20996601.6724   20996608.6494
       208.0004        208.0004
 -14019885.64148 -10883557.70147  21874896.498    21874897.3004   21874901.4694
       189.0004        189.0004
  -6183176.32748  -4788776.83446  23250891.854    23250892.2324   23250899.4544
       167.0004        168.0004
  -8194254.23248  -6197828.27846  22824263.172    22824261.1284   22824266.3784
       169.0004        171.0004
  -1169791.45648   -596510.17646  24527237.118    24527237.9804   24527246.4044
       165.0004        165.0004
  -7670722.15847  -5945709.03346  23672009.262    23672008.8184   23672011.9744
       160.0004        163.0004
  -5605515.84648  -4359314.40346  22715125.571    22715126.5034   22715132.0454
       167.0004        167.0004
 -24747578.85349 -19271071.33048  20210818.401    20210818.7784   20210823.4604
       215.0004        216.0004
 -20920462.58049 -16291251.29447  20760026.206    20760026.8054   20760034.4854
       199.0004        199.0004
 21  2  3  2  9 30.0000000  0 10G28G30G17G09G21G08G19G14G07G01
  -3384524.29447  -2630806.25445  23282385.762    23282385.9144   23282390.9034
       153.0004        157.0004
 -18667143.34849 -14516169.11147  20984912.394    20984912.7394   20984919.9494
       208.0004        208.0004
 -14051249.65548 -10907997.18747  21868928.648    21868928.9404   21868933.3514
       190.0004        190.0004
  -6103243.84648  -4726491.81546  23266102.621    23266103.5624   23266111.1084
       167.0004        169.0004
  -8123038.59148  -6142335.56446  22837815.098    22837813.7474   22837817.6994
       169.0004        169.0004
  -1079378.43247   -526058.51046  24544443.482    24544442.2064   24544450.7114
       162.0004        163.0004
  -7743103.86847  -6002110.33746  23658236.481    23658235.5234   23658239.6264
       163.0004        166.0004
  -5637132.91148  -4383951.06346  22709109.332    22709110.4154   22709115.0874
       166.0004        168.0004
 -24758117.59849 -19279283.34348  20208812.426    20208813.3554   20208817.9304
       215.0004        216.0004
 -20913421.13549 -16285764.45047  20761365.781    20761366.2144   20761373.6914
       199.0004        199.0004
 21  2  3  2 10  0.0000000  0 10G28G30G17G09G21G08G19G14G07G01
  -3407098.11647  -2648396.26045  23278089.996    23278090.4244   23278095.1344
       154.0004        157.0004
 -18728194.63149 -14563741.55447  20973295.614    20973295.4294   20973301.8034
       208.0004        208.0004
 -14082209.28648 -10932121.56447  21863036.906    21863037.3544   21863041.7374
       190.0004        191.0004
  -6023327.66248  -4664219.50446  23281311.019    23281311.0154   23281317.9414
       167.0004        168.0004
  -8051442.84548  -6086546.69346  22851436.489    22851437.8304   22851441.6614
       167.0004        168.0004
   -989090.22547   -455704.11446  24561625.512    24561625.0524   24561633.1994
       163.0004        165.0004
  -7815185.36647  -6058277.71845  23644517.880    23644517.6054   23644521.7914
       162.0004        162.0004
  -5668827.08748  -4408647.83246  22703078.895    22703079.6094   22703085.2284
       169.0004        171.0004
 -24768105.78249 -19287066.33848  20206912.789    20206913.0104   20206917.0264
       215.0004        217.0004
 -20905768.68949 -16279801.50647  20762822.216    20762822.8134   20762830.2764
       198.0004        199.0004
 21  2  3  2 10 30.0000000  0 10G28G30G17G09G21G08G19G14G07G01
  -3429792.55047  -2666080.22845  23273772.479    23273772.6074   23273776.0214
       155.0004        157.0004
 -18788868.36949 -14611019.80347  20961749.638    20961749.5264   20961756.0724
       208.0004        207.0004
 -14112764.08148 -10955930.48747  21857222.527    21857223.4744   21857227.3844
       191.0004        191.0004
  -5943429.08748  -4601960.87846  23296514.752    23296515.6894   23296521.9144
       167.0004        168.0004
  -7979468.03648  -6030462.40546  22865133.665    22865133.9814   22865137.0784
       166.0004        167.0004
   -898926.81947   -385446.94946  24578782.939    24578782.6384   24578791.0134
       164.0004        165.0004
  -7886964.64747  -6114209.64545  23630858.215    23630858.0534   23630863.0034
       161.0004        162.0004
  -5700597.04248  -4433403.63846  22697034.337    22697034.1224   22697039.5274
       170.0004        171.0004
 -24777540.93949 -19294418.41348  20205116.455    20205117.2264   20205121.7914
       215.0004        217.0004
 -20897503.55049 -16273361.13447  20764395.563    20764395.8704   20764403.5064
       199.0004        199.0004
 21  2  3  2 11  0.0000000  0 10G28G30G17G09G21G08G19G14G07G01
  -3452608.45247  -2683858.85645  23269429.725    23269429.6664   23269435.0524
       155.0004        158.0004
 -18849161.91849 -14658001.78947  20950275.867    20950275.8104   20950282.8994
       207.0004        208.0004
 -14142914.68648 -10979424.47047  21851485.223    21851485.3154   21851490.1064
       190.0004        190.0004
  -5863550.71148  -4539718.00646  23311715.219    23311715.5254   23311722.5654
       166.0004        167.0004
  -7907116.59948  -5974084.65346  22878902.903    22878903.0444   22878905.7714
       166.0004        167.0004
   -808889.51747   -315288.07345  24595917.195    24595916.1754   24595924.2994
       161.0004        162.0004
  -7958441.01547  -6169905.48045  23617258.343    23617257.0784   23617260.3594
       160.0004        161.0004
  -5732442.87348  -4458218.56446  22690972.572    22690973.5304   22690978.6064
       169.0004        169.0004
 -24786421.79749 -19301338.57048  20203426.989    20203427.5194   20203431.9814
       216.0004        217.0004
 -20888625.36149 -16266443.05847  20766084.538    20766084.9484   20766092.3034
       198.0004        199.0004
 21  2  3  2 11 30.0000000  0 10G28G30G17G09G21G08G19G14G07G01
  -3475548.21747  -2701733.99345  23265064.744    23265063.9024   23265068.6774
       155.0004        158.0004
 -18909074.71849 -14704687.09047  20938874.659    20938874.7574   20938881.8364
       208.0004        208.0004
 -14172663.24048 -11002605.15547  21845824.081    21845824.1284   21845828.8694
       189.0004        189.0004
  -5783697.28348  -4477494.56646  23326910.151    23326910.3724   23326917.9054
       166.0004        167.0004
  -7834392.07948  -5917416.18646  22892741.410    22892740.5844   22892744.7464
       165.0004        166.0004
   -718981.76147   -245230.09745  24613026.281    24613026.0414   24613034.3074
       161.0004        162.0004
  -8029615.38247  -6225366.03245  23603712.959    23603712.2344   23603717.6974
       159.0004        161.0004
  -5764366.52548  -4483094.15846  22684899.038    22684899.0194   22684903.0384
       167.0004        167.0004
 -24794749.22549 -19307827.48348  20201841.992    20201842.5064   20201847.0694
       216.0004        217.0004
 -20879135.82449 -16259048.61147  20767890.247    20767890.9834   20767898.4404
       198.0004        199.0004
 21  2  3  2 12  0.0000000  0 10G28G30G17G09G21G08G19G14G07G01
  -3498610.05847  -2719704.24945  23260676.502    23260676.5214   23260680.7944
       156.0004        159.0004
 -18968601.89849 -14751071.91347  20927547.596    20927547.6554   20927554.0624
       208.0004        208.0004
 -14202008.64348 -11025471.69947  21840239.114    21840239.8684   21840244.7504
       189.0004        190.0004
  -5703869.06548  -4415290.76646  23342100.776    23342101.5834   23342109.2774
       165.0004        166.0004
  -7761294.16448  -5860456.77746  22906651.146    22906651.1494   22906655.3334
       165.0004        166.0004
   -629202.95947   -175272.64346  24630107.015    24630108.2064   24630118.6864
       161.0004        163.0004
  -8100484.86847  -6280589.02146  23590227.558    23590226.6224   23590231.3584
       163.0004        165.0004
  -5796365.70848  -4508028.57246  22678808.746    22678808.9894   22678814.3394
       167.0004        169.0004
 -24802519.79449 -19313882.48248  20200363.299    20200364.0404   20200368.0744
       215.0004        217.0004
 -20869032.34049 -16251175.76347  20769812.228    20769813.1974   20769820.9304
       198.0004        198.0004
 21  2  3  2 12 30.0000000  0 10G28G30G17G09G21G08G19G14G07G01
  -3521795.00547  -2737770.43645  23256265.583    23256265.2494   23256269.8154
       158.0004        160.0004
 -19027741.41349 -14797154.64847  20916293.214    20916293.2504   20916300.1684
       208.0004        208.0004
 -14230951.69848 -11048024.71947  21834732.624    21834732.8444   21834737.0334
       191.0004        192.0004
  -5624069.17548  -4353109.04546  23357286.129    23357286.8664   23357294.1224
       178.0004        182.0004
  -7687825.68847  -5803208.59246  22920632.938    22920631.5734   22920635.1554
       164.0004        165.0004
   -539554.62447   -105416.83646  24647166.424    24647167.4534   24647177.5644
       163.0004        165.0004
  -8171049.15647  -6335574.15446  23576799.537    23576798.6964   23576803.8014
       163.0004        165.0004
  -5828440.91348  -4533022.22146  22672704.450    22672706.2244   22672711.0124
       169.0004        171.0004
 -24809732.60249 -19319502.86048  20198991.575    20198991.6464   20198995.9234
       215.0004        217.0004
 -20858315.16349 -16242824.70647  20771852.340    20771852.7284   20771859.5924
       198.0004        198.0004
 21  2  3  2 13  0.0000000  0 10G28G30G17G09G21G08G19G14G07G01
  -3545103.17647  -2755932.65845  23251829.421    23251828.6594   23251833.5734
       158.0004        159.0004
 -19086490.33449 -14842933.03947  20905113.990    20905113.8114   20905120.6484
       207.0004        207.0004
 -14259493.14348 -11070264.81147  21829301.300    21829301.6964   21829306.2464
       192.0004        192.0004
  -5544299.92948  -4290951.23246  23372466.217    23372466.7794   23372474.1334
       183.0004        184.0004
  -7613988.14348  -5745672.85646  22934682.453    22934682.6434   22934686.5424
       165.0004        166.0004
   -450038.26157    -35663.86345  24664198.485    24664201.2115   24664211.9834
       161.0004        161.0004
  -8241306.99747  -6390320.50746  23563430.583    23563429.4254   23563434.3174
       164.0004        166.0004
  -5860591.73548  -4558074.82646  22666588.755    22666588.5294   22666593.5514
       171.0004        173.0004
 -24816386.03849 -19324687.36848  20197724.360    20197725.0824   20197729.8394
       215.0004        217.0004
 -20846983.72549 -16233995.01747  20774007.991    20774008.9394   20774016.1414
       198.0004        197.0004
 21  2  3  2 13 30.0000000  0 10G28G30G17G09G21G08G19G14G07G01
  -3568536.09147  -2774192.05745  23247370.640    23247370.1644   23247374.0254
       157.0004        158.0004
 -19144847.24349 -14888405.96747  20894008.619    20894009.1684   20894015.8314
       208.0004        208.0004
 -14287634.37448 -11092193.04747  21823945.773    21823946.6924   21823951.0214
       192.0004        191.0004
  -5464565.01848  -4228820.13447  23387640.734    23387640.6794   23387646.9784
       194.0004        200.0004
  -7539785.00648  -5687852.22146  22948804.202    22948802.9804   22948807.5704
       165.0004        166.0004
   -360655.49947     33985.02446  24681213.245    24681213.3414   24681220.3284
       164.0004        168.0004
  -8311258.84747  -6444828.43945  23550118.428    23550118.5274   23550121.5374
       162.0004        162.0004
  -5892819.26248  -4583187.17546  22660455.220    22660455.5304   22660460.8054
       174.0004        175.0004
 -24822479.82349 -19329435.78048  20196565.520    20196565.8724   20196570.0924
       215.0004        216.0004
 -20835038.94549 -16224687.38447  20776280.755    20776281.8534   20776289.3304
       197.0004        197.0004
 21  2  3  2 14  0.0000000  0 10G28G30G17G09G21G08G19G14G07G01
  -3592095.02647  -2792549.67445  23242887.221    23242888.2924   23242891.5714
       158.0004        161.0004
 -19202810.00349 -14933571.75447  20882979.042    20882978.8744   20882985.7424
       208.0004        208.0004
 -14315376.38648 -11113810.19647  21818666.812    21818666.9674   21818671.3704
       191.0004        191.0004
  -5384867.44949  -4166718.14347  23402805.876    23402806.2774   23402812.5634
       198.0004        198.0004
  -7465218.31548  -5629748.30146  22962993.420    22962992.5064   22962997.0364
       165.0004        166.0004
   -271408.62647    103527.99846  24698196.696    24698196.1274   24698202.7514
       164.0004        165.0004
  -8380904.33447  -6499097.66245  23536865.913    23536864.9674   23536868.0384
       160.0004        160.0004
  -5925123.83348  -4608359.57646  22654308.638    22654308.4414   22654312.4564
       175.0004        175.0004
 -24828013.34349 -19333747.62548  20195512.073    20195512.6584   20195517.0764
       215.0004        216.0004
 -20822481.01649 -16214901.98847  20778671.355    20778671.8624   20778679.3824
       198.0004        198.0004
 21  2  3  2 14 30.0000000  0 10G28G30G17G09G21G08G19G14G07G01
  -3615779.70247  -2811005.27245  23238379.924    23238379.6014   23238385.4664
       158.0004        160.0004
 -19260375.61649 -14978428.08247  20872024.126    20872024.5444   20872031.7464
       208.0004        208.0004
 -14342719.92748 -11135116.83947  21813463.402    21813463.6524   21813468.6744
       192.0004        193.0004
  -5305209.35449  -4104646.91847  23417963.584    23417964.2784   23417971.0934
       197.0004        196.0004
  -7390289.80348  -5571362.44546  22977251.092    22977251.1514   22977255.6724
       165.0004        166.0004
   -182298.84147    172964.18746  24715150.511    24715151.8424   24715159.9174
       162.0004        163.0004
  -8450242.37047  -6553127.27545  23523670.837    23523670.0174   23523674.5974
       160.0004        162.0004
  -5957505.01648  -4633591.66646  22648145.696    22648146.3354   22648150.2954
       174.0004        174.0004
 -24832985.18649 -19337621.79748  20194565.607    20194566.3064   20194571.3844
       215.0004        216.0004
 -20809309.42449 -16204638.41147  20781177.145    20781177.9794   20781185.6304
       198.0004        198.0004
 21  2  3  2 15  0.0000000  0 10G28G30G17G09G21G08G19G14G07G01
  -3639589.47847  -2829558.32045  23233849.646    23233849.8344   23233853.8664
       159.0004        161.0004
 -19317540.74549 -15022972.34147  20861146.485    20861146.5134   20861153.8224
       208.0004        208.0004
 -14369664.59148 -11156112.66647  21808335.972    21808336.5194   21808341.2294
       193.0004        193.0004
  -5225592.51249  -4042607.83347  23433114.333    23433114.7994   23433121.7144
       196.0004        196.0004
  -7315000.86948  -5512695.73846  22991577.975    22991577.8344   22991582.8074
       165.0004        167.0004
    -93326.26747    242293.43445  24732080.344    24732081.3384   24732090.5134
       157.0004        158.0004
  -8519271.19147  -6606915.96746  23510534.882    23510534.9644   23510538.4314
       162.0004        165.0004
  -5989961.80848  -4658882.66746  22641968.189    22641969.6274   22641974.7644
       174.0004        173.0004
 -24837393.08449 -19341056.52248  20193727.636    20193727.8884   20193732.2694
       215.0004        216.0004
 -20795523.22249 -16193895.89947  20783800.827    20783801.5534   20783808.9044
       198.0004        198.0004
 21  2  3  2 15 30.0000000  0 10G28G30G17G09G21G08G19G14G07G01
  -3663525.31347  -2848209.62045  23229294.291    23229293.4254   23229299.2874
       159.0004        160.0004
 -19374302.78349 -15067202.50647  20850344.514    20850344.6104   20850351.6934
       208.0004        208.0004
 -14396211.66448 -11176798.69547  21803283.917    21803284.3544   21803289.4834
       193.0004        193.0004
  -5146019.33849  -3980602.78747  23448257.361    23448257.3124   23448264.4424
       196.0004        196.0004
  -7239352.77748  -5453749.16246  23005973.554    23005973.8544   23005979.2394
       166.0004        168.0004
     -4491.89347    311514.97445  24748989.802    24748989.3954   24748994.6604
       160.0004        162.0004
  -8587990.01047  -6660463.09546  23497458.335    23497457.1204   23497460.1464
       162.0004        163.0004
  -6022494.01948  -4684232.44846  22635779.739    22635779.2404   22635782.9474
       174.0004        174.0004
 -24841235.90849 -19344050.93448  20192995.898    20192996.4134   20193000.8354
       215.0004        216.0004
 -20781122.18349 -16182674.31047  20786541.720    20786542.0154   20786549.6574
       198.0004        198.0004
 21  2  3  2 16  0.0000000  0  9G28G30G17G09G21G19G14G07G01
  -3687585.90547  -2866958.14945  23224715.509    23224716.0274   23224720.3374
       159.0004        161.0004
 -19430657.94249 -15111115.62647  20839621.183    20839621.0354   20839627.7424
       208.0004        208.0004
 -14422360.22548 -11197174.21047  21798308.832    21798308.6824   21798312.5474
       192.0004        191.0004
  -5066491.17449  -3918632.79447  23463390.628    23463390.9594   23463398.1624
       197.0004        197.0004
  -7163347.11448  -5394523.98546  23020437.414    23020436.7784   23020442.3264
       166.0004        168.0004
  -8656397.05247  -6713767.28046  23484441.259    23484441.2944   23484444.2744
       161.0004        163.0004
  -6055100.36048  -4709639.97046  22629573.209    22629573.8364   22629578.7064
       173.0004        174.0004
 -24844511.51049 -19346603.36448  20192373.023    20192373.5074   20192377.8314
       215.0004        217.0004
 -20766105.05849 -16170972.64947  20789398.877    20789399.6774   20789406.8304
       197.0004        197.0004
