     2.11           OBSERVATION DATA    G (GPS)             RINEX VERSION / TYPE
teqc  2018Jun8                          20210202 03:10:46UTCPGM / RUN BY / DATE
Linux2.6.32-573.12.1.el6.x86_64|x86_64|gcc|Win64-MinGW64|=+ COMMENT
BIT 2 OF LLI FLAGS DATA COLLECTED UNDER A/S CONDITION       COMMENT
-Unknown-                                                   MARKER NAME
CRNO                                                        MARKER NUMBER
-Unknown-           -Unknown-                               OBSERVER / AGENCY
-Unknown-           ASHTECH             -Unknown-           REC # / TYPE / VERS
-Unknown-           -Unknown-                               ANT # / TYPE
   408077.6788 -6158373.7079  1605161.2606                  APPROX POSITION XYZ
        0.0000        0.0000        0.0000                  ANTENNA: DELTA H/E/N
     1     1                                                WAVELENGTH FACT L1/2
     7    L1    L2    C1    P1    P2    S1    S2            # / TYPES OF OBSERV
    30.0000                                                 INTERVAL
Forced Modulo Decimation to 30 seconds                      COMMENT
 SNR is mapped to RINEX snr flag value [1-9]                COMMENT
  L1: 1 -> 1;  90 -> 5; 210 -> 9                            COMMENT
  L2: 1 -> 1; 150 -> 5; 250 -> 9                            COMMENT
pseudorange smoothing corrections not applied               COMMENT
  2021     2     6     0     0   30.0000000     GPS         TIME OF FIRST OBS
                                                            END OF HEADER
 21  2  6  0  0 30.0000000  0  9G07G21G30G17G27G01G08G09G04
 -14664115.16548 -11407156.80747  21670133.840    21670133.5464   21670138.4944
       194.0004        194.0004
 -12588495.27848  -9797176.05346  21768592.047    21768591.7544   21768597.7504
       182.0004        182.0004
  -4413488.73547  -3410559.81045  23722469.973    23722470.3164   23722476.4764
       157.0004        158.0004
  -2019709.64647  -1226544.46345  24005855.851    24005856.7244   24005861.9304
       149.0004        151.0004
  -2879129.19948  -2220357.15346  24487995.585    24487994.7284   24488002.3394
       168.0004        169.0004
 -13635075.91248 -10614571.96146  22056863.777    22056864.6434   22056873.0264
       179.0004        179.0004
 -17039291.80949 -13214823.86647  21458931.766    21458931.7884   21458938.6494
       208.0004        211.0004
 -17744969.74849 -13803281.10247  21042249.037    21042249.0534   21042256.2134
       208.0004        209.0004
 -11392534.11248  -8861871.28246  22179949.398    22179949.9804   22179955.9694
       181.0004        180.0004
 21  2  6  0  1  0.0000000  0  9G07G21G30G17G27G01G08G09G04
 -14736178.00148 -11463309.64847  21656419.903    21656420.4134   21656425.0834
       194.0004        194.0004
 -12599232.92848  -9805543.03846  21766548.644    21766548.7454   21766555.0604
       182.0004        182.0004
  -4500756.20747  -3478560.43145  23705863.167    23705863.8114   23705870.9984
       156.0004        157.0004
  -2114480.55447  -1300391.89145  23987822.511    23987823.0734   23987826.5724
       149.0004        152.0004
  -2770499.09148  -2135710.36746  24508666.669    24508665.9314   24508673.4774
       167.0004        168.0004
 -13706806.77348 -10670466.11946  22043213.747    22043214.0874   22043222.3954
       178.0004        179.0004
 -16960392.56049 -13153343.93247  21473946.729    21473946.6194   21473952.3354
       213.0004        211.0004
 -17705959.54549 -13772883.54747  21049671.962    21049672.4074   21049679.2554
       208.0004        208.0004
 -11301912.72948  -8791257.22546  22197193.355    22197193.5494   22197199.8134
       181.0004        181.0004
 21  2  6  0  1 30.0000000  0  9G07G21G30G17G27G01G08G09G04
 -14808115.12548 -11519364.53047  21642731.696    21642732.0424   21642735.8094
       194.0004        194.0004
 -12609528.63148  -9813565.64046  21764590.232    21764589.7424   21764595.0974
       182.0004        181.0004
  -4588076.56047  -3546602.22345  23689247.819    23689247.0894   23689254.4784
       156.0004        158.0004
  -2209005.85947  -1374047.91245  23969834.693    23969835.4334   23969840.1414
       152.0004        155.0004
  -2661859.75448  -2051056.31146  24529338.205    24529339.7274   24529345.5794
       166.0004        167.0004
 -13778337.58748 -10726204.37746  22029601.124    22029601.8004   22029609.3924
       178.0004        178.0004
 -16881196.37249 -13091632.59748  21489017.074    21489017.0284   21489022.7974
       221.0004        225.0004
 -17666477.85649 -13742118.58947  21057185.578    21057185.8564   21057193.0274
       208.0004        209.0004
 -11211078.94048  -8720477.66346  22214479.824    22214480.1054   22214484.9884
       180.0004        180.0004
 21  2  6  0  2  0.0000000  0  9G07G21G30G17G27G01G08G09G04
 -14879924.59548 -11575319.95947  21629066.220    21629066.8974   21629070.9714
       194.0004        195.0004
 -12619381.67248  -9821243.32146  21762715.375    21762714.8984   21762719.9654
       181.0004        181.0004
  -4675448.43547  -3614684.20245  23672621.763    23672621.8494   23672628.5004
       157.0004        160.0004
  -2303283.47847  -1447510.93445  23951894.446    23951894.9214   23951899.8014
       153.0004        155.0004
  -2553213.93048  -1966397.19746  24550010.138    24550012.9504   24550021.7654
       166.0004        166.0004
 -13849665.40948 -10781784.46946  22016028.270    22016028.7694   22016037.3324
       178.0004        179.0004
 -16801706.40649 -13029692.36348  21504142.105    21504142.9134   21504149.1924
       224.0004        224.0004
 -17626527.07649 -13710988.11547  21064788.094    21064788.0684   21064795.2634
       209.0004        209.0004
 -11120036.08748  -8649535.16946  22231803.618    22231803.9024   22231810.9054
       180.0004        180.0004
 21  2  6  0  2 30.0000000  0  9G07G21G30G17G27G01G08G09G04
 -14951602.89349 -11631173.16447  21615426.595    21615427.0404   21615431.5714
       195.0004        195.0004
 -12628789.48848  -9828574.07946  21760925.852    21760925.4554   21760929.7514
       182.0004        182.0004
  -4762869.50747  -3682804.49845  23655985.424    23655985.2844   23655993.1224
       158.0004        160.0004
  -2397310.71147  -1520778.81145  23934000.886    23934001.0664   23934006.6174
       152.0004        155.0004
  -2444563.41948  -1881734.51346  24570687.433    24570688.9594   24570697.0074
       166.0004        167.0004
 -13920786.32548 -10837203.34346  22002493.542    22002495.2324   22002502.9684
       178.0004        179.0004
 -16721925.10349 -12967525.10748  21519324.202    21519324.7064   21519331.6754
       225.0004        224.0004
 -17586108.77449 -13679493.32847  21072479.248    21072479.7004   21072486.7424
       209.0004        209.0004
 -11028786.48648  -8578431.59246  22249168.182    22249168.5314   22249174.2204
       180.0004        180.0004
 21  2  6  0  3  0.0000000  0  8G07G21G30G17G01G08G09G04
 -15023148.19649 -11686922.75147  21601812.568    21601812.2084   21601816.5444
       196.0004        196.0004
 -12637751.59748  -9835557.52746  21759219.986    21759219.4064   21759222.7854
       182.0004        183.0004
  -4850338.71147  -3750962.32245  23639340.202    23639340.5814   23639347.9734
       159.0004        161.0004
  -2491086.37247  -1593850.65545  23916155.156    23916155.9934   23916162.6204
       153.0004        156.0004
 -13991697.74048 -10892458.96846  21989000.529    21989000.7734   21989009.1044
       178.0004        179.0004
 -16641855.79249 -12905133.43448  21534561.250    21534561.3314   21534568.5084
       225.0004        225.0004
 -17545225.86949 -13647636.52447  21080258.494    21080259.2784   21080266.1924
       208.0004        209.0004
 -10937333.92448  -8507169.87046  22266570.872    22266571.0904   22266578.3734
       180.0004        180.0004
 21  2  6  0  3 30.0000000  0  9G07G14G21G30G17G01G08G09G04
 -15094557.65349 -11742566.47347  21588223.127    21588223.6774   21588227.8394
       196.0004        195.0004
   -168100.66754   -123810.48343  23613527.519
        74.0004         74.0004
 -12646266.06848  -9842192.16846  21757599.621    21757599.1024   21757603.0914
       182.0004        181.0004
  -4937853.93147  -3819155.96545  23622685.875    23622685.9004   23622693.9184
       159.0004        161.0004
  -2584607.95047  -1666724.56045  23898359.926    23898359.2164   23898365.7764
       154.0004        156.0004
 -14062395.97648 -10947548.46546  21975547.818    21975547.6484   21975555.0294
       178.0004        179.0004
 -16561501.16749 -12842519.43848  21549852.144    21549852.2784   21549859.4954
       225.0004        224.0004
 -17503880.14049 -13615419.06547  21088126.916    21088127.1624   21088134.3274
       208.0004        209.0004
 -10845681.01648  -8435752.03046  22284012.450    22284012.7604   22284019.2134
       178.0004        177.0004
 21  2  6  0  4  0.0000000  0  9G07G14G21G30G17G01G08G09G04
 -15165828.48549 -11798102.16947  21574660.813    21574661.0054   21574665.3084
       195.0004        195.0004
   -195462.23844   -145131.62045  23608318.990
        74.0004        140.0004
 -12654331.11348  -9848476.60646  21756064.051    21756063.8844   21756068.9994
       181.0004        182.0004
  -5025413.25847  -3887383.95945  23606023.924    23606024.0924   23606031.3874
       158.0004        160.0004
  -2677873.00047  -1739398.55945  23880611.177    23880612.1864   23880617.5364
       154.0004        156.0004
 -14132877.56948 -11002469.15046  21962135.241    21962135.3024   21962143.4334
       179.0004        179.0004
 -16480864.19749 -12779685.42648  21565196.731    21565197.1654   21565203.7974
       225.0004        224.0004
 -17462073.65849 -13582842.59347  21096082.860    21096082.8574   21096089.8554
       209.0004        209.0004
 -10753830.64448  -8364180.30046  22301491.346    22301490.9744   22301497.2714
       177.0004        176.0004
 21  2  6  0  4 30.0000000  0  9G07G14G21G30G17G01G08G09G04
 -15236958.30149 -11853527.98747  21561125.312    21561125.5564   21561129.2834
       195.0004        195.0004
   -222765.73746   -166406.92245  23603124.360                    23603125.1184
       126.0004        144.0004
 -12661945.54248  -9854409.90346  21754616.124    21754615.2394   21754620.1604
       182.0004        182.0004
  -5113015.14547  -3955645.16046  23589355.020    23589354.7824   23589362.1284
       160.0004        163.0004
  -2770879.74547  -1811871.25245  23862913.245    23862912.9254   23862919.5944
       154.0004        156.0004
 -14203139.51948 -11057218.69846  21948763.711    21948765.2784   21948772.7444
       179.0004        180.0004
 -16399947.98949 -12716633.83048  21580594.776    21580594.9644   21580601.5424
       224.0004        223.0004
 -17419808.95349 -13549909.05847  21104125.386    21104125.5094   21104132.5864
       209.0004        208.0004
 -10661786.08248  -8292457.25446  22319006.614    22319007.4604   22319013.9304
       177.0004        178.0004
 21  2  6  0  5  0.0000000  0  9G07G14G21G30G17G01G08G09G04
 -15307944.95549 -11908842.26547  21547616.553    21547617.0604   21547621.2514
       195.0004        196.0004
   -250012.75847   -187638.32845  23597938.310    23597940.2674   23597943.4544
       137.0004        145.0004
 -12669108.71748  -9859991.58046  21753252.595    21753252.2994   21753257.0554
       183.0004        182.0004
  -5200658.28747  -4023938.48545  23572677.326    23572676.9594   23572684.2424
       160.0004        162.0004
  -2863626.52447  -1884141.35845  23845264.043    23845264.3404   23845269.6184
       155.0004        156.0004
 -14273178.91948 -11111794.81946  21935436.020    21935436.6014   21935445.6604
       179.0004        180.0004
 -16318755.94649 -12653367.29348  21596045.231    21596045.3224   21596052.2184
       223.0004        223.0004
 -17377088.65149 -13516620.51047  21112253.527    21112254.0884   21112261.7454
       208.0004        208.0004
 -10569550.76748  -8220585.58546  22336557.545    22336558.0974   22336564.6414
       177.0004        177.0004
 21  2  6  0  5 30.0000000  0  9G07G14G21G30G17G01G08G09G04
 -15378787.18149 -11964043.99447  21534135.838    21534136.0494   21534140.4394
       195.0004        195.0004
   -277206.09747   -208827.90745  23592765.723    23592765.4544   23592768.5964
       140.0004        144.0004
 -12675820.49348  -9865221.51446  21751976.455    21751975.3224   21751979.9994
       183.0004        183.0004
  -5288342.28847  -4092263.67346  23555991.472    23555991.2704   23555998.4254
       160.0004        163.0004
  -2956112.34247  -1956208.16945  23827663.426    23827664.5374   23827670.6864
       154.0004        156.0004
 -14342993.88648 -11166196.07646  21922150.939    21922151.1274   21922159.2414
       179.0004        180.0004
 -16237292.21749 -12589889.05848  21611547.245    21611547.4344   21611554.3634
       224.0004        223.0004
 -17333916.44949 -13482979.84247  21120470.197    21120470.4014   21120477.0914
       208.0004        208.0004
 -10477129.08348  -8148568.71046  22354143.417    22354144.1404   22354152.8104
       177.0004        176.0004
 21  2  6  0  6  0.0000000  0  9G07G14G21G30G17G01G08G09G04
 -15449481.44649 -12019130.43947  21520682.935    21520683.4354   21520688.0994
       195.0004        195.0004
   -304345.77147   -229975.67345  23587598.722    23587599.8324   23587609.1194
       145.0004        151.0004
 -12682077.98948  -9870097.46746  21750784.265    21750784.2594   21750790.2414
       183.0004        184.0004
  -5376064.07647  -4160618.29846  23539297.794    23539298.2634   23539305.1814
       162.0004        165.0004
  -3048334.28247  -2028069.33145  23810114.072    23810114.7724   23810120.9244
       153.0004        156.0004
 -14412579.86148 -11220418.88646  21908908.288    21908909.5464   21908917.4294
       179.0004        180.0004
 -16155558.83149 -12526200.70348  21627101.157    21627101.0804   21627107.7324
       224.0004        224.0004
 -17290293.36149 -13448987.82647  21128771.037    21128770.8984   21128778.0444
       208.0004        208.0004
 -10384522.77148  -8076407.96446  22371766.516    22371767.1754   22371775.4554
       176.0004        176.0004
 21  2  6  0  6 30.0000000  0  9G07G14G21G30G17G01G08G09G04
 -15520023.62649 -12074098.36747  21507259.261    21507259.8034   21507264.4514
       196.0004        196.0004
   -331431.65447   -251081.55645  23582445.881    23582445.9914   23582454.3794
       151.0004        155.0004
 -12687878.59448  -9874617.40546  21749679.757    21749679.6834   21749685.9234
       183.0004        183.0004
  -5463820.54247  -4228999.91746  23522597.711    23522598.6374   23522606.3974
       163.0004        165.0004
  -3140288.80047  -2099722.15645  23792616.914    23792617.0564   23792622.4124
       155.0004        157.0004
 -14481932.31748 -11274459.72646  21895711.876    21895712.2804   21895721.0014
       180.0004        181.0004
 -16073557.39249 -12462303.48348  21642705.767    21642705.4174   21642712.0884
       225.0004        224.0004
 -17246220.45549 -13414645.30547  21137157.829    21137158.2394   21137165.2364
       208.0004        208.0004
 -10291733.60248  -8004104.74346  22389425.650    22389425.5654   22389432.6394
       175.0004        175.0004
 21  2  6  0  7  0.0000000  0  9G07G14G21G30G17G01G08G09G04
 -15590411.98749 -12128946.42647  21493865.428    21493865.2644   21493869.7354
       196.0004        196.0004
   -358465.92047   -272147.22045  23577301.090    23577301.8554   23577309.3994
       154.0004        157.0004
 -12693221.88548  -9878780.99146  21748663.410    21748663.3774   21748669.1944
       183.0004        183.0004
  -5551610.78447  -4297407.85246  23505892.000    23505892.9634   23505900.2224
       164.0004        166.0004
  -3231974.80547  -2171165.70345  23775168.115    23775168.9194   23775175.7764
       153.0004        155.0004
 -14551048.70748 -11328316.63146  21882559.582    21882560.3464   21882568.4344
       181.0004        183.0004
 -15991291.47049 -12398200.15948  21658358.735    21658359.6824   21658366.4774
       224.0004        222.0004
 -17201700.82449 -13379954.67547  21145629.484    21145629.8534   21145637.2204
       208.0004        208.0004
 -10198765.37348  -7931661.96146  22407116.837    22407117.0884   22407123.0554
       176.0004        177.0004
 21  2  6  0  7 30.0000000  0  9G07G14G21G30G17G01G08G09G04
 -15660642.51649 -12183671.51547  21480500.519    21480501.3084   21480505.1854
       196.0004        196.0004
   -385448.78047   -293172.79645  23572167.001    23572167.7954   23572173.1644
       155.0004        158.0004
 -12698105.73648  -9882586.56846  21747735.378    21747734.5874   21747739.8114
       183.0004        183.0004
  -5639431.82147  -4365839.78446  23489180.870    23489180.8804   23489187.5464
       164.0004        165.0004
  -3323389.38047  -2242397.74945  23757772.841    23757772.0434   23757779.3844
       151.0004        153.0004
 -14619924.73348 -11381986.23646  21869451.683    21869452.6474   21869461.8134
       181.0004        181.0004
 -15908763.20649 -12333892.40748  21674063.130    21674063.9404   21674071.3164
       223.0004        221.0004
 -17156735.77249 -13344916.96847  21154185.849    21154186.4734   21154193.8724
       209.0004        209.0004
 -10105620.11348  -7859081.23746  22424841.189    22424841.4884   22424847.2384
       176.0004        175.0004
 21  2  6  0  8  0.0000000  0  9G07G14G21G30G17G01G08G09G04
 -15730714.12249 -12238272.77547  21467166.891    21467167.4654   21467171.0954
       197.0004        197.0004
   -412382.64147   -314160.20445  23567041.720    23567042.2834   23567046.2334
       154.0004        156.0004
 -12702529.89348  -9886033.95546  21746893.831    21746891.6664   21746896.9344
       183.0004        183.0004
  -5727282.95847  -4434295.21246  23472463.615    23472463.7784   23472470.1084
       164.0004        165.0004
  -3414531.32347  -2313417.37445  23740429.227    23740430.1514   23740435.4454
       153.0004        157.0004
 -14688558.27648 -11435466.89846  21856391.412    21856392.7294   21856400.5984
       181.0004        181.0004
 -15825976.54949 -12269383.32848  21689817.915    21689818.0714   21689825.2684
       223.0004        222.0004
 -17111328.75549 -13309534.89147  21162826.830    21162827.2654   21162834.3434
       209.0004        209.0004
 -10012301.91348  -7786365.77446  22442598.876    22442599.7154   22442605.3834
       175.0004        175.0004
 21  2  6  0  8 30.0000000  0  9G07G14G21G30G17G01G08G09G04
 -15800623.33449 -12292747.47647  21453863.085    21453863.6714   21453868.1184
       197.0004        198.0004
   -439268.12847   -335109.90545  23561924.268    23561925.3214   23561930.1494
       153.0004        156.0004
 -12706492.67948  -9889121.82746  21746138.161    21746137.5764   21746142.4374
       182.0004        182.0004
  -5815161.65947  -4502772.10046  23455740.362    23455740.5774   23455747.9504
       164.0004        166.0004
  -3505398.07747  -2384222.56145  23723138.348    23723138.8834   23723143.2434
       154.0004        157.0004
 -14756945.31048 -11488755.47846  21843377.869    21843378.8474   21843387.1624
       181.0004        182.0004
 -15742933.93349 -12204674.80148  21705621.362    21705621.2544   21705627.6464
       223.0004        223.0004
 -17065481.52549 -13273809.76647  21171551.650    21171551.5984   21171558.8724
       209.0004        209.0004
  -9918813.14448  -7713517.37346  22460389.110    22460389.6494   22460396.3534
       175.0004        176.0004
 21  2  6  0  9  0.0000000  0  9G07G14G21G30G17G01G08G09G04
 -15870368.19049 -12347094.12047  21440590.561    21440591.4984   21440595.8224
       197.0004        197.0004
   -466107.00547   -356023.28545  23556818.002    23556819.0484   23556822.9254
       155.0004        158.0004
 -12709992.90448  -9891849.27146  21745471.470    21745471.6494   21745476.3614
       182.0004        182.0004
  -5903066.57347  -4571269.43046  23439012.527    23439012.5004   23439019.9894
       163.0004        163.0004
  -3595987.90347  -2454811.96145  23705899.086    23705899.7394   23705905.0514
       155.0004        157.0004
 -14825083.11048 -11541849.84846  21830412.363    21830412.3244   21830420.5644
       181.0004        182.0004
 -15659638.57849 -12139769.33048  21721472.427    21721472.0424   21721477.7064
       224.0004        222.0004
 -17019196.97249 -13237743.87847  21180358.456    21180359.0004   21180366.5794
       208.0004        208.0004
  -9825157.29748  -7640538.81046  22478211.875    22478212.1204   22478217.7104
       176.0004        175.0004
 21  2  6  0  9 30.0000000  0  9G07G14G21G30G17G01G08G09G04
 -15939945.76849 -12401310.41347  21427351.738    21427351.6714   21427355.3774
       198.0004        197.0004
   -492900.49947   -376901.29345  23551719.850    23551720.0214   23551724.8614
       156.0004        158.0004
 -12713029.44348  -9894215.37646  21744893.501    21744894.5484   21744898.2314
       183.0004        183.0004
  -5990995.97047  -4639785.80446  23422278.861    23422280.1674   23422286.6004
       162.0004        163.0004
  -3686298.97147  -2525184.10245  23688714.036    23688714.3534   23688720.2244
       158.0004        161.0004
 -14892968.45648 -11594747.49046  21817493.741    21817494.5034   21817502.7984
       181.0004        183.0004
 -15576093.44649 -12074669.21048  21737368.691    21737369.3104   21737376.1044
       222.0004        220.0004
 -16972477.50949 -13201339.09947  21189249.545    21189249.9454   21189256.6664
       208.0004        208.0004
  -9731337.42848  -7567432.42946  22496064.695    22496065.3444   22496071.6554
       175.0004        175.0004
 21  2  6  0 10  0.0000000  0  9G07G14G21G30G17G01G08G09G04
 -16009352.94749 -12455393.92647  21414142.788    21414143.5144   21414147.9014
       197.0004        197.0004
   -519649.15847   -397744.37845  23546629.004    23546628.9614   23546634.3534
       154.0004        156.0004
 -12715600.37748  -9896218.69646  21744405.585    21744404.8234   21744409.9794
       184.0004        185.0004
  -6078947.02247  -4708319.07946  23405543.965    23405543.9584   23405550.8444
       163.0004        166.0004
  -3776328.77547  -2595337.13845  23671582.811    23671582.7304   23671588.4014
       158.0004        159.0004
 -14960597.15648 -11647445.16446  21804624.838    21804625.4444   21804633.4064
       182.0004        184.0004
 -15492300.72249 -12009376.18748  21753313.976    21753314.2364   21753321.4934
       221.0004        221.0004
 -16925324.78249 -13164596.70847  21198223.014    21198222.6914   21198229.6194
       208.0004        208.0004
  -9637355.73848  -7494199.94046  22513948.904    22513948.7634   22513955.4574
       176.0004        176.0004
 21  2  6  0 10 30.0000000  0  9G07G14G21G30G17G01G08G09G04
 -16078588.02349 -12509343.31647  21400967.835    21400968.7974   21400972.4944
       197.0004        197.0004
   -546355.47747   -418554.46245  23541546.066    23541547.0344   23541552.7894
       154.0004        157.0004
 -12717705.83948  -9897859.30246  21744005.453    21744004.6794   21744009.7804
       185.0004        186.0004
  -6166919.12447  -4776868.73446  23388802.658    23388803.2984   23388810.3134
       164.0004        166.0004
  -3866076.31847  -2665270.21645  23654504.768    23654504.6354   23654509.3234
       157.0004        159.0004
 -15027967.28648 -11699941.33346  21791804.282    21791804.9764   21791813.8034
       183.0004        184.0004
 -15408264.60949 -11943893.50348  21769305.655    21769305.9484   21769312.8594
       222.0004        221.0004
 -16877742.50049 -13127519.58647  21207277.141    21207277.0524   21207284.1894
       208.0004        208.0004
  -9543216.51848  -7420844.70146  22531863.275    22531863.6354   22531870.5164
       176.0004        176.0004
 21  2  6  0 11  0.0000000  0  9G07G14G21G30G17G01G08G09G04
 -16147647.95849 -12563156.25547  21387827.223    21387827.5204   21387831.0574
       198.0004        199.0004
   -573020.11847   -439332.09945  23536472.463    23536473.4504   23536479.3244
       158.0004        162.0004
 -12719344.05648  -9899135.80746  21743692.879    21743692.4774   21743698.5444
       186.0004        186.0004
  -6254909.74647  -4845432.83845  23372058.302    23372058.7734   23372065.9134
       163.0004        162.0004
  -3955538.87247  -2734981.23345  23637479.039    23637479.8294   23637485.0044
       158.0004        160.0004
 -15095074.92348 -11752232.96946  21779034.685    21779035.1354   21779044.0414
       184.0004        184.0004
 -15323988.09849 -11878223.48748  21785342.926    21785343.5664   21785349.7774
       221.0004        220.0004
 -16829732.43949 -13090109.14447  21216413.001    21216413.5464   21216420.0254
       208.0004        208.0004
  -9448922.14048  -7347368.58046  22549807.439    22549807.2744   22549812.8684
       175.0004        174.0004
 21  2  6  0 11 30.0000000  0  9G07G14G21G30G17G01G08G09G04
 -16216529.55449 -12616830.23247  21374718.930    21374719.3824   21374723.0264
       198.0004        198.0004
   -599643.95147   -460077.91546  23531406.026    23531406.8814   23531412.4934
       162.0004        164.0004
 -12720513.40448  -9900046.98246  21743469.994    21743469.6064   21743476.2524
       186.0004        186.0004
  -6342916.69047  -4914009.68346  23355311.126    23355311.7534   23355318.7234
       161.0004        164.0004
  -4044714.27147  -2804468.46945  23620508.322    23620509.4904   23620515.0454
       158.0004        160.0004
 -15161916.45648 -11804317.25746  21766314.838    21766314.3304   21766323.3044
       183.0004        183.0004
 -15239473.39449 -11812367.87148  21801426.692    21801426.4454   21801432.6204
       221.0004        220.0004
 -16781296.78549 -13052367.08847  21225629.658    21225630.0904   21225637.5734
       207.0004        208.0004
  -9354475.31948  -7273773.65246  22567779.870    22567780.5584   22567786.2604
       175.0004        175.0004
 21  2  6  0 12  0.0000000  0  9G07G14G21G30G17G01G08G09G04
 -16285230.04849 -12670363.07747  21361645.836    21361646.1824   21361650.3234
       198.0004        198.0004
   -626227.99048   -480792.72246  23526347.526    23526348.7194   23526353.9334
       165.0004        166.0004
 -12721212.79348  -9900591.93747  21743337.073    21743337.4374   21743343.6404
       187.0004        188.0004
  -6430937.75347  -4982597.48046  23338561.659    23338562.7834   23338569.7574
       163.0004        165.0004
  -4133600.45647  -2873730.34145  23603594.598    23603595.0184   23603600.3804
       159.0004        161.0004
 -15228488.35648 -11856191.43946  21753645.732    21753646.7944   21753655.5104
       182.0004        183.0004
 -15154722.69349 -11746328.36548  21817553.912    21817553.8674   21817560.0384
       220.0004        219.0004
 -16732437.72849 -13014295.08647  21234926.970    21234927.6464   21234934.9594
       207.0004        208.0004
  -9259878.70848  -7200062.02246  22585780.057    22585781.0884   22585786.7214
       176.0004        176.0004
 21  2  6  0 12 30.0000000  0  9G07G14G21G30G17G01G08G09G04
 -16353747.65149 -12723753.41947  21348607.168    21348607.7774   21348611.4954
       198.0004        198.0004
   -652774.51748   -501478.31346  23521296.431    23521296.7114   23521302.0784
       165.0004        166.0004
 -12721441.89548  -9900770.43947  21743293.955    21743293.4934   21743300.4234
       188.0004        188.0004
  -6518971.93047  -5051195.50846  23321810.212    23321809.5504   23321816.6364
       164.0004        166.0004
  -4222196.55347  -2942766.19245  23586736.437    23586736.8384   23586740.2254
       158.0004        158.0004
 -15294788.34248 -11907853.75946  21741031.804    21741031.6114   21741038.3174
       184.0004        186.0004
 -15069740.32549 -11680108.35548  21833724.788    21833725.1014   21833731.8744
       220.0004        219.0004
 -16683158.77149 -12975895.91747  21244304.618    21244305.0864   21244312.6964
       207.0004        207.0004
  -9165136.33048  -7126236.81346  22603808.552    22603810.0574   22603816.3194
       175.0004        175.0004
 21  2  6  0 13  0.0000000  0  9G07G14G21G30G17G01G08G09G04
 -16422080.12649 -12776999.48647  21335603.179    21335603.9274   21335608.5204
       198.0004        198.0004
   -679285.08447   -522135.87146  23516250.923    23516251.5034   23516257.2394
       164.0004        165.0004
 -12721200.32848  -9900582.17147  21743339.666    21743339.0644   21743346.3844
       188.0004        188.0004
  -6607017.73447  -5119802.60246  23305054.247    23305054.3334   23305062.6084
       164.0004        166.0004
  -4310500.93847  -3011574.72145  23569930.225    23569931.1494   23569936.4164
       155.0004        157.0004
 -15360813.54548 -11959301.94546  21728465.993    21728467.1974   21728474.9244
       185.0004        185.0004
 -14984529.63149 -11613710.39648  21849940.064    21849940.2534   21849947.1494
       220.0004        219.0004
 -16633462.76649 -12937171.76147  21253761.617    21253761.8574   21253768.8874
       206.0004        206.0004
  -9070251.54448  -7052300.61746  22621865.720    22621865.8214   22621872.4554
       175.0004        175.0004
 21  2  6  0 13 30.0000000  0  9G07G14G21G30G17G01G08G09G04
 -16490222.60349 -12830097.50747  21322636.839    21322637.3034   21322641.5664
       198.0004        198.0004
   -705758.96247   -542764.84246  23511213.798    23511213.8214   23511219.2864
       162.0004        163.0004
 -12720484.73048  -9900024.53346  21743475.089    21743474.8564   21743482.6394
       188.0004        187.0004
  -6695071.07448  -5188415.56246  23288298.098    23288298.8904   23288307.1084
       165.0004        167.0004
  -4398509.16347  -3080152.51545  23553184.526    23553184.4714   23553189.7624
       157.0004        161.0004
 -15426558.62348 -12010531.83646  21715954.011    21715955.0304   21715964.0814
       184.0004        184.0004
 -14899091.40149 -11547135.15648  21866198.489    21866198.9064   21866205.5934
       220.0004        219.0004
 -16583350.19749 -12898123.00647  21263297.760    21263298.1564   21263305.7674
       206.0004        207.0004
  -8975225.30948  -6978254.21546  22639947.946    22639948.0344   22639954.4094
       174.0004        173.0004
 21  2  6  0 14  0.0000000  0  9G07G14G21G30G17G01G08G09G04
 -16558173.70649 -12883046.41347  21309705.783    21309706.4784   21309710.9464
       198.0004        198.0004
   -732198.49047   -563367.04046  23506182.898    23506183.2554   23506189.1224
       164.0004        166.0004
 -12719295.20248  -9899097.60346  21743701.686    21743700.9844   21743707.8184
       187.0004        186.0004
  -6783131.17047  -5257033.77146  23271542.330    23271542.0474   23271549.3374
       164.0004        165.0004
  -4486220.84547  -3148499.23945  23536493.454    23536493.0814   23536497.5204
       159.0004        161.0004
 -15492021.46248 -12061541.82946  21703497.927    21703498.0674   21703506.4834
       185.0004        186.0004
 -14813429.71849 -11480385.79948  21882499.098    21882499.4814   21882506.4004
       220.0004        219.0004
 -16532824.75349 -12858752.54347  21272912.186    21272912.7704   21272920.4314
       206.0004        207.0004
  -8880061.80148  -6904100.84846  22658057.258    22658058.0864   22658063.9844
       173.0004        174.0004
 21  2  6  0 14 30.0000000  0  9G07G14G21G30G17G01G08G09G04
 -16625931.27549 -12935844.50347  21296812.235    21296812.8094   21296817.1264
       199.0004        199.0004
   -758605.65448   -583944.01646  23501156.289    23501157.1864   23501162.9434
       165.0004        167.0004
 -12717631.43348  -9897801.15546  21744018.369    21744017.9124   21744024.3304
       186.0004        186.0004
  -6871196.70948  -5325656.25446  23254784.015    23254783.6844   23254790.8164
       166.0004        168.0004
  -4573635.10847  -3216614.17645  23519859.416    23519859.7164   23519863.3484
       159.0004        161.0004
 -15557199.56448 -12112329.95046  21691094.799    21691095.5174   21691104.0544
       185.0004        186.0004
 -14727548.33349 -11413465.24148  21898841.538    21898841.9074   21898848.8094
       219.0004        217.0004
 -16481889.68449 -12819062.88647  21282604.726    21282605.2464   21282612.6034
       206.0004        206.0004
  -8784764.68748  -6829843.36746  22676191.980    22676191.7264   22676198.7204
       173.0004        173.0004
 21  2  6  0 15  0.0000000  0  9G07G14G21G30G17G01G08G09G04
 -16693491.80149 -12988489.06747  21283955.760    21283956.1344   21283960.3474
       199.0004        199.0004
   -784980.71448   -604495.98646  23496138.153    23496138.2344   23496143.1134
       165.0004        165.0004
 -12715491.48648  -9896133.64946  21744425.814    21744424.9974   21744430.6924
       185.0004        185.0004
  -6959264.79248  -5394280.70346  23238022.326    23238023.6324   23238031.8944
       167.0004        169.0004
  -4660748.83047  -3284494.97145  23503283.241    23503282.8184   23503286.5714
       158.0004        159.0004
 -15622088.71148 -12162892.90946  21678747.365    21678747.0624   21678755.5834
       185.0004        186.0004
 -14641449.04849 -11346374.90348  21915225.585    21915226.0454   21915232.9284
       218.0004        217.0004
 -16430546.60949 -12779055.30247  21292374.772    21292375.1544   21292382.3824
       205.0004        205.0004
  -8689335.96948  -6755483.34446  22694350.874    22694351.5314   22694357.7874
       172.0004        172.0004
 21  2  6  0 15 30.0000000  0  9G07G14G21G30G17G01G08G09G04
 -16760853.09849 -13040978.38447  21271137.386    21271138.1934   21271142.1284
       199.0004        199.0004
   -811325.33048   -625024.22346  23491124.653    23491125.2714   23491131.0634
       165.0004        166.0004
 -12712874.76048  -9894094.61746  21744923.521    21744922.9794   21744928.1844
       184.0004        185.0004
  -7047333.78848  -5462905.86746  23221264.267    23221265.0634   23221272.4444
       166.0004        166.0004
  -4747560.34347  -3352140.24845  23486761.173    23486761.7984   23486767.6404
       155.0004        156.0004
 -15686686.04548 -12213228.47246  21666454.065    21666455.1964   21666463.1634
       185.0004        186.0004
 -14555135.00049 -11279117.20248  21931651.301    21931651.3684   21931657.9444
       218.0004        218.0004
 -16378798.48149 -12738732.07847  21302222.346    21302222.8634   21302229.9064
       205.0004        205.0004
  -8593779.02548  -6681023.39146  22712535.098    22712535.1944   22712541.8734
       170.0004        169.0004
 21  2  6  0 16  0.0000000  0  9G07G14G21G30G17G01G08G09G04
 -16828011.25049 -13093309.41147  21258357.428    21258357.8374   21258362.4624
       199.0004        199.0004
   -837639.72048   -645528.91546  23486117.394    23486118.5444   23486122.6614
       165.0004        166.0004
 -12709779.48848  -9891682.69846  21745512.576    21745512.1634   21745516.9304
       184.0004        184.0004
  -7135400.68848  -5531529.42046  23204506.293    23204506.9914   23204514.6844
       166.0004        168.0004
  -4834066.80547  -3419547.81545  23470298.559    23470300.2654   23470306.3194
       156.0004        160.0004
 -15750987.35548 -12263333.36446  21654218.450    21654218.4094   21654226.8144
       185.0004        185.0004
 -14468608.56849 -11211694.00548  21948117.025    21948116.9994   21948123.2024
       218.0004        217.0004
 -16326646.93249 -12698094.50147  21312146.839    21312147.2464   21312154.1214
       205.0004        205.0004
  -8498095.93748  -6606465.14146  22730742.780    22730743.2734   22730749.9674
       169.0004        169.0004
 21  2  6  0 16 30.0000000  0  9G07G14G21G30G17G01G08G09G04
 -16894964.52149 -13145480.79747  21245616.474    21245617.1524   21245621.5094
       199.0004        199.0004
   -863926.06547   -666011.75146  23481114.925    23481115.4414   23481121.9254
       164.0004        164.0004
 -12706205.78748  -9888897.98546  21746192.613    21746191.8984   21746196.2584
       182.0004        182.0004
  -7223464.41848  -5600150.47146  23187748.752    23187748.6084   23187756.3654
       169.0004        171.0004
  -4920267.88447  -3486717.43445  23453896.262    23453896.0724   23453903.5784
       158.0004        160.0004
 -15814990.34548 -12313205.81046  21642038.933    21642038.9514   21642047.3294
       185.0004        186.0004
 -14381873.23249 -11144108.02548  21964621.596    21964621.8514   21964628.9964
       218.0004        217.0004
 -16274095.48749 -12657145.33347  21322146.116    21322147.0194   21322154.3084
       205.0004        205.0004
  -8402290.53248  -6531811.61346  22748974.182    22748974.7254   22748980.5574
       169.0004        171.0004
 21  2  6  0 17  0.0000000  0  9G07G14G21G30G17G01G08G09G04
 -16961709.74849 -13197490.05447  21232915.789    21232916.6104   21232920.0854
       200.0004        200.0004
   -890185.13947   -686473.32746  23476117.719    23476118.5504   23476123.8964
       163.0004        164.0004
 -12702152.22548  -9885739.35346  21746964.381    21746963.6964   21746967.5854
       182.0004        182.0004
  -7311522.52248  -5668767.17746  23170992.943    23170992.7254   23170998.8144
       169.0004        170.0004
  -5006160.97847  -3553647.05545  23437551.190    23437551.0494   23437557.4474
       157.0004        158.0004
 -15878691.31348 -12362842.91446  21629916.561    21629917.3044   21629925.4314
       185.0004        185.0004
 -14294931.62449 -11076361.30948  21981166.021    21981166.1524   21981173.6334
       217.0004        216.0004
 -16221146.37449 -12615886.27147  21332222.377    21332223.0714   21332230.7964
       205.0004        206.0004
  -8306365.40348  -6457064.78446  22767228.790    22767228.9204   22767234.7944
       170.0004        170.0004
 21  2  6  0 17 30.0000000  0  9G07G14G21G30G17G01G08G09G04
 -17028244.99849 -13249335.70447  21220255.030    21220255.0694   21220259.3034
       200.0004        201.0004
   -916419.05447   -706915.33846  23471126.339    23471126.5624   23471131.7304
       162.0004        164.0004
 -12697618.88648  -9882206.87946  21747828.147    21747827.5854   21747831.1174
       182.0004        182.0004
  -7399573.82848  -5737378.59146  23154237.132    23154236.6014   23154243.6554
       170.0004        171.0004
  -5091745.06447  -3620335.90145  23421265.952    23421266.1164   23421270.6484
       159.0004        162.0004
 -15942087.97648 -12412242.89646  21617851.908    21617853.4934   21617861.4524
       185.0004        186.0004
 -14207787.56249 -11008456.85848  21997748.647    21997749.2404   21997756.2464
       217.0004        216.0004
 -16167803.07049 -12574320.06847  21342373.696    21342373.9644   21342381.5224
       205.0004        206.0004
  -8210324.36348  -6382227.63446  22785503.569    22785504.8854   22785510.7574
       169.0004        169.0004
 21  2  6  0 18  0.0000000  0  9G07G14G21G30G17G01G08G09G04
 -17094566.65549 -13301014.90947  21207633.950    21207634.8244   21207638.5364
       201.0004        201.0004
   -942627.99847   -727337.86846  23466138.166    23466139.0364   23466143.8654
       162.0004        164.0004
 -12692603.50348  -9878298.77846  21748781.177    21748780.6864   21748784.1054
       182.0004        182.0004
  -7487615.26048  -5805982.28446  23137482.718    23137482.6524   23137489.6834
       170.0004        171.0004
  -5177017.36147  -3686781.81445  23405038.802    23405039.1424   23405042.4664
       160.0004        161.0004
 -16005175.97148 -12461402.36246  21605847.513    21605848.3954   21605855.7124
       186.0004        186.0004
 -14120443.08249 -10940396.22748  22014369.206    22014370.2614   22014377.0064
       217.0004        216.0004
 -16114067.14549 -12532447.91947  21352599.286    21352599.7284   21352606.6574
       205.0004        205.0004
  -8114169.33248  -6307301.64446  22803800.973    22803801.2404   22803809.1584
       168.0004        168.0004
 21  2  6  0 18 30.0000000  0  9G07G14G21G30G17G01G08G09G04
 -17160671.21349 -13352524.95347  21195055.240    21195055.2044   21195059.3124
       201.0004        201.0004
   -968812.63147   -747741.44146  23461156.725    23461156.6154   23461161.7924
       164.0004        165.0004
 -12687105.01148  -9874014.23346  21749826.452    21749826.4254   21749829.8934
       181.0004        181.0004
  -7575644.19048  -5874576.24146  23120731.323    23120731.5484   23120738.3364
       170.0004        171.0004
  -5261975.46647  -3752982.88446  23388872.471    23388872.9974   23388876.2524
       162.0004        166.0004
 -16067951.60448 -12510318.42246  21593902.002    21593902.4734   21593911.0754
       186.0004        187.0004
 -14032900.28649 -10872181.06048  22031029.073    22031029.2734   22031035.9024
       217.0004        216.0004
 -16059940.73449 -12490271.49547  21362899.376    21362899.6454   21362906.7334
       205.0004        205.0004
  -8017902.72448  -6232288.71246  22822120.974    22822121.4544   22822127.5644
       167.0004        167.0004
 21  2  6  0 19  0.0000000  0  9G07G14G21G30G17G01G08G09G04
 -17226557.31749 -13403864.75747  21182516.819    21182517.5244   21182521.2764
       200.0004        200.0004
   -994975.08447   -768127.76046  23456177.516    23456178.5214   23456183.3344
       163.0004        163.0004
 -12681123.41948  -9869353.22646  21750966.060    21750965.7284   21750968.8434
       181.0004        182.0004
  -7663659.45048  -5943159.54346  23103982.707    23103982.7674   23103989.7294
       171.0004        171.0004
  -5346618.47247  -3818938.41946  23372763.885    23372764.1924   23372769.1514
       163.0004        164.0004
 -16130412.60748 -12558989.29747  21582016.661    21582016.7734   21582025.0004
       187.0004        188.0004
 -13945163.09149 -10803814.40748  22047724.889    22047725.2144   22047731.8004
       216.0004        215.0004
 -16005427.44449 -12447793.59347  21373273.262    21373273.1094   21373280.1284
       204.0004        204.0004
  -7921528.52948  -6157191.92446  22840459.535    22840460.1934   22840466.3654
       167.0004        168.0004
 21  2  6  0 19 30.0000000  0  9G07G14G21G30G17G01G08G09G04
 -17292221.66949 -13455031.77547  21170020.487    21170021.4464   21170026.4124
       200.0004        200.0004
  -1021116.14947   -788497.40645  23451202.232    23451202.5014   23451208.5284
       161.0004        161.0004
 -12674657.70748  -9864314.99846  21752196.754    21752195.6664   21752199.8844
       182.0004        182.0004
  -7751658.52748  -6011730.24546  23087235.929    23087237.1664   23087242.9834
       169.0004        168.0004
  -5430944.36347  -3884646.86746  23356717.967    23356718.1744   23356723.3824
       162.0004        164.0004
 -16192555.24548 -12607412.11647  21570191.980    21570192.1214   21570199.1764
       188.0004        188.0004
 -13857234.21249 -10735298.40348  22064456.983    22064457.2764   22064464.4784
       216.0004        214.0004
 -15950529.47349 -12405015.95347  21383719.463    21383719.9724   21383726.9534
       204.0004        204.0004
  -7825049.16148  -6082013.21846  22858820.882    22858820.4924   22858826.6474
       168.0004        168.0004
 21  2  6  0 20  0.0000000  0  9G07G14G21G30G17G01G08G09G04
 -17357662.73449 -13506024.81147  21157568.286    21157568.7614   21157572.6814
       201.0004        201.0004
  -1047238.35147   -808852.34145  23446231.422    23446232.2424   23446237.4564
       160.0004        161.0004
 -12667708.44348  -9858899.97846  21753517.663    21753517.4414   21753522.4364
       182.0004        182.0004
  -7839640.67648  -6080287.77146  23070493.782    23070494.4594   23070501.5884
       168.0004        170.0004
  -5514952.44547  -3950107.67946  23340733.397    23340732.8254   23340738.1594
       164.0004        167.0004
 -16254377.78248 -12655585.50746  21558425.562    21558426.5564   21558433.8684
       187.0004        186.0004
 -13769117.24749 -10666635.84548  22081224.984    22081225.4024   22081232.2284
       215.0004        214.0004
 -15895250.88749 -12361941.73047  21394239.494    21394239.0834   21394245.7554
       203.0004        203.0004
  -7728468.94248  -6006755.91946  22877198.507    22877198.9834   22877205.1644
       168.0004        169.0004
 21  2  6  0 20 30.0000000  0  9G07G14G21G30G17G01G08G09G04
 -17422875.65349 -13556840.07947  21145159.193    21145159.3924   21145163.0524
       201.0004        200.0004
  -1073340.89847   -829191.94545  23441263.015    23441264.6104   23441269.9994
       158.0004        159.0004
 -12660272.76148  -9853105.92846  21754933.221    21754933.1284   21754937.5264
       182.0004        182.0004
  -7927601.78948  -6148828.88046  23053755.571    23053756.2004   23053763.2894
       170.0004        173.0004
  -5598639.09848  -4015318.01846  23324806.019    23324806.8254   23324812.4614
       165.0004        167.0004
 -16315874.98148 -12703505.37046  21546723.473    21546724.2724   21546732.2494
       186.0004        187.0004
 -13680813.59049 -10597827.80348  22098028.965    22098028.9924   22098035.7224
       215.0004        214.0004
 -15839592.38349 -12318571.47047  21404830.023    21404830.1824   21404837.6974
       203.0004        203.0004
  -7631788.84048  -5931420.80346  22895596.523    22895596.4374   22895602.0874
       169.0004        170.0004
 21  2  6  0 21  0.0000000  0  9G07G14G21G30G17G01G08G09G04
 -17487858.31249 -13607475.94347  21132793.163    21132793.7334   21132797.4714
       201.0004        201.0004
  -1099425.45247   -849517.57445  23436299.940    23436300.8554   23436306.7084
       158.0004        159.0004
 -12652350.49348  -9846932.72446  21756440.494    21756440.4704   21756445.0534
       182.0004        183.0004
  -8015540.28948  -6217352.35746  23037021.562    23037021.3264   23037028.7054
       171.0004        172.0004
  -5682003.34547  -4080277.11246  23308942.273    23308942.9884   23308948.5504
       164.0004        165.0004
 -16377044.14848 -12751169.64246  21535084.474    21535084.3124   21535091.9744
       187.0004        187.0004
 -13592326.31849 -10528876.68748  22114867.239    22114867.5994   22114874.4364
       214.0004        214.0004
 -15783557.19249 -12274907.69047  21415493.485    21415493.9044   21415500.3034
       203.0004        203.0004
  -7535012.22748  -5856010.47646  22914011.314    22914011.9194   22914018.7224
       168.0004        168.0004
 21  2  6  0 21 30.0000000  0  9G07G14G21G30G17G01G08G09G04
 -17552608.24549 -13657930.43047  21120471.681    21120472.0014   21120476.7014
       202.0004        202.0004
  -1125493.52747   -869830.33345  23431340.124    23431341.1114   23431345.8424
       158.0004        160.0004
 -12643941.16448  -9840379.99146  21758040.959    21758040.7064   21758046.1134
       183.0004        183.0004
  -8103454.24748  -6285856.73046  23020293.170    23020292.9214   23020299.3884
       171.0004        173.0004
  -5765043.35347  -4144983.57446  23293139.815    23293141.1644   23293145.9224
       164.0004        165.0004
 -16437882.33448 -12798576.00347  21523507.664    21523507.7124   21523514.2784
       187.0004        188.0004
 -13503658.89349 -10459785.18147  22131740.238    22131740.2154   22131747.0264
       214.0004        212.0004
 -15727148.23649 -12230952.66047  21426227.842    21426228.0044   21426235.0544
       203.0004        203.0004
  -7438142.35048  -5780527.46446  22932444.626    22932445.1544   22932452.9504
       167.0004        168.0004
 21  2  6  0 22  0.0000000  0  9G07G14G21G30G17G01G08G09G04
 -17617122.98549 -13708201.64247  21108194.388    21108195.1664   21108199.2884
       202.0004        202.0004
  -1151546.52947   -890131.34545  23426382.842    23426383.6194   23426388.4274
       159.0004        161.0004
 -12635044.42648  -9833447.44646  21759734.129    21759733.8254   21759739.0954
       184.0004        184.0004
  -8191341.79848  -6354340.52446  23003568.173    23003568.5444   23003574.5984
       171.0004        172.0004
  -5847757.86648  -4209436.36046  23277401.198    23277401.7604   23277406.5064
       165.0004        167.0004
 -16498386.66248 -12845722.20346  21511992.948    21511993.2664   21512001.8924
       187.0004        187.0004
 -13414814.08049 -10390555.46047  22148646.619    22148646.3954   22148653.6164
       212.0004        211.0004
 -15670368.53549 -12186708.72847  21437031.684    21437032.1504   21437040.1454
       202.0004        202.0004
  -7341182.41948  -5704974.26846  22950896.927    22950896.9144   22950902.3834
       167.0004        168.0004
 21  2  6  0 22 30.0000000  0  9G07G14G21G30G17G01G08G09G04
 -17681401.03049 -13758288.42647  21095963.356    21095963.6194   21095967.7074
       202.0004        202.0004
  -1177586.77347   -910422.40345  23421427.098    23421427.1474   23421433.3414
       159.0004        161.0004
 -12625660.65148  -9826135.40346  21761520.179    21761519.6484   21761523.9754
       184.0004        185.0004
  -8279201.94948  -6422802.99346  22986848.860    22986848.8354   22986855.9254
       171.0004        171.0004
  -5930146.22648  -4273635.04646  23261723.089    23261722.8544   23261729.7764
       167.0004        169.0004
 -16558555.07348 -12892606.64046  21500541.752    21500542.4034   21500551.8834
       186.0004        186.0004
 -13325796.15149 -10321190.84647  22165584.274    22165585.5244   22165593.0884
       211.0004        210.0004
 -15613221.97049 -12142178.93947  21447907.156    21447907.2544   21447914.9764
       202.0004        202.0004
  -7244136.45648  -5629354.01346  22969364.026    22969365.0584   22969369.6794
       168.0004        169.0004
 21  2  6  0 23  0.0000000  0  9G07G14G21G30G17G01G08G09G04
 -17745437.25849 -13808186.77947  21083776.978    21083777.8144   21083782.5004
       202.0004        202.0004
  -1203613.42947   -930702.88945  23416475.449    23416475.3484   23416480.1894
       160.0004        162.0004
 -12615787.41948  -9818441.96046  21763398.949    21763397.9694   21763404.0994
       184.0004        185.0004
  -8367030.58748  -6491240.87046  22970135.875    22970135.8734   22970142.9994
       171.0004        173.0004
  -6012204.97948  -4337576.87646  23246106.550    23246107.0934   23246114.2014
       166.0004        166.0004
 -16618382.47848 -12939225.36547  21489158.658    21489159.2264   21489167.7164
       188.0004        190.0004
 -13236605.84149 -10251691.90947  22182558.264    22182557.9864   22182565.1364
       211.0004        210.0004
 -15555709.30249 -12097363.88147  21458850.594    21458851.1114   21458858.9554
       202.0004        201.0004
  -7147005.45348  -5553667.52946  22987846.735    22987847.1434   22987853.9954
       167.0004        168.0004
 21  2  6  0 23 30.0000000  0  9G07G14G21G30G17G01G08G09G04
 -17809230.30849 -13857895.65047  21071637.467    21071638.2904   21071642.4754
       202.0004        202.0004
  -1229628.87047   -950974.65245  23411524.468    23411524.8024   23411529.4034
       160.0004        160.0004
 -12605425.26548  -9810367.53246  21765370.261    21765370.1014   21765375.5194
       185.0004        185.0004
  -8454826.60648  -6559653.35446  22953429.544    22953429.1714   22953435.2744
       171.0004        170.0004
  -6093933.65248  -4401261.52346  23230553.858    23230555.0224   23230560.6334
       165.0004        164.0004
 -16677866.78948 -12985576.78547  21477841.824    21477841.8314   21477847.6144
       192.0004        193.0004
 -13147247.15849 -10182061.76947  22199562.714    22199562.3214   22199570.0854
       211.0004        211.0004
 -15497834.47249 -12052266.63147  21469864.605    21469864.6894   21469871.7504
       201.0004        201.0004
  -7049793.47648  -5477917.96346  23006344.426    23006345.2724   23006352.7424
       166.0004        167.0004
 21  2  6  0 24  0.0000000  0  9G07G14G21G30G17G01G08G09G04
 -17872776.36049 -13907412.04947  21059545.595    21059545.9974   21059549.8164
       201.0004        202.0004
  -1255633.21147   -971237.75045  23406575.800    23406575.5284   23406581.7184
       158.0004        158.0004
 -12594572.55948  -9801910.86046  21767435.377    21767435.1914   21767440.7364
       185.0004        185.0004
  -8542586.93648  -6628037.98646  22936726.933    22936727.2574   22936736.0524
       169.0004        169.0004
  -6175329.16647  -4464686.56646  23215066.249    23215066.8734   23215070.8614
       164.0004        165.0004
 -16737003.85548 -13031657.61347  21466586.703    21466587.6264   21466593.4084
       193.0004        192.0004
 -13057721.92149 -10112301.83747  22216597.939    22216598.3894   22216606.3944
       211.0004        211.0004
 -15439599.15649 -12006888.47947  21480946.659    21480946.6514   21480953.6604
       201.0004        201.0004
  -6952502.35048  -5402106.70546  23024860.184    23024859.7454   23024866.4964
       167.0004        168.0004
 21  2  6  0 24 30.0000000  0  9G07G14G21G30G17G01G08G09G04
 -17936072.44449 -13956733.66747  21047500.734    21047501.0604   21047505.1354
       202.0004        202.0004
  -1281627.21147   -991492.80345  23401628.910    23401628.9584   23401634.6854
       156.0004        158.0004
 -12583228.04848  -9793070.96746  21769594.228    21769593.7714   21769599.6314
       185.0004        186.0004
  -8630308.85548  -6696392.70246  22920033.944    22920034.2024   22920042.0684
       169.0004        169.0004
  -6256389.64747  -4527850.53346  23199640.894    23199640.7794   23199645.0094
       163.0004        164.0004
 -16795790.12348 -13077465.06547  21455398.742    21455398.9444   21455407.1384
       190.0004        188.0004
 -12968032.33549 -10042413.84547  22233666.182    22233666.0464   22233673.6164
       210.0004        209.0004
 -15381005.71949 -11961231.24247  21492095.787    21492096.2244   21492104.0984
       201.0004        201.0004
  -6855134.58348  -5326235.71046  23043387.279    23043388.7664   23043394.7314
       166.0004        167.0004
 21  2  6  0 25  0.0000000  0  9G07G14G21G30G17G01G08G09G04
 -17999116.89249 -14005859.20147  21035503.221    21035504.0264   21035508.1654
       202.0004        202.0004
  -1307613.43547  -1011741.80245  23396683.978    23396684.4064   23396690.0424
       156.0004        158.0004
 -12571392.96348  -9783848.79246  21771846.025    21771846.3014   21771851.7684
       186.0004        186.0004
  -8717991.57348  -6764716.88846  22903348.353    22903349.7804   22903356.4004
       168.0004        170.0004
  -6337114.82547  -4590753.22246  23184279.400    23184280.4344   23184282.9974
       162.0004        163.0004
 -16854223.99548 -13122997.90446  21444277.135    21444277.8674   21444287.5464
       187.0004        186.0004
 -12878183.05249  -9972401.42047  22250764.340    22250764.1724   22250771.4004
       210.0004        209.0004
 -15322058.44949 -11915298.29947  21503313.406    21503313.6324   21503320.9204
       201.0004        201.0004
  -6757694.55148  -5250308.39946  23061930.769    23061931.3434   23061937.0104
       166.0004        167.0004
 21  2  6  0 25 30.0000000  0  9G07G14G21G30G17G01G08G09G04
 -18061906.55149 -14054786.21347  21023555.062    21023555.6914   21023559.9164
       202.0004        202.0004
  -1333592.52447  -1031985.25345  23391741.141    23391740.9474   23391745.9264
       156.0004        158.0004
 -12559066.16948  -9774243.48046  21774192.985    21774192.2854   21774197.4534
       186.0004        186.0004
  -8805632.46048  -6833008.48346  22886671.436    22886671.2084   22886680.3894
       169.0004        171.0004
  -6417502.64547  -4653393.07845  23168982.161    23168982.7654   23168984.1114
       160.0004        160.0004
 -16912301.72248 -13168253.24746  21433225.468    21433226.7604   21433235.7884
       186.0004        187.0004
 -12788176.20549  -9902266.20947  22267891.686    22267891.2974   22267899.2154
       210.0004        209.0004
 -15262759.59749 -11869091.39647  21514597.709    21514597.6944   21514605.1514
       201.0004        201.0004
  -6660184.57948  -5174326.62046  23080486.435    23080486.4924   23080492.6214
       165.0004        166.0004
 21  2  6  0 26  0.0000000  0  9G07G14G21G30G17G01G08G09G04
 -18124439.10049 -14103512.88747  21011655.836    21011656.3974   21011660.3274
       202.0004        203.0004
  -1359565.90147  -1052224.21845  23386797.973    23386798.2484   23386803.5264
       156.0004        157.0004
 -12546247.09848  -9764254.58246  21776632.190    21776631.1694   21776636.3604
       186.0004        186.0004
  -8893229.53648  -6901265.90846  22870002.207    22870001.7894   22870010.3204
       170.0004        172.0004
  -6497551.79947  -4715769.01445  23153748.548    23153748.1034   23153751.4114
       157.0004        157.0004
 -16970020.46148 -13213228.87247  21422243.445    21422244.3674   21422252.3794
       188.0004        189.0004
 -12698014.95749  -9832010.68847  22285046.924    22285048.2644   22285056.3164
       209.0004        209.0004
 -15203112.22449 -11822612.92347  21525947.876    21525948.5274   21525955.9324
       201.0004        202.0004
  -6562607.88347  -5098292.86346  23099053.683    23099054.4414   23099061.3914
       164.0004        164.0004
 21  2  6  0 26 30.0000000  0  9G07G14G21G30G17G01G08G09G04
 -18186710.16949 -14152035.79847  20999805.302    20999806.1064   20999810.6764
       202.0004        203.0004
  -1385533.43647  -1072458.68945  23381855.366    23381855.5744   23381860.9084
       153.0004        154.0004
 -12532934.70648  -9753881.27146  21779164.852    21779164.3884   21779169.6744
       186.0004        186.0004
  -8980779.26048  -6969486.45346  22853341.763    22853341.4234   22853350.2454
       170.0004        170.0004
  -6577259.48547  -4777878.89145  23138581.048    23138581.5404   23138583.2054
       157.0004        160.0004
 -17027375.83348 -13257921.35947  21411329.519    21411330.6214   21411337.4924
       190.0004        191.0004
 -12607700.74449  -9761635.98347  22302234.710    22302234.9904   22302242.3704
       209.0004        208.0004
 -15143117.87149 -11775864.07647  21537365.498    21537365.4914   21537372.3154
       202.0004        202.0004
  -6464966.03047  -5022208.30845  23117633.389    23117634.1934   23117640.7894
       162.0004        162.0004
 21  2  6  0 27  0.0000000  0  9G07G14G21G30G17G01G08G09G04
 -18248717.28149 -14200353.03147  20988006.556    20988006.9134   20988010.7464
       203.0004        203.0004
  -1411496.39147  -1092689.52445  23376915.294    23376916.4304   23376921.2064
       153.0004        155.0004
 -12519128.38348  -9743123.08846  21781792.281    21781791.5594   21781797.1944
       186.0004        186.0004
  -9068279.57548  -7037668.48446  22836691.635    22836692.3924   22836699.1824
       171.0004        173.0004
  -6656624.16747  -4839721.46945  23123477.531    23123477.4144   23123483.5414
       158.0004        160.0004
 -17084364.90048 -13302328.40747  21400485.962    21400486.2064   21400493.3924
       192.0004        193.0004
 -12517236.54449  -9691144.40147  22319449.430    22319449.7774   22319457.1624
       208.0004        207.0004
 -15082779.51749 -11728847.17047  21548847.149    21548847.3074   21548854.2134
       201.0004        202.0004
  -6367261.99547  -4946075.29445  23136226.901    23136227.7524   23136234.1284
       161.0004        162.0004
 21  2  6  0 27 30.0000000  0  9G07G14G21G30G17G01G08G09G04
 -18310458.67349 -14248463.19747  20976257.213    20976257.4054   20976262.0744
       203.0004        203.0004
  -1437456.90647  -1112918.46945  23371975.495    23371975.6054   23371980.6614
       154.0004        157.0004
 -12504828.92248  -9731980.63546  21784512.699    21784512.8104   21784517.9984
       186.0004        186.0004
  -9155729.22948  -7105811.05846  22820049.132    22820049.5264   22820057.4944
       170.0004        171.0004
  -6735645.04747  -4901296.11546  23108440.671    23108440.9564   23108446.5024
       161.0004        164.0004
 -17140985.56448 -13346448.38547  21389711.287    21389711.5124   21389718.8524
       192.0004        192.0004
 -12426626.17849  -9620538.92147  22336691.596    22336692.1804   22336699.7004
       207.0004        206.0004
 -15022100.97449 -11681565.19847  21560394.120    21560394.3684   21560400.9474
       202.0004        202.0004
  -6269499.76347  -4869896.94045  23154830.238    23154830.5334   23154837.9574
       161.0004        162.0004
 21  2  6  0 28  0.0000000  0  9G07G14G21G30G17G01G08G09G04
 -18371931.19049 -14296363.84247  20964558.878    20964559.3814   20964564.0814
       202.0004        202.0004
  -1463415.61547  -1133146.01045  23367035.946    23367037.0374   23367041.0434
       156.0004        160.0004
 -12490034.58548  -9720452.55946  21787328.652    21787328.3454   21787333.2064
       186.0004        185.0004
  -9243125.43648  -7173911.98746  22803419.884    22803420.2664   22803427.1514
       174.0004        177.0004
  -6814320.54347  -4962601.64146  23093468.827    23093468.4774   23093476.5814
       164.0004        167.0004
 -17197234.24448 -13390278.50047  21379006.153    21379006.8264   21379014.1344
       192.0004        191.0004
 -12335871.72149  -9549821.15947  22353962.302    22353962.3944   22353968.9744
       207.0004        206.0004
 -14961084.61749 -11634019.97447  21572005.065    21572005.1694   21572012.4744
       202.0004        202.0004
  -6171681.65847  -4793675.07446  23173444.629    23173445.9324   23173451.9924
       161.0004        163.0004
 21  2  6  0 28 30.0000000  0 10G07G14G28G21G30G17G01G08G09G04
 -18433133.11049 -14344053.65647  20952913.249    20952913.6764   20952917.6544
       202.0004        202.0004
  -1489374.94247  -1153374.04145  23362095.106    23362096.0884   23362101.1224
       158.0004        161.0004
   -112939.54954    -82561.86644  23678144.069
        74.0004        109.0004
 -12474747.21848  -9708540.30746  21790238.223    21790237.4734   21790242.7824
       186.0004        186.0004
  -9330467.29048  -7241970.55346  22786799.444    22786798.8644   22786806.3334
       175.0004        176.0004
  -6892650.11048  -5023637.62846  23078562.058    23078563.1914   23078571.0534
       167.0004        169.0004
 -17253109.16948 -13433817.38347  21368373.353    21368374.1044   21368381.7834
       190.0004        190.0004
 -12244977.41349  -9478994.43147  22371258.735    22371258.8404   22371265.7754
       207.0004        207.0004
 -14899734.55949 -11586214.73247  21583678.975    21583679.5604   21583686.8324
       202.0004        202.0004
  -6073811.80147  -4717412.87946  23192069.984    23192070.0194   23192076.6594
       162.0004        163.0004
 21  2  6  0 29  0.0000000  0 10G07G14G28G21G30G17G01G08G09G04
 -18494061.30949 -14391530.18747  20941319.013    20941319.5754   20941323.0794
       203.0004        203.0004
  -1515335.48047  -1173603.00545  23357154.789    23357155.7564   23357161.8734
       158.0004        160.0004
   -127903.22844     23731.62543  23675295.551
        74.0004         74.0004
 -12458965.93948  -9696243.18846  21793240.449    21793240.1954   21793244.8134
       186.0004        186.0004
  -9417751.92448  -7309984.53746  22770189.158    22770190.0134   22770196.6514
       176.0004        177.0004
  -6970631.89348  -5084402.62046  23063724.175    23063724.6854   23063732.5824
       169.0004        172.0004
 -17308606.76048 -13477062.23847  21357811.980    21357812.8714   21357821.3964
       189.0004        189.0004
 -12153945.72049  -9408060.65247  22388581.311    22388581.2704   22388588.5334
       206.0004        205.0004
 -14838053.13949 -11538151.30247  21595417.702    21595417.1904   21595424.1134
       202.0004        202.0004
  -5975892.59347  -4641112.20546  23210702.244    23210702.8594   23210711.5474
       163.0004        165.0004
 21  2  6  0 29 30.0000000  0 10G07G14G28G21G30G17G01G08G09G04
 -18554713.87449 -14438791.94047  20929776.108    20929777.1284   20929781.6964
       203.0004        203.0004
  -1541299.12747  -1193834.39645  23352214.380    23352215.1414   23352220.2724
       158.0004        159.0004
   -142856.07044     12079.68445  23672451.215
        74.0004        143.0004
 -12442690.85948  -9683561.31146  21796336.994    21796337.1244   21796342.2884
       185.0004        185.0004
  -9504977.97248  -7377952.87046  22753590.701    22753591.4834   22753597.9524
       176.0004        178.0004
  -7048265.10048  -5144895.98446  23048950.411    23048951.0374   23048958.7554
       171.0004        172.0004
 -17363724.81848 -13520011.36247  21347323.094    21347323.9724   21347332.8554
       189.0004        189.0004
 -12062780.00049  -9337022.44847  22405928.817    22405929.1154   22405937.2644
       205.0004        205.0004
 -14776044.11449 -11489832.59447  21607216.992    21607217.6454   21607224.0194
       202.0004        202.0004
  -5877927.65747  -4564775.92145  23229345.730    23229344.8064   23229352.3254
       162.0004        162.0004
 21  2  6  0 30  0.0000000  0 10G07G14G28G21G30G17G01G08G09G04
 -18615087.86449 -14485836.60247  20918288.321    20918288.8984   20918292.3404
       203.0004        203.0004
  -1567267.01747  -1214069.10645  23347273.122    23347273.5784   23347278.5884
       157.0004        158.0004
   -157799.78046       435.21545  23669606.546                    23669612.8234
       133.0004        146.0004
 -12425921.68648  -9670494.41246  21799529.194    21799528.6164   21799533.6824
       186.0004        185.0004
  -9592143.02648  -7445873.67546  22737004.866    22737004.8294   22737011.5484
       179.0004        181.0004
  -7125548.23148  -5205116.55146  23034245.833    23034245.9254   23034250.9314
       173.0004        174.0004
 -17418460.25648 -13562662.32647  21336907.457    21336908.5344   21336917.0314
       189.0004        189.0004
 -11971483.06849  -9265881.99947  22423302.692    22423302.4954   22423310.7024
       205.0004        204.0004
 -14713710.24849 -11441260.75947  21619078.782    21619078.9794   21619086.3484
       202.0004        201.0004
  -5779919.86547  -4488406.20445  23247993.522    23247994.9374   23248001.1004
       159.0004        160.0004
 21  2  6  0 30 30.0000000  0 10G07G14G28G21G30G17G01G08G09G04
 -18675179.23349 -14532661.05047  20906853.275    20906854.1364   20906857.4594
       203.0004        203.0004
  -1593238.86347  -1234306.86745  23342331.474    23342332.1714   23342336.8424
       159.0004        162.0004
   -172734.31747    -11202.04245  23666766.654    23666766.9124   23666770.9184
       142.0004        147.0004
 -12408656.89248  -9657041.30146  21802813.926    21802813.3444   21802819.1954
       185.0004        185.0004
  -9679243.48348  -7513744.14546  22720430.264    22720430.0374   22720436.4814
       180.0004        181.0004
  -7202478.53548  -5265062.18246  23019605.849    23019605.9534   23019611.6844
       172.0004        173.0004
 -17472808.69148 -13605011.72747  21326565.893    21326566.3414   21326574.8134
       189.0004        190.0004
 -11880056.00649  -9194640.13247  22440700.206    22440700.9284   22440708.7494
       205.0004        205.0004
 -14651053.08349 -11392437.00047  21631001.306    21631002.0384   21631009.5374
       201.0004        200.0004
  -5681870.63147  -4412004.19645  23266651.940    23266652.5804   23266659.2174
       159.0004        160.0004
 21  2  6  0 31  0.0000000  0 10G07G14G28G21G30G17G01G08G09G04
 -18734983.96649 -14579262.14547  20895472.705    20895473.3404   20895477.7264
       203.0004        204.0004
  -1619214.52247  -1254547.63045  23337387.127    23337388.4594   23337393.2564
       160.0004        161.0004
   -187660.21947    -22832.58745  23663925.958    23663925.8484   23663930.1594
       146.0004        151.0004
 -12390894.92748  -9643200.80346  21806194.411    21806193.3384   21806198.8534
       184.0004        184.0004
  -9766275.80648  -7581561.53346  22703867.699    22703868.1604   22703875.5544
       180.0004        179.0004
  -7279053.14748  -5324730.66746  23005032.708    23005033.6974   23005039.8404
       171.0004        172.0004
 -17526765.87948 -13647056.27047  21316298.573    21316299.0564   21316306.7724
       189.0004        190.0004
 -11788500.60049  -9123298.25547  22458122.755    22458123.4724   22458131.2004
       206.0004        206.0004
 -14588074.26549 -11343362.60147  21642986.407    21642986.6024   21642993.8174
       200.0004        199.0004
  -5583781.59047  -4335571.18646  23285318.661    23285319.0534   23285325.5624
       160.0004        163.0004
 21  2  6  0 31 30.0000000  0 10G07G14G28G21G30G17G01G08G09G04
 -18794498.91749 -14625637.41547  20884147.621    20884148.0814   20884152.3304
       203.0004        204.0004
  -1645194.67847  -1274791.88346  23332445.352    23332445.5294   23332449.1654
       161.0004        163.0004
   -202578.28247    -34457.02245  23661086.314    23661086.6164   23661092.0804
       148.0004        151.0004
 -12372635.12348  -9628972.36546  21809668.524    21809668.1504   21809672.7404
       184.0004        184.0004
  -9853237.16548  -7649323.60546  22687319.492    22687320.2594   22687326.5714
       179.0004        178.0004
  -7355270.29848  -5384120.63346  22990530.425    22990531.0714   22990535.5174
       171.0004        172.0004
 -17580328.33248 -13688793.22447  21306106.842    21306106.6134   21306113.9734
       190.0004        191.0004
 -11696819.33249  -9051858.30447  22475568.589    22475569.1434   22475577.4864
       205.0004        204.0004
 -14524776.26449 -11294039.47847  21655031.438    21655031.7594   21655038.7054
       199.0004        199.0004
  -5485655.17747  -4259109.05546  23303990.645    23303991.5724   23303998.5774
       162.0004        164.0004
 21  2  6  0 32  0.0000000  0 10G07G14G28G21G30G17G01G08G09G04
 -18853722.07349 -14671785.32747  20872877.492    20872877.7584   20872882.0984
       203.0004        203.0004
  -1671181.17547  -1295041.09445  23327499.772    23327499.8834   23327504.6084
       161.0004        161.0004
   -217490.73447    -46077.08445  23658248.904    23658248.7964   23658253.6144
       148.0004        151.0004
 -12353878.02348  -9614356.44446  21813237.785    21813238.1694   21813242.8094
       184.0004        185.0004
  -9940126.07448  -7717029.25446  22670784.529    22670784.9024   22670791.1604
       177.0004        177.0004
  -7431129.52548  -5443231.68446  22976094.608    22976095.0054   22976099.9244
       171.0004        173.0004
 -17633493.86548 -13730220.89747  21295988.578    21295989.4304   21295996.7664
       191.0004        192.0004
 -11605015.33449  -8980322.73347  22493039.088    22493039.1944   22493047.0804
       204.0004        204.0004
 -14461162.74149 -11244470.49647  21667136.513    21667136.6194   21667144.0344
       199.0004        199.0004
  -5387494.90747  -4182620.55445  23322670.095    23322670.3124   23322677.6214
       162.0004        162.0004
 21  2  6  0 32 30.0000000  0 10G07G14G28G21G30G17G01G08G09G04
 -18912651.35749 -14717704.26347  20861663.455    20861664.1584   20861668.1954
       203.0004        204.0004
  -1697175.74047  -1315296.56545  23322552.691    23322552.6624   23322557.3304
       158.0004        158.0004
   -232400.12847    -57694.78045  23655412.307    23655412.0214   23655416.7564
       150.0004        153.0004
 -12334624.29548  -9599353.51046  21816901.940    21816901.6964   21816906.5724
       185.0004        184.0004
 -10026940.81948  -7784677.10946  22654265.477    22654265.5654   22654270.7874
       178.0004        180.0004
  -7506629.84148  -5502063.06646  22961727.471    22961727.9274   22961732.4834
       172.0004        173.0004
 -17686260.14448 -13771337.45047  21285947.353    21285947.8034   21285956.3574
       192.0004        193.0004
 -11513092.45949  -8908694.51447  22510531.384    22510530.9854   22510538.5504
       203.0004        202.0004
 -14397237.24849 -11194658.40747  21679301.468    21679301.4384   21679308.2594
       198.0004        198.0004
  -5289304.32147  -4106108.42045  23341356.295    23341356.6334   23341362.6894
       161.0004        162.0004
 21  2  6  0 33  0.0000000  0 10G07G14G28G21G30G17G01G08G09G04
 -18971284.16049 -14763392.17347  20850506.946    20850507.0894   20850510.7924
       204.0004        204.0004
  -1723179.67547  -1335559.35045  23317604.148    23317604.9854   23317610.2584
       157.0004        159.0004
   -247308.26547    -69311.48645  23652573.910    23652574.0524   23652578.6144
       150.0004        152.0004
 -12314873.92548  -9583963.60546  21820660.645    21820660.1234   21820664.7624
       184.0004        184.0004
 -10113679.28148  -7852265.51146  22637759.310    22637759.6394   22637766.2124
       181.0004        184.0004
  -7581770.09648  -5560613.90046  22947427.555    22947428.9114   22947432.6484
       170.0004        169.0004
 -17738624.40548 -13812140.76847  21275983.601    21275984.0924   21275991.9004
       193.0004        194.0004
 -11421052.96449  -8836975.43947  22528045.156    22528045.5434   22528053.8294
       202.0004        201.0004
 -14333002.94849 -11144605.72047  21691523.918    21691524.5894   21691532.0234
       198.0004        198.0004
  -5191086.40447  -4029574.98445  23360046.344    23360047.4804   23360053.5104
       161.0004        161.0004
 21  2  6  0 33 30.0000000  0 10G07G14G28G21G30G17G01G08G09G04
 -19029617.02949 -14808846.35147  20839405.852    20839406.8084   20839410.2784
       204.0004        203.0004
  -1749193.36447  -1355829.76845  23312653.459    23312654.6584   23312659.2864
       156.0004        158.0004
   -262215.70847    -80927.64645  23649738.043    23649737.9784   23649742.5044
       150.0004        153.0004
 -12294626.02148  -9568186.01046  21824513.306    21824513.0504   21824517.9804
       184.0004        184.0004
 -10200338.46348  -7919792.13446  22621269.244    22621268.4314   22621274.9284
       182.0004        182.0004
  -7656548.13348  -5618882.47346  22933198.063    22933198.6944   22933202.6194
       169.0004        169.0004
 -17790583.06348 -13852628.01347  21266096.314    21266096.7434   21266104.0094
       194.0004        194.0004
 -11328899.33949  -8765167.42847  22545581.081    22545581.9404   22545590.1094
       201.0004        202.0004
 -14268462.14849 -11094314.19447  21703806.189    21703806.7754   21703813.6324
       198.0004        198.0004
  -5092843.33347  -3953021.93745  23378742.443    23378742.1994   23378747.9294
       160.0004        162.0004
 21  2  6  0 34  0.0000000  0 10G07G14G28G21G30G17G01G08G09G04
 -19087647.42849 -14854064.81347  20828363.428    20828363.7624   20828367.5724
       203.0004        203.0004
  -1775218.04847  -1376108.71845  23307700.395    23307701.9354   23307707.3944
       156.0004        156.0004
   -277124.19847    -92544.64845  23646901.023    23646901.0124   23646905.8844
       151.0004        154.0004
 -12273880.67548  -9552020.78646  21828461.289    21828460.5434   21828465.6144
       184.0004        184.0004
 -10286916.16748  -7987255.25646  22604794.230    22604792.8424   22604800.3354
       181.0004        180.0004
  -7730962.66948  -5676867.78846  22919038.636    22919038.8434   22919041.9344
       170.0004        172.0004
 -17842133.28948 -13892797.00347  21256286.222    21256286.5844   21256294.3764
       194.0004        194.0004
 -11236634.41049  -8693272.66647  22563138.626    22563139.4054   22563148.0124
       202.0004        202.0004
 -14203617.90549 -11043786.20747  21716146.194    21716146.3974   21716153.6724
       198.0004        199.0004
  -4994578.04347  -3876451.59345  23397441.677    23397441.7014   23397446.9814
       160.0004        161.0004
 21  2  6  0 34 30.0000000  0 10G07G14G28G21G30G17G01G08G09G04
 -19145372.92549 -14899045.72347  20817378.779    20817379.0564   20817382.8924
       204.0004        204.0004
  -1801255.23847  -1396397.42845  23302746.604    23302747.4214   23302752.0764
       155.0004        157.0004
   -292035.17247   -104163.57645  23644063.392    23644063.4684   23644067.2724
       151.0004        153.0004
 -12252638.30248  -9535468.28446  21832503.805    21832502.4484   21832507.7754
       184.0004        184.0004
 -10373410.42848  -8054653.37546  22588334.315    22588333.9064   22588340.3634
       179.0004        179.0004
  -7805013.24148  -5734569.52046  22904946.674    22904946.7774   22904952.1454
       171.0004        172.0004
 -17893272.63648 -13932645.83947  21246555.097    21246554.9074   21246562.9134
       194.0004        194.0004
 -11144261.40949  -8621293.72947  22580716.388    22580716.9134   22580726.4104
       202.0004        202.0004
 -14138473.56549 -10993024.39347  21728542.963    21728542.9964   21728550.2474
       199.0004        199.0004
  -4896293.77547  -3799866.45645  23416143.092    23416144.2024   23416150.8544
       159.0004        159.0004
 21  2  6  0 35  0.0000000  0 10G07G14G28G21G30G17G01G08G09G04
 -19202789.53949 -14943785.94247  20806452.845    20806452.9904   20806456.7854
       204.0004        204.0004
  -1827304.65447  -1416695.66045  23297789.298    23297790.0654   23297795.0824
       157.0004        159.0004
   -306949.40747   -115785.01945  23641226.024    23641225.0184   23641229.8384
       150.0004        153.0004
 -12230897.31748  -9518527.25546  21836640.999    21836640.2754   21836645.0914
       184.0004        184.0004
 -10459817.53548  -8121983.57446  22571890.744    22571890.8464   22571898.6844
       180.0004        181.0004
  -7878696.80448  -5791985.27246  22890924.424    22890925.0324   22890930.3974
       171.0004        173.0004
 -17943996.81948 -13972171.17047  21236902.298    21236902.9564   21236910.7664
       193.0004        194.0004
 -11051781.65849  -8549231.59347  22598313.473    22598314.8924   22598323.9244
       201.0004        200.0004
 -14073030.74049 -10942030.00047  21740995.027    21740995.7794   21741002.8064
       198.0004        198.0004
  -4797991.92147  -3723267.62745  23434848.139    23434849.4124   23434855.6864
       157.0004        157.0004
 21  2  6  0 35 30.0000000  0 10G07G14G28G21G30G17G01G08G09G04
 -19259894.76449 -14988283.52547  20795585.488    20795586.2444   20795590.4604
       204.0004        205.0004
  -1853367.89747  -1437004.67345  23292830.907    23292830.1004   23292836.2464
       158.0004        160.0004
   -321868.65647   -127410.34545  23638386.979    23638386.0964   23638390.5544
       151.0004        154.0004
 -12208658.54348  -9501198.32246  21840872.170    21840871.8614   21840876.7674
       184.0004        185.0004
 -10546135.72748  -8189244.50046  22555465.208    22555465.0344   22555472.0424
       179.0004        180.0004
  -7952012.78148  -5849114.57746  22876973.332    22876973.7994   22876977.3634
       171.0004        173.0004
 -17994303.53648 -14011371.19247  21227329.456    21227329.6164   21227337.5284
       193.0004        193.0004
 -10959198.52849  -8477088.90247  22615932.137    22615932.6724   22615942.4044
       199.0004        199.0004
 -14007293.01449 -10890805.79947  21753505.361    21753505.5084   21753512.8014
       198.0004        198.0004
  -4699675.92247  -3646657.76645  23453558.445    23453558.2044   23453564.7504
       156.0004        157.0004
 21  2  6  0 36  0.0000000  0 10G07G14G28G21G30G17G01G08G09G04
 -19316686.78949 -15032537.05847  20784778.726    20784778.9654   20784783.3494
       205.0004        205.0004
  -1879446.73647  -1457325.82545  23287866.414    23287867.0824   23287873.4684
       159.0004        161.0004
   -336794.98847   -139041.24045  23635545.033    23635544.8344   23635550.9544
       149.0004        152.0004
 -12185922.25748  -9483481.73346  21845198.577    21845198.5934   21845203.8564
       184.0004        184.0004
 -10632363.32548  -8256434.81346  22539056.441    22539056.7104   22539063.9484
       179.0004        180.0004
  -8024960.09548  -5905956.60346  22863092.015    22863092.2444   22863097.2214
       172.0004        173.0004
 -18044190.59148 -14050244.20147  21217835.934    21217836.2224   21217844.1454
       193.0004        193.0004
 -10866515.02849  -8404867.99447  22633571.119    22633570.4794   22633579.3814
       199.0004        199.0004
 -13941263.98949 -10839354.61747  21766070.175    21766070.0914   21766077.3744
       197.0004        197.0004
  -4601349.16747  -3570039.54245  23472269.677    23472270.4984   23472274.9974
       156.0004        157.0004
 21  2  6  0 36 30.0000000  0 10G07G14G28G21G30G17G01G08G09G04
 -19373163.44949 -15076544.84647  20774030.988    20774031.8774   20774035.9334
       204.0004        205.0004
  -1905542.32547  -1477660.03646  23282901.972    23282902.4534   23282907.8454
       160.0004        163.0004
   -351730.33447   -150679.15545  23632702.935    23632703.9134   23632708.4204
       148.0004        150.0004
 -12162688.77748  -9465377.70346  21849620.033    21849619.0204   21849624.8724
       184.0004        184.0004
 -10718498.09748  -8323552.80646  22522665.193    22522665.4804   22522672.3704
       178.0004        177.0004
  -8097538.60348  -5962511.26346  22849280.033    22849281.0704   22849286.3644
       173.0004        174.0004
 -18093655.26048 -14088788.08547  21208422.951    21208422.9904   21208431.3914
       192.0004        192.0004
 -10773734.10249  -8332571.15847  22651226.478    22651226.4384   22651235.5344
       200.0004        201.0004
 -13874946.77949 -10787678.86947  21778690.079    21778690.2194   21778697.2474
       197.0004        197.0004
  -4503014.62147  -3493415.22145  23490981.873    23490982.3024   23490988.1044
       153.0004        153.0004
 21  2  6  0 37  0.0000000  0 10G07G14G28G21G30G17G01G08G09G04
 -19429322.00749 -15120304.76447  20763344.843    20763345.2854   20763349.5024
       205.0004        205.0004
  -1931656.10647  -1498008.38445  23277930.686    23277931.3224   23277937.7744
       161.0004        162.0004
   -366676.51547   -162325.51245  23629859.302    23629859.1554   23629864.2304
       148.0004        151.0004
 -12138958.50348  -9446886.57446  21854135.529    21854135.6124   21854140.2694
       184.0004        184.0004
 -10804537.95048  -8390596.84846  22506292.912    22506293.2054   22506299.4384
       177.0004        178.0004
  -8169746.75448  -6018777.34546  22835539.690    22835540.5224   22835545.1374
       173.0004        172.0004
 -18142694.99248 -14127000.85347  21199089.176    21199090.6494   21199098.8324
       191.0004        192.0004
 -10680859.04749  -8260200.99147  22668900.155    22668899.9754   22668908.2644
       200.0004        200.0004
 -13808344.74149 -10735781.19447  21791364.007    21791364.1674   21791371.1604
       197.0004        197.0004
  -4404675.45847  -3416787.27745  23509694.749    23509695.1714   23509701.5304
       152.0004        154.0004
 21  2  6  0 37 30.0000000  0 10G07G14G28G21G30G17G01G08G09G04
 -19485158.41349 -15163813.66647  20752719.199    20752719.9704   20752724.1014
       205.0004        205.0004
  -1957787.76647  -1518370.69945  23272959.096    23272960.2084   23272964.1564
       160.0004        162.0004
   -381633.61747   -173980.38645  23627013.390    23627013.4554   23627017.2254
       150.0004        152.0004
 -12114730.53548  -9428007.62146  21858745.799    21858745.8884   21858751.0104
       184.0004        183.0004
 -10890479.17748  -8457564.02246  22489938.985    22489939.4584   22489944.7844
       178.0004        180.0004
  -8241582.07748  -6074752.86946  22821870.882    22821871.0034   22821875.6634
       175.0004        177.0004
 -18191305.69848 -14164879.31147  21189840.881    21189841.1494   21189848.9344
       192.0004        193.0004
 -10587890.72349  -8187758.14447  22686590.128    22686590.4714   22686598.9904
       199.0004        198.0004
 -13741459.50949 -10683662.82847  21804091.797    21804092.4044   21804098.5054
       197.0004        197.0004
  -4306333.07347  -3340156.87045  23528409.583    23528408.9794   23528416.7154
       152.0004        155.0004
 21  2  6  0 38  0.0000000  0 10G07G14G28G21G30G17G01G08G09G04
 -19540670.90149 -15207070.15647  20742155.527    20742155.7544   20742160.3904
       204.0004        205.0004
  -1983938.95347  -1538748.25146  23267983.569    23267984.0404   23267988.7354
       161.0004        163.0004
   -396604.15047   -185645.72245  23624163.862    23624164.6394   23624168.1614
       150.0004        153.0004
 -12090005.63248  -9408741.44946  21863452.380    21863451.2994   21863455.8564
       184.0004        184.0004
 -10976319.94948  -8524452.92746  22473603.885    22473603.5024   22473610.8574
       179.0004        180.0004
  -8313044.24748  -6130437.65246  22808271.544    22808271.7034   22808277.0544
       176.0004        176.0004
 -18239485.10748 -14202421.69947  21180672.171    21180673.0574   21180680.4064
       193.0004        193.0004
 -10494832.73149  -8115245.43047  22704297.769    22704298.6734   22704307.9094
       197.0004        197.0004
 -13674294.66749 -10631326.59047  21816873.595    21816873.8244   21816879.7774
       197.0004        197.0004
  -4207990.82347  -3263526.57845  23547122.908    23547122.9714   23547129.3894
       152.0004        155.0004
 21  2  6  0 38 30.0000000  0 10G07G14G28G21G30G17G01G08G09G04
 -19595856.17449 -15250071.68847  20731653.619    20731654.4554   20731658.6864
       204.0004        205.0004
  -2010110.74347  -1559141.84646  23263002.787    23263003.6204   23263008.0254
       163.0004        165.0004
   -411589.04647   -197322.24345  23621312.715    23621312.9654   23621318.1324
       149.0004        151.0004
 -12064783.40948  -9389087.75946  21868251.065    21868250.3444   21868256.2634
       184.0004        184.0004
 -11062057.96148  -8591261.75346  22457287.877    22457288.4854   22457295.0144
       179.0004        179.0004
  -8384131.57648  -6185830.36946  22794743.536    22794744.1754   22794750.2994
       175.0004        174.0004
 -18287230.51648 -14239625.91047  21171586.378    21171587.5924   21171595.2704
       193.0004        194.0004
 -10401687.95449  -8042665.09347  22722023.676    22722023.9424   22722033.2174
       197.0004        197.0004
 -13606853.33949 -10578774.90747  21829706.855    21829706.6044   21829714.1964
       197.0004        197.0004
  -4109651.50247  -3186898.55045  23565836.477    23565837.4704   23565843.8394
       154.0004        158.0004
 21  2  6  0 39  0.0000000  0 10G07G14G28G21G30G17G01G08G09G04
 -19650711.55549 -15292816.15247  20721215.692    20721215.9844   20721220.3934
       205.0004        205.0004
  -2036304.12547  -1579552.27046  23258018.596    23258019.0394   23258023.9254
       164.0004        166.0004
   -426589.81247   -209011.14045  23618459.042    23618458.0254   23618463.6004
       150.0004        153.0004
 -12039063.84148  -9369046.53546  21873145.168    21873144.5794   21873149.1914
       184.0004        183.0004
 -11147690.59648  -8657988.47746  22440993.149    22440993.6274   22441000.0344
       179.0004        180.0004
  -8454842.92748  -6240930.10246  22781288.944    22781289.7264   22781293.3394
       174.0004        175.0004
 -18334539.00048 -14276489.66147  21162584.488    21162585.0464   21162592.9234
       194.0004        195.0004
 -10308458.39949  -7970018.69347  22739764.583    22739764.8184   22739774.9214
       198.0004        199.0004
 -13539138.35749 -10526009.97247  21842591.614    21842592.2444   21842599.3084
       195.0004        195.0004
  -4011317.85747  -3110274.93245  23584548.280    23584548.1784   23584556.0624
       154.0004        156.0004
 21  2  6  0 39 30.0000000  0 10G07G14G28G21G30G17G01G08G09G04
 -19705234.44549 -15335301.52847  20710840.100    20710840.6564   20710844.7084
       205.0004        205.0004
  -2062519.94948  -1599980.14846  23253030.692    23253031.2044   23253035.3544
       165.0004        167.0004
   -441608.16347   -220713.72245  23615599.756    23615600.4814   23615605.5974
       151.0004        155.0004
 -12012847.48748  -9348618.19146  21878134.438    21878134.0474   21878138.1114
       183.0004        183.0004
 -11233215.53048  -8724631.25846  22424717.910    22424717.8864   22424724.6474
       179.0004        179.0004
  -8525177.39048  -6295736.13846  22767902.659    22767903.1814   22767908.6634
       172.0004        172.0004
 -18381407.73049 -14313010.72547  21153665.494    21153665.9954   21153673.9474
       195.0004        195.0004
 -10215147.43949  -7897308.85547  22757520.913    22757521.2454   22757530.7724
       198.0004        198.0004
 -13471152.64448 -10473034.08347  21855528.678    21855528.9284   21855536.7734
       193.0004        193.0004
  -3912992.44147  -3033657.74045  23603258.946    23603259.3794   23603267.3004
       152.0004        153.0004
 21  2  6  0 40  0.0000000  0 10G07G14G28G21G30G17G01G08G09G04
 -19759421.41849 -15377525.15147  20700528.447    20700529.1384   20700533.6824
       205.0004        206.0004
  -2088758.51448  -1620425.76546  23248037.521    23248037.2054   23248042.2564
       165.0004        165.0004
   -456644.65947   -232430.46045  23612739.928    23612739.6244   23612743.6384
       152.0004        155.0004
 -11986133.46348  -9327802.04946  21883217.227    21883217.2704   21883221.8534
       183.0004        183.0004
 -11318629.45248  -8791187.55746  22408464.568    22408464.2844   22408470.7104
       179.0004        180.0004
  -8595133.03248  -6350247.00646  22754592.148    22754592.4774   22754596.8314
       173.0004        175.0004
 -18427833.17649 -14349186.38747  21144831.235    21144831.6654   21144839.6214
       195.0004        195.0004
 -10121756.34949  -7824536.57647  22775292.399    22775292.8294   22775301.7994
       197.0004        196.0004
 -13402898.53948 -10419849.06747  21868516.345    21868516.9214   21868525.8594
       193.0004        194.0004
  -3814677.27447  -2957048.56145  23621967.556    23621967.9994   23621975.3414
       151.0004        154.0004
 21  2  6  0 40 30.0000000  0 10G07G14G28G21G30G17G01G08G09G04
 -19813271.07449 -15419485.93147  20690281.856    20690282.2764   20690286.2904
       206.0004        206.0004
  -2115021.87048  -1640890.71446  23243039.844    23243039.7224   23243045.2654
       166.0004        168.0004
   -471701.39347   -244162.92845  23609875.123    23609874.2314   23609878.1594
       153.0004        156.0004
 -11958923.29048  -9306599.30846  21888395.106    21888394.9704   21888399.6024
       183.0004        183.0004
 -11403931.01348  -8857656.30146  22392232.883    22392232.0304   22392238.0834
       180.0004        180.0004
  -8664709.62848  -6404462.52246  22741352.461    22741352.2184   22741357.5524
       174.0004        175.0004
 -18473813.68549 -14385015.34547  21136081.058    21136081.6104   21136089.5834
       196.0004        196.0004
 -10028288.75849  -7751704.70147  22793078.966    22793079.4344   22793088.5714
       195.0004        194.0004
 -13334380.09548 -10366458.09447  21881554.530    21881555.1314   21881564.0204
       192.0004        191.0004
  -3716376.13047  -2880450.28245  23640674.508    23640674.9494   23640681.7774
       152.0004        154.0004
 21  2  6  0 41  0.0000000  0 10G07G14G28G21G30G17G01G08G09G04
 -19866779.76549 -15461181.02247  20680099.713    20680099.8504   20680103.8804
       206.0004        206.0004
  -2141310.45848  -1661375.29546  23238036.161    23238036.9554   23238042.7534
       167.0004        167.0004
   -486779.44247   -255912.04245  23607004.609    23607004.5694   23607009.6164
       154.0004        157.0004
 -11931216.72048  -9285009.76646  21893667.723    21893667.2514   21893672.5534
       183.0004        183.0004
 -11489117.24648  -8924035.17446  22376021.602    22376021.7534   22376028.2914
       180.0004        181.0004
  -8733905.50348  -6458381.35646  22728183.569    22728184.5554   22728189.4484
       175.0004        175.0004
 -18519345.93149 -14420495.00947  21127417.098    21127417.4774   21127424.9364
       196.0004        197.0004
  -9934746.77148  -7678814.85247  22810880.713    22810880.3484   22810888.7784
       194.0004        194.0004
 -13265599.73048 -10312863.03747  21894643.321    21894643.7874   21894651.8394
       190.0004        190.0004
  -3618091.21247  -2803864.62845  23659377.485    23659377.4264   23659383.9874
       153.0004        155.0004
 21  2  6  0 41 30.0000000  0 10G07G14G28G21G30G17G01G08G09G04
 -19919944.55849 -15502608.12547  20669981.700    20669982.6504   20669987.0924
       206.0004        206.0004
  -2167625.17248  -1681880.25646  23233029.595    23233029.7364   23233034.1464
       168.0004        169.0004
   -501880.53247   -267679.11745  23604131.247    23604131.4094   23604135.8564
       154.0004        156.0004
 -11903013.87348  -9263033.52046  21899034.120    21899033.7004   21899038.9174
       183.0004        183.0004
 -11574185.50748  -8990322.13646  22359833.512    22359834.2194   22359840.5574
       182.0004        184.0004
  -8802719.49948  -6512002.62446  22715089.890    22715089.7154   22715095.5174
       174.0004        174.0004
 -18564427.11949 -14455623.20847  21118838.356    21118838.8434   21118846.4474
       197.0004        197.0004
  -9841132.67448  -7605868.81347  22828694.209    22828694.4084   22828702.8034
       194.0004        194.0004
 -13196560.39148 -10259066.17647  21907781.694    21907782.0734   21907790.4194
       191.0004        192.0004
  -3519825.10847  -2727293.66145  23678075.963    23678076.8464   23678084.1754
       153.0004        155.0004
 21  2  6  0 42  0.0000000  0 10G07G14G28G21G30G17G01G08G09G04
 -19972762.87949 -15543765.25747  20659931.175    20659932.0104   20659936.3264
       206.0004        206.0004
  -2193966.63248  -1702406.07246  23228016.849    23228017.3084   23228021.4974
       168.0004        167.0004
   -517005.69647   -279464.93945  23601252.241    23601252.9934   23601256.6784
       153.0004        155.0004
 -11874314.64648  -9240670.47146  21904495.872    21904494.6274   21904500.7834
       183.0004        183.0004
 -11659132.98248  -9056514.96146  22343669.234    22343668.9484   22343675.4484
       184.0004        185.0004
  -8871150.24748  -6565325.26446  22702067.281    22702066.5394   22702071.9654
       172.0004        171.0004
 -18609054.21549 -14490397.55247  21110345.451    21110345.8284   21110353.9934
       197.0004        196.0004
  -9747449.48048  -7532868.90947  22846521.519    22846521.5014   22846529.9514
       194.0004        195.0004
 -13127264.76048 -10205069.57947  21920969.416    21920969.7454   21920976.7674
       192.0004        193.0004
  -3421580.15747  -2650739.16745  23696770.931    23696771.9054   23696778.5284
       153.0004        156.0004
 21  2  6  0 42 30.0000000  0 10G07G14G28G21G30G17G01G08G09G04
 -20025231.34749 -15584649.79047  20649947.424    20649947.4344   20649951.8724
       206.0004        207.0004
  -2220335.25347  -1722953.04345  23222997.741    23222998.0354   23223002.7534
       164.0004        162.0004
   -532155.71047   -291270.12145  23598371.430    23598369.9914   23598375.3404
       153.0004        155.0004
 -11845118.69348  -9217920.37646  21910051.416    21910050.9414   21910055.9594
       182.0004        183.0004
 -11743956.71648  -9122611.36846  22327528.038    22327527.9354   22327533.7234
       184.0004        185.0004
  -8939195.95848  -6618347.89046  22689117.626    22689118.4204   22689123.3784
       172.0004        172.0004
 -18653223.93249 -14524815.50947  21101940.408    21101940.8304   21101949.0764
       197.0004        196.0004
  -9653698.57548  -7459816.26847  22864361.122    22864361.7184   22864370.6244
       194.0004        195.0004
 -13057715.27248 -10150875.17447  21934204.451    21934204.9264   21934211.4274
       194.0004        196.0004
  -3323358.49947  -2574202.83645  23715462.826    23715462.8014   23715470.8744
       153.0004        156.0004
 21  2  6  0 43  0.0000000  0 10G07G14G28G21G30G17G01G08G09G04
 -20077347.88749 -15625260.08647  20640028.947    20640029.8014   20640034.0024
       206.0004        207.0004
  -2246732.81347  -1743522.57946  23217975.402    23217975.2834   23217980.5664
       162.0004        163.0004
   -547332.53747   -303096.18245  23595482.082    23595481.3814   23595485.9114
       152.0004        154.0004
 -11815427.08148  -9194784.04046  21915702.687    21915701.6274   21915706.5584
       183.0004        183.0004
 -11828655.02148  -9188610.05446  22311409.974    22311410.3854   22311416.8274
       185.0004        186.0004
  -9006856.29348  -6671070.21346  22676242.932    22676243.1864   22676248.0194
       172.0004        172.0004
 -18696934.45349 -14558875.64247  21093623.103    21093623.4484   21093630.8954
       197.0004        197.0004
  -9559883.66748  -7386713.75847  22882213.869    22882213.9014   22882222.6534
       193.0004        192.0004
 -12987915.81749 -10096485.98847  21947486.840    21947487.0824   21947493.1734
       195.0004        195.0004
  -3225163.65547  -2497687.41445  23734148.460    23734149.2384   23734156.6844
       154.0004        156.0004
 21  2  6  0 43 30.0000000  0 10G07G14G28G21G30G17G01G08G09G04
 -20129109.70749 -15665593.97747  20630179.813    20630179.8804   20630184.3214
       206.0004        207.0004
  -2273160.39047  -1764115.46346  23212946.836    23212947.3024   23212951.4694
       163.0004        165.0004
   -562537.36047   -314944.06445  23592588.408    23592588.5664   23592592.9724
       152.0004        154.0004
 -11785240.12048  -9171261.71846  21921445.922    21921445.7184   21921451.5374
       183.0004        183.0004
 -11913225.46048  -9254509.08246  22295316.475    22295316.6174   22295323.3164
       185.0004        186.0004
  -9074130.15048  -6723491.36546  22663440.485    22663440.9914   22663445.7754
       171.0004        173.0004
 -18740183.22349 -14592575.96847  21085392.465    21085393.1344   21085400.9384
       196.0004        196.0004
  -9466007.09148  -7313563.18047  22900079.300    22900078.6584   22900086.4164
       192.0004        192.0004
 -12917869.47349 -10041904.41547  21960817.145    21960817.3494   21960822.9754
       196.0004        198.0004
  -3126998.37547  -2421195.02745  23752828.916    23752829.3894   23752836.1694
       155.0004        157.0004
 21  2  6  0 44  0.0000000  0 10G07G14G28G21G30G17G01G08G09G04
 -20180514.68749 -15705649.80747  20620397.232    20620397.9384   20620402.6954
       206.0004        207.0004
  -2299618.98147  -1784732.52746  23207910.753    23207911.0434   23207916.6634
       163.0004        165.0004
   -577772.23447   -326815.39045  23589689.141    23589689.1854   23589693.5744
       153.0004        156.0004
 -11754558.63348  -9147354.05746  21927283.840    21927283.3784   21927289.0634
       183.0004        182.0004
 -11997665.68748  -9320306.65546  22279248.600    22279248.2274   22279254.9164
       185.0004        185.0004
  -9141017.19248  -6775611.11046  22650712.461    22650713.1124   22650717.6254
       173.0004        174.0004
 -18782967.64849 -14625914.47447  21077251.052    21077251.5024   21077259.4544
       196.0004        197.0004
  -9372071.64348  -7240366.73847  22917953.943    22917953.6064   22917962.4834
       192.0004        192.0004
 -12847579.37049  -9987132.91047  21974193.002    21974192.5994   21974198.8164
       197.0004        196.0004
  -3028865.38847  -2344727.79745  23771502.269    23771503.0164   23771509.7264
       154.0004        156.0004
 21  2  6  0 44 30.0000000  0 10G07G14G28G21G30G17G01G08G09G04
 -20231559.09149 -15745424.66647  20610684.104    20610684.2244   20610688.8624
       206.0004        207.0004
  -2326108.38047  -1805373.60146  23202869.632    23202870.3274   23202876.0244
       163.0004        163.0004
   -593037.42347   -338710.30745  23586784.229    23586783.7374   23586789.5174
       152.0004        154.0004
 -11723381.66748  -9123060.31146  21933215.927    21933216.6744   21933221.8004
       182.0004        182.0004
 -12081972.02548  -9385999.92346  22263205.552    22263205.4674   22263211.3834
       186.0004        186.0004
  -9207515.09748  -6827427.65346  22638058.674    22638059.1624   22638064.3764
       173.0004        176.0004
 -18825284.02249 -14658888.26447  21069198.097    21069198.8494   21069207.2844
       196.0004        197.0004
  -9278078.67848  -7167125.45947  22935838.604    22935838.8884   22935848.3304
       191.0004        191.0004
 -12777047.41949  -9932172.94147  21987612.978    21987613.4774   21987620.7694
       195.0004        194.0004
  -2930766.24947  -2268286.93345  23790169.821    23790169.7844   23790177.7364
       153.0004        155.0004
 21  2  6  0 45  0.0000000  0 10G07G14G28G21G30G17G01G08G09G04
 -20282240.70949 -15784916.82847  20601039.296    20601040.1374   20601044.4484
       207.0004        208.0004
  -2352630.10147  -1826039.86046  23197824.105    23197823.8354   23197828.7544
       162.0004        163.0004
   -608334.87947   -350630.40445  23583873.462    23583872.7624   23583877.3774
       151.0004        152.0004
 -11691710.18748  -9098381.22346  21939244.456    21939244.0554   21939248.8184
       183.0004        183.0004
 -12166142.51848  -9451587.31646  22247188.191    22247187.9284   22247195.2804
       186.0004        186.0004
  -9273623.09048  -6878940.34046  22625479.528    22625479.8554   22625483.2554
       175.0004        176.0004
 -18867130.23049 -14691495.68947  21061234.326    21061235.8474   21061244.1734
       196.0004        196.0004
  -9184031.37248  -7093841.83947  22953735.891    22953735.7514   22953745.4584
       192.0004        192.0004
 -12706277.18848  -9877027.31347  22001079.217    22001079.6814   22001088.0794
       193.0004        193.0004
  -2832704.12047  -2191874.90545  23808830.584    23808831.5794   23808839.3874
       153.0004        155.0004
 21  2  6  0 45 30.0000000  0 10G07G14G28G21G30G17G01G08G09G04
 -20332557.81249 -15824124.95947  20591464.143    20591464.9704   20591469.3884
       207.0004        207.0004
  -2379186.11047  -1846732.87146  23192770.336    23192770.2144   23192775.8094
       161.0004        163.0004
   -623667.06147   -362577.55545  23580955.380    23580954.7734   23580958.9324
       149.0004        150.0004
 -11659545.83948  -9073318.07546  21945365.926    21945364.2884   21945369.4654
       183.0004        183.0004
 -12250175.71748  -9517067.70847  22231196.877    22231196.8474   22231204.5494
       186.0004        188.0004
  -9339341.73248  -6930149.65346  22612974.013    22612974.0354   22612977.3984
       176.0004        177.0004
 -18908504.79749 -14723735.59647  21053363.009    21053362.4294   21053369.8364
       196.0004        196.0004
  -9089933.29748  -7020518.67847  22971642.048    22971642.0844   22971652.2114
       191.0004        191.0004
 -12635272.73348  -9821699.18447  22014591.108    22014591.6524   22014599.6844
       192.0004        192.0004
  -2734682.72047  -2115494.61045  23827485.082    23827485.1064   23827491.8224
       153.0004        155.0004
 21  2  6  0 46  0.0000000  0 10G07G14G28G21G30G17G01G08G09G04
 -20382506.12149 -15863045.72347  20581960.303    20581960.3764   20581964.4464
       207.0004        208.0004
  -2405775.65247  -1867451.98546  23187709.918    23187710.1314   23187714.2014
       162.0004        164.0004
   -639033.36747   -374551.29045  23578031.448    23578031.2764   23578036.1184
       146.0004        150.0004
 -11626887.29148  -9047869.84846  21951580.548    21951579.5774   21951584.2394
       182.0004        182.0004
 -12334067.30448  -9582437.77247  22215232.932    22215233.0674   22215240.5544
       189.0004        190.0004
  -9404668.20348  -6981053.36746  22600541.767    22600541.8684   22600546.7594
       175.0004        177.0004
 -18949403.38149 -14755604.61547  21045579.363    21045579.6504   21045587.1314
       195.0004        195.0004
  -8995784.77148  -6947156.20747  22989559.720    22989559.0684   22989567.7934
       191.0004        191.0004
 -12564035.44748  -9766189.60047  22028147.242    22028147.7544   22028155.2314
       191.0004        190.0004
  -2636702.93147  -2039146.76545  23846130.935    23846131.1004   23846136.0464
       153.0004        155.0004
 21  2  6  0 46 30.0000000  0 10G07G14G28G21G30G17G01G08G09G04
 -20432085.34649 -15901678.88847  20572524.809    20572525.3294   20572530.1204
       207.0004        208.0004
  -2432401.80147  -1888199.63346  23182643.352    23182644.3324   23182648.5664
       164.0004        166.0004
   -654437.47847   -386554.47445  23575099.535    23575098.9634   23575104.2224
       147.0004        151.0004
 -11593737.27248  -9022038.66046  21957887.103    21957887.0234   21957892.1674
       182.0004        181.0004
 -12417817.05348  -9647697.31747  22199295.682    22199296.1004   22199303.9014
       190.0004        190.0004
  -9469603.85948  -7031652.59146  22588184.376    22588184.2774   22588190.3004
       176.0004        177.0004
 -18989825.70349 -14787102.51647  21037886.775    21037887.5614   21037895.7304
       195.0004        195.0004
  -8901591.12648  -6873758.58947  23007482.747    23007483.0654   23007492.5234
       191.0004        192.0004
 -12492570.56848  -9710502.69847  22041747.130    22041747.3974   22041754.6924
       191.0004        192.0004
  -2538769.62147  -1962835.12145  23864765.859    23864766.5944   23864772.7624
       152.0004        154.0004
 21  2  6  0 47  0.0000000  0 10G07G14G28G21G30G17G01G08G09G04
 -20481290.59449 -15940020.64747  20563161.365    20563162.0214   20563166.5024
       207.0004        208.0004
  -2459063.62748  -1908975.06146  23177571.258    23177572.0014   23177575.0804
       166.0004        168.0004
   -669879.22847   -398587.02245  23572160.864    23572160.3424   23572165.7314
       145.0004        146.0004
 -11560094.33948  -8995823.37446  21964289.518    21964289.3044   21964295.3654
       182.0004        182.0004
 -12501420.54348  -9712842.88047  22183386.984    22183386.9054   22183393.4814
       188.0004        188.0004
  -9534145.67148  -7081944.89446  22575904.201    22575904.9944   22575907.9304
       177.0004        179.0004
 -19029767.33248 -14818225.85047  21030285.765    21030286.9294   21030294.7204
       194.0004        195.0004
  -8807352.70348  -6800326.07047  23025418.961    23025417.7994   23025424.9954
       192.0004        193.0004
 -12420879.22748  -9654639.32947  22055389.499    22055389.7784   22055396.9364
       191.0004        191.0004
  -2440883.51347  -1886560.24445  23883395.124    23883393.0384   23883399.8424
       151.0004        153.0004
 21  2  6  0 47 30.0000000  0 10G07G14G28G21G30G17G01G08G09G04
 -20530121.52949 -15978070.73647  20553870.108    20553870.2184   20553874.2484
       207.0004        208.0004
  -2485763.91548  -1929780.42146  23172490.853    23172491.1214   23172494.5274
       168.0004        169.0004
   -685361.46547   -410651.07245  23569216.654    23569216.0254   23569218.7504
       142.0004        146.0004
 -11525960.85948  -8969225.82946  21970784.565    21970783.7974   21970789.4724
       182.0004        182.0004
 -12584877.04448  -9777873.91547  22167506.290    22167506.5014   22167512.1364
       188.0004        189.0004
  -9598294.72248  -7131931.14446  22563695.940    22563696.4214   22563701.7854
       176.0004        177.0004
 -19069227.54248 -14848974.05347  21022777.218    21022777.5754   21022785.7404
       194.0004        195.0004
  -8713073.90648  -6726862.06847  23043358.223    23043357.6594   23043365.5724
       193.0004        193.0004
 -12348966.33848  -9598603.31947  22069075.003    22069074.7814   22069082.1574
       191.0004        192.0004
  -2343049.05047  -1810325.60745  23902010.902    23902011.3304   23902016.8084
       150.0004        152.0004
 21  2  6  0 48  0.0000000  0 10G07G14G28G21G30G17G01G08G09G04
 -20578573.63849 -16015825.62947  20544648.815    20544649.7024   20544654.3934
       208.0004        209.0004
  -2512501.87048  -1950615.16746  23167401.100    23167401.3274   23167406.4624
       167.0004        167.0004
   -700884.09447   -422746.57545  23566263.075    23566261.6924   23566265.6544
       143.0004        147.0004
 -11491335.71848  -8942245.19846  21977373.208    21977373.1194   21977377.5064
       181.0004        181.0004
 -12668182.51248  -9842787.26247  22151653.898    22151652.8174   22151659.7904
       188.0004        188.0004
  -9662048.48448  -7181609.39746  22551563.846    22551564.7654   22551569.1724
       178.0004        179.0004
 -19108202.41449 -14879344.07047  21015360.844    21015360.6054   21015369.0514
       195.0004        194.0004
  -8618755.56248  -6653367.27147  23061306.027    23061305.9414   23061314.3654
       193.0004        194.0004
 -12276833.43748  -9542395.87047  22082800.848    22082801.0794   22082808.3974
       191.0004        191.0004
  -2245267.33347  -1734132.07545  23920617.750    23920618.4094   23920623.5834
       149.0004        151.0004
 21  2  6  0 48 30.0000000  0 10G07G14G28G21G30G17G01G08G09G04
 -20626643.75049 -16053282.86247  20535502.463    20535502.7504   20535506.5954
       208.0004        209.0004
  -2539277.71847  -1971479.50046  23162302.179    23162303.0284   23162311.5894
       164.0004        163.0004
   -716448.01847   -434874.29145  23563299.148    23563299.3524   23563304.2334
       146.0004        150.0004
 -11456219.02848  -8914881.54746  21984058.043    21984057.1934   21984060.9294
       181.0004        181.0004
 -12751333.74648  -9907580.42146  22135828.880    22135829.3914   22135836.4264
       186.0004        186.0004
  -9725405.27948  -7230978.32146  22539508.604    22539508.8954   22539512.1474
       179.0004        180.0004
 -19146688.70649 -14909333.38147  21008036.447    21008037.3434   21008045.4794
       195.0004        195.0004
  -8524399.90948  -6579843.39247  23079260.271    23079260.4004   23079269.1084
       192.0004        191.0004
 -12204482.84748  -9486018.77747  22096568.561    22096569.1244   22096576.3624
       191.0004        192.0004
  -2147540.22747  -1657981.09645  23939213.815    23939214.4914   23939220.9144
       149.0004        151.0004
 21  2  6  0 49  0.0000000  0 10G07G14G28G21G30G17G01G08G09G04
 -20674328.75149 -16090440.01547  20526428.064    20526428.3834   20526432.3694
       208.0004        209.0004
  -2566091.89047  -1992373.66946  23157202.059    23157203.2954   23157208.6944
       163.0004        164.0004
   -732053.64047   -447034.51945  23560329.276    23560329.8854   23560335.5624
       148.0004        152.0004
 -11420610.75848  -8887134.82946  21990833.269    21990832.9914   21990836.3934
       182.0004        181.0004
 -12834327.54948  -9972250.91046  22120036.406    22120036.6534   22120043.2804
       186.0004        187.0004
  -9788364.24148  -7280037.23846  22527526.708    22527527.6734   22527533.0494
       180.0004        182.0004
 -19184683.43348 -14938939.64147  21000806.725    21000807.0584   21000815.0124
       194.0004        194.0004
  -8430008.16348  -6506291.41747  23097222.592    23097222.7454   23097231.1424
       191.0004        191.0004
 -12131917.09148  -9429474.03347  22110377.068    22110377.7884   22110384.8074
       191.0004        191.0004
  -2049869.78247  -1581874.27545  23957800.299    23957800.3874   23957808.7854
       149.0004        152.0004
 21  2  6  0 49 30.0000000  0 10G07G14G28G21G30G17G01G08G09G04
 -20721626.34749 -16127295.28847  20517427.894    20517428.0644   20517432.2504
       208.0004        209.0004
  -2592945.52047  -2013298.54846  23152095.133    23152094.7054   23152098.0874
       164.0004        167.0004
   -747702.60247   -459228.49545  23557352.462    23557350.9754   23557356.7744
       148.0004        151.0004
 -11384511.99348  -8859005.91046  21997700.853    21997701.4014   21997706.5644
       181.0004        181.0004
 -12917161.68548 -10036796.98246  22104273.473    22104273.7244   22104280.9734
       186.0004        187.0004
  -9850924.77148  -7328785.69446  22515621.697    22515622.8644   22515628.8794
       182.0004        182.0004
 -19222184.45848 -14968161.19847  20993670.247    20993670.8694   20993679.1314
       194.0004        195.0004
  -8335583.15548  -6432713.49747  23115190.824    23115190.2984   23115199.7874
       190.0004        190.0004
 -12059139.50548  -9372764.23547  22124226.837    22124227.1754   22124234.1664
       191.0004        191.0004
  -1952258.88547  -1505813.86945  23976375.173    23976375.9654   23976381.4964
       148.0004        150.0004
 21  2  6  0 50  0.0000000  0 10G07G14G28G21G30G17G01G08G09G04
 -20768535.47949 -16163847.85947  20508500.797    20508501.3644   20508505.7784
       208.0004        209.0004
  -2619841.09648  -2034256.10146  23146977.075    23146976.9474   23146980.9484
       167.0004        167.0004
   -763398.13847   -471458.75145  23554366.704    23554366.2624   23554369.1774
       148.0004        151.0004
 -11347924.67348  -8830496.29946  22004664.171    22004664.3304   22004668.3174
       182.0004        182.0004
 -12999835.23948 -10101217.92446  22088542.037    22088541.9574   22088548.1114
       186.0004        187.0004
  -9913087.33748  -7377224.06046  22503793.402    22503793.5464   22503798.1064
       182.0004        183.0004
 -19259191.04449 -14996997.48647  20986629.021    20986629.0684   20986636.7464
       195.0004        196.0004
  -8241129.34548  -6359113.12547  23133164.244    23133164.5124   23133174.1334
       190.0004        190.0004
 -11986154.81448  -9315893.05647  22138115.548    22138115.4004   22138122.6104
       190.0004        190.0004
  -1854711.79747  -1429803.19645  23994939.023    23994938.5854   23994943.3454
       148.0004        150.0004
 21  2  6  0 50 30.0000000  0 10G07G14G28G21G30G17G01G08G09G04
 -20815053.06249 -16200095.34047  20499649.401    20499649.8734   20499654.0534
       209.0004        210.0004
  -2646778.94847  -2055246.60646  23141847.524    23141848.6904   23141853.4124
       164.0004        163.0004
   -779140.92747   -483725.84745  23551369.606    23551369.1214   23551374.7784
       148.0004        151.0004
 -11310849.15348  -8801606.27046  22011720.162    22011718.8994   22011724.3444
       182.0004        182.0004
 -13082345.12048 -10165511.32946  22072840.883    22072840.6974   22072847.3494
       187.0004        187.0004
  -9974850.69948  -7425351.32846  22492039.708    22492040.3004   22492045.0234
       181.0004        182.0004
 -19295700.21949 -15025446.19047  20979681.902    20979681.7954   20979689.7144
       196.0004        196.0004
  -8146648.27948  -6285491.53347  23151144.231    23151144.2324   23151152.8384
       191.0004        191.0004
 -11912965.50848  -9258862.43047  22152041.837    22152042.5284   22152049.6694
       190.0004        190.0004
  -1757230.45747  -1353843.72345  24013487.292    24013488.6584   24013493.3994
       145.0004        147.0004
 21  2  6  0 51  0.0000000  0 10G07G14G28G21G30G17G01G08G09G04
 -20861175.60149 -16236034.97647  20490872.386    20490872.4284   20490876.9374
       209.0004        209.0004
  -2673758.78847  -2076269.88346  23136712.783    23136714.5314   23136719.6674
       162.0004        163.0004
   -794931.14647   -496029.90745  23548364.532    23548365.1384   23548369.3254
       147.0004        150.0004
 -11273285.10848  -8772335.57346  22018867.706    22018867.8374   22018871.9534
       182.0004        182.0004
 -13164687.65048 -10229674.32846  22057170.070    22057170.5034   22057177.9484
       187.0004        187.0004
 -10036213.00248  -7473166.09846  22480363.019    22480362.6674   22480367.4594
       180.0004        180.0004
 -19331708.51249 -15053504.57747  20972829.317    20972829.7384   20972837.2464
       197.0004        197.0004
  -8052141.39248  -6211849.80047  23169127.405    23169128.1574   23169137.0454
       191.0004        191.0004
 -11839573.55848  -9201673.89047  22166009.066    22166009.0964   22166016.3784
       190.0004        191.0004
  -1659816.33547  -1277936.63945  24032025.032    24032024.7714   24032030.8574
       143.0004        147.0004
 21  2  6  0 51 30.0000000  0 11G07G14G28G21G30G17G19G01G08G09G04
 -20906900.58449 -16271664.84947  20482170.717    20482171.6154   20482175.6104
       209.0004        209.0004
  -2700781.53947  -2097326.57646  23131571.427    23131572.8984   23131578.3624
       163.0004        166.0004
   -810770.21547   -508372.00745  23545350.679    23545349.9004   23545355.6564
       147.0004        150.0004
 -11235233.20248  -8742684.74146  22026108.915    22026108.8154   22026113.3554
       182.0004        182.0004
 -13246860.30548 -10293704.96746  22041534.135    22041534.6074   22041539.9274
       186.0004        187.0004
 -10097173.92748  -7520668.10246  22468761.992    22468762.7094   22468768.3024
       180.0004        182.0004
   -314798.84857   -217683.81245  24793944.342    24793943.5585   24793951.3124
       137.0004        149.0004
 -19367213.62449 -15081170.90447  20966072.185    20966073.0464   20966080.5094
       196.0004        196.0004
  -7957611.11948  -6138189.84647  23187115.784    23187116.5634   23187125.6534
       190.0004        189.0004
 -11765982.09548  -9144329.91047  22180013.269    22180013.1174   22180020.5764
       191.0004        191.0004
  -1562472.02447  -1202083.97545  24050550.834    24050549.1514   24050556.4314
       143.0004        147.0004
 21  2  6  0 52  0.0000000  0 11G07G14G28G21G30G17G19G01G08G09G04
 -20952227.28749 -16306984.37647  20473545.518    20473546.1144   20473550.4174
       209.0004        209.0004
  -2727849.96647  -2118418.84046  23126420.608    23126420.6234   23126426.6954
       163.0004        163.0004
   -826661.45447   -520754.77445  23542327.918    23542327.1074   23542331.6724
       148.0004        151.0004
 -11196696.03448  -8712655.75946  22033441.738    22033441.0124   22033446.4874
       181.0004        181.0004
 -13328862.42248 -10357602.71746  22025930.844    22025929.5474   22025936.1094
       187.0004        187.0004
 -10157734.47748  -7567858.12046  22457238.234    22457238.8694   22457243.1174
       181.0004        181.0004
   -405957.73047   -288716.64445  24776599.387    24776598.8354   24776603.2244
       143.0004        148.0004
 -19402215.19449 -15108444.83447  20959411.674    20959412.3204   20959419.9284
       196.0004        196.0004
  -7863062.04448  -6064515.25147  23205106.935    23205108.2054   23205118.3384
       189.0004        189.0004
 -11692196.07948  -9086834.30647  22194052.750    22194053.3114   22194060.6794
       189.0004        188.0004
  -1465202.00147  -1126289.16445  24069059.531    24069060.4294   24069065.4204
       142.0004        145.0004
 21  2  6  0 52 30.0000000  0 11G07G14G28G21G30G17G19G01G08G09G04
 -20997153.56849 -16341991.87547  20464996.138    20464997.0094   20465001.1504
       209.0004        209.0004
  -2754965.43047  -2139547.77345  23121260.685    23121260.7854   23121267.4774
       161.0004        162.0004
   -842606.53647   -533179.48445  23539291.911    23539291.6594   23539296.1894
       148.0004        152.0004
 -11157674.75348  -8682249.56846  22040867.620    22040867.3894   22040871.9084
       182.0004        182.0004
 -13410691.91848 -10421365.95846  22010358.039    22010357.9524   22010364.9934
       187.0004        187.0004
 -10217893.98648  -7614735.64646  22445789.342    22445790.2084   22445795.2784
       181.0004        181.0004
   -496909.42247   -359588.04345  24759291.256    24759290.6494   24759294.5974
       142.0004        145.0004
 -19436711.36149 -15135324.95147  20952847.043    20952847.8504   20952855.7744
       196.0004        197.0004
  -7768496.72148  -5990828.01047  23223105.700    23223104.7844   23223112.9224
       189.0004        189.0004
 -11618219.08048  -9029189.90847  22208130.299    22208131.0214   22208137.9804
       188.0004        189.0004
  -1368009.26147  -1050554.59845  24087555.102    24087555.2884   24087561.1974
       142.0004        146.0004
 21  2  6  0 53  0.0000000  0 11G07G14G28G21G30G17G19G01G08G09G04
 -21041675.91349 -16376684.61947  20456524.491    20456524.5514   20456528.9334
       209.0004        209.0004
  -2782127.45047  -2160712.99245  23116093.082    23116092.3494   23116097.6424
       160.0004        162.0004
   -858605.40647   -545646.13045  23536248.232    23536248.2334   23536252.8044
       150.0004        154.0004
 -11118169.03148  -8651465.86446  22048385.474    22048384.6414   22048389.6214
       181.0004        181.0004
 -13492344.99248 -10484991.72247  21994818.969    21994819.5274   21994827.7954
       188.0004        188.0004
 -10277651.17348  -7661299.67646  22434419.155    22434419.3144   22434423.4194
       181.0004        181.0004
   -587650.82847   -430295.54145  24742023.838    24742022.6784   24742029.3864
       140.0004        144.0004
 -19470698.61249 -15161808.51347  20946379.894    20946380.3894   20946388.3524
       197.0004        198.0004
  -7673916.39248  -5917129.08047  23241103.631    23241103.2364   23241110.2564
       187.0004        188.0004
 -11544052.94848  -8971398.10447  22222244.548    22222244.7104   22222250.9824
       188.0004        188.0004
  -1270895.14747   -974881.27745  24106034.349    24106035.3344   24106041.4094
       144.0004        149.0004
 21  2  6  0 53 30.0000000  0 11G07G14G28G21G30G17G19G01G08G09G04
 -21085791.47649 -16411060.36447  20448129.116    20448129.3824   20448133.8624
       209.0004        209.0004
  -2809336.54847  -2181914.86246  23110914.073    23110914.5004   23110920.3484
       161.0004        163.0004
   -874659.51547   -558155.82345  23533194.228    23533193.0414   23533197.5924
       150.0004        152.0004
 -11078179.41248  -8620305.12746  22055995.247    22055994.6964   22055998.8404
       181.0004        181.0004
 -13573818.74348 -10548477.75747  21979316.998    21979316.4494   21979323.0764
       188.0004        189.0004
 -10337004.81848  -7707549.24946  22423123.294    22423123.7914   22423129.1404
       180.0004        181.0004
   -678180.18347   -500837.86545  24724797.223    24724796.4464   24724801.3494
       140.0004        145.0004
 -19504174.39749 -15187893.54447  20940009.721    20940010.1734   20940018.4164
       198.0004        198.0004
  -7579323.61448  -5843420.44547  23259103.953    23259103.7634   23259111.0544
       188.0004        188.0004
 -11469700.38448  -8913461.06247  22236393.420    22236393.7764   22236401.0234
       188.0004        190.0004
  -1173861.86647   -899270.94645  24124499.487    24124500.3174   24124507.2244
       146.0004        149.0004
 21  2  6  0 54  0.0000000  0 11G07G14G28G21G30G17G19G01G08G09G04
 -21129496.15549 -16445115.96847  20439812.737    20439813.0164   20439817.1994
       209.0004        210.0004
  -2836592.25147  -2203153.08046  23105728.670    23105728.5714   23105733.4114
       163.0004        165.0004
   -890768.57747   -570708.31345  23530127.794    23530127.1634   23530131.3304
       148.0004        151.0004
 -11037705.29748  -8588766.84146  22063697.297    22063697.1514   22063701.2054
       180.0004        180.0004
 -13655109.24148 -10611821.00247  21963847.227    21963847.2724   21963853.8804
       189.0004        190.0004
 -10395952.87448  -7753482.79546  22411905.965    22411906.6864   22411912.0124
       181.0004        181.0004
   -768495.08647   -571213.05545  24707610.185    24707610.1264   24707613.6104
       142.0004        147.0004
 -19537135.17449 -15213577.25647  20933737.541    20933738.3454   20933746.1744
       198.0004        198.0004
  -7484718.85648  -5769702.45746  23277104.677    23277105.0334   23277114.1274
       187.0004        187.0004
 -11395163.21748  -8855380.15447  22250577.364    22250577.8414   22250585.0564
       189.0004        190.0004
  -1076910.61547   -823724.55745  24142949.766    24142949.3014   24142954.4764
       145.0004        148.0004
 21  2  6  0 54 30.0000000  0 11G07G14G28G21G30G17G19G01G08G09G04
 -21172787.06349 -16478849.14647  20431574.326    20431575.0474   20431579.0544
       209.0004        209.0004
  -2863894.69848  -2224427.71246  23100533.761    23100533.6824   23100538.8414
       166.0004        168.0004
   -906933.16647   -583304.08645  23527051.756    23527051.0044   23527055.3664
       147.0004        149.0004
 -10996747.14848  -8556851.38646  22071492.200    22071490.6544   22071495.9984
       180.0004        181.0004
 -13736213.25448 -10675018.92447  21948413.332    21948413.4274   21948420.0784
       189.0004        190.0004
 -10454494.28548  -7799099.46546  22400766.763    22400766.8864   22400772.4434
       182.0004        183.0004
   -858592.62847   -641418.89245  24690466.048    24690466.2384   24690468.7094
       141.0004        145.0004
 -19569578.06549 -15238857.41247  20927563.986    20927564.3774   20927572.3364
       198.0004        198.0004
  -7390103.71048  -5695976.36046  23295108.930    23295109.0714   23295118.0354
       186.0004        185.0004
 -11320443.80148  -8797157.23147  22264795.794    22264796.1674   22264802.8504
       189.0004        188.0004
   -980043.17147   -748243.42845  24161382.501    24161382.0904   24161389.6054
       145.0004        148.0004
 21  2  6  0 55  0.0000000  0 11G07G14G28G21G30G17G19G01G08G09G04
 -21215662.98449 -16512258.96347  20423415.540    20423416.2964   20423420.1534
       209.0004        210.0004
  -2891245.69648  -2245740.16846  23095327.581    23095328.5254   23095333.3394
       165.0004        165.0004
   -923155.51747   -595944.85545  23523965.213    23523965.3814   23523967.2964
       148.0004        151.0004
 -10955306.53048  -8524559.99546  22079377.468    22079377.1934   22079381.0484
       180.0004        181.0004
 -13817129.20748 -10738070.31147  21933015.120    21933016.0584   21933022.5414
       189.0004        191.0004
 -10512629.37848  -7844399.52546  22389704.738    22389704.4964   22389709.1084
       184.0004        185.0004
   -948472.59247   -711455.18945  24673363.105    24673361.9864   24673364.1294
       142.0004        146.0004
 -19601501.87649 -15263733.11147  20921488.328    20921489.3114   20921497.6144
       198.0004        199.0004
  -7295481.86648  -5622245.05346  23313113.154    23313114.8934   23313124.8314
       186.0004        186.0004
 -11245546.29248  -8738795.55846  22279048.921    22279048.8304   22279056.0034
       187.0004        187.0004
   -883263.09247   -672830.41845  24179799.481    24179799.0254   24179804.9104
       144.0004        147.0004
 21  2  6  0 55 30.0000000  0 11G07G14G28G21G30G17G19G01G08G09G04
 -21258119.98049 -16545342.33247  20415336.517    20415336.5954   20415340.7204
       209.0004        210.0004
  -2918644.99947  -2267090.23646  23090115.014    23090114.6424   23090118.7434
       163.0004        164.0004
   -939435.85747   -608630.81545  23520865.880    23520865.2614   23520872.4544
       148.0004        151.0004
 -10913383.18948  -8491892.44046  22087355.147    22087354.9124   22087358.6884
       180.0004        181.0004
 -13897853.38248 -10800972.26447  21917654.917    21917654.7854   21917661.0264
       190.0004        191.0004
 -10570356.21148  -7889381.45246  22378718.457    22378719.2824   22378724.5254
       184.0004        185.0004
  -1038132.60747   -781320.09845  24656301.052    24656300.4844   24656302.5394
       139.0004        144.0004
 -19632903.38549 -15288201.80547  20915513.630    20915514.4064   20915521.5564
       199.0004        199.0004
  -7200854.43248  -5548509.39346  23331119.195    23331121.8834   23331131.0894
       185.0004        184.0004
 -11170472.62948  -8680296.60146  22293334.637    22293334.7154   22293341.8244
       186.0004        186.0004
   -786571.81447   -597486.59345  24198197.078    24198197.9394   24198204.0714
       144.0004        148.0004
 21  2  6  0 56  0.0000000  0 11G07G14G28G21G30G17G19G01G08G09G04
 -21300156.31249 -16578097.94847  20407337.269    20407337.7134   20407341.6524
       209.0004        210.0004
  -2946093.96248  -2288479.03846  23084891.573    23084891.9984   23084896.5734
       165.0004        168.0004
   -955776.35447   -621363.64345  23517757.495    23517757.7074   23517760.9514
       147.0004        151.0004
 -10870979.49848  -8458850.59746  22095423.412    22095423.8124   22095428.1384
       180.0004        180.0004
 -13978383.90148 -10863723.31347  21902329.891    21902330.1104   21902336.6544
       191.0004        192.0004
 -10627675.31848  -7934045.68946  22367811.982    22367811.6544   22367816.5644
       184.0004        184.0004
  -1127571.60247   -851012.76545  24639281.374    24639280.6454   24639283.2614
       139.0004        143.0004
 -19663781.16349 -15312262.40447  20909637.575    20909638.2464   20909645.7694
       198.0004        198.0004
  -7106224.80948  -5474772.04046  23349131.542    23349130.7134   23349139.0434
       184.0004        184.0004
 -11095226.56648  -8621663.31246  22307652.215    22307653.0744   22307660.8484
       185.0004        185.0004
   -689972.50647   -522214.43745  24216580.334    24216580.7414   24216587.1574
       146.0004        150.0004
 21  2  6  0 56 30.0000000  0 11G07G14G28G21G30G17G19G01G08G09G04
 -21341770.49949 -16610524.59247  20399417.548    20399418.5644   20399422.7484
       209.0004        210.0004
  -2973594.20348  -2309907.81246  23079657.912    23079657.9184   23079663.2604
       166.0004        167.0004
   -972178.79347   -634144.74645  23514636.233    23514636.3904   23514640.3104
       147.0004        149.0004
 -10828096.43148  -8425435.21946  22103584.615    22103583.9724   22103588.2474
       180.0004        180.0004
 -14058718.96548 -10926322.04947  21887042.907    21887042.9634   21887049.3354
       191.0004        192.0004
 -10684586.72848  -7978392.22946  22356981.551    22356981.7544   22356985.2624
       181.0004        180.0004
  -1216788.99547   -920532.74945  24622301.983    24622302.4194   24622306.6324
       138.0004        143.0004
 -19694133.77949 -15335913.79247  20903862.076    20903862.3784   20903869.7474
       199.0004        199.0004
  -7011595.46948  -5401034.89746  23367139.948    23367139.1634   23367146.4814
       185.0004        186.0004
 -11019811.93548  -8562898.66346  22322004.658    22322004.6674   22322011.5084
       186.0004        186.0004
   -593468.41147   -447016.46445  24234944.669    24234945.2264   24234951.1094
       147.0004        151.0004
 21  2  6  0 57  0.0000000  0 11G07G14G28G21G30G17G19G01G08G09G04
 -21382961.03249 -16642621.12447  20391580.848    20391580.6314   20391584.2214
       210.0004        210.0004
  -3001147.45448  -2331377.84646  23074414.322    23074414.5334   23074419.6844
       165.0004        165.0004
   -988645.23747   -646975.72045  23511502.925    23511502.8624   23511507.4924
       149.0004        153.0004
 -10784735.96748  -8391647.83746  22111836.420    22111835.2454   22111839.9394
       180.0004        180.0004
 -14138856.81248 -10988767.12447  21871793.172    21871793.5194   21871799.3344
       193.0004        193.0004
 -10741090.86748  -8022421.41646  22346229.009    22346229.0234   22346233.4274
       179.0004        179.0004
  -1305783.94647   -989879.47645  24605367.978    24605367.6264   24605371.8344
       139.0004        143.0004
 -19723960.08649 -15359155.07047  20898186.153    20898186.7014   20898194.0384
       199.0004        198.0004
  -6916969.84648  -5327300.67346  23385147.931    23385146.4704   23385152.8014
       186.0004        186.0004
 -10944232.77348  -8504005.82146  22336385.926    22336386.5474   22336393.4884
       185.0004        185.0004
   -497062.82747   -371895.24045  24253289.325    24253289.9284   24253297.2074
       147.0004        150.0004
 21  2  6  0 57 30.0000000  0 11G07G14G28G21G30G17G19G01G08G09G04
 -21423724.01549 -16674384.49347  20383823.024    20383823.4834   20383827.3564
       210.0004        211.0004
  -3028753.20848  -2352888.80746  23069161.118    23069161.3364   23069167.0674
       165.0004        166.0004
  -1005175.92347   -659856.77945  23508354.799    23508355.3544   23508360.1224
       147.0004        149.0004
 -10740898.06348  -8357488.43246  22120178.261    22120177.6594   22120181.9304
       180.0004        181.0004
 -14218793.59848 -11051055.52547  21856580.741    21856581.3194   21856588.0894
       192.0004        192.0004
 -10797186.10348  -8066131.98346  22335553.914    22335554.7424   22335558.7414
       179.0004        180.0004
  -1394553.62847  -1059050.60245  24588474.555    24588474.0404   24588478.0394
       138.0004        143.0004
 -19753256.80349 -15381983.67447  20892610.885    20892611.7664   20892619.0514
       199.0004        199.0004
  -6822349.31248  -5253570.41046  23403152.459    23403152.2214   23403157.8874
       186.0004        186.0004
 -10868490.83748  -8444986.14146  22350799.926    22350799.8894   22350806.8584
       184.0004        185.0004
   -400757.00247   -296851.75445  24271615.547    24271615.6984   24271623.1474
       146.0004        149.0004
 21  2  6  0 58  0.0000000  0 11G07G14G28G21G30G17G19G01G08G09G04
 -21464056.19849 -16705812.15047  20376148.170    20376148.4894   20376152.7114
       210.0004        211.0004
  -3056411.31848  -2374440.55346  23063898.298    23063898.5264   23063903.2634
       165.0004        165.0004
  -1021771.08147   -672788.05945  23505197.984    23505197.7314   23505203.6854
       146.0004        149.0004
 -10696582.46548  -8322956.77546  22128611.207    22128610.9174   22128614.4834
       180.0004        179.0004
 -14298525.82848 -11113184.52547  21841408.817    21841408.9594   21841415.5804
       192.0004        192.0004
 -10852870.84448  -8109522.67046  22324958.877    22324959.0384   22324962.5864
       180.0004        181.0004
  -1483095.82847  -1128044.46145  24571625.149    24571624.4394   24571629.6464
       139.0004        144.0004
 -19782020.93349 -15404397.27247  20887137.201    20887138.0044   20887145.8334
       199.0004        199.0004
  -6727734.88448  -5179844.87946  23421154.595    23421154.8044   23421162.8544
       185.0004        185.0004
 -10792588.37548  -8385841.37046  22365243.272    22365244.0154   22365249.7204
       184.0004        184.0004
   -304552.46047   -221887.21145  24289921.849    24289922.6924   24289930.5584
       146.0004        149.0004
 21  2  6  0 58 30.0000000  0 11G07G14G28G21G30G17G19G01G08G09G04
 -21503955.48049 -16736902.48947  20368555.290    20368555.6254   20368559.9174
       210.0004        211.0004
  -3084122.63048  -2396033.77546  23058624.807    23058625.4134   23058630.8004
       165.0004        167.0004
  -1038432.16847   -685770.70245  23502028.833    23502028.5144   23502033.6374
       147.0004        151.0004
 -10651790.58148  -8288053.99546  22137133.683    22137133.7314   22137138.0954
       179.0004        178.0004
 -14378051.05148 -11175152.22147  21826276.184    21826275.4834   21826282.9924
       193.0004        194.0004
 -10908145.05448  -8152593.46046  22314440.213    22314440.0124   22314444.1664
       180.0004        181.0004
  -1571409.35947  -1196860.12645  24554821.835    24554821.5974   24554823.5354
       140.0004        145.0004
 -19810250.64549 -15426394.42547  20881765.218    20881765.3614   20881773.4324
       199.0004        198.0004
  -6633129.11248  -5106126.11746  23439158.836    23439158.5964   23439166.0064
       184.0004        183.0004
 -10716528.54448  -8326573.95746  22379716.813    22379717.5664   22379724.1544
       183.0004        184.0004
   -208451.89147   -147003.69445  24308208.698    24308209.8124   24308217.7974
       144.0004        147.0004
 21  2  6  0 59  0.0000000  0 11G07G14G28G21G30G17G19G01G08G09G04
 -21543419.53949 -16767653.70547  20361045.662    20361045.8704   20361050.0614
       210.0004        211.0004
  -3111887.97648  -2417669.09146  23053340.926    23053341.3034   23053346.6544
       166.0004        167.0004
  -1055160.47847   -698805.73345  23498845.021    23498844.0704   23498850.0474
       149.0004        152.0004
 -10606523.71948  -8252781.10346  22145748.031    22145747.5724   22145752.4334
       179.0004        179.0004
 -14457366.69148 -11236956.59947  21811181.681    21811182.0384   21811189.2394
       193.0004        193.0004
 -10963008.27248  -8195344.01546  22303998.789    22303998.8494   22304004.8984
       181.0004        182.0004
  -1659492.73847  -1265496.49245  24538058.617    24538059.0294   24538063.3604
       142.0004        147.0004
 -19837943.92149 -15447973.59447  20876495.559    20876495.9144   20876503.6784
       198.0004        198.0004
  -6538534.32748  -5032415.88746  23457158.407    23457159.0214   23457167.1634
       182.0004        182.0004
 -10640314.47648  -8267186.37646  22394219.150    22394219.9764   22394228.0724
       183.0004        183.0004
   -112457.56547    -72202.94545  24326476.969    24326478.0694   24326484.1234
       143.0004        147.0004
 21  2  6  0 59 30.0000000  0 11G07G14G28G21G30G17G19G01G08G09G04
 -21582446.42649 -16798064.27347  20353618.682    20353619.3804   20353623.4434
       210.0004        211.0004
  -3139708.49348  -2439347.41346  23048046.412    23048047.6444   23048052.8014
       166.0004        167.0004
  -1071957.69547   -711894.44645  23495647.390    23495647.5174   23495652.6614
       148.0004        151.0004
 -10560783.38948  -8217139.28046  22154451.477    22154451.1184   22154456.7674
       179.0004        179.0004
 -14536470.55948 -11298595.98547  21796128.954    21796129.1164   21796135.9974
       193.0004        193.0004
 -11017460.41848  -8237774.25346  22293638.268    22293638.1584   22293642.3684
       182.0004        183.0004
  -1747344.92547  -1333952.70545  24521342.991    24521341.0024   24521345.9444
       147.0004        152.0004
 -19865099.24449 -15469133.58347  20871327.736    20871328.1814   20871336.1284
       198.0004        198.0004
  -6443953.00848  -4958716.17146  23475155.312    23475156.0644   23475165.0344
       182.0004        181.0004
 -10563949.73248  -8207681.40146  22408751.395    22408752.0194   22408759.5664
       183.0004        184.0004
    -16572.51547      2512.66345  24344723.119    24344724.3584   24344730.8054
       144.0004        148.0004
 21  2  6  1  0  0.0000000  0 11G07G14G28G21G30G17G19G01G08G09G04
 -21621033.57749 -16828132.18247  20346276.250    20346276.5614   20346280.8624
       210.0004        211.0004
  -3167584.29548  -2461068.80746  23042742.618    23042743.0154   23042747.9354
       165.0004        166.0004
  -1088824.30647   -725037.26545  23492437.917    23492437.5624   23492443.1224
       150.0004        154.0004
 -10514569.74148  -8181128.63446  22163246.872    22163246.2374   22163250.4894
       179.0004        178.0004
 -14615359.43048 -11360067.83447  21781117.900    21781117.2344   21781124.0474
       193.0004        193.0004
 -11071500.41148  -8279883.33146  22283354.324    22283354.4914   22283359.4884
       182.0004        182.0004
  -1834964.03647  -1402227.28145  24504668.693    24504668.3934   24504672.8084
       151.0004        155.0004
 -19891714.10949 -15489872.43347  20866263.182    20866263.9354   20866271.3644
       198.0004        198.0004
  -6349387.11048  -4885028.47246  23493151.113    23493151.6414   23493159.5084
       181.0004        183.0004
 -10487436.69648  -8148060.85546  22423312.573    22423313.0014   22423319.5394
       184.0004        184.0004
     79201.49647     77141.73645  24362949.110    24362950.7144   24362956.0504
       144.0004        147.0004
 21  2  6  1  0 30.0000000  0 11G07G14G28G21G30G17G19G01G08G09G04
 -21659178.89749 -16857855.80547  20339017.407    20339017.7984   20339021.9304
       210.0004        211.0004
  -3195516.87048  -2482834.43846  23037426.891    23037427.8254   23037433.0524
       167.0004        167.0004
  -1105762.27447   -738235.68645  23489216.588    23489216.2944   23489220.4004
       154.0004        158.0004
 -10467884.61848  -8144750.62246  22172129.629    22172129.3514   22172134.3344
       178.0004        178.0004
 -14694031.42948 -11421370.70147  21766147.201    21766146.9584   21766153.4254
       194.0004        195.0004
 -11125128.79248  -8321671.67446  22273148.516    22273149.2054   22273153.7014
       182.0004        182.0004
  -1922348.95847  -1470319.39245  24488039.085    24488039.1444   24488042.5724
       151.0004        153.0004
 -19917787.27349 -15510189.18347  20861301.673    20861301.8804   20861309.8404
       198.0004        197.0004
  -6254839.39548  -4811354.92046  23511142.666    23511143.5814   23511152.0554
       182.0004        183.0004
 -10410779.23948  -8088327.79046  22437898.799    22437899.7294   22437907.0434
       183.0004        184.0004
    174861.29247    151681.80445  24381152.768    24381153.0684   24381159.2024
       143.0004        146.0004
 21  2  6  1  1  0.0000000  0 11G07G14G28G21G30G17G19G01G08G09G04
 -21696879.97849 -16887233.26747  20331842.113    20331843.1534   20331847.6754
       210.0004        211.0004
  -3223506.91348  -2504644.83946  23032100.451    23032101.4584   23032106.3154
       167.0004        168.0004
  -1122772.91647   -751490.71045  23485979.887    23485979.3374   23485983.1764
       155.0004        158.0004
 -10420729.16548  -8108006.09646  22181104.058    22181103.6934   22181107.5344
       178.0004        178.0004
 -14772483.88248 -11482502.48247  21751217.759    21751217.9334   21751224.6544
       194.0004        194.0004
 -11178345.18748  -8363138.99646  22263021.865    22263022.5114   22263026.8174
       182.0004        184.0004
  -2009498.56047  -1538228.13145  24471454.749    24471454.4024   24471459.3834
       151.0004        154.0004
 -19943316.82249 -15530082.32647  20856443.338    20856443.7854   20856451.6124
       197.0004        198.0004
  -6160312.38548  -4737697.53246  23529132.313    23529132.1074   23529140.9144
       184.0004        186.0004
 -10333980.31348  -8028484.47846  22452513.442    22452513.8454   22452521.2034
       183.0004        184.0004
    270404.59747    226131.11745  24399333.391    24399334.9824   24399341.4634
       140.0004        144.0004
 21  2  6  1  1 30.0000000  0 11G07G14G28G21G30G17G19G01G08G09G04
 -21734134.26049 -16916262.59847  20324753.610    20324753.8384   20324758.4454
       210.0004        211.0004
  -3251554.64448  -2526500.21346  23026764.364    23026764.8124   23026768.6934
       167.0004        168.0004
  -1139857.04447   -764802.99745  23482727.869    23482727.5424   23482731.7144
       154.0004        157.0004
 -10373104.34848  -8070895.83046  22190166.933    22190166.1814   22190170.9144
       178.0004        179.0004
 -14850713.79348 -11543460.84947  21736330.984    21736331.4884   21736337.6784
       194.0004        195.0004
 -11231148.83848  -8404284.66546  22252973.879    22252974.1354   22252978.6254
       183.0004        183.0004
  -2096411.22547  -1605952.22445  24454916.183    24454916.1394   24454920.5144
       150.0004        152.0004
 -19968300.53749 -15549550.14447  20851689.145    20851689.5894   20851697.9424
       197.0004        198.0004
  -6065807.46548  -4664057.33146  23547114.449    23547115.2444   23547123.5294
       184.0004        183.0004
 -10257042.69848  -7968533.09046  22467155.083    22467154.6314   22467161.2264
       182.0004        182.0004
    365829.29247    300487.96945  24417492.212    24417493.0364   24417499.5034
       137.0004        141.0004
 21  2  6  1  2  0.0000000  0 11G07G14G28G21G30G17G19G01G08G09G04
 -21770939.78249 -16944942.23547  20317749.625    20317750.2644   20317754.2744
       210.0004        211.0004
  -3279660.91348  -2548401.18146  23021414.855    23021415.2004   23021421.0444
       169.0004        170.0004
  -1157015.50547   -778173.21045  23479463.938    23479463.6374   23479467.6444
       156.0004        159.0004
 -10325011.56848  -8033420.93246  22199317.869    22199317.7984   22199322.0564
       178.0004        179.0004
 -14928718.62449 -11604243.82647  21721487.801    21721487.6134   21721494.2304
       195.0004        195.0004
 -11283539.20348  -8445108.31746  22243004.369    22243004.8464   22243009.6634
       183.0004        183.0004
  -2183085.48647  -1673490.60445  24438423.167    24438421.4454   24438425.0794
       148.0004        150.0004
 -19992736.56049 -15568591.19147  20847039.328    20847039.8324   20847048.1614
       198.0004        198.0004
  -5971327.28848  -4590436.41446  23565095.011    23565095.2684   23565102.6124
       184.0004        184.0004
 -10179969.45848  -7908476.02346  22481820.275    22481820.6454   22481828.3094
       182.0004        182.0004
    461133.05346    374750.59345  24435626.932    24435626.5884   24435636.9254
       134.0004        139.0004
 21  2  6  1  2 30.0000000  0 11G07G14G28G21G30G17G19G01G08G09G04
 -21807293.49949 -16973269.81647  20310831.926    20310832.1754   20310836.3564
       210.0004        211.0004
  -3307825.80648  -2570347.81246  23016055.492    23016055.5994   23016060.1694
       168.0004        168.0004
  -1174249.14747   -791601.98145  23476184.843    23476184.5374   23476187.9804
       156.0004        156.0004
 -10276451.40648  -7995581.83546  22208559.812    22208559.0794   22208563.0844
       178.0004        179.0004
 -15006495.13449 -11664848.89447  21706686.873    21706687.2354   21706694.1554
       195.0004        197.0004
 -11335515.98348  -8485609.69746  22233113.635    22233113.7554   22233118.8494
       184.0004        185.0004
  -2269519.43347  -1740841.68345  24421973.907    24421972.7894   24421978.2444
       148.0004        150.0004
 -20016622.53249 -15587203.62647  20842493.705    20842494.3174   20842502.4664
       198.0004        198.0004
  -5876873.10948  -4516835.78046  23583071.803    23583070.4854   23583076.6754
       184.0004        185.0004
 -10102763.06048  -7848315.20046  22496511.563    22496511.7844   22496519.9974
       180.0004        179.0004
    556313.99247    448917.52645  24453739.644    24453740.5584   24453749.4184
       135.0004        140.0004
 21  2  6  1  3  0.0000000  0 11G07G14G28G21G30G17G19G01G08G09G04
 -21843194.41049 -17001244.54847  20304000.361    20304000.7414   20304004.5074
       210.0004        211.0004
  -3336051.05348  -2592341.51846  23010684.217    23010684.1834   23010689.2334
       166.0004        166.0004
  -1191560.39847   -805091.25045  23472889.255    23472889.0144   23472893.3554
       152.0004        153.0004
 -10227425.70048  -7957379.99246  22217888.582    22217888.3414   22217892.5974
       178.0004        178.0004
 -15084041.74549 -11725274.83247  21691930.446    21691930.4364   21691937.3604
       196.0004        196.0004
 -11387079.45648  -8525789.00746  22223301.070    22223301.9174   22223306.6034
       185.0004        187.0004
  -2355712.50647  -1808005.05145  24405573.235    24405572.4794   24405576.4914
       148.0004        151.0004
 -20039957.70849 -15605386.87247  20838052.909    20838053.8014   20838061.8654
       197.0004        197.0004
  -5782448.51448  -4443258.19346  23601038.127    23601037.9124   23601044.6994
       183.0004        182.0004
 -10025427.64948  -7788053.84646  22511228.687    22511228.7804   22511236.3704
       179.0004        180.0004
    651368.81947    522986.19645  24471828.143    24471829.2454   24471837.6204
       136.0004        142.0004
 21  2  6  1  3 30.0000000  0 11G07G14G28G21G30G17G19G01G08G09G04
 -21878637.84949 -17028862.82747  20297255.290    20297256.0604   20297260.1674
       210.0004        211.0004
  -3364335.49148  -2614381.33646  23005301.400    23005302.3294   23005306.0634
       165.0004        165.0004
  -1208948.47247   -818640.41745  23469575.964    23469576.9504   23469586.2584
       147.0004        148.0004
 -10177934.22548  -7918815.19546  22227306.902    22227306.0814   22227309.9384
       178.0004        179.0004
 -15161354.03949 -11785518.17947  21677217.723    21677217.9314   21677225.7804
       196.0004        196.0004
 -11438227.89648  -8565644.94746  22213567.493    22213568.3304   22213572.9004
       184.0004        184.0004
  -2441661.46047  -1874978.27345  24389217.632    24389217.0344   24389219.2294
       149.0004        153.0004
 -20062738.46349 -15623138.09847  20833718.174    20833718.5304   20833726.2844
       197.0004        197.0004
  -5688053.43048  -4369703.60746  23618999.644    23618999.6644   23619006.2864
       180.0004        179.0004
  -9947964.42648  -7727692.89846  22525970.816    22525970.5684   22525977.6084
       181.0004        182.0004
    746296.84147    596956.02345  24489893.429    24489894.4604   24489900.4584
       137.0004        142.0004
 21  2  6  1  4  0.0000000  0 11G07G14G28G21G30G17G19G01G08G09G04
 -21913621.75849 -17056123.03047  20290598.605    20290598.8654   20290602.9874
       211.0004        212.0004
  -3392679.61148  -2636467.63046  22999907.882    22999908.8644   22999914.1084
       165.0004        168.0004
  -1226414.22047   -832250.11445  23466254.759    23466255.9454   23466260.6144
       147.0004        151.0004
 -10127977.74548  -7879888.07746  22236813.042    22236812.3484   22236816.8214
       178.0004        178.0004
 -15238429.17149 -11845576.71847  21662550.787    21662551.1764   21662557.7464
       195.0004        194.0004
 -11488960.65748  -8605176.95346  22203912.799    22203913.2264   22203918.7114
       184.0004        184.0004
  -2527365.21647  -1941760.38845  24372909.302    24372907.7564   24372911.6424
       149.0004        152.0004
 -20084962.91149 -15640455.84547  20829489.023    20829489.7014   20829497.6404
       197.0004        197.0004
  -5593690.26448  -4296173.87646  23636954.281    23636955.5914   23636965.1814
       180.0004        181.0004
  -9870376.32448  -7667234.65646  22540735.185    22540735.3054   22540741.7784
       181.0004        183.0004
    841095.97247    670825.44145  24507933.633    24507934.8424   24507939.7534
       139.0004        143.0004
 21  2  6  1  4 30.0000000  0 11G07G14G28G21G30G17G19G01G08G09G04
 -21948145.20649 -17083024.42947  20284028.862    20284029.2854   20284033.0984
       211.0004        211.0004
  -3421084.95748  -2658601.64246  22994502.588    22994503.5224   22994508.8084
       166.0004        168.0004
  -1243959.68447   -845921.87845  23462920.154    23462918.9374   23462921.8284
       151.0004        154.0004
 -10077558.90048  -7840600.64446  22246406.849    22246406.3144   22246411.0534
       177.0004        177.0004
 -15315265.44949 -11905449.14047  21647929.701    21647930.0054   21647937.2284
       195.0004        195.0004
 -11539278.43748  -8644385.58846  22194339.308    22194339.4684   22194344.2424
       185.0004        187.0004
  -2612822.84847  -2008350.73245  24356646.366    24356646.2274   24356648.5864
       150.0004        154.0004
 -20106630.21449 -15657339.44247  20825365.966    20825366.1724   20825374.3494
       198.0004        197.0004
  -5499361.95748  -4222671.28746  23654905.479    23654905.9544   23654914.4754
       179.0004        179.0004
  -9792667.30148  -7606682.18446  22555521.964    22555522.1524   22555529.0564
       181.0004        181.0004
    935763.01447    744591.86945  24525945.723    24525947.6844   24525955.2274
       138.0004        141.0004
 21  2  6  1  5  0.0000000  0 11G07G14G28G21G30G17G19G01G08G09G04
 -21982205.27249 -17109564.75047  20277547.328    20277548.0004   20277552.0034
       211.0004        212.0004
  -3449551.91848  -2680783.66546  22989086.189    22989085.5444   22989090.5184
       166.0004        166.0004
  -1261585.90547   -859656.58645  23459565.473    23459564.6924   23459567.2574
       153.0004        156.0004
 -10026678.57148  -7800953.63146  22256088.570    22256087.8534   22256093.6134
       177.0004        178.0004
 -15391859.98249 -11965133.17847  21633353.608    21633353.8454   21633361.4144
       195.0004        196.0004
 -11589180.76448  -8683270.50646  22184843.053    22184843.2914   22184847.8614
       187.0004        187.0004
  -2698033.05947  -2074748.27845  24340431.678    24340430.5634   24340434.9314
       150.0004        153.0004
 -20127738.41649 -15673787.38547  20821348.592    20821349.3394   20821357.7054
       197.0004        197.0004
  -5405070.23148  -4149197.25046  23672848.718    23672849.4124   23672857.8824
       178.0004        178.0004
  -9714840.14748  -7546037.65646  22570331.556    22570332.5504   22570340.0724
       181.0004        182.0004
   1030295.87847    818253.76045  24543936.497    24543937.0984   24543945.0164
       137.0004        142.0004
 21  2  6  1  5 30.0000000  0 11G07G14G28G21G30G17G19G01G08G09G04
 -22015800.20749 -17135742.62647  20271154.615    20271154.9024   20271159.1444
       211.0004        212.0004
  -3478081.56148  -2703014.54846  22983656.436    22983658.1964   22983661.8534
       166.0004        168.0004
  -1279294.43547   -873455.44245  23456192.721    23456192.5864   23456197.9834
       152.0004        153.0004
  -9975338.70048  -7760948.52246  22265858.771    22265857.7114   22265863.0194
       177.0004        178.0004
 -15468210.56349 -12024627.11947  21618824.664    21618825.2124   21618832.2634
       195.0004        195.0004
 -11638668.09348  -8721832.05846  22175425.370    22175426.0874   22175430.4684
       187.0004        186.0004
  -2782994.92847  -2140952.29845  24324262.903    24324262.1834   24324267.3344
       150.0004        153.0004
 -20148286.30649 -15689798.72047  20817439.053    20817439.6824   20817447.0604
       197.0004        198.0004
  -5310817.76248  -4075753.77446  23690786.363    23690785.9264   23690793.9184
       179.0004        179.0004
  -9636898.27348  -7485303.74146  22585163.848    22585164.6234   22585171.6414
       181.0004        181.0004
   1124691.81347    891808.97645  24561899.156    24561899.6644   24561906.9214
       137.0004        142.0004
 21  2  6  1  6  0.0000000  0 11G07G14G28G21G30G17G19G01G08G09G04
 -22048927.07449 -17161555.77447  20264850.869    20264851.3034   20264855.0324
       211.0004        212.0004
  -3506673.63148  -2725294.06946  22978216.198    22978216.2954   22978221.5534
       169.0004        171.0004
  -1297085.37247   -887318.49545  23452804.941    23452806.4414   23452811.7864
       150.0004        151.0004
  -9923539.35348  -7720585.38446  22275716.039    22275714.6294   22275720.6374
       177.0004        178.0004
 -15544313.63049 -12083928.21047  21604343.112    21604343.3334   21604350.0234
       196.0004        197.0004
 -11687739.31248  -8760069.35246  22166086.514    22166087.1114   22166092.3194
       185.0004        184.0004
  -2867706.19347  -2206961.01845  24308143.329    24308142.9754   24308147.3834
       151.0004        154.0004
 -20168271.35549 -15705371.46647  20813635.787    20813636.5394   20813644.1144
       197.0004        198.0004
  -5216605.92948  -4002341.98446  23708713.359    23708713.4164   23708721.1094
       177.0004        178.0004
  -9558843.92948  -7424482.18946  22600017.312    22600017.3594   22600024.5544
       180.0004        180.0004
   1218949.42447    965256.42445  24579835.631    24579835.7604   24579843.7554
       137.0004        142.0004
 21  2  6  1  6 30.0000000  0 11G07G14G28G21G30G17G19G01G08G09G04
 -22081583.94649 -17187002.71147  20258636.508    20258636.9404   20258640.8044
       211.0004        212.0004
  -3535328.97348  -2747622.89946  22972763.050    22972763.2484   22972768.1914
       170.0004        170.0004
  -1314960.20347   -901246.93345  23449406.456    23449405.9824   23449410.0354
       149.0004        152.0004
  -9871281.98448  -7679865.36146  22285660.089    22285659.6274   22285664.8314
       177.0004        177.0004
 -15620166.81949 -12143034.59347  21589909.363    21589909.7464   21589915.9694
       196.0004        197.0004
 -11736394.35748  -8797982.38446  22156828.713    22156829.2754   22156833.4224
       184.0004        184.0004
  -2952165.87747  -2272773.74345  24292071.969    24292070.9474   24292075.1194
       152.0004        155.0004
 -20187692.13649 -15720504.54347  20809940.601    20809941.1824   20809948.6304
       198.0004        198.0004
  -5122436.92048  -3928963.56746  23726631.036    23726632.4064   23726641.2584
       177.0004        177.0004
  -9480680.29048  -7363575.47146  22614891.550    22614891.5894   22614898.8534
       181.0004        181.0004
   1313066.15447   1038594.10145  24597745.496    24597745.5394   24597753.7874
       135.0004        140.0004
 21  2  6  1  7  0.0000000  0 11G07G14G28G21G30G17G19G01G08G09G04
 -22113768.59549 -17212081.64347  20252511.678    20252512.1284   20252516.4544
       211.0004        212.0004
  -3564047.96248  -2770001.31446  22967298.067    22967298.4574   22967303.4674
       170.0004        170.0004
  -1332919.92647   -915241.52145  23445989.705    23445989.8834   23445993.3044
       151.0004        154.0004
  -9818568.02048  -7638789.54646  22295690.971    22295690.2444   22295696.0434
       176.0004        176.0004
 -15695767.35449 -12201944.08447  21575522.228    21575522.2064   21575529.8834
       196.0004        196.0004
 -11784633.08348  -8835570.98846  22147649.877    22147649.5294   22147654.1424
       185.0004        186.0004
  -3036372.42247  -2338389.19945  24276046.550    24276045.8414   24276051.5024
       152.0004        154.0004
 -20206546.88049 -15735196.54447  20806351.965    20806352.6614   20806360.6994
       198.0004        198.0004
  -5028312.78848  -3855620.11446  23744541.591    23744542.9054   23744552.5764
       175.0004        176.0004
  -9402410.25748  -7302585.84646  22629785.450    22629785.9704   22629792.7194
       180.0004        181.0004
   1407039.94247   1111820.40145  24615629.519    24615629.3304   24615635.2004
       135.0004        141.0004
 21  2  6  1  7 30.0000000  0 11G07G14G28G21G30G17G19G01G08G09G04
 -22145478.98549 -17236791.03947  20246477.106    20246478.0464   20246482.3024
       211.0004        212.0004
  -3592831.39148  -2792429.93646  22961821.090    22961821.6434   22961826.2884
       169.0004        169.0004
  -1350965.52547   -929302.99545  23442554.415    23442554.6354   23442560.1944
       152.0004        155.0004
  -9765398.93948  -7597359.07746  22305808.392    22305808.1314   22305813.4884
       175.0004        175.0004
 -15771112.61049 -12260654.68147  21561184.359    21561184.6604   21561191.6274
       195.0004        195.0004
 -11832455.48148  -8872835.19146  22138548.993    22138550.1464   22138554.7254
       186.0004        187.0004
  -3120324.95047  -2403806.71945  24260071.431    24260071.0384   24260075.5054
       148.0004        149.0004
 -20224834.19149 -15749446.38647  20802872.543    20802872.9404   20802880.9724
       198.0004        198.0004
  -4934235.32848  -3782313.01246  23762446.371    23762446.0284   23762455.0164
       176.0004        177.0004
  -9324036.96948  -7241515.76646  22644699.821    22644699.7654   22644706.5254
       180.0004        182.0004
   1500868.37347   1184933.43445  24633484.329    24633485.4574   24633491.3044
       136.0004        141.0004
 21  2  6  1  8  0.0000000  0 11G07G14G28G21G30G17G19G01G08G09G04
 -22176713.41649 -17261129.56048  20240533.724    20240534.6024   20240538.4124
       211.0004        213.0004
  -3621680.26748  -2814909.57646  22956331.368    22956331.5154   22956335.4134
       168.0004        169.0004
  -1369098.48047   -943432.55645  23439104.248    23439103.8794   23439110.1784
       153.0004        156.0004
  -9711776.92648  -7555575.68246  22316012.555    22316012.4884   22316017.9624
       175.0004        175.0004
 -15846200.45549 -12319164.69147  21546895.770    21546896.2704   21546903.4894
       196.0004        196.0004
 -11879861.86748  -8909775.21446  22129528.007    22129528.0364   22129532.8044
       186.0004        187.0004
  -3204022.26447  -2469025.36045  24244143.651    24244142.6694   24244148.4894
       145.0004        148.0004
 -20242552.97249 -15763253.22147  20799501.009    20799500.8164   20799509.2004
       198.0004        198.0004
  -4840207.40948  -3709044.54846  23780337.913    23780338.9244   23780347.1704
       175.0004        175.0004
  -9245563.90048  -7180367.93546  22659631.233    22659632.1454   22659640.3324
       180.0004        181.0004
   1594548.71947   1257931.09645  24651310.649    24651312.1544   24651317.9994
       137.0004        142.0004
 21  2  6  1  8 30.0000000  0 11G07G14G28G21G30G17G19G01G08G09G04
 -22207468.68549 -17285094.71047  20234681.009    20234681.6384   20234685.7924
       211.0004        212.0004
  -3650593.90148  -2837439.69446  22950829.211    22950829.5824   22950833.7324
       169.0004        169.0004
  -1387318.76547   -957630.17745  23435638.267    23435637.4854   23435640.2934
       154.0004        157.0004
  -9657701.81748  -7513439.22846  22326302.810    22326301.8064   22326307.0904
       175.0004        175.0004
 -15921026.97649 -12377471.05547  21532656.894    21532657.4964   21532664.1184
       197.0004        198.0004
 -11926851.04748  -8946390.14747  22120585.926    22120586.6954   22120591.6704
       187.0004        188.0004
  -3287461.95847  -2534043.28345  24228267.560    24228266.4864   24228271.0464
       145.0004        148.0004
 -20259700.38949 -15776614.83547  20796236.961    20796237.6634   20796245.5644
       197.0004        198.0004
  -4746229.79448  -3635815.20746  23798221.681    23798222.1594   23798230.9214
       175.0004        175.0004
  -9166992.78448  -7119143.69546  22674584.163    22674584.3384   22674591.8764
       181.0004        181.0004
   1688080.03147   1330812.59745  24669110.013    24669110.4414   24669117.3244
       138.0004        143.0004
 21  2  6  1  9  0.0000000  0 11G07G14G28G21G30G17G19G01G08G09G04
 -22237743.78249 -17308685.69948  20228919.579    20228920.2434   20228924.8504
       211.0004        213.0004
  -3679574.22548  -2860021.74146  22945313.180    22945313.7314   22945319.3254
       169.0004        170.0004
  -1405629.18447   -971898.02045  23432153.901    23432152.9574   23432157.3164
       153.0004        155.0004
  -9603176.55248  -7470952.00246  22336677.921    22336677.8054   22336683.9794
       175.0004        175.0004
 -15995590.95949 -12435572.85447  21518468.300    21518468.1994   21518475.1354
       197.0004        198.0004
 -11973424.42148  -8982681.06747  22111722.986    22111723.9114   22111728.1344
       187.0004        188.0004
  -3370644.09547  -2598860.48445  24212438.149    24212437.7754   24212440.7344
       147.0004        151.0004
 -20276276.42149 -15789531.21347  20793083.588    20793084.0254   20793091.4284
       198.0004        198.0004
  -4652306.01548  -3562627.88446  23816096.324    23816096.4214   23816104.6324
       174.0004        175.0004
  -9088328.11448  -7057846.54146  22689553.628    22689553.5384   22689561.1684
       180.0004        180.0004
   1781458.64947   1403575.12945  24686878.964    24686880.2684   24686885.4674
       138.0004        142.0004
 21  2  6  1  9 30.0000000  0 11G07G14G28G21G30G17G19G01G08G09G04
 -22267535.96649 -17331900.39647  20223250.486    20223250.8764   20223255.0704
       211.0004        212.0004
  -3708620.90648  -2882655.51946  22939787.191    22939787.6924   22939792.4484
       171.0004        172.0004
  -1424029.19147   -986235.67845  23428651.673    23428651.1624   23428656.5624
       154.0004        155.0004
  -9548201.81448  -7428114.55746  22347139.449    22347139.5164   22347144.4944
       174.0004        174.0004
 -16069888.85349 -12493467.32147  21504329.313    21504329.8574   21504336.7534
       198.0004        199.0004
 -12019580.94148  -9018647.18047  22102940.538    22102940.7424   22102945.6174
       187.0004        188.0004
  -3453566.77547  -2663475.55045  24196657.980    24196657.9234   24196660.6274
       148.0004        151.0004
 -20292278.63049 -15802000.45747  20790038.048    20790038.4454   20790046.8304
       198.0004        199.0004
  -4558437.10948  -3489483.31746  23833958.710    23833959.2574   23833966.7624
       174.0004        174.0004
  -9009571.93948  -6996478.10746  22704540.052    22704540.4124   22704547.8634
       179.0004        179.0004
   1874683.28547   1476217.64345  24704618.251    24704617.7534   24704626.9024
       137.0004        141.0004
 21  2  6  1 10  0.0000000  0 11G07G14G28G21G30G17G19G01G08G09G04
 -22296842.65749 -17354736.79448  20217674.123    20217674.6924   20217678.5704
       212.0004        213.0004
  -3737733.87448  -2905340.93346  22934246.406    22934247.3134   22934252.0154
       171.0004        172.0004
  -1442519.77447  -1000643.92845  23425132.418    23425133.0404   23425137.2664
       155.0004        158.0004
  -9492778.33848  -7384927.41346  22357686.240    22357685.3324   22357690.4814
       174.0004        174.0004
 -16143917.41249 -12551151.90647  21490242.336    21490242.4544   21490249.6994
       198.0004        199.0004
 -12065320.00648  -9054287.99747  22094236.629    22094236.7884   22094241.9124
       188.0004        188.0004
  -3536227.99747  -2727886.88545  24180928.263    24180927.8644   24180930.6564
       149.0004        153.0004
 -20307705.03049 -15814021.02747  20787102.454    20787103.2184   20787111.2254
       198.0004        198.0004
  -4464624.57648  -3416382.64746  23851809.489    23851810.4244   23851818.8034
       171.0004        172.0004
  -8930726.66048  -6935040.23346  22719543.693    22719543.9584   22719551.4424
       179.0004        179.0004
   1967752.21847   1548738.85045  24722328.521    24722330.0744   24722335.1734
       135.0004        140.0004
 21  2  6  1 10 30.0000000  0 10G07G14G28G21G30G17G19G01G08G09
 -22325661.23749 -17377192.84048  20212190.054    20212190.5974   20212194.6874
       212.0004        213.0004
  -3766913.35248  -2928078.18446  22928693.632    22928694.8304   22928698.8724
       170.0004        170.0004
  -1461101.36547  -1015123.09645  23421596.926    23421597.5764   23421601.5204
       154.0004        156.0004
  -9436907.09848  -7341391.37446  22368318.621    22368318.3634   22368323.0624
       174.0004        175.0004
 -16217673.61049 -12608624.25747  21476207.146    21476207.0204   21476214.1394
       199.0004        198.0004
 -12110641.16448  -9089603.17447  22085612.196    22085612.6364   22085617.2404
       188.0004        188.0004
  -3618626.41647  -2792093.41745  24165248.419    24165247.4474   24165251.6034
       152.0004        155.0004
 -20322553.91149 -15825591.57547  20784277.165    20784277.4444   20784285.5744
       198.0004        198.0004
  -4370870.15548  -3343327.26746  23869651.319    23869651.6234   23869660.0064
       172.0004        172.0004
  -8851794.95048  -6873535.01946  22734563.992    22734565.0984   22734572.0204
       178.0004        178.0004
 21  2  6  1 11  0.0000000  0 10G07G14G28G21G30G17G19G01G08G09
 -22353988.39449 -17399265.94548  20206799.548    20206799.8324   20206803.8524
       212.0004        213.0004
  -3796158.23248  -2950866.39946  22923129.057    22923128.9654   22923134.0914
       170.0004        171.0004
  -1479773.52847  -1029672.82245  23418043.507    23418043.1524   23418047.7624
       154.0004        156.0004
  -9380588.11548  -7297506.45746  22379035.416    22379035.8234   22379040.6464
       174.0004        174.0004
 -16291153.24949 -12665881.12547  21462224.364    21462224.3814   21462230.9614
       198.0004        199.0004
 -12155543.16848  -9124591.73047  22077067.498    22077068.1274   22077072.2984
       188.0004        189.0004
  -3700759.13247  -2856092.89345  24149617.463    24149617.1714   24149621.9634
       153.0004        155.0004
 -20336822.20849 -15836709.71547  20781561.812    20781562.3564   20781570.1754
       198.0004        198.0004
  -4277174.16448  -3270317.43446  23887480.439    23887481.3904   23887489.1554
       173.0004        174.0004
  -8772778.21748  -6811963.53646  22749601.349    22749601.5184   22749608.2904
       178.0004        178.0004
 21  2  6  1 11 30.0000000  0 10G07G14G28G21G30G17G19G01G08G09
 -22381825.41249 -17420957.14048  20201502.474    20201503.1564   20201506.6814
       212.0004        213.0004
  -3825472.52248  -2973708.68146  22917550.249    22917551.1834   22917556.3214
       170.0004        169.0004
  -1498540.63347  -1044296.53345  23414471.952    23414472.0184   23414477.2304
       154.0004        157.0004
  -9323826.59548  -7253276.69646  22389836.715    22389835.9564   22389840.5494
       173.0004        174.0004
 -16364357.10649 -12722923.09547  21448293.676    21448294.4454   21448301.1854
       199.0004        200.0004
 -12200029.08848  -9159256.06347  22068602.230    22068602.8034   22068608.2774
       190.0004        192.0004
  -3782628.21947  -2919886.97545  24134038.949    24134038.4104   24134043.1434
       153.0004        156.0004
 -20350512.10949 -15847377.17047  20778956.012    20778956.9754   20778964.9314
       198.0004        198.0004
  -4183541.58348  -3197356.98946  23905298.895    23905299.5134   23905307.5524
       176.0004        178.0004
  -8693682.83748  -6750330.79346  22764652.516    22764652.5474   22764659.9434
       178.0004        178.0004
 21  2  6  1 12  0.0000000  0 10G07G14G28G21G30G17G19G01G08G09
 -22409168.73949 -17442263.63848  20196299.556    20196299.8964   20196303.7454
       213.0004        214.0004
  -3854855.08148  -2996604.18346  22911958.964    22911959.9514   22911964.4264
       168.0004        169.0004
  -1517402.01747  -1058993.70245  23410883.893    23410883.8374   23410887.0734
       155.0004        159.0004
  -9266622.83748  -7208702.34246  22400723.104    22400722.1404   22400726.9774
       173.0004        174.0004
 -16437280.97549 -12779746.89847  21434417.522    21434417.3684   21434424.1334
       200.0004        200.0004
 -12244097.80248  -9193595.32147  22060215.979    22060216.6914   22060221.6174
       191.0004        191.0004
  -3864231.09247  -2983473.63445  24118509.881    24118509.1684   24118515.7044
       153.0004        155.0004
 -20363620.59449 -15857591.56747  20776461.982    20776462.8474   20776470.4734
       198.0004        199.0004
  -4089973.46748  -3124446.80046  23923104.333    23923104.5944   23923112.9274
       176.0004        176.0004
  -8614510.30748  -6688637.93146  22779717.693    22779718.4124   22779725.1034
       177.0004        178.0004
 21  2  6  1 12 30.0000000  0 10G07G14G28G21G30G17G19G01G08G09
 -22436017.18249 -17463184.51548  20191189.899    20191190.5644   20191194.3464
       212.0004        214.0004
  -3884307.05248  -3019553.77946  22906354.054    22906354.6114   22906359.6884
       169.0004        169.0004
  -1536359.56447  -1073765.80845  23407276.523    23407275.4954   23407280.4324
       156.0004        158.0004
  -9208978.41548  -7163784.61046  22411692.509    22411691.6424   22411695.8334
       173.0004        174.0004
 -16509922.85949 -12836350.96847  21420593.611    21420594.2784   21420601.1474
       200.0004        200.0004
 -12287749.93848  -9227609.95547  22051908.953    22051909.6084   22051913.9904
       191.0004        190.0004
  -3945567.16347  -3046852.36245  24103032.933    24103031.8984   24103037.3624
       153.0004        156.0004
 -20376147.07549 -15867352.44647  20774077.908    20774078.5394   20774086.7694
       198.0004        198.0004
  -3996472.14048  -3051588.57946  23940898.375    23940897.8674   23940905.1564
       175.0004        176.0004
  -8535264.18348  -6626887.71346  22794797.004    22794797.5874   22794805.2314
       176.0004        175.0004
 21  2  6  1 13  0.0000000  0 10G07G14G28G21G30G17G19G01G08G09
 -22462368.76949 -17483718.22448  20186175.721    20186176.1314   20186180.0314
       213.0004        214.0004
  -3913829.03548  -3042557.91046  22900736.500    22900737.4444   22900742.0464
       168.0004        169.0004
  -1555414.25847  -1088613.60645  23403648.150    23403649.2374   23403652.7894
       154.0004        156.0004
  -9150895.17748  -7118524.93046  22422744.595    22422744.3624   22422747.8404
       172.0004        174.0004
 -16582280.15649 -12892733.26547  21406824.650    21406824.5474   21406831.8344
       200.0004        200.0004
 -12330985.66348  -9261300.10047  22043682.224    22043682.1784   22043686.6774
       190.0004        190.0004
  -4026635.32347  -3110022.36145  24087606.463    24087606.0074   24087609.8704
       154.0004        156.0004
 -20388090.29749 -15876658.83747  20771805.391    20771806.1044   20771814.0344
       198.0004        198.0004
  -3903039.61748  -2978784.02546  23958677.239    23958677.3164   23958685.4544
       175.0004        176.0004
  -8455947.52548  -6565082.54346  22809891.513    22809891.4004   22809899.6274
       176.0004        177.0004
 21  2  6  1 13 30.0000000  0 10G07G14G28G21G30G17G19G01G08G09
 -22488220.90249 -17503862.76848  20181255.455    20181256.1664   20181260.7684
       213.0004        214.0004
  -3943420.68748  -3065616.34546  22895105.551    22895106.6474   22895111.4284
       168.0004        169.0004
  -1574566.17547  -1103537.19045  23400005.301    23400004.7634   23400008.7194
       155.0004        157.0004
  -9092374.06448  -7072924.06346  22433881.668    22433880.9124   22433884.6274
       173.0004        174.0004
 -16654349.51649 -12948891.22247  21393110.348    21393110.3344   21393117.3404
       200.0004        199.0004
 -12373804.21748  -9294665.20247  22035534.122    22035534.7414   22035538.9274
       190.0004        190.0004
  -4107433.68647  -3172982.09345  24072230.509    24072230.4074   24072235.1164
       154.0004        157.0004
 -20399448.33849 -15885509.25247  20769644.019    20769644.8044   20769653.1084
       198.0004        199.0004
  -3809677.05148  -2906033.99146  23976443.935    23976444.1094   23976451.0034
       176.0004        176.0004
  -8376562.54948  -6503224.14746  22824997.909    22824998.7324   22825005.1484
       176.0004        176.0004
 21  2  6  1 14  0.0000000  0 10G07G14G28G21G30G17G19G01G08G09
 -22513572.18949 -17523617.01248  20176431.787    20176432.5044   20176436.6504
       213.0004        214.0004
  -3973083.07748  -3088729.86746  22889460.844    22889461.1924   22889466.1194
       168.0004        170.0004
  -1593817.08847  -1118537.87845  23396341.355    23396341.6094   23396344.7024
       154.0004        156.0004
  -9033417.17748  -7026983.61346  22445100.371    22445100.5054   22445104.1494
       173.0004        173.0004
 -16726128.83349 -13004823.14747  21379451.442    21379451.4424   21379458.1544
       200.0004        200.0004
 -12416206.60948  -9327706.00747  22027465.182    22027465.5374   22027469.8454
       190.0004        190.0004
  -4187961.78147  -3235731.23945  24056907.404    24056906.6254   24056911.0704
       156.0004        159.0004
 -20410220.49549 -15893903.12447  20767594.191    20767595.1444   20767602.8094
       199.0004        199.0004
  -3716387.03148  -2833340.48146  23994197.300    23994196.3594   23994204.2804
       173.0004        173.0004
  -8297112.77548  -6441315.23246  22840117.541    22840117.2294   22840123.9474
       175.0004        175.0004
 21  2  6  1 14 30.0000000  0 10G07G14G28G21G30G17G19G01G08G09
 -22538420.04849 -17542978.99248  20171703.853    20171704.0954   20171707.9914
       213.0004        214.0004
  -4002816.06448  -3111898.42146  22883802.443    22883803.2234   22883808.2134
       168.0004        169.0004
  -1613167.21847  -1133615.88345  23392659.997    23392659.3234   23392663.3074
       155.0004        158.0004
  -8974026.02248  -6980704.79246  22456401.662    22456401.8424   22456404.8754
       172.0004        172.0004
 -16797614.89549 -13060526.57647  21365848.046    21365847.9594   21365854.9814
       200.0004        200.0004
 -12458192.31348  -9360422.14747  22019475.133    22019475.6894   22019479.7164
       190.0004        189.0004
  -4268217.90447  -3298268.44645  24041634.861    24041633.7134   24041637.6094
       155.0004        157.0004
 -20420405.02349 -15901839.11747  20765656.811    20765657.4944   20765664.3704
       199.0004        199.0004
  -3623170.84048  -2760704.50546  24011936.522    24011936.1144   24011942.0334
       174.0004        175.0004
  -8217600.54448  -6379357.64946  22855246.898    22855247.5374   22855254.8344
       174.0004        174.0004
 21  2  6  1 15  0.0000000  0 10G07G14G28G21G30G17G19G01G08G09
 -22562762.42749 -17561947.09248  20167071.170    20167071.7394   20167075.9574
       213.0004        214.0004
  -4032619.77348  -3135122.09746  22878131.632    22878132.0194   22878136.2824
       169.0004        169.0004
  -1632617.21747  -1148771.73445  23388958.863    23388957.4904   23388963.2714
       155.0004        157.0004
  -8914201.18548  -6934088.02646  22467786.347    22467786.4714   22467789.7724
       172.0004        173.0004
 -16868804.74849 -13115999.18047  21352300.228    21352300.6344   21352308.1014
       200.0004        200.0004
 -12499761.04248  -9392813.34847  22011564.858    22011564.8454   22011569.9484
       189.0004        189.0004
  -4348200.60847  -3360592.62645  24026415.952    24026415.3754   24026418.7504
       155.0004        157.0004
 -20430000.48749 -15909316.09047  20763829.977    20763831.0984   20763839.0654
       199.0004        199.0004
  -3530029.78248  -2688127.04846  24029658.009    24029657.8834   24029665.8004
       172.0004        172.0004
  -8138028.56948  -6317353.52946  22870389.351    22870389.0354   22870397.3664
       174.0004        174.0004
 21  2  6  1 15 30.0000000  0 10G07G14G28G21G30G17G19G01G08G09
 -22586596.73949 -17580519.28548  20162535.359    20162536.2654   20162540.4554
       213.0004        214.0004
  -4062493.92548  -3158400.67346  22872447.004    22872447.6614   22872450.8494
       169.0004        169.0004
  -1652167.24047  -1164005.51345  23385237.193    23385238.2134   23385241.7184
       153.0004        156.0004
  -8853943.49348  -6887133.97746  22479253.016    22479252.4514   22479256.4904
       171.0004        172.0004
 -16939695.04749 -13171238.36747  21338811.597    21338811.2804   21338818.0874
       200.0004        201.0004
 -12540912.48648  -9424879.39647  22003733.911    22003734.3554   22003738.9884
       189.0004        188.0004
  -4427907.91447  -3422702.22845  24011246.385    24011245.8184   24011249.6634
       155.0004        156.0004
 -20439004.96549 -15916332.56047  20762116.916    20762118.1184   20762125.6774
       199.0004        199.0004
  -3436965.73448  -2615609.60846  24047365.306    24047367.2944   24047376.1864
       173.0004        175.0004
  -8058399.03348  -6255304.55046  22885542.719    22885542.7314   22885550.7994
       175.0004        176.0004
 21  2  6  1 16  0.0000000  0 10G07G14G28G21G30G17G19G01G08G09
 -22609921.06149 -17598694.08348  20158097.281    20158097.5594   20158101.8614
       213.0004        214.0004
  -4092438.79848  -3181734.32446  22866748.288    22866748.1844   22866753.4044
       169.0004        168.0004
  -1671818.26947  -1179317.98945  23381499.066    23381498.2354   23381502.9424
       153.0004        157.0004
  -8793255.07548  -6839844.31346  22490801.984    22490802.4594   22490804.0084
       171.0004        171.0004
 -17010282.99549 -13226241.96447  21325378.657    21325378.6454   21325385.8834
       201.0004        201.0004
 -12581646.39648  -9456620.08947  21995983.377    21995983.3074   21995987.2704
       189.0004        189.0004
  -4507338.52447  -3484596.18645  23996131.585    23996131.1684   23996133.7384
       153.0004        156.0004
 -20447417.26949 -15922887.59647  20760516.577    20760516.7644   20760524.4344
       199.0004        199.0004
  -3343979.72648  -2543152.98646  24065059.467    24065060.6564   24065070.6124
       172.0004        173.0004
  -7978714.76448  -6193212.92946  22900705.888    22900706.3094   22900713.3494
       175.0004        176.0004
 21  2  6  1 16 30.0000000  0 10G07G14G28G21G30G17G19G01G08G09
 -22632733.97349 -17616470.37448  20153756.079    20153756.7344   20153760.7494
       213.0004        215.0004
  -4122455.03148  -3205123.57746  22861035.274    22861036.1864   22861041.7854
       168.0004        168.0004
  -1691571.38547  -1194710.03945  23377740.152    23377738.9064   23377744.6014
       156.0004        159.0004
  -8732137.92448  -6792220.53446  22502432.373    22502431.6414   22502434.6104
       171.0004        172.0004
 -17080566.23749 -13281008.12647  21312003.673    21312004.1274   21312011.3344
       201.0004        201.0004
 -12621963.65848  -9488036.10947  21988310.447    21988310.8354   21988315.0564
       189.0004        189.0004
  -4586491.83647  -3546274.10245  23981069.242    23981067.8234   23981069.9414
       152.0004        153.0004
 -20455236.53049 -15928980.51147  20759027.627    20759028.6744   20759036.3214
       199.0004        198.0004
  -3251074.60048  -2470759.38946  24082738.755    24082740.2414   24082749.0414
       171.0004        171.0004
  -7898978.87048  -6131081.07946  22915879.531    22915879.5904   22915887.3654
       174.0004        174.0004
 21  2  6  1 17  0.0000000  0 10G07G14G28G21G30G17G19G01G08G09
 -22655034.02749 -17633847.04148  20149512.716    20149512.9684   20149516.8904
       214.0004        214.0004
  -4152543.35848  -3228569.01646  22855310.890    22855311.5444   22855317.7924
       169.0004        171.0004
  -1711427.97047  -1210182.69145  23373959.945    23373960.0824   23373965.5314
       155.0004        157.0004
  -8670593.88648  -6744264.14846  22514142.606    22514143.1324   22514147.3154
       171.0004        172.0004
 -17150542.45849 -13335535.04847  21298688.276    21298687.8694   21298694.7584
       201.0004        201.0004
 -12661864.96748  -9519128.02047  21980716.441    21980717.5164   21980721.9224
       189.0004        189.0004
  -4665367.45447  -3607735.59245  23966059.244    23966059.5974   23966061.8684
       152.0004        155.0004
 -20462462.09649 -15934610.81347  20757653.720    20757653.9154   20757661.1984
       199.0004        199.0004
  -3158251.83748  -2398429.94646  24100404.975    24100405.1084   24100413.7394
       172.0004        173.0004
  -7819194.73048  -6068911.61746  22931060.756    22931061.1434   22931068.2694
       173.0004        172.0004
 21  2  6  1 17 30.0000000  0 10G07G14G28G21G30G17G19G01G08G09
 -22676819.23049 -17650822.53648  20145366.698    20145367.4334   20145371.5624
       213.0004        215.0004
  -4182704.40648  -3252071.12046  22849572.268    22849572.4254   22849576.7964
       171.0004        172.0004
  -1731388.86947  -1225736.63845  23370162.142    23370162.2194   23370166.5614
       155.0004        158.0004
  -8608624.90148  -6695976.62246  22525936.491    22525935.4204   22525939.4444
       171.0004        173.0004
 -17220209.26649 -13389820.86947  21285430.446    21285430.8864   21285438.1284
       201.0004        201.0004
 -12701350.45748  -9549895.94847  21973204.029    21973204.0824   21973208.9604
       189.0004        190.0004
  -4743963.81247  -3668979.50145  23951102.669    23951101.7654   23951106.2214
       154.0004        158.0004
 -20469093.08549 -15939777.80947  20756391.537    20756391.8124   20756399.4824
       199.0004        198.0004
  -3065513.71248  -2326166.50746  24118052.867    24118052.6724   24118061.0884
       172.0004        172.0004
  -7739365.36848  -6006706.92746  22946252.832    22946253.7384   22946259.8404
       173.0004        174.0004
 21  2  6  1 18  0.0000000  0 10G07G14G28G21G30G17G19G01G08G09
 -22698088.18349 -17667395.75048  20141319.334    20141320.0304   20141324.4724
       214.0004        215.0004
  -4212938.79048  -3275630.37646  22843817.909    22843818.8774   22843822.6114
       170.0004        170.0004
  -1751455.41547  -1241372.90945  23366344.178    23366344.5464   23366348.4784
       155.0004        158.0004
  -8546232.85048  -6647359.42846  22537808.528    22537808.8634   22537812.1554
       171.0004        173.0004
 -17289564.34249 -13443863.77847  21272233.064    21272232.8604   21272239.6184
       201.0004        201.0004
 -12740420.32548  -9580339.98747  21965769.018    21965769.2574   21965774.4474
       189.0004        188.0004
  -4822280.28747  -3730005.31845  23936199.399    23936199.5144   23936202.7794
       156.0004        158.0004
 -20475128.86649 -15944480.99647  20755242.620    20755243.4534   20755250.9284
       198.0004        198.0004
  -2972862.72848  -2253970.92646  24135685.607    24135685.2624   24135692.3474
       175.0004        177.0004
  -7659494.03548  -5944469.52246  22961452.354    22961452.1364   22961458.9074
       174.0004        175.0004
 21  2  6  1 18 30.0000000  0 10G07G14G28G21G30G17G19G01G08G09
 -22718839.54949 -17683565.66048  20137370.299    20137370.9784   20137375.3584
       214.0004        214.0004
  -4243247.11548  -3299247.24446  22838050.083    22838050.2384   22838055.1554
       169.0004        167.0004
  -1771628.75347  -1257092.36645  23362505.135    23362504.9674   23362509.6204
       156.0004        158.0004
  -8483419.90848  -6598414.26846  22549761.312    22549760.8414   22549765.1434
       172.0004        174.0004
 -17358605.13749 -13497661.80047  21259094.243    21259094.7424   21259102.0364
       201.0004        201.0004
 -12779075.80348  -9610461.12446  21958412.990    21958413.3334   21958417.4894
       187.0004        187.0004
  -4900316.30747  -3790812.61745  23921350.101    23921349.2394   23921353.2464
       157.0004        158.0004
 -20480568.60049 -15948719.73847  20754207.839    20754208.4244   20754215.7634
       198.0004        199.0004
  -2880300.09648  -2181844.22146  24153297.103    24153297.4604   24153306.1334
       172.0004        172.0004
  -7579583.77548  -5882201.79046  22976657.142    22976658.2284   22976665.3904
       173.0004        173.0004
 21  2  6  1 19  0.0000000  0 10G07G14G28G21G30G17G19G01G08G09
 -22739069.93449 -17699329.61148  20133520.961    20133521.4814   20133525.4944
       213.0004        215.0004
  -4273627.80648  -3322920.49546  22832268.917    22832269.9244   22832273.4574
       168.0004        169.0004
  -1791907.72747  -1272894.15245  23358645.833    23358645.8574   23358649.8314
       155.0004        156.0004
  -8420185.90948  -6549141.03046  22561794.066    22561794.1594   22561798.5254
       173.0004        173.0004
 -17427327.31449 -13551211.53847  21246017.104    21246017.4324   21246024.6354
       201.0004        201.0004
 -12817315.14748  -9640258.00146  21951136.154    21951136.4574   21951141.2904
       187.0004        187.0004
  -4978068.81447  -3851398.96745  23906555.210    23906554.5214   23906558.0134
       157.0004        160.0004
 -20485409.54149 -15952491.89147  20753286.261    20753287.0324   20753294.5394
       198.0004        199.0004
  -2787826.22248  -2109786.64746  24170894.202    24170894.9894   24170904.2234
       175.0004        176.0004
  -7499635.64248  -5819904.53746  22991871.343    22991872.0164   22991879.9274
       173.0004        174.0004
 21  2  6  1 19 30.0000000  0 10G07G14G28G21G30G17G19G01G08G09
 -22758777.99649 -17714686.56648  20129770.490    20129770.8844   20129775.3414
       213.0004        215.0004
  -4304081.91348  -3346650.98946  22826474.678    22826474.8144   22826479.0734
       169.0004        169.0004
  -1812293.67747  -1288779.31545  23354766.381    23354767.4554   23354770.0274
       153.0004        155.0004
  -8356533.17948  -6499541.49846  22573906.890    22573906.9514   22573911.1384
       172.0004        174.0004
 -17495728.76549 -13604511.38347  21233001.433    21233001.5814   21233007.8474
       201.0004        202.0004
 -12855139.42348  -9669731.46547  21943938.892    21943938.6924   21943943.0254
       188.0004        188.0004
  -5055537.47347  -3911764.13245  23891811.984    23891811.7494   23891816.7924
       158.0004        161.0004
 -20489651.38749 -15955797.22547  20752479.810    20752480.0064   20752487.4394
       199.0004        199.0004
  -2695443.18348  -2037799.90546  24188475.674    24188475.3644   24188482.8194
       172.0004        172.0004
  -7419653.21748  -5757580.56246  23007091.595    23007092.3024   23007099.7574
       173.0004        173.0004
 21  2  6  1 20  0.0000000  0 10G07G14G28G21G30G17G19G01G08G09
 -22777962.24249 -17729635.33248  20126119.999    20126120.6004   20126124.7974
       214.0004        215.0004
  -4334610.00048  -3370439.09046  22820664.371    22820664.9784   22820670.4904
       169.0004        170.0004
  -1832788.01647  -1304748.92945  23350866.256    23350867.1784   23350870.3784
       151.0004        153.0004
  -8292463.88948  -6449617.36546  22586099.931    22586099.1234   22586104.0734
       173.0004        175.0004
 -17563807.21249 -13657559.53147  21220046.109    21220046.4464   21220053.2444
       202.0004        202.0004
 -12892549.31048  -9698882.01747  21936819.864    21936820.6114   21936824.0084
       188.0004        189.0004
  -5132721.52347  -3971907.56245  23877125.773    23877125.0594   23877128.3384
       159.0004        161.0004
 -20493293.52649 -15958635.24547  20751786.172    20751787.0174   20751794.4464
       199.0004        199.0004
  -2603153.78548  -1965886.09346  24206037.387    24206037.4844   24206046.7474
       170.0004        171.0004
  -7339639.59048  -5695232.29746  23022319.330    23022319.0124   23022324.9344
       172.0004        172.0004
 21  2  6  1 20 30.0000000  0 10G07G14G28G21G30G17G19G01G08G09
 -22796621.04449 -17744174.66648  20122569.751    20122569.9314   20122573.9144
       214.0004        215.0004
  -4365212.08648  -3394284.86746  22814840.907    22814841.7514   22814846.6244
       168.0004        169.0004
  -1853391.29147  -1320803.41645  23346947.059    23346946.1944   23346950.9064
       152.0004        155.0004
  -8227979.90048  -6399370.09546  22598369.947    22598369.3354   22598374.9524
       174.0004        175.0004
 -17631559.71749 -13710353.68247  21207153.096    21207153.3074   21207160.9294
       202.0004        203.0004
 -12929544.71548  -9727709.58647  21929779.393    21929779.6804   21929784.5694
       189.0004        189.0004
  -5209620.06547  -4031828.47946  23862491.944    23862491.8964   23862496.0034
       160.0004        163.0004
 -20496334.86949 -15961005.11347  20751206.730    20751207.7664   20751215.8944
       198.0004        198.0004
  -2510958.90248  -1894045.93346  24223580.552    24223581.5344   24223589.9884
       173.0004        175.0004
  -7259597.34048  -5632861.70646  23037549.323    23037549.9194   23037557.1864
       171.0004        173.0004
 21  2  6  1 21  0.0000000  0 10G07G14G28G21G30G17G19G01G08G09
 -22814752.71749 -17758303.24948  20119119.128    20119119.5834   20119123.8344
       214.0004        215.0004
  -4395888.38048  -3418188.46546  22809004.482    22809004.4254   22809009.5984
       170.0004        170.0004
  -1874104.19647  -1336943.33245  23343003.996    23343003.7524   23343009.0954
       153.0004        157.0004
  -8163082.70448  -6348800.86046  22610720.969    22610719.5904   22610725.0534
       174.0004        176.0004
 -17698983.61749 -13762891.79547  21194323.815    21194323.5824   21194329.7194
       202.0004        203.0004
 -12966126.12648  -9756214.58447  21922818.522    21922819.0864   21922822.9554
       189.0004        190.0004
  -5286231.75947  -4091525.88545  23847912.581    23847911.5534   23847917.5854
       160.0004        160.0004
 -20498774.46249 -15962906.09147  20750743.367    20750743.9934   20750751.5404
       199.0004        199.0004
  -2418860.50548  -1822280.96446  24241105.124    24241106.6164   24241115.8194
       173.0004        173.0004
  -7179529.32348  -5570471.02746  23052786.219    23052785.6884   23052793.7194
       171.0004        172.0004
 21  2  6  1 21 30.0000000  0 10G07G14G28G21G30G17G19G01G08G09
 -22832354.61349 -17772019.03748  20115769.516    20115770.0204   20115774.4254
       214.0004        215.0004
  -4426638.48248  -3442149.53446  22803152.706    22803153.2074   22803158.7694
       170.0004        171.0004
  -1894926.90447  -1353168.81245  23339042.304    23339041.7074   23339045.7764
       154.0004        157.0004
  -8097773.44148  -6297910.52846  22623146.722    22623146.8684   22623152.7284
       174.0004        175.0004
 -17766075.52949 -13815171.20847  21181555.906    21181555.8704   21181562.8554
       202.0004        203.0004
 -13002293.20348  -9784396.70047  21915936.121    21915937.1414   21915941.0214
       190.0004        191.0004
  -5362554.60347  -4150998.21745  23833388.348    23833388.4454   23833393.4824
       158.0004        160.0004
 -20500610.78049 -15964336.97147  20750393.697    20750394.3634   20750401.6784
       199.0004        198.0004
  -2326859.32948  -1750591.76446  24258615.997    24258615.5444   24258622.9314
       174.0004        176.0004
  -7099437.57148  -5508061.89746  23068026.554    23068027.5134   23068034.5014
       171.0004        173.0004
 21  2  6  1 22  0.0000000  0 10G07G14G28G21G30G17G19G01G08G09
 -22849426.19049 -17785321.56548  20112520.645    20112521.3074   20112525.7184
       214.0004        215.0004
  -4457463.45548  -3466168.98546  22797286.557    22797286.9544   22797291.5234
       169.0004        169.0004
  -1915860.84047  -1369480.96145  23335058.735    23335058.3144   23335063.6944
       154.0004        157.0004
  -8032054.20148  -6246700.73646  22635653.292    22635652.6434   22635658.8144
       175.0004        175.0004
 -17832833.64249 -13867190.52347  21168852.208    21168852.4844   21168859.3364
       203.0004        204.0004
 -13038047.08148  -9812256.86047  21909131.845    21909132.3164   21909137.2154
       190.0004        190.0004
  -5438588.92847  -4210245.73045  23818920.255    23818919.6494   23818924.8174
       159.0004        161.0004
 -20501843.88449 -15965297.82547  20750158.744    20750159.6294   20750167.0204
       198.0004        199.0004
  -2234957.70748  -1678980.12046  24276101.594    24276102.6024   24276111.3014
       173.0004        172.0004
  -7019325.79648  -5445637.14646  23083271.292    23083271.8674   23083278.6164
       171.0004        171.0004
 21  2  6  1 22 30.0000000  0 10G07G14G28G21G30G17G19G01G08G09
 -22865965.38849 -17798209.25848  20109373.520    20109373.8964   20109378.4954
       214.0004        215.0004
  -4488363.16248  -3490246.66046  22791405.983    22791406.6494   22791411.7634
       169.0004        170.0004
  -1936906.34547  -1385880.04545  23331052.321    23331052.8954   23331057.0064
       152.0004        154.0004
  -7965927.31648  -6195173.29246  22648237.289    22648236.4494   22648241.4644
       174.0004        174.0004
 -17899254.97249 -13918947.40047  21156213.373    21156213.2564   21156220.0064
       204.0004        205.0004
 -13073387.82948  -9839795.09247  21902406.745    21902407.4024   21902411.5074
       189.0004        189.0004
  -5514333.27547  -4269267.27245  23804507.200    23804505.9384   23804510.2334
       160.0004        161.0004
 -20502472.59849 -15965787.72147  20750039.176    20750039.9524   20750047.3764
       199.0004        199.0004
  -2143157.21648  -1607447.28246  24293571.445    24293571.9554   24293579.9374
       172.0004        172.0004
  -6939196.39048  -5383198.65746  23098519.488    23098520.1424   23098526.9754
       169.0004        170.0004
 21  2  6  1 23  0.0000000  0 10G07G14G28G21G30G17G19G01G08G09
 -22881970.73149 -17810680.97448  20106328.026    20106328.5544   20106332.5854
       214.0004        216.0004
  -4519338.05448  -3514382.94546  22785512.147    22785512.4754   22785517.2854
       168.0004        169.0004
  -1958064.45147  -1402366.86545  23327026.651    23327026.4974   23327032.1164
       151.0004        154.0004
  -7899394.20248  -6143329.30846  22660898.275    22660897.5824   22660903.3384
       175.0004        175.0004
 -17965337.01249 -13970439.90747  21143637.359    21143637.2624   21143644.7484
       204.0004        204.0004
 -13108316.15448  -9867011.96447  21895760.139    21895760.7884   21895765.3314
       189.0004        189.0004
  -5589786.72947  -4328062.17945  23790147.888    23790147.6664   23790151.2424
       160.0004        161.0004
 -20502496.47149 -15965806.31847  20750035.613    20750035.4754   20750043.5294
       199.0004        199.0004
  -2051460.14648  -1535995.02046  24311020.859    24311021.1564   24311029.3944
       170.0004        171.0004
  -6859052.44048  -5320748.85546  23113771.435    23113771.0874   23113777.9604
       170.0004        172.0004
 21  2  6  1 23 30.0000000  0 10G07G14G28G21G30G17G19G01G08G09
 -22897440.95449 -17822735.69548  20103383.757    20103384.4584   20103388.8844
       214.0004        216.0004
  -4550388.46448  -3538578.03946  22779603.118    22779603.6284   22779607.5694
       168.0004        169.0004
  -1979336.08247  -1418942.15545  23322980.163    23322979.7394   23322984.6974
       154.0004        157.0004
  -7832457.06348  -6091170.50046  22673634.684    22673634.8554   22673640.2984
       174.0004        174.0004
 -18031077.46149 -14021666.22147  21131127.526    21131128.1164   21131134.7024
       204.0004        204.0004
 -13142832.57248  -9893907.83547  21889192.048    21889192.5754   21889197.0234
       189.0004        189.0004
  -5664948.43047  -4386629.71745  23775844.338    23775843.9924   23775848.3694
       159.0004        160.0004
 -20501914.88949 -15965353.12747  20750145.280    20750146.2894   20750153.5424
       199.0004        199.0004
  -1959867.71548  -1464624.30546  24328449.687    24328449.6484   24328458.0294
       168.0004        169.0004
  -6778896.80848  -5258289.91446  23129024.357    23129024.4434   23129031.7044
       170.0004        171.0004
 21  2  6  1 24  0.0000000  0 10G07G14G28G21G30G17G19G01G08G09
 -22912373.52249 -17834371.47648  20100542.403    20100542.8304   20100547.4874
       214.0004        215.0004
  -4581513.73448  -3562831.47746  22773681.301    22773680.5824   22773684.6844
       168.0004        169.0004
  -2000721.17647  -1435605.85545  23318909.559    23318909.6894   23318913.7664
       153.0004        154.0004
  -7765117.16048  -6038697.86146  22686449.535    22686449.0984   22686455.8144
       174.0004        175.0004
 -18096472.72749 -14072623.57947  21118683.512    21118683.8244   21118690.7724
       205.0004        205.0004
 -13176936.87948  -9920482.60847  21882702.187    21882702.5064   21882706.8824
       189.0004        189.0004
  -5739816.72947  -4444968.65746  23761599.551    23761598.3404   23761601.9584
       161.0004        164.0004
 -20500726.33649 -15964426.97647  20750372.024    20750372.5654   20750379.9954
       199.0004        199.0004
  -1868380.87448  -1393335.87046  24345862.136    24345861.2114   24345868.0544
       170.0004        172.0004
  -6698731.39848  -5195823.37246  23144279.240    23144279.4794   23144286.5594
       169.0004        169.0004
 21  2  6  1 24 30.0000000  0 10G07G14G28G21G30G17G19G01G08G09
 -22926768.58049 -17845588.41748  20097803.342    20097803.7194   20097808.0694
       215.0004        216.0004
  -4612715.62948  -3587144.64246  22767742.422    22767742.3434   22767747.9504
       168.0004        167.0004
  -2022221.83647  -1452359.62645  23314818.884    23314818.2264   23314823.2614
       152.0004        155.0004
  -7697377.70648  -5985913.88346  22699340.111    22699339.9024   22699346.0904
       174.0004        175.0004
 -18161521.74149 -14123311.11847  21106305.404    21106305.1644   21106312.1204
       205.0004        206.0004
 -13210631.17648  -9946737.89647  21876290.807    21876290.6634   21876295.1134
       190.0004        191.0004
  -5814392.21047  -4503079.38946  23747407.886    23747406.9504   23747410.6054
       162.0004        164.0004
 -20498931.69849 -15963028.54947  20750713.870    20750713.8544   20750721.6504
       199.0004        199.0004
  -1777002.56648  -1322132.04046  24363247.407    24363248.6714   24363257.0524
       169.0004        170.0004
  -6618560.62548  -5133352.65046  23159534.186    23159534.5554   23159542.2564
       181.0004        186.0004
 21  2  6  1 25  0.0000000  0 10G07G14G28G21G30G17G19G01G08G09
 -22940622.64349 -17856383.79448  20095166.684    20095167.1534   20095171.8574
       215.0004        216.0004
  -4643992.39548  -3611516.13046  22761789.958    22761791.3724   22761795.8024
       167.0004        168.0004
  -2043836.88047  -1469202.49345  23310704.776    23310704.6934   23310709.3874
       153.0004        156.0004
  -7629238.53248  -5932818.42846  22712306.192    22712305.6624   22712312.3884
       173.0004        174.0004
 -18226219.88449 -14173725.25447  21093993.945    21093993.8704   21094000.4684
       206.0004        206.0004
 -13243913.89448  -9972672.48547  21869956.792    21869957.3394   21869962.1564
       190.0004        190.0004
  -5888672.07247  -4560959.81345  23733270.829    23733270.6714   23733275.3714
       161.0004        162.0004
 -20496528.31149 -15961155.77547  20751169.739    20751171.1584   20751178.6784
       199.0004        199.0004
  -1685732.86948  -1251012.80446  24380615.785    24380616.7024   24380624.0184
       168.0004        169.0004
  -6538385.16748  -5070878.27947  23174791.391    23174792.2134   23174799.7714
       186.0004        188.0004
 21  2  6  1 25 30.0000000  0 10G07G14G28G21G30G17G19G01G08G09
 -22953934.34849 -17866756.56148  20092633.898    20092634.3754   20092638.5324
       214.0004        216.0004
  -4675344.41948  -3635946.26746  22755825.442    22755825.1684   22755830.8574
       168.0004        170.0004
  -2065567.28947  -1486135.27745  23306569.745    23306569.8514   23306574.0434
       154.0004        157.0004
  -7560702.07948  -5879413.41546  22725347.446    22725347.8344   22725354.0124
       172.0004        172.0004
 -18290564.88049 -14223864.21947  21081749.326    21081749.3234   21081755.8514
       206.0004        206.0004
 -13276785.69148  -9998286.86647  21863701.326    21863702.1684   21863706.3314
       190.0004        189.0004
  -5962655.50747  -4618609.21046  23719193.678    23719192.7134   23719196.4914
       163.0004        165.0004
 -20493515.99549 -15958808.51247  20751743.826    20751744.6464   20751751.7804
       199.0004        199.0004
  -1594573.43348  -1179979.49046  24397960.932    24397962.4154   24397971.7094
       167.0004        168.0004
  -6458208.19149  -5008402.69247  23190048.417    23190048.8064   23190056.8764
       196.0004        202.0004
 21  2  6  1 26  0.0000000  0 10G07G14G28G21G30G17G19G01G08G09
 -22966702.69349 -17876705.92848  20090203.551    20090204.2414   20090209.0484
       214.0004        215.0004
  -4706772.22448  -3660435.39946  22749844.499    22749844.3034   22749851.1334
       169.0004        171.0004
  -2087414.12247  -1503158.79945  23302414.039    23302414.2144   23302417.6164
       156.0004        158.0004
  -7491770.69348  -5825700.63646  22738466.670    22738465.6644   22738470.3654
       171.0004        171.0004
 -18354554.45649 -14273726.22547  21069572.124    21069572.3874   21069579.1274
       206.0004        206.0004
 -13309247.66048 -10023581.89347  21857524.255    21857524.7064   21857529.0714
       189.0004        191.0004
  -6036342.05947  -4676027.27646  23705172.256    23705171.2804   23705174.4754
       163.0004        163.0004
 -20489894.45649 -15955986.53247  20752432.559    20752433.4964   20752441.2004
       199.0004        199.0004
  -1503526.34948  -1109033.74646  24415289.995    24415289.5364   24415297.7264
       168.0004        169.0004
  -6378032.75149  -4945928.32047  23205304.749    23205305.4524   23205312.9794
       199.0004        199.0004
 21  2  6  1 26 30.0000000  0 10G07G14G28G21G30G17G19G01G08G09
 -22978927.20249 -17886231.52648  20087877.817    20087878.2054   20087882.9504
       214.0004        216.0004
  -4738276.76848  -3684984.38446  22743849.694    22743849.6164   22743854.9184
       170.0004        171.0004
  -2109378.80847  -1520274.10645  23298231.507    23298232.8444   23298237.3394
       154.0004        155.0004
  -7422446.74748  -5771681.98446  22751657.961    22751657.0384   22751662.8294
       171.0004        171.0004
 -18418186.77049 -14323309.85047  21057464.067    21057463.8724   21057470.6474
       206.0004        207.0004
 -13341301.08748 -10048558.57447  21851424.545    21851425.2544   21851430.3404
       191.0004        192.0004
  -6109731.81447  -4733214.06146  23691206.099    23691205.6164   23691209.7114
       163.0004        164.0004
 -20485663.98649 -15952690.04347  20753237.380    20753238.0754   20753245.8724
       199.0004        199.0004
  -1412593.77348  -1038177.18246  24432593.676    24432594.0774   24432602.8114
       169.0004        171.0004
  -6297862.35349  -4883457.89947  23220561.948    23220561.8744   23220568.5534
       198.0004        197.0004
 21  2  6  1 27  0.0000000  0 10G07G14G28G21G30G17G19G01G08G09
 -22990606.27449 -17895332.11148  20085655.389    20085655.9154   20085660.2424
       215.0004        216.0004
  -4769858.13348  -3709593.24146  22737839.251    22737840.2594   22737844.6974
       170.0004        171.0004
  -2131461.92147  -1537481.72145  23294029.940    23294030.5374   23294035.7214
       153.0004        156.0004
  -7352732.48648  -5717359.18446  22764922.900    22764923.0984   22764928.7984
       170.0004        171.0004
 -18481459.24849 -14372613.06947  21045423.043    21045423.0604   21045430.0854
       206.0004        206.0004
 -13372946.54048 -10073217.35947  21845403.197    21845403.5884   21845408.2684
       192.0004        193.0004
  -6182823.47647  -4790168.59645  23677297.270    23677296.5874   23677300.0644
       161.0004        161.0004
 -20480824.03449 -15948918.64647  20754158.888    20754159.4404   20754167.0124
       199.0004        199.0004
  -1321777.07548   -967410.92546  24449876.126    24449875.8184   24449883.0774
       169.0004        170.0004
  -6217699.74149  -4820993.55247  23235816.074    23235816.8944   23235823.0174
       198.0004        198.0004
 21  2  6  1 27 30.0000000  0 10G07G14G28G21G30G17G19G01G08G09
 -23001737.17349 -17904005.55548  20083537.241    20083537.7704   20083542.0894
       215.0004        216.0004
  -4801515.09348  -3734261.01346  22731815.568    22731815.7994   22731821.1304
       170.0004        170.0004
  -2153662.85847  -1554781.14645  23289805.420    23289805.5764   23289810.4834
       154.0004        157.0004
  -7282628.40648  -5662732.63146  22778263.880    22778264.1834   22778268.4484
       169.0004        169.0004
 -18544367.89249 -14421632.79647  21033451.403    21033452.0614   21033459.1454
       206.0004        206.0004
 -13404183.30148 -10097557.68447  21839458.835    21839459.2524   21839463.9144
       192.0004        192.0004
  -6255614.99647  -4846889.24646  23663446.297    23663445.0594   23663448.5904
       161.0004        163.0004
 -20475372.76649 -15944670.90047  20755195.976    20755196.7064   20755204.5704
       199.0004        199.0004
  -1231076.74948   -896735.33046  24467135.628    24467135.8144   24467144.7224
       171.0004        172.0004
  -6137546.25649  -4758536.31947  23251069.214    23251069.3684   23251076.8954
       199.0004        199.0004
 21  2  6  1 28  0.0000000  0 10G07G14G28G21G30G17G19G01G08G09
 -23012320.24349 -17912252.11148  20081522.716    20081523.5534   20081528.1314
       214.0004        216.0004
  -4833249.41148  -3758989.02246  22725776.273    22725776.8024   22725782.0464
       170.0004        171.0004
  -2175983.90247  -1572174.15345  23285560.524    23285558.8944   23285562.1754
       154.0004        156.0004
  -7212138.24548  -5607805.23346  22791677.871    22791677.9274   22791682.5714
       168.0004        169.0004
 -18606911.79949 -14470368.31347  21021550.124    21021550.1434   21021556.6214
       206.0004        206.0004
 -13435013.62048 -10121581.29447  21833592.606    21833592.9494   21833596.3454
       192.0004        192.0004
  -6328107.47147  -4903376.85946  23649651.703    23649650.4664   23649654.1774
       162.0004        165.0004
 -20469311.42649 -15939947.76447  20756349.586    20756350.5414   20756357.8664
       199.0004        199.0004
  -1140495.77448   -826152.74646  24484368.807    24484370.8654   24484381.3224
       169.0004        168.0004
  -6057406.29849  -4696089.61747  23266318.531    23266318.3794   23266327.0214
       199.0004        199.0004
 21  2  6  1 28 30.0000000  0 10G07G14G28G21G30G17G19G01G08G09
 -23022352.15549 -17920069.20348  20079614.515    20079615.0284   20079618.8084
       214.0004        216.0004
  -4865059.18548  -3783775.87546  22719722.959    22719724.3734   22719728.1964
       169.0004        170.0004
  -2198423.71647  -1589659.69545  23281287.861    23281287.8924   23281293.6414
       153.0004        155.0004
  -7141261.95948  -5552576.94346  22805165.920    22805165.4274   22805170.0254
       168.0004        170.0004
 -18669086.42949 -14518816.08847  21009718.900    21009719.1184   21009725.6414
       207.0004        207.0004
 -13465436.28548 -10145287.26447  21827802.133    21827802.8854   21827807.4324
       191.0004        191.0004
  -6400297.97547  -4959629.17245  23635912.919    23635912.3114   23635917.3084
       162.0004        162.0004
 -20462637.59549 -15934747.37047  20757620.204    20757620.1134   20757628.0114
       199.0004        199.0004
  -1050034.09348   -755663.12346  24501585.732    24501585.6584   24501594.9904
       165.0004        166.0004
  -5977280.57749  -4633654.00447  23281565.634    23281566.4164   23281574.0984
       198.0004        199.0004
 21  2  6  1 29  0.0000000  0 10G07G14G28G21G30G17G19G01G08G09
 -23031832.81649 -17927456.74248  20077810.079    20077810.7654   20077815.0924
       214.0004        216.0004
  -4896945.66348  -3808622.45346  22713654.342    22713654.6304   22713661.4594
       168.0004        167.0004
  -2220983.88947  -1607239.02045  23276995.215    23276995.1914   23277000.1134
       154.0004        156.0004
  -7070002.53448  -5497050.10846  22818725.733    22818724.6604   22818729.4764
       168.0004        168.0004
 -18730890.28649 -14566974.94447  20997958.112    20997958.1944   20997964.8094
       207.0004        207.0004
 -13495453.24948 -10168677.10547  21822090.817    21822091.0604   21822095.7484
       191.0004        192.0004
  -6472186.79147  -5015646.46245  23622232.577    23622232.2944   23622236.4984
       161.0004        162.0004
 -20455351.95049 -15929070.24647  20759006.375    20759006.7194   20759014.3974
       199.0004        199.0004
   -959693.99848   -685268.21546  24518777.471    24518778.5434   24518785.8214
       165.0004        166.0004
  -5897172.91449  -4571232.42447  23296811.611    23296811.1164   23296817.9634
       199.0004        199.0004
 21  2  6  1 29 30.0000000  0 10G07G14G28G21G30G17G19G01G08G09
 -23040760.40049 -17934413.30748  20076111.675    20076112.0904   20076116.3524
       215.0004        216.0004
  -4928908.55548  -3833528.58946  22707573.223    22707574.0274   22707577.5454
       167.0004        170.0004
  -2243664.99847  -1624912.61845  23272679.614    23272679.2704   23272683.1934
       155.0004        158.0004
  -6998361.45548  -5441225.89746  22832356.425    22832357.6564   22832362.5174
       166.0004        166.0004
 -18792320.49849 -14614842.64647  20986268.671    20986268.4814   20986275.0364
       207.0004        207.0004
 -13525064.43348 -10191750.73747  21816456.287    21816456.2374   21816460.6624
       192.0004        193.0004
  -6543772.71847  -5071427.66246  23608610.569    23608610.3204   23608614.0904
       162.0004        163.0004
 -20447453.94349 -15922915.93647  20760509.428    20760509.8204   20760517.6364
       199.0004        199.0004
   -869476.65747   -614969.03646  24535943.435    24535944.4204   24535951.7604
       162.0004        163.0004
  -5817085.67449  -4508826.77347  23312049.588    23312050.0744   23312058.0194
       198.0004        197.0004
 21  2  6  1 30  0.0000000  0 10G07G14G28G21G30G17G19G01G08G09
 -23049133.09849 -17940937.50548  20074518.125    20074518.5914   20074522.8424
       215.0004        216.0004
  -4960947.39448  -3858493.93046  22701477.575    22701477.5754   22701482.2774
       169.0004        171.0004
  -2266466.65947  -1642680.14745  23268340.095    23268340.3644   23268344.6134
       154.0004        156.0004
  -6926340.27348  -5385105.51046  22846065.068    22846063.8364   22846068.0694
       166.0004        168.0004
 -18853373.97749 -14662416.79347  20974650.345    20974650.4494   20974657.3414
       207.0004        208.0004
 -13554269.92448 -10214508.25247  21810898.100    21810898.3924   21810903.7014
       193.0004        194.0004
  -6615054.03447  -5126971.54745  23595046.405    23595045.4744   23595050.4144
       160.0004        162.0004
 -20438942.60749 -15916283.72347  20762129.532    20762129.5704   20762137.2744
       199.0004        199.0004
   -779382.87347   -544766.09046  24553090.960    24553089.9914   24553097.6174
       163.0004        165.0004
  -5737020.98949  -4446438.73847  23327286.790    23327286.6884   23327293.6434
       197.0004        197.0004
 21  2  6  1 30 30.0000000  0 10G07G14G28G21G30G17G19G01G08G09
 -23056951.73149 -17947029.95548  20073030.513    20073030.7324   20073034.8064
       215.0004        216.0004
  -4993064.16848  -3883519.95346  22695364.749    22695365.0744   22695370.6724
       170.0004        172.0004
  -2289391.46947  -1660543.61645  23263977.658    23263977.6204   23263981.9084
       155.0004        158.0004
  -6853943.23548  -5328692.21546  22859840.510    22859839.7284   22859843.4644
       165.0004        166.0004
 -18914050.03949 -14709696.84547  20963103.797    20963104.1514   20963110.7764
       208.0004        207.0004
 -13583072.60948 -10236951.89347  21805417.531    21805418.1734   21805422.3154
       193.0004        194.0004
  -6686032.44447  -5182279.37546  23581538.889    23581538.2174   23581543.8314
       161.0004        163.0004
 -20429819.62449 -15909174.89447  20763864.531    20763865.5984   20763872.8314
       199.0004        199.0004
   -689416.21147   -474662.27146  24570209.835    24570210.6524   24570218.9604
       164.0004        166.0004
  -5656983.46449  -4384071.84547  23342515.822    23342516.8814   23342524.1204
       197.0004        197.0004
 21  2  6  1 31  0.0000000  0 10G07G14G28G21G30G17G19G01G08G09
 -23064213.15849 -17952688.22648  20071648.124    20071648.9504   20071653.4644
       215.0004        216.0004
  -5025257.01848  -3908605.28946  22689237.777    22689238.9564   22689244.2194
       169.0004        169.0004
  -2312438.16547  -1678502.07545  23259591.686    23259591.7284   23259596.6974
       156.0004        159.0004
  -6781170.57048  -5271986.25346  22873688.646    22873687.4884   22873691.8054
       165.0004        165.0004
 -18974344.30249 -14756679.38947  20951630.125    20951630.0424   20951636.8694
       207.0004        207.0004
 -13611471.29448 -10259080.74147  21800013.276    21800013.3114   21800017.9324
       193.0004        193.0004
  -6756705.18947  -5237349.05746  23568090.946    23568090.6964   23568094.5034
       162.0004        165.0004
 -20420082.81549 -15901587.76847  20765717.618    20765717.9924   20765725.9394
       199.0004        199.0004
   -599576.44247   -404657.25846  24587304.937    24587305.3284   24587314.1874
       163.0004        163.0004
  -5576973.87049  -4321726.70647  23357740.773    23357741.8084   23357749.6064
       196.0004        196.0004
 21  2  6  1 31 30.0000000  0 10G07G14G28G21G30G17G19G01G08G09
 -23070916.46049 -17957911.57248  20070372.856    20070373.1244   20070377.6974
       215.0004        216.0004
  -5057526.38748  -3933750.25246  22683098.483    22683098.2424   22683103.2384
       168.0004        169.0004
  -2335607.86047  -1696556.35245  23255183.643    23255183.0604   23255188.0914
       158.0004        160.0004
  -6708024.49047  -5214989.29246  22887607.894    22887607.4614   22887611.8624
       164.0004        166.0004
 -19034254.61249 -14803362.73947  20940229.628    20940229.7924   20940236.2444
       207.0004        207.0004
 -13639467.47548 -10280895.93047  21794685.641    21794686.3374   21794690.9184
       193.0004        192.0004
  -6827071.68847  -5292180.06046  23554701.151    23554700.4264   23554704.1454
       163.0004        166.0004
 -20409732.39249 -15893522.49847  20767687.306    20767687.7234   20767695.2354
       198.0004        199.0004
   -509865.46047   -334752.60546  24604376.228    24604377.6364   24604385.9584
       163.0004        165.0004
  -5496995.27449  -4259405.73847  23372961.998    23372962.2424   23372969.1414
       197.0004        198.0004
 21  2  6  1 32  0.0000000  0 10G07G14G28G21G30G17G19G01G08G09
 -23077060.55649 -17962699.19948  20069203.718    20069204.4944   20069208.3364
       215.0004        216.0004
  -5089872.18848  -3958954.75846  22676941.624    22676942.1274   22676948.2694
       168.0004        168.0004
  -2358901.08647  -1714706.92545  23250750.535    23250750.4784   23250754.8644
       157.0004        159.0004
  -6634507.15747  -5157703.07446  22901596.814    22901597.4394   22901602.1234
       164.0004        165.0004
 -19093778.35749 -14849744.90147  20928902.655    20928902.9364   20928909.5544
       207.0004        208.0004
 -13667061.32648 -10302397.63247  21789434.254    21789435.3854   21789439.1364
       192.0004        191.0004
  -6897131.70547  -5346772.28446  23541368.506    23541367.8614   23541372.8544
       163.0004        163.0004
 -20398768.02549 -15884978.83447  20769773.362    20769774.2294   20769781.5584
       198.0004        198.0004
   -420284.15457   -264948.98945  24621419.919    24621422.3085   24621432.7814
       161.0004        162.0004
  -5417050.24649  -4197110.92147  23388175.516    23388175.8864   23388181.8334
       198.0004        198.0004
 21  2  6  1 32 30.0000000  0 10G07G14G28G21G30G17G19G01G08G09
 -23082643.59449 -17967049.62648  20068141.286    20068141.8094   20068146.1544
       215.0004        216.0004
  -5122293.82948  -3984218.33346  22670771.741    22670772.8964   22670777.7094
       169.0004        171.0004
  -2382317.62247  -1732953.55745  23246294.886    23246294.5644   23246299.5084
       157.0004        158.0004
  -6560619.84647  -5100128.53846  22915657.218    22915657.5004   22915662.3084
       164.0004        166.0004
 -19152912.38649 -14895823.37047  20917649.550    20917649.6514   20917656.7244
       208.0004        207.0004
 -13694252.96948 -10323585.91647  21784259.890    21784260.4064   21784265.2964
       191.0004        192.0004
  -6966883.31447  -5401124.17445  23528095.622    23528094.6744   23528098.2954
       161.0004        162.0004
 -20387188.90149 -15875956.12947  20771976.868    20771977.3164   20771984.8634
       198.0004        198.0004
   -330833.46557   -195247.21946  24638442.431    24638444.3815   24638453.7184
       161.0004        164.0004
  -5337140.78249  -4134843.81347  23403380.862    23403381.5404   23403387.9454
       198.0004        197.0004
 21  2  6  1 33  0.0000000  0 10G07G14G28G21G30G17G19G01G08G09
 -23087665.20349 -17970962.56148  20067185.255    20067185.8694   20067190.7844
       215.0004        216.0004
  -5154792.11148  -4009541.68946  22664590.051    22664589.7834   22664594.1244
       171.0004        172.0004
  -2405858.83647  -1751297.36645  23241814.753    23241814.7524   23241819.0134
       158.0004        161.0004
  -6486365.44748  -5042267.95546  22929788.171    22929787.6434   22929792.9374
       165.0004        166.0004
 -19211655.03349 -14941596.84847  20906471.397    20906471.5714   20906478.5934
       208.0004        208.0004
 -13721044.32948 -10344462.28547  21779162.021    21779162.8474   21779167.0594
       192.0004        192.0004
  -7036326.77947  -5455235.94445  23514881.109    23514880.3974   23514882.7354
       160.0004        160.0004
 -20374995.74949 -15866454.95647  20774296.940    20774297.5274   20774305.0664
       198.0004        198.0004
   -241515.74047   -125648.99946  24655441.109    24655441.7494   24655450.5094
       163.0004        165.0004
  -5257270.34749  -4072607.10847  23418579.996    23418580.5964   23418586.3704
       196.0004        195.0004
 21  2  6  1 33 30.0000000  0 10G07G14G28G21G30G17G19G01G08G09
 -23092124.81649 -17974437.59448  20066337.158    20066337.6974   20066341.5664
       215.0004        216.0004
  -5187367.40148  -4034925.02146  22658390.012    22658391.6604   22658395.7264
       174.0004        176.0004
  -2429525.50547  -1769738.91345  23237312.323    23237311.2464   23237315.8014
       159.0004        160.0004
  -6411746.68048  -4984123.45546  22943988.692    22943987.4384   22943991.7534
       165.0004        166.0004
 -19270004.14149 -14987063.69047  20895367.678    20895368.0754   20895375.1514
       208.0004        208.0004
 -13747436.39348 -10365027.52647  21774139.419    21774140.4184   21774144.8464
       192.0004        193.0004
  -7105461.60347  -5509107.22645  23501724.039    23501724.3144   23501728.2544
       160.0004        162.0004
 -20362188.82449 -15856475.52847  20776734.739    20776735.1884   20776742.8014
       198.0004        199.0004
   -152332.99447    -56155.98046  24672415.240    24672414.6924   24672420.3674
       164.0004        166.0004
  -5177441.92648  -4010403.14947  23433770.585    23433770.5984   23433778.3224
       194.0004        194.0004
 21  2  6  1 34  0.0000000  0 10G07G14G28G21G30G17G19G01G08G09
 -23096021.95849 -17977474.32748  20065595.453    20065595.9904   20065600.2144
       214.0004        216.0004
  -5220020.19348  -4060368.76046  22652178.056    22652177.4564   22652181.4114
       176.0004        176.0004
  -2453318.83947  -1788279.15745  23232783.946    23232784.0244   23232788.7944
       158.0004        161.0004
  -6336766.16647  -4925697.08946  22958255.802    22958255.8034   22958260.1624
       164.0004        167.0004
 -19327957.75749 -15032222.35547  20884339.947    20884340.1734   20884346.8204
       208.0004        207.0004
 -13773430.82948 -10385282.93047  21769193.288    21769193.1644   21769198.1314
       193.0004        193.0004
  -7174287.87247  -5562738.06846  23488627.657    23488626.9334   23488630.3504
       161.0004        164.0004
 -20348768.58449 -15846018.18647  20779288.966    20779288.7114   20779296.3114
       198.0004        198.0004
    -63286.79848     13230.65546  24689359.820    24689359.9234   24689366.4604
       166.0004        168.0004
  -5097658.68949  -3948234.42547  23448953.155    23448953.2424   23448960.4824
       195.0004        196.0004
 21  2  6  1 34 30.0000000  0 10G07G14G28G21G30G17G19G01G08G09
 -23099353.83549 -17980070.61248  20064961.908    20064962.2184   20064966.2454
       215.0004        216.0004
  -5252749.15148  -4085871.85646  22645948.016    22645948.6694   22645953.8384
       175.0004        175.0004
  -2477237.78747  -1806917.29345  23228233.201    23228232.1954   23228236.5434
       159.0004        161.0004
  -6261424.59248  -4866989.36746  22972593.206    22972592.5614   22972597.7604
       166.0004        168.0004
 -19385512.03149 -15077069.85647  20873388.308    20873388.0584   20873394.4674
       208.0004        208.0004
 -13799027.05448 -10405228.03347  21764321.859    21764322.5214   21764327.3954
       193.0004        193.0004
  -7242803.62747  -5616126.96746  23475589.542    23475589.1584   23475592.6074
       162.0004        164.0004
 -20334733.61049 -15835081.84147  20781958.530    20781959.3564   20781967.3934
       198.0004        198.0004
     25622.70147     82510.74846  24706277.124    24706276.8464   24706285.4644
       163.0004        164.0004
  -5017921.88449  -3886101.85247  23464125.981    23464126.6824   23464134.5344
       197.0004        197.0004
 21  2  6  1 35  0.0000000  0 10G07G14G28G21G30G17G19G01G08G09
 -23102119.37649 -17982225.57848  20064434.672    20064435.4544   20064439.8884
       215.0004        216.0004
  -5285553.73048  -4111433.84146  22639705.879    22639706.4364   22639711.1274
       174.0004        174.0004
  -2501282.60047  -1825653.49245  23223655.954    23223656.1604   23223660.9094
       159.0004        161.0004
  -6185723.43048  -4808001.45646  22986997.819    22986998.3704   22987003.2944
       166.0004        168.0004
 -19442664.07949 -15121603.91447  20862510.784    20862511.6444   20862519.0144
       208.0004        208.0004
 -13824225.04648 -10424862.82147  21759527.379    21759527.2964   21759532.1064
       193.0004        193.0004
  -7311007.74147  -5669272.99546  23462611.532    23462610.4584   23462614.1884
       162.0004        164.0004
 -20320083.46549 -15823666.13547  20784746.003    20784747.0434   20784754.6484
       198.0004        198.0004
    114394.98147    151683.96445  24723166.346    24723168.6414   24723176.9244
       161.0004        162.0004
  -4938233.71749  -3824007.18847  23479290.572    23479290.8574   23479298.3554
       197.0004        197.0004
 21  2  6  1 35 30.0000000  0 10G07G14G28G21G30G17G19G01G08G09
 -23104317.83549 -17983938.67448  20064016.964    20064017.5044   20064021.5734
       215.0004        216.0004
  -5318434.21648  -4137054.98746  22633449.424    22633449.8334   22633453.8884
       174.0004        174.0004
  -2525454.00547  -1844488.36545  23219057.424    23219056.3984   23219061.2694
       159.0004        162.0004
  -6109665.56248  -4748735.59646  23001471.360    23001471.5404   23001476.4854
       167.0004        168.0004
 -19499411.80849 -15165822.92547  20851712.951    20851712.8834   20851719.7874
       207.0004        207.0004
 -13849026.66448 -10444188.75847  21754807.576    21754808.3104   21754812.7504
       193.0004        194.0004
  -7378899.84547  -5722175.95346  23449690.964    23449690.5544   23449694.4044
       162.0004        165.0004
 -20304818.49049 -15811771.34447  20787650.687    20787651.6394   20787659.8674
       198.0004        198.0004
    203027.97847    220748.58146  24740036.987    24740035.7974   24740044.8264
       161.0004        163.0004
  -4858597.04849  -3761952.64047  23494444.198    23494444.5034   23494452.7464
       195.0004        193.0004
 21  2  6  1 36  0.0000000  0  9G07G14G28G21G30G17G19G01G09
 -23105947.16249 -17985208.29448  20063707.009    20063707.3714   20063711.8234
       215.0004        216.0004
  -5351389.46248  -4162734.39046  22627177.498    22627178.3554   22627182.8334
       174.0004        175.0004
  -2549751.46247  -1863421.44045  23214432.742    23214432.6704   23214435.7364
       159.0004        160.0004
  -6033251.45148  -4689192.13646  23016013.023    23016012.1484   23016017.9144
       167.0004        167.0004
 -19555751.52949 -15209724.01247  20840991.850    20840992.0554   20840998.8524
       207.0004        207.0004
 -13873431.30248 -10463205.34547  21750164.091    21750164.7984   21750168.0644
       194.0004        194.0004
  -7446478.31847  -5774834.48246  23436831.265    23436830.7334   23436834.8854
       163.0004        165.0004
 -20288937.64449 -15799396.65247  20790673.607    20790674.3894   20790682.1314
       198.0004        199.0004
  -4779013.31148  -3699939.34747  23509588.706    23509589.0224   23509596.3774
       192.0004        191.0004
 21  2  6  1 36 30.0000000  0  9G07G14G28G21G30G17G19G01G09
 -23107006.87849 -17986034.04248  20063505.086    20063505.5734   20063510.1314
       215.0004        216.0004
  -5384419.98448  -4188472.47546  22620893.227    22620892.7104   22620896.6524
       175.0004        175.0004
  -2574175.93547  -1882453.49045  23209785.941    23209785.7394   23209790.0054
       159.0004        160.0004
  -5956484.12248  -4629373.43246  23030620.276    23030620.3674   23030626.0664
       166.0004        166.0004
 -19611681.49249 -15253305.79447  20830348.858    20830348.8264   20830355.8124
       207.0004        208.0004
 -13897440.77148 -10481914.00447  21745594.971    21745595.5174   21745599.9014
       194.0004        195.0004
  -7513743.02747  -5827248.52246  23424031.095    23424030.1714   23424034.7664
       163.0004        164.0004
 -20272441.55649 -15786542.54647  20793812.706    20793813.5154   20793820.9914
       198.0004        198.0004
  -4699485.73448  -3637969.82247  23524724.221    23524724.1254   23524730.4954
       193.0004        194.0004
 21  2  6  1 37  0.0000000  0  9G07G14G28G21G30G17G19G01G09
 -23107498.17849 -17986416.88448  20063411.472    20063412.0364   20063416.6774
       215.0004        216.0004
  -5417527.72348  -4214270.70346  22614591.966    22614592.7014   22614598.1284
       177.0004        178.0004
  -2598729.91747  -1901586.46145  23205112.193    23205112.3854   23205115.8264
       158.0004        160.0004
  -5879368.07048  -4569283.01046  23045295.544    23045296.0324   23045301.4244
       166.0004        167.0004
 -19667201.34049 -15296568.02347  20819784.114    20819784.2074   20819790.6124
       207.0004        208.0004
 -13921057.51948 -10500316.66447  21741100.351    21741100.5104   21741105.6594
       194.0004        193.0004
  -7580695.43547  -5879419.21346  23411290.999    23411289.5984   23411294.2994
       162.0004        163.0004
 -20255332.48749 -15773210.79847  20797067.910    20797068.4424   20797077.0444
       198.0004        198.0004
  -4620018.95648  -3576047.66547  23539844.464    23539845.3954   23539852.6764
       193.0004        194.0004
 21  2  6  1 37 30.0000000  0  9G07G14G28G21G30G17G19G01G09
 -23107419.25249 -17986355.39848  20063426.678    20063427.2874   20063431.5044
       214.0004        216.0004
  -5450711.51748  -4240128.20146  22608277.490    22608277.6124   22608284.0274
       177.0004        178.0004
  -2623412.93447  -1920819.98245  23200415.602    23200415.4204   23200419.5824
       157.0004        160.0004
  -5801904.23948  -4508921.60846  23060037.315    23060037.4574   23060040.5184
       166.0004        167.0004
 -19722307.56549 -15339507.94847  20809297.699    20809297.6554   20809304.2304
       208.0004        208.0004
 -13944282.17248 -10518413.79347  21736681.094    21736681.7524   21736686.2874
       193.0004        194.0004
  -7647333.87647  -5931345.28745  23398608.786    23398608.6274   23398612.6854
       160.0004        162.0004
 -20237609.44349 -15759400.64047  20800440.988    20800441.5474   20800449.4034
       198.0004        198.0004
  -4540614.42648  -3514174.01947  23554955.252    23554955.1894   23554962.6404
       194.0004        193.0004
 21  2  6  1 38  0.0000000  0  9G07G14G28G21G30G17G19G01G09
 -23106768.44949 -17985848.28848  20063550.031    20063550.9134   20063555.1204
       214.0004        216.0004
  -5483970.58548  -4266044.34546  22601948.059    22601948.4644   22601954.1184
       175.0004        174.0004
  -2648224.35747  -1940153.54645  23195694.177    23195694.0354   23195699.0404
       157.0004        159.0004
  -5724094.45548  -4448290.59146  23074844.454    23074843.6134   23074847.9844
       166.0004        166.0004
 -19776997.00249 -15382123.10247  20798890.127    20798890.3614   20798897.2584
       208.0004        208.0004
 -13967114.71248 -10536205.35547  21732335.850    21732336.4434   21732341.2824
       194.0004        194.0004
  -7713657.19447  -5983025.77646  23385990.346    23385989.1684   23385993.1214
       163.0004        167.0004
 -20219271.90449 -15745111.63347  20803930.186    20803930.9324   20803939.0094
       198.0004        198.0004
  -4461273.99748  -3452350.31647  23570052.317    23570052.7334   23570060.2604
       191.0004        189.0004
 21  2  6  1 38 30.0000000  0  9G07G14G28G21G30G17G19G01G09
 -23105546.25249 -17984895.93748  20063782.941    20063783.4954   20063787.9764
       214.0004        215.0004
  -5517305.73448  -4292019.80746  22595605.736    22595606.1984   22595609.4484
       174.0004        174.0004
  -2673165.74847  -1959588.39845  23190948.480    23190948.7024   23190952.7154
       157.0004        159.0004
  -5645941.54447  -4387392.23246  23089716.196    23089715.6014   23089719.9444
       164.0004        165.0004
 -19831268.27149 -15424412.40747  20788563.081    20788562.9584   20788569.9514
       207.0004        208.0004
 -13989557.06048 -10553692.90247  21728066.101    21728065.9434   21728070.3554
       194.0004        194.0004
  -7779665.91047  -6034461.13146  23373427.881    23373427.0074   23373432.0124
       163.0004        164.0004
 -20200321.05249 -15730344.73647  20807536.058    20807537.0974   20807544.8294
       197.0004        197.0004
  -4382001.22048  -3390579.33647  23585138.100    23585138.1754   23585144.6604
       190.0004        190.0004
 21  2  6  1 39  0.0000000  0  9G07G14G28G21G30G17G19G01G09
 -23103751.04749 -17983497.07648  20064124.879    20064125.3204   20064129.7404
       214.0004        216.0004
  -5550716.46148  -4318054.13246  22589247.783    22589249.1614   22589251.6704
       174.0004        176.0004
  -2698237.38747  -1979124.73646  23186177.364    23186177.3084   23186181.9414
       159.0004        163.0004
  -5567447.41947  -4326227.97646  23104652.939    23104652.7554   23104655.4584
       164.0004        166.0004
 -19885118.59049 -15466373.69047  20778315.546    20778315.4294   20778322.5504
       207.0004        208.0004
 -14011609.77548 -10570876.82847  21723869.028    21723869.7704   21723874.4204
       194.0004        195.0004
  -7845358.88047  -6085650.44645  23360925.315    23360925.5104   23360929.8894
       161.0004        161.0004
 -20180756.74449 -15715099.80847  20811259.244    20811260.2084   20811267.9404
       197.0004        197.0004
  -4302798.24448  -3328862.73647  23600210.276    23600210.0434   23600217.4184
       190.0004        191.0004
 21  2  6  1 39 30.0000000  0  9G07G14G28G21G30G17G19G01G09
 -23101380.96449 -17981650.26348  20064575.888    20064576.1264   20064580.3724
       214.0004        215.0004
  -5584201.85148  -4344146.66046  22582875.537    22582876.1024   22582880.0034
       175.0004        175.0004
  -2723438.66447  -1998762.07945  23181381.031    23181381.6544   23181386.4494
       160.0004        161.0004
  -5488613.40047  -4264798.87946  23119654.449    23119654.1904   23119657.0654
       164.0004        165.0004
 -19938544.78149 -15508004.48547  20768148.559    20768148.8834   20768155.9454
       208.0004        208.0004
 -14033273.20048 -10587757.39647  21719746.425    21719747.1504   21719751.4984
       194.0004        194.0004
  -7910734.80447  -6136592.70045  23348486.933    23348486.2944   23348489.9594
       160.0004        162.0004
 -20160578.43849 -15699376.43447  20815099.796    20815099.8994   20815107.8684
       197.0004        197.0004
  -4223666.80848  -3267201.86047  23615267.208    23615267.9594   23615276.4074
       190.0004        190.0004
 21  2  6  1 40  0.0000000  0  9G07G14G28G21G30G17G19G01G09
 -23098436.38749 -17979355.79948  20065135.648    20065136.3414   20065140.8434
       214.0004        215.0004
  -5617762.33148  -4370297.69646  22576488.196    22576489.0364   22576494.3124
       176.0004        176.0004
  -2748770.48247  -2018501.15045  23176560.465    23176560.3894   23176565.8994
       158.0004        161.0004
  -5409442.46447  -4203107.24245  23134719.766    23134719.7734   23134721.8774
       162.0004        162.0004
 -19991545.09349 -15549303.43747  20758062.904    20758062.9984   20758069.9634
       208.0004        208.0004
 -14054548.89948 -10604335.85847  21715698.217    21715698.3804   21715703.6734
       194.0004        195.0004
  -7975793.89847  -6187288.09745  23336105.557    23336105.2544   23336109.6524
       160.0004        162.0004
 -20139787.07649 -15683175.38147  20819055.745    20819056.3874   20819063.7754
       197.0004        197.0004
  -4144609.92448  -3205599.13847  23630314.065    23630313.6804   23630320.2044
       190.0004        191.0004
 21  2  6  1 40 30.0000000  0  9G07G14G28G21G30G17G19G01G09
 -23094915.82849 -17976612.51148  20065806.302    20065806.4344   20065810.8564
       214.0004        215.0004
  -5651397.25748  -4396506.70446  22570087.020    22570087.8574   22570093.7674
       175.0004        175.0004
  -2774232.75047  -2038341.86345  23171714.955    23171715.7924   23171719.8264
       158.0004        160.0004
  -5329936.57147  -4141154.58946  23149850.693    23149848.6324   23149851.4134
       162.0004        164.0004
 -20044116.63649 -15590268.27447  20748059.465    20748059.1374   20748066.3794
       208.0004        208.0004
 -14075437.50249 -10620612.66947  21711722.998    21711723.5384   21711728.3484
       195.0004        195.0004
  -8040535.20547  -6237735.83845  23323785.291    23323784.1014   23323789.1654
       160.0004        162.0004
 -20118382.41449 -15666496.41547  20823129.477    20823129.3364   20823136.7064
       197.0004        197.0004
  -4065629.64848  -3144056.08747  23645340.602    23645341.2764   23645349.0354
       189.0004        188.0004
 21  2  6  1 41  0.0000000  0  9G07G14G28G21G30G17G19G01G09
 -23090818.70549 -17973419.94848  20066585.293    20066585.9684   20066590.3274
       214.0004        215.0004
  -5685106.30548  -4422773.48946  22563674.224    22563673.7794   22563678.4144
       175.0004        176.0004
  -2799825.86847  -2058284.55745  23166845.548    23166845.1854   23166849.7914
       158.0004        161.0004
  -5250097.41947  -4078942.25345  23165041.383    23165042.0544   23165045.2994
       161.0004        162.0004
 -20096256.98049 -15630897.11547  20738137.040    20738137.1024   20738144.3764
       208.0004        209.0004
 -14095940.19949 -10636588.78647  21707821.146    21707821.6024   21707827.1964
       195.0004        196.0004
  -8104957.91047  -6287935.33446  23311526.309    23311526.0444   23311530.5264
       161.0004        164.0004
 -20096364.70149 -15649339.74347  20827318.461    20827319.3524   20827327.0374
       197.0004        197.0004
  -3986728.34348  -3082574.56347  23660355.250    23660355.9494   23660363.7584
       188.0004        188.0004
 21  2  6  1 41 30.0000000  0  9G07G14G28G21G30G17G19G01G09
 -23086144.29149 -17969777.56048  20067475.164    20067475.6584   20067479.8174
       214.0004        215.0004
  -5718889.33748  -4449097.93546  22557244.628    22557246.1964   22557249.9454
       176.0004        177.0004
  -2825549.82547  -2078329.16245  23161948.938    23161950.0744   23161954.2974
       158.0004        159.0004
  -5169927.47547  -4016472.16846  23180299.672    23180298.4174   23180301.7534
       161.0004        163.0004
 -20147963.82449 -15671188.16547  20728297.741    20728297.9734   20728304.9674
       209.0004        210.0004
 -14116057.87649 -10652264.89547  21703993.690    21703993.9664   21703998.7854
       196.0004        196.0004
  -8169061.67347  -6337886.29346  23299327.806    23299327.3574   23299331.1244
       161.0004        163.0004
 -20073734.41449 -15631705.75047  20831625.648    20831626.0214   20831634.0184
       197.0004        198.0004
  -3907908.55148  -3021156.53647  23675355.558    23675355.7504   23675362.5934
       189.0004        190.0004
 21  2  6  1 42  0.0000000  0  9G07G14G28G21G30G17G19G01G09
 -23080892.60249 -17965685.35248  20068474.448    20068474.9234   20068479.4984
       214.0004        215.0004
  -5752746.80248  -4475480.38246  22550802.184    22550802.6534   22550807.3844
       177.0004        178.0004
  -2851405.97747  -2098476.81145  23157030.903    23157029.9234   23157034.8064
       159.0004        162.0004
  -5089429.91247  -3953746.79546  23195616.482    23195615.1424   23195619.8094
       163.0004        164.0004
 -20199235.52149 -15711140.15247  20718541.147    20718541.2354   20718547.8214
       209.0004        210.0004
 -14135792.12249 -10667642.23347  21700238.153    21700238.3884   21700243.1404
       195.0004        194.0004
  -8232846.89247  -6387589.08346  23287190.236    23287189.9464   23287194.0684
       162.0004        164.0004
 -20050492.57649 -15613595.23347  20836047.789    20836048.7464   20836056.2964
       197.0004        197.0004
  -3829173.21048  -2959804.33547  23690339.029    23690338.5884   23690345.8344
       189.0004        189.0004
 21  2  6  1 42 30.0000000  0 10G07G14G28G21G30G17G19G01G22G09
 -23075064.15449 -17961143.71248  20069583.888    20069584.2914   20069588.8264
       214.0004        216.0004
  -5786679.56148  -4501921.50546  22544344.894    22544345.4774   22544350.1884
       178.0004        178.0004
  -2877395.68247  -2118728.52845  23152083.620    23152085.1414   23152087.2074
       158.0004        160.0004
  -5008607.45547  -3890768.25346  23210995.731    23210995.9584   23211000.6054
       163.0004        164.0004
 -20250070.86049 -15750752.10147  20708867.208    20708867.4644   20708874.6794
       209.0004        209.0004
 -14155145.42549 -10682722.72447  21696555.352    21696555.4584   21696560.0294
       195.0004        194.0004
  -8296313.94547  -6437043.92646  23275112.784    23275112.0034   23275116.6664
       162.0004        164.0004
 -20026640.77249 -15595009.40247  20840587.454    20840587.8824   20840595.1214
       197.0004        197.0004
  -4869951.13456  -3780430.24945  24786202.682    24786202.6035   24786208.7414
       132.0004        137.0004
  -3750526.19548  -2898520.96246  23705303.548    23705303.8404   23705311.1614
       188.0004        187.0004
 21  2  6  1 43  0.0000000  0 10G07G14G28G21G30G17G19G01G22G09
 -23068656.67349 -17956150.87848  20070802.842    20070803.3684   20070807.8574
       214.0004        215.0004
  -5820685.79848  -4528419.83746  22537873.478    22537874.1044   22537879.4284
       177.0004        177.0004
  -2903517.60747  -2139083.28145  23147113.783    23147114.4364   23147118.0114
       158.0004        161.0004
  -4927461.48547  -3827537.62746  23226438.003    23226437.1904   23226442.9354
       162.0004        164.0004
 -20300465.91249 -15790020.97047  20699278.037    20699278.1634   20699284.5144
       210.0004        210.0004
 -14174117.37748 -10697506.04747  21692944.636    21692945.2754   21692949.9024
       194.0004        194.0004
  -8359461.06547  -6486249.43746  23263097.418    23263096.3074   23263100.0164
       163.0004        164.0004
 -20002177.79849 -15575947.33547  20845242.021    20845242.9364   20845249.9614
       197.0004        197.0004
  -4892398.60246  -3797921.76645  24781931.265    24781932.5844   24781934.0134
       131.0004        137.0004
  -3671968.29348  -2837306.99947  23720251.967    23720252.1934   23720261.0694
       188.0004        188.0004
 21  2  6  1 43 30.0000000  0 10G07G14G28G21G30G17G19G01G22G09
 -23061668.56349 -17950705.59948  20072132.811    20072133.4574   20072137.7594
       214.0004        215.0004
  -5854764.17048  -4554974.43446  22531389.189    22531389.6784   22531392.8004
       177.0004        177.0004
  -2929770.98347  -2159540.42745  23142117.855    23142117.2444   23142121.2434
       159.0004        162.0004
  -4845992.93947  -3764055.64746  23241940.456    23241940.1964   23241944.8414
       163.0004        165.0004
 -20350417.28649 -15828944.12147  20689772.128    20689772.2334   20689778.9644
       210.0004        210.0004
 -14192707.71248 -10711992.00947  21689407.230    21689407.6434   21689412.0974
       194.0004        194.0004
  -8422286.62347  -6535204.40146  23251140.836    23251140.6274   23251145.0364
       162.0004        164.0004
 -19977103.09849 -15556408.58847  20850013.413    20850013.8564   20850021.9894
       197.0004        197.0004
  -4914749.52946  -3815338.01745  24777677.607    24777678.3964   24777681.8024
       132.0004        140.0004
  -3593500.74348  -2776163.46647  23735184.487    23735184.5764   23735192.0754
       187.0004        188.0004
 21  2  6  1 44  0.0000000  0 10G07G14G28G21G30G17G19G01G22G09
 -23054099.48449 -17944807.62748  20073573.149    20073573.5534   20073578.0674
       214.0004        215.0004
  -5888914.61448  -4581585.19446  22524890.414    22524890.9094   22524895.2684
       177.0004        177.0004
  -2956156.37947  -2180100.47345  23137096.701    23137095.9844   23137101.0814
       159.0004        160.0004
  -4764203.99447  -3700323.99146  23257505.487    23257504.7214   23257509.2314
       163.0004        165.0004
 -20399922.90649 -15867519.93047  20680351.584    20680351.5684   20680358.3624
       210.0004        210.0004
 -14210918.08748 -10726181.90047  21685941.662    21685942.1654   21685946.4224
       194.0004        194.0004
  -8484790.32647  -6583908.59946  23239246.141    23239245.8594   23239250.6844
       163.0004        164.0004
 -19951417.40649 -15536393.76647  20854901.274    20854902.3974   20854909.7684
       197.0004        197.0004
  -4937001.41947  -3832677.13645  24773444.323    24773444.5494   24773447.0514
       135.0004        141.0004
  -3515126.13148  -2715092.36446  23750098.980    23750099.0904   23750106.7824
       187.0004        187.0004
 21  2  6  1 44 30.0000000  0 10G07G14G28G21G30G17G19G01G22G09
 -23045949.48649 -17938456.99148  20075123.479    20075124.3014   20075128.7394
       214.0004        215.0004
  -5923137.78648  -4608252.57746  22518377.344    22518378.5024   22518382.9834
       178.0004        178.0004
  -2982674.74247  -2200764.10645  23132050.145    23132049.8924   23132054.5804
       158.0004        160.0004
  -4682098.42747  -3636345.64046  23273128.437    23273127.9324   23273133.3854
       163.0004        164.0004
 -20448981.43949 -15905747.36547  20671016.374    20671016.1184   20671022.8804
       210.0004        211.0004
 -14228750.67149 -10740077.41747  21682548.940    21682549.1074   21682553.2114
       195.0004        195.0004
  -8546972.92548  -6632362.58746  23227415.258    23227414.5214   23227417.9274
       165.0004        169.0004
 -19925122.20049 -15515903.98447  20859905.601    20859905.8624   20859912.8004
       196.0004        196.0004
  -4959153.07647  -3849938.17245  24769229.376    24769230.6504   24769231.7124
       136.0004        141.0004
  -3436847.85748  -2654096.30246  23764995.305    23764995.4964   23765001.7344
       186.0004        186.0004
 21  2  6  1 45  0.0000000  0 10G07G14G28G21G30G17G19G01G22G09
 -23037218.10249 -17931653.31848  20076786.053    20076786.3404   20076790.4324
       214.0004        215.0004
  -5957433.17148  -4634976.23646  22511851.002    22511852.3694   22511857.0054
       178.0004        177.0004
  -3009326.29547  -2221531.51045  23126978.652    23126978.3334   23126983.4794
       159.0004        160.0004
  -4599678.04147  -3572121.96045  23288811.340    23288811.2044   23288818.0204
       162.0004        162.0004
 -20497590.39049 -15943624.47447  20661765.665    20661766.1694   20661773.1944
       211.0004        211.0004
 -14246205.94849 -10753678.91747  21679227.708    21679227.7294   21679231.7484
       196.0004        196.0004
  -8608833.67847  -6680565.71846  23215641.120    23215640.6034   23215645.5684
       164.0004        163.0004
 -19898217.80049 -15494939.51247  20865025.722    20865025.9984   20865032.9644
       197.0004        197.0004
  -4981202.15646  -3867119.29045  24765033.676    24765032.7654   24765035.6324
       134.0004        139.0004
  -3358668.08448  -2593176.99546  23779870.823    23779871.7224   23779878.8654
       186.0004        186.0004
 21  2  6  1 45 30.0000000  0 10G07G14G28G21G30G17G19G01G22G09
 -23027904.38449 -17924395.88948  20078557.941    20078558.6074   20078562.5834
       214.0004        215.0004
  -5991799.78148  -4661755.42546  22505311.866    22505312.0394   22505316.9664
       178.0004        179.0004
  -3036110.96147  -2242402.70045  23121882.522    23121881.7914   23121886.6464
       159.0004        161.0004
  -4516944.57247  -3507654.33945  23304556.798    23304555.8874   23304560.9744
       161.0004        162.0004
 -20545746.82149 -15981148.97447  20652602.582    20652602.6114   20652609.4294
       211.0004        212.0004
 -14263284.57049 -10766986.92047  21675976.855    21675977.3094   21675981.4704
       195.0004        194.0004
  -8670371.40847  -6728517.21746  23203931.375    23203931.4564   23203935.7674
       163.0004        165.0004
 -19870704.13149 -15473500.28247  20870260.424    20870261.1814   20870269.0784
       197.0004        197.0004
  -5003145.32246  -3884217.83145  24760857.755    24760856.4984   24760860.2294
       134.0004        141.0004
  -3280588.47048  -2532335.76547  23794730.782    23794730.5754   23794737.2974
       187.0004        189.0004
 21  2  6  1 46  0.0000000  0 10G07G14G28G21G30G17G19G01G22G09
 -23018009.60849 -17916685.68548  20080441.442    20080441.6464   20080445.7694
       214.0004        215.0004
  -6026238.89948  -4688591.11146  22498758.138    22498758.4544   22498763.0374
       178.0004        178.0004
  -3063029.66947  -2263378.31046  23116759.072    23116759.4514   23116764.5864
       160.0004        163.0004
  -4433901.62647  -3442945.56545  23320358.786    23320359.2024   23320364.1534
       160.0004        162.0004
 -20593450.16549 -16018320.41747  20643524.371    20643524.6234   20643531.7304
       211.0004        212.0004
 -14279989.74948 -10780003.93547  21672797.865    21672798.4494   21672802.6004
       194.0004        195.0004
  -8731587.64148  -6776218.16646  23192283.813    23192282.4344   23192286.5844
       165.0004        168.0004
 -19842583.50749 -15451588.10447  20875612.542    20875612.7324   20875619.8714
       196.0004        197.0004
  -5024982.06247  -3901233.43945  24756702.920    24756701.1774   24756705.7664
       136.0004        142.0004
  -3202613.09148  -2471575.75747  23809569.336    23809569.3944   23809575.3964
       190.0004        191.0004
 21  2  6  1 46 30.0000000  0 10G07G14G28G21G30G17G19G01G22G09
 -23007532.10049 -17908521.39448  20082434.753    20082435.2224   20082439.3744
       214.0004        215.0004
  -6060749.38448  -4715482.40846  22492190.682    22492191.3884   22492196.7664
       177.0004        177.0004
  -3090082.22447  -2284458.23045  23111611.877    23111610.6424   23111614.8324
       160.0004        161.0004
  -4350550.83247  -3377996.89145  23336220.966    23336220.2124   23336225.1014
       160.0004        161.0004
 -20640697.25949 -16055136.33147  20634533.562    20634533.9314   20634541.3184
       212.0004        212.0004
 -14296321.70349 -10792730.11847  21669690.277    21669690.8084   21669694.9204
       195.0004        195.0004
  -8792480.99248  -6823667.51546  23180695.610    23180694.5124   23180698.2624
       165.0004        167.0004
 -19813855.66849 -15429202.75947  20881078.668    20881079.2934   20881086.4694
       196.0004        197.0004
  -5046709.63847  -3918163.99145  24752567.053    24752567.1244   24752570.9004
       137.0004        143.0004
  -3124743.31348  -2410898.02847  23824385.109    23824386.5264   23824393.9434
       190.0004        190.0004
 21  2  6  1 47  0.0000000  0 10G07G14G28G21G30G17G19G01G22G09
 -22996471.59849 -17899902.85148  20084540.060    20084540.5014   20084544.1524
       214.0004        216.0004
  -6095330.83248  -4742428.99846  22485610.481    22485610.6604   22485616.3844
       177.0004        176.0004
  -3117268.87747  -2305642.65545  23106436.452    23106436.7054   23106442.2244
       156.0004        157.0004
  -4266894.63747  -3312810.26145  23352139.732    23352138.9974   23352144.2754
       159.0004        161.0004
 -20687485.94849 -16091595.06447  20625630.411    20625630.3194   20625637.2424
       212.0004        212.0004
 -14312281.77049 -10805166.52347  21666652.765    21666653.2094   21666657.4804
       195.0004        195.0004
  -8853051.18848  -6870865.06246  23169169.400    23169168.6984   23169172.3674
       165.0004        166.0004
 -19784521.34949 -15406344.84847  20886661.869    20886661.6914   20886668.9514
       197.0004        197.0004
  -5068325.15847  -3935007.27945  24748453.795    24748453.6084   24748457.3394
       139.0004        143.0004
  -3046981.64448  -2350304.51847  23839182.672    23839183.0424   23839191.9454
       189.0004        190.0004
 21  2  6  1 47 30.0000000  0 10G07G14G28G21G30G17G19G01G22G09
 -22984826.63649 -17890828.84848  20086755.466    20086756.1094   20086760.3004
       214.0004        215.0004
  -6129981.78348  -4769429.73746  22479015.269    22479015.8094   22479021.3454
       176.0004        176.0004
  -3144589.06747  -2326931.09945  23101239.492    23101239.5574   23101242.9364
       157.0004        161.0004
  -4182934.29547  -3247386.61645  23368116.220    23368116.1574   23368120.1744
       158.0004        161.0004
 -20733812.88749 -16127693.97247  20616814.422    20616814.4474   20616821.4934
       212.0004        212.0004
 -14327869.44149 -10817312.75347  21663686.558    21663687.1034   21663691.7524
       195.0004        195.0004
  -8913296.94648  -6917809.78946  23157704.711    23157704.5834   23157707.8624
       166.0004        167.0004
 -19754580.07649 -15383013.97347  20892358.253    20892358.5484   20892366.5464
       196.0004        196.0004
  -5089825.29647  -3951760.61345  24744362.876    24744361.4024   24744367.6604
       139.0004        144.0004
  -2969329.14648  -2289796.09647  23853960.525    23853960.6974   23853968.2054
       190.0004        191.0004
 21  2  6  1 48  0.0000000  0 10G07G14G28G21G30G17G19G01G22G09
 -22972597.65449 -17881299.78548  20089082.954    20089083.4734   20089087.1474
       214.0004        215.0004
  -6164702.82348  -4796485.09846  22472410.126    22472410.9464   22472415.1674
       177.0004        179.0004
  -3172043.19447  -2348323.90745  23096015.282    23096014.5574   23096018.8054
       159.0004        161.0004
  -4098673.14447  -3181728.58045  23384150.592    23384150.0694   23384154.1314
       157.0004        158.0004
 -20779676.82749 -16163432.10848  20608086.474    20608086.8404   20608093.8364
       212.0004        213.0004
 -14343087.61249 -10829171.05747  21660791.093    21660791.5054   21660796.1184
       196.0004        197.0004
  -8973218.69548  -6964502.06946  23146301.418    23146301.2744   23146305.3094
       166.0004        167.0004
 -19724033.58949 -15359211.51447  20898171.401    20898172.1554   20898179.5024
       196.0004        197.0004
  -5111208.70847  -3968422.98145  24740295.299    24740293.9444   24740297.6374
       137.0004        142.0004
  -2891789.18048  -2229375.36647  23868715.050    23868715.6724   23868723.5984
       189.0004        188.0004
 21  2  6  1 48 30.0000000  0 10G07G14G28G21G30G17G19G01G22G09
 -22959785.40049 -17871316.21748  20091520.849    20091521.1564   20091525.2264
       214.0004        214.0004
  -6199494.43948  -4823595.44046  22465788.472    22465789.0944   22465793.7544
       178.0004        177.0004
  -3199632.67247  -2369822.17645  23090764.186    23090764.1804   23090768.4334
       159.0004        161.0004
  -4014113.83747  -3115838.20345  23400241.603    23400240.5814   23400245.0294
       155.0004        157.0004
 -20825076.42049 -16198808.41748  20599447.700    20599448.0154   20599454.6494
       212.0004        213.0004
 -14357938.02849 -10840742.79847  21657965.161    21657965.8104   21657970.0824
       196.0004        197.0004
  -9032816.79548  -7010942.14646  23134961.626    23134961.2924   23134964.4514
       168.0004        170.0004
 -19692883.48849 -15334938.69447  20904098.984    20904099.5124   20904107.2744
       197.0004        197.0004
  -5132473.85047  -3984993.21445  24736246.596    24736245.8454   24736251.7794
       137.0004        143.0004
  -2814364.83548  -2169044.72546  23883450.565    23883449.9924   23883456.8884
       187.0004        187.0004
 21  2  6  1 49  0.0000000  0 10G07G14G28G21G30G17G19G01G22G09
 -22946388.42649 -17860877.02848  20094070.372    20094070.6414   20094075.1144
       214.0004        214.0004
  -6234355.23248  -4850759.69946  22459154.815    22459155.7394   22459160.1894
       177.0004        178.0004
  -3227356.66347  -2391425.28845  23085489.222    23085489.1944   23085493.1454
       160.0004        162.0004
  -3929258.03247  -3049716.79845  23416389.511    23416389.5134   23416391.2804
       155.0004        157.0004
 -20870008.61549 -16233820.52048  20590897.765    20590897.7164   20590904.5444
       212.0004        213.0004
 -14372421.43349 -10852028.56347  21655209.298    21655209.2514   21655213.9404
       196.0004        195.0004
  -9092090.39148  -7057129.34346  23123681.687    23123681.2894   23123685.0204
       170.0004        172.0004
 -19661129.64049 -15310195.42747  20910141.095    20910141.9134   20910149.6214
       196.0004        196.0004
  -5153617.73247  -4001468.90645  24732223.391    24732223.1484   24732228.6094
       139.0004        144.0004
  -2737057.51448  -2108805.24647  23898161.021    23898161.0994   23898168.0154
       188.0004        188.0004
 21  2  6  1 49 30.0000000  0 10G07G14G28G21G30G17G19G01G22G09
 -22932407.24149 -17849982.60448  20096730.403    20096731.1364   20096735.5674
       213.0004        214.0004
  -6269285.50948  -4877978.07146  22452507.513    22452509.0144   22452513.4514
       178.0004        178.0004
  -3255215.90647  -2413133.79945  23080188.299    23080187.4634   23080192.1824
       161.0004        162.0004
  -3844108.87647  -2983366.80645  23432593.264    23432591.9694   23432597.0854
       156.0004        158.0004
 -20914471.92449 -16268467.26148  20582436.734    20582436.6214   20582443.3344
       213.0004        213.0004
 -14386539.32649 -10863029.51047  21652522.330    21652522.6204   21652527.0694
       195.0004        194.0004
  -9151040.02148  -7103064.13346  23112463.974    23112463.1504   23112466.6114
       171.0004        173.0004
 -19628773.56349 -15284982.89247  20916298.277    20916298.9894   20916306.8384
       196.0004        196.0004
  -5174638.54047  -4017848.74045  24728225.455    24728224.3344   24728226.7044
       141.0004        147.0004
  -2659870.22348  -2048659.31847  23912850.204    23912849.8694   23912856.6774
       189.0004        189.0004
 21  2  6  1 50  0.0000000  0 10G07G14G28G21G30G17G19G01G22G09
 -22917840.89949 -17838632.22148  20099502.654    20099503.0504   20099507.2994
       213.0004        214.0004
  -6304284.14748  -4905249.74546  22445848.151    22445848.7534   22445853.3244
       178.0004        178.0004
  -3283209.82947  -2434947.21745  23074859.253    23074858.7904   23074864.9094
       158.0004        160.0004
  -3758668.08447  -2916789.57245  23448850.976    23448851.2994   23448856.6804
       157.0004        160.0004
 -20958463.52949 -16302746.44048  20574065.050    20574065.2244   20574072.0684
       213.0004        213.0004
 -14400292.92849 -10873746.59247  21649905.228    21649906.0154   21649910.0544
       195.0004        196.0004
  -9209664.38148  -7148745.44846  23101307.574    23101307.6224   23101311.2324
       171.0004        171.0004
 -19595815.35849 -15259301.16747  20922570.036    20922570.6614   20922578.6184
       195.0004        195.0004
  -5195533.29047  -4034130.36045  24724249.229    24724246.9614   24724249.6314
       142.0004        146.0004
  -2582804.44948  -1988608.09246  23927513.969    23927514.3174   23927521.5684
       188.0004        187.0004
 21  2  6  1 50 30.0000000  0 10G07G14G28G21G30G17G19G01G22G09
 -22902689.67149 -17826826.08148  20102385.586    20102386.3044   20102390.3364
       213.0004        214.0004
  -6339351.08948  -4932574.65046  22439174.546    22439175.4524   22439179.8684
       176.0004        176.0004
  -3311338.86247  -2456865.95345  23069509.123    23069508.8744   23069511.4104
       158.0004        160.0004
  -3672938.22647  -2849987.09645  23465164.511    23465164.1964   23465170.5554
       157.0004        158.0004
 -21001981.64649 -16336656.66848  20565783.516    20565784.0314   20565790.4334
       213.0004        213.0004
 -14413683.65749 -10884180.91047  21647356.666    21647357.2614   21647362.0884
       196.0004        196.0004
  -9267963.66348  -7194173.45746  23090214.362    23090213.3464   23090217.6284
       171.0004        172.0004
 -19562256.31649 -15233151.26147  20928956.073    20928956.5804   20928965.0454
       195.0004        196.0004
  -5216300.00247  -4050312.18445  24720295.586    24720295.0284   24720299.7144
       141.0004        144.0004
  -2505862.87348  -1928653.61646  23942155.460    23942156.0854   23942162.8264
       186.0004        186.0004
 21  2  6  1 51  0.0000000  0 10G07G14G28G21G30G17G19G01G22G09
 -22886952.71749 -17814563.52948  20105380.207    20105380.5134   20105385.4174
       213.0004        214.0004
  -6374485.07948  -4959951.77646  22432487.853    22432489.3394   22432493.5614
       175.0004        175.0004
  -3339602.60647  -2478889.62645  23064129.125    23064129.3234   23064133.7294
       158.0004        159.0004
  -3586920.95447  -2782960.68345  23481535.515    23481533.8274   23481539.1884
       158.0004        161.0004
 -21045023.40149 -16370195.70848  20557593.475    20557593.4824   20557599.8014
       213.0004        213.0004
 -14426712.05749 -10894332.91447  21644877.514    21644878.1114   21644882.8904
       196.0004        197.0004
  -9325936.85748  -7239347.38746  23079182.951    23079181.4554   23079185.7894
       172.0004        171.0004
 -19528096.54949 -15206533.25547  20935457.278    20935457.3634   20935464.8134
       195.0004        195.0004
  -5236935.77047  -4066391.96545  24716366.421    24716364.9764   24716372.9444
       138.0004        141.0004
  -2429046.88948  -1868797.00046  23956772.977    23956773.5724   23956780.7624
       185.0004        184.0004
 21  2  6  1 51 30.0000000  0 10G07G14G28G21G30G17G19G01G22G09
 -22870629.98449 -17801844.53148  20108486.426    20108486.8224   20108491.2154
       213.0004        214.0004
  -6409685.88348  -4987380.98646  22425791.039    22425791.1124   22425795.7874
       176.0004        176.0004
  -3368001.01147  -2501018.24045  23058724.333    23058724.9244   23058728.8234
       157.0004        159.0004
  -3500618.97047  -2715712.36845  23497956.330    23497956.0994   23497962.6534
       160.0004        162.0004
 -21087587.01249 -16403362.16148  20549493.448    20549493.7254   20549500.4144
       213.0004        213.0004
 -14439379.41849 -10904203.58647  21642467.513    21642467.9514   21642471.9754
       197.0004        196.0004
  -9383584.26148  -7284267.44346  23068212.494    23068212.2444   23068215.7174
       170.0004        170.0004
 -19493337.30749 -15179448.12747  20942071.400    20942071.3794   20942079.8464
       195.0004        195.0004
  -5257438.52847  -4082368.11545  24712466.947    24712466.5274   24712469.9284
       138.0004        143.0004
  -2352359.13548  -1809040.30346  23971366.077    23971365.9194   23971372.7694
       183.0004        183.0004
 21  2  6  1 52  0.0000000  0 10G07G14G28G21G30G17G19G01G22G09
 -22853721.95849 -17788669.44548  20111704.044    20111704.2594   20111708.5394
       213.0004        213.0004
  -6444953.68848  -5014862.37846  22419078.901    22419079.3634   22419084.9394
       175.0004        175.0004
  -3396535.01147  -2523252.54545  23053296.501    23053295.3484   23053299.4264
       159.0004        162.0004
  -3414034.89947  -2648244.27445  23514431.744    23514431.8454   23514438.7034
       159.0004        160.0004
 -21129670.91849 -16436154.81748  20541485.542    20541485.4824   20541491.8444
       213.0004        213.0004
 -14451688.08149 -10913794.72947  21640124.518    21640125.0684   21640129.1564
       196.0004        195.0004
  -9440906.07148  -7328933.76946  23057304.044    23057302.5574   23057307.5484
       168.0004        168.0004
 -19457980.04749 -15151897.00147  20948798.978    20948799.9624   20948806.9484
       195.0004        195.0004
  -5277806.41447  -4098239.19745  24708592.735    24708591.2354   24708595.3354
       138.0004        143.0004
  -2275802.35348  -1749385.69546  23985935.360    23985935.1564   23985941.2334
       183.0004        184.0004
 21  2  6  1 52 30.0000000  0 10G07G14G28G21G30G17G19G01G22G09
 -22836227.99449 -17775037.79848  20115032.494    20115032.9574   20115037.8094
       212.0004        213.0004
  -6480287.72448  -5042395.39746  22412355.698    22412356.5084   22412360.1134
       175.0004        175.0004
  -3425204.21447  -2545592.17545  23047839.331    23047839.4614   23047843.3764
       158.0004        160.0004
  -3327170.68247  -2580557.89945  23530962.384    23530961.9244   23530968.2164
       159.0004        161.0004
 -21171272.86349 -16468571.92648  20533568.519    20533568.6114   20533575.5314
       213.0004        213.0004
 -14463639.11649 -10923107.21147  21637850.301    21637851.1224   21637855.0314
       195.0004        195.0004
  -9497901.91948  -7373346.13246  23046459.724    23046458.9244   23046461.8484
       169.0004        172.0004
 -19422025.57049 -15123880.52147  20955641.921    20955642.1814   20955649.3114
       195.0004        195.0004
  -5298036.85147  -4114003.16445  24704741.364    24704741.2694   24704745.9314
       139.0004        144.0004
  -2199378.48148  -1689834.63546  24000479.230    24000479.0804   24000485.5144
       185.0004        186.0004
 21  2  6  1 53  0.0000000  0 10G07G14G28G21G30G17G19G01G22G09
 -22818149.30849 -17760950.52848  20118472.823    20118473.5414   20118477.9414
       212.0004        213.0004
  -6515688.48748  -5069980.40846  22405619.124    22405619.6444   22405624.4054
       175.0004        174.0004
  -3454009.51847  -2568037.87645  23042357.818    23042358.2614   23042362.2564
       157.0004        159.0004
  -3240030.39447  -2512656.40045  23547545.080    23547545.1064   23547550.5354
       158.0004        160.0004
 -21212391.77149 -16500612.64048  20525744.043    20525744.0584   20525750.6444
       213.0004        213.0004
 -14475234.91849 -10932142.89547  21635643.764    21635644.3314   21635648.6404
       195.0004        195.0004
  -9554572.50248  -7417505.00346  23035674.603    23035673.9234   23035677.3924
       170.0004        173.0004
 -19385475.86949 -15095400.22247  20962597.320    20962597.1344   20962605.0354
       195.0004        196.0004
  -5318128.58247  -4129659.02345  24700917.160    24700917.5754   24700924.0624
       138.0004        143.0004
  -2123090.70748  -1630389.63646  24014994.252    24014994.6944   24015003.1974
       184.0004        184.0004
 21  2  6  1 53 30.0000000  0 10G07G14G28G21G30G17G19G01G22G09
 -22799483.97649 -17746406.11948  20122024.759    20122025.1584   20122029.8714
       212.0004        213.0004
  -6551153.50648  -5097615.50046  22398870.857    22398872.1024   22398874.4964
       175.0004        176.0004
  -3482949.39447  -2590588.41345  23036850.942    23036851.1254   23036855.4754
       158.0004        160.0004
  -3152614.07247  -2444539.77245  23564179.454    23564179.1904   23564185.1224
       158.0004        160.0004
 -21253023.70649 -16532273.88848  20518011.232    20518011.9824   20518019.0284
       213.0004        213.0004
 -14486474.61849 -10940901.10247  21633504.932    21633505.2454   21633509.9374
       195.0004        195.0004
  -9610915.75448  -7461408.82646  23024952.257    23024951.4204   23024956.1064
       171.0004        171.0004
 -19348330.10349 -15066455.46247  20969664.952    20969665.1894   20969673.2854
       195.0004        195.0004
  -5338077.60047  -4145203.67945  24697120.302    24697120.3404   24697126.2974
       135.0004        140.0004
  -2046939.34548  -1571050.88846  24029484.549    24029485.2844   24029494.2914
       183.0004        183.0004
 21  2  6  1 54  0.0000000  0 10G07G14G28G21G30G17G19G01G22G09
 -22780232.67249 -17731405.12148  20125688.407    20125689.0794   20125693.4184
       212.0004        214.0004
  -6586683.02348  -5125300.84246  22392109.245    22392109.7544   22392113.8134
       175.0004        175.0004
  -3512024.57547  -2613244.40745  23031317.665    23031317.8794   23031322.9194
       158.0004        160.0004
  -3064925.02147  -2376210.65645  23580865.791    23580866.0464   23580871.6224
       158.0004        159.0004
 -21293167.37449 -16563554.68048  20510373.048    20510373.0084   20510380.0654
       213.0004        214.0004
 -14497361.01549 -10949384.00947  21631433.320    21631433.9384   21631438.8914
       196.0004        197.0004
  -9666932.39248  -7505058.17046  23014293.295    23014292.4914   23014295.5084
       171.0004        172.0004
 -19310590.03649 -15037047.62147  20976846.341    20976847.2614   20976855.1694
       195.0004        195.0004
  -5357882.07347  -4160635.71045  24693354.040    24693352.9414   24693357.3994
       137.0004        143.0004
  -1970927.23948  -1511820.68746  24043949.945    24043950.4824   24043958.4054
       182.0004        182.0004
 21  2  6  1 54 30.0000000  0 10G07G14G28G21G30G17G19G01G22G09
 -22760395.44749 -17715947.55748  20129463.358    20129463.7694   20129468.1474
       212.0004        213.0004
  -6622276.64848  -5153036.12846  22385336.267    22385336.5864   22385341.4064
       176.0004        177.0004
  -3541235.07647  -2636005.83545  23025759.332    23025759.1974   23025763.3494
       157.0004        160.0004
  -2976965.78147  -2307671.00245  23597605.915    23597604.8374   23597609.0374
       158.0004        160.0004
 -21332820.93149 -16594453.55848  20502827.056    20502826.9904   20502834.0514
       213.0004        213.0004
 -14507895.00649 -10957592.30847  21629429.008    21629429.1544   21629434.3724
       196.0004        196.0004
  -9722622.47648  -7548453.01246  23003694.931    23003694.4394   23003698.9964
       171.0004        172.0004
 -19272256.88848 -15007177.63447  20984142.212    20984142.3854   20984149.4464
       194.0004        194.0004
  -5377539.85747  -4175953.44045  24689613.355    24689612.2624   24689617.0624
       138.0004        144.0004
  -1895056.84548  -1452700.89746  24058387.586    24058387.5074   24058396.4634
       181.0004        181.0004
 21  2  6  1 55  0.0000000  0 10G07G14G28G21G30G17G19G01G22G09
 -22739972.82749 -17700033.83748  20133349.214    20133349.8384   20133354.5624
       212.0004        213.0004
  -6657934.21548  -5180821.24246  22378550.128    22378550.5384   22378556.0364
       176.0004        176.0004
  -3570581.30847  -2658873.01645  23020174.679    23020175.1954   23020179.4644
       158.0004        161.0004
  -2888739.11847  -2238922.96145  23614393.590    23614392.7134   23614397.9584
       157.0004        157.0004
 -21371982.79149 -16624969.29748  20495374.619    20495374.9044   20495381.7374
       213.0004        213.0004
 -14518079.04849 -10965527.91647  21627490.826    21627491.4564   21627495.7014
       196.0004        196.0004
  -9777986.00248  -7591593.42646  22993161.321    22993160.0284   22993163.6844
       173.0004        175.0004
 -19233332.23548 -14976846.72047  20991547.987    20991549.2374   20991556.9194
       194.0004        195.0004
  -5397049.17647  -4191155.48045  24685901.797    24685899.3514   24685904.0484
       138.0004        142.0004
  -1819330.62948  -1393693.47646  24072797.540    24072797.7694   24072806.4214
       181.0004        181.0004
 21  2  6  1 55 30.0000000  0 10G07G14G28G21G30G17G19G01G22G09
 -22718965.01149 -17683664.11348  20137347.241    20137347.8654   20137352.2154
       212.0004        213.0004
  -6693655.27648  -5208655.84146  22371753.433    22371753.4074   22371757.9144
       176.0004        176.0004
  -3600063.35747  -2681846.02945  23014563.851    23014564.2514   23014569.9364
       159.0004        160.0004
  -2800247.41147  -2169968.38445  23631233.131    23631232.4314   23631237.2084
       155.0004        156.0004
 -21410651.12649 -16655100.46448  20488016.891    20488016.7264   20488023.4014
       213.0004        214.0004
 -14527914.48649 -10973191.88047  21625620.360    21625620.3764   21625624.1594
       196.0004        196.0004
  -9833023.47848  -7634479.76146  22982687.258    22982686.2514   22982690.2334
       173.0004        174.0004
 -19193817.35948 -14946055.89947  20999067.974    20999068.6404   20999075.5804
       194.0004        195.0004
  -5416407.84247  -4206240.14745  24682215.146    24682214.3444   24682217.0764
       136.0004        140.0004
  -1743750.91148  -1334800.21646  24087180.702    24087181.2954   24087188.6904
       182.0004        182.0004
 21  2  6  1 56  0.0000000  0 11G07G14G28G21G30G17G19G01G06G22G09
 -22697370.79249 -17666837.44847  20141456.409    20141456.7894   20141461.5194
       212.0004        212.0004
  -6729438.21148  -5236538.62246  22364943.012    22364943.6804   22364949.8064
       176.0004        177.0004
  -3629680.27847  -2704924.14045  23008929.534    23008928.6254   23008932.9794
       159.0004        161.0004
  -2711491.78047  -2100808.14645  23648122.666    23648122.1174   23648126.6574
       154.0004        155.0004
 -21448822.90249 -16684844.70048  20480752.393    20480752.7434   20480759.6744
       214.0004        214.0004
 -14537401.60149 -10980584.41947  21623814.534    21623815.2334   21623819.1114
       196.0004        197.0004
  -9887733.23548  -7677110.73446  22972275.790    22972275.3054   22972279.1874
       172.0004        173.0004
 -19153712.33348 -14914805.22447  21006699.229    21006699.7824   21006707.5924
       194.0004        194.0004
   -626965.25857   -453677.43045  24204330.295                    24204340.4884
       135.0004        150.0004
  -5435612.61247  -4221204.90445  24678563.232    24678561.9814   24678564.2934
       136.0004        141.0004
  -1668318.68148  -1276021.85546  24101535.151    24101535.1324   24101542.2194
       180.0004        179.0004
 21  2  6  1 56 30.0000000  0 11G07G14G28G21G30G17G19G01G06G22G09
 -22675191.87049 -17649555.18448  20145677.122    20145677.7364   20145682.0854
       212.0004        213.0004
  -6765283.56948  -5264470.08646  22358122.700    22358122.9134   22358128.2814
       176.0004        176.0004
  -3659433.03047  -2728108.09845  23003266.950    23003267.1824   23003272.4904
       160.0004        162.0004
  -2622476.09347  -2031445.27645  23665062.245    23665061.6104   23665066.4944
       154.0004        155.0004
 -21486497.41449 -16714201.47248  20473583.492    20473583.6924   20473590.3744
       214.0004        214.0004
 -14546543.06749 -10987707.63847  21622074.703    21622075.2014   21622079.5274
       197.0004        198.0004
  -9942116.61148  -7719487.39146  22961927.092    22961926.4024   22961930.0194
       173.0004        174.0004
 -19113019.53048 -14883096.54947  21014443.338    21014443.4794   21014451.6694
       194.0004        194.0004
   -735460.22847   -538219.00345  24183682.462    24183685.5234   24183693.6424
       145.0004        150.0004
  -5454662.28947  -4236048.81745  24674937.388    24674936.1934   24674940.8084
       135.0004        141.0004
  -1593037.20748  -1217361.00746  24115860.692    24115860.5314   24115867.3454
       176.0004        176.0004
 21  2  6  1 57  0.0000000  0 11G07G14G28G21G30G17G19G01G06G22G09
 -22652427.35349 -17631816.60548  20150008.744    20150009.2604   20150013.8094
       212.0004        213.0004
  -6801190.11548  -5292449.21946  22351289.829    22351290.9164   22351295.0234
       176.0004        176.0004
  -3689320.70947  -2751397.19545  22997579.175    22997579.5844   22997584.1344
       161.0004        162.0004
  -2533201.90547  -1961880.96945  23682051.246    23682050.3104   23682054.4404
       153.0004        155.0004
 -21523672.05749 -16743168.72448  20466509.262    20466509.4954   20466516.0424
       214.0004        214.0004
 -14555339.73849 -10994562.17047  21620400.507    21620401.0694   21620405.4284
       197.0004        196.0004
  -9996172.76048  -7761609.04446  22951640.909    22951640.4324   22951643.6184
       173.0004        174.0004
 -19071739.54348 -14850930.31347  21022299.024    21022298.9324   21022306.6804
       193.0004        193.0004
   -843924.01747   -622736.23045  24163045.414    24163046.1314   24163054.0624
       145.0004        149.0004
  -5473553.90347  -4250769.56245  24671343.270    24671341.5404   24671346.2454
       136.0004        141.0004
  -1517908.04548  -1158818.83946  24130156.004    24130156.5434   24130164.3374
       175.0004        176.0004
 21  2  6  1 57 30.0000000  0 11G07G14G28G21G30G17G19G01G06G22G09
 -22629077.78449 -17613622.15248  20154451.989    20154452.7244   20154457.3424
       212.0004        213.0004
  -6837157.49348  -5320475.74646  22344444.969    22344445.3104   22344450.6064
       174.0004        174.0004
  -3719343.75647  -2774791.76145  22991866.513    22991866.9744   22991870.0604
       160.0004        162.0004
  -2443671.97847  -1892117.39145  23699086.314    23699087.5054   23699092.1934
       154.0004        157.0004
 -21560345.15149 -16771745.16648  20459530.696    20459530.7644   20459537.6144
       214.0004        214.0004
 -14563793.56249 -11001149.56047  21618791.190    21618792.2424   21618796.4514
       195.0004        194.0004
 -10049902.13648  -7803476.09146  22941415.132    22941415.6434   22941419.1794
       172.0004        173.0004
 -19029873.88348 -14818307.71847  21030265.578    21030265.8924   21030273.6994
       193.0004        193.0004
   -952354.17147   -707227.28945  24142411.901    24142413.3784   24142420.5604
       146.0004        149.0004
  -5492285.40647  -4265365.55545  24667774.564    24667775.8704   24667779.3554
       135.0004        140.0004
  -1442933.46948  -1100397.12146  24144423.756    24144423.9804   24144432.7734
       178.0004        179.0004
 21  2  6  1 58  0.0000000  0 11G07G14G28G21G30G17G19G01G06G22G09
 -22605143.14649 -17594971.79648  20159007.394    20159007.6384   20159011.9944
       212.0004        213.0004
  -6873184.59148  -5348548.81946  22337590.668    22337591.1294   22337595.0384
       176.0004        178.0004
  -3749501.84447  -2798291.58445  22986127.482    22986128.1424   22986131.9784
       160.0004        162.0004
  -2353888.15747  -1822155.97845  23716171.868    23716172.4234   23716178.1084
       155.0004        157.0004
 -21596514.44049 -16799929.03048  20452647.727    20452648.1694   20452655.0174
       214.0004        215.0004
 -14571905.22649 -11007470.32647  21617248.173    21617248.8904   21617253.0114
       195.0004        195.0004
 -10103303.99048  -7845087.90746  22931253.812    22931252.9634   22931257.0724
       171.0004        172.0004
 -18987423.35948 -14785229.38247  21038342.525    21038343.6504   21038351.5304
       193.0004        193.0004
  -1060747.57947   -791689.70945  24121785.082    24121785.1974   24121793.0324
       144.0004        147.0004
  -5510853.94747  -4279834.55145  24664240.572    24664242.5404   24664247.5724
       135.0004        140.0004
  -1368115.14748  -1042097.13546  24158661.461    24158661.9164   24158669.0804
       179.0004        179.0004
 21  2  6  1 58 30.0000000  0 11G07G14G28G21G30G17G19G01G06G22G09
 -22580622.91649 -17575865.12647  20163672.193    20163672.9554   20163677.9784
       212.0004        212.0004
  -6909270.41348  -5376667.62346  22330722.160    22330722.9014   22330728.2114
       176.0004        176.0004
  -3779794.04247  -2821895.89645  22980363.682    22980362.5354   22980368.0844
       160.0004        162.0004
  -2263852.69647  -1751998.49845  23733305.904    23733305.4294   23733311.7344
       157.0004        159.0004
 -21632177.66749 -16827718.56448  20445861.595    20445861.5634   20445868.0034
       214.0004        215.0004
 -14579676.03849 -11013525.48947  21615768.975    21615769.8314   21615774.5054
       195.0004        196.0004
 -10156378.14748  -7886444.36746  22921154.615    22921153.6914   22921158.0684
       171.0004        171.0004
 -18944388.92848 -14751696.05147  21046531.988    21046533.0124   21046540.1884
       192.0004        192.0004
  -1169101.01247   -876120.97145  24101167.093    24101166.7884   24101175.1954
       146.0004        149.0004
  -5529257.17547  -4294174.70545  24660738.931    24660740.6504   24660743.7994
       136.0004        142.0004
  -1293454.68948   -983920.15746  24172869.693    24172869.3014   24172876.2784
       178.0004        179.0004
 21  2  6  1 59  0.0000000  0 11G07G14G28G21G30G17G19G01G06G22G09
 -22555518.85649 -17556303.53648  20168450.218    20168450.8754   20168455.2004
       212.0004        213.0004
  -6945415.79848  -5404832.85446  22323844.654    22323844.9974   22323849.2224
       177.0004        177.0004
  -3810221.94847  -2845605.93746  22974573.582    22974573.3344   22974577.7514
       161.0004        164.0004
  -2173569.48947  -1681647.96245  23750486.454    23750486.8874   23750491.1854
       157.0004        159.0004
 -21667334.46049 -16855113.48048  20439171.310    20439171.3794   20439178.3364
       214.0004        214.0004
 -14587109.01849 -11019317.40847  21614354.587    21614355.5144   21614360.1994
       196.0004        197.0004
 -10209125.87748  -7927546.50646  22911116.865    22911116.1904   22911120.7004
       170.0004        171.0004
 -18900773.38848 -14717709.92647  21054832.274    21054832.8294   21054840.3654
       192.0004        192.0004
  -1277413.23647   -960520.12845  24080555.357    24080555.3214   24080563.9624
       148.0004        152.0004
  -5547494.15047  -4308385.36345  24657270.153    24657270.0784   24657274.0994
       138.0004        143.0004
  -1218955.74848   -925869.03046  24187045.090    24187045.5504   24187053.8574
       179.0004        179.0004
 21  2  6  1 59 30.0000000  0 11G07G14G28G21G30G17G19G01G06G22G09
 -22529830.66549 -17536286.78347  20173338.803    20173339.0234   20173343.5594
       212.0004        212.0004
  -6981619.07948  -5433043.20846  22316955.513    22316955.9064   22316959.9584
       177.0004        176.0004
  -3840784.38247  -2869420.82146  22968757.389    22968756.7454   22968762.1194
       163.0004        165.0004
  -2083039.98847  -1611105.49545  23767713.252    23767712.6904   23767719.1494
       155.0004        157.0004
 -21701982.00949 -16882111.57848  20432578.358    20432578.4124   20432585.4194
       215.0004        215.0004
 -14594204.97349 -11024846.71247  21613005.184    21613005.2224   21613010.0584
       197.0004        198.0004
 -10261546.31648  -7968393.59746  22901141.860    22901140.9744   22901144.3914
       171.0004        173.0004
 -18856577.13748 -14683271.28647  21063242.800    21063243.2664   21063250.5744
       192.0004        193.0004
  -1385680.56447  -1044884.29545  24059951.967    24059952.5924   24059961.1684
       149.0004        152.0004
  -5565561.73147  -4322464.00345  24653833.625    24653833.0914   24653834.6334
       136.0004        140.0004
  -1144619.38748   -867944.62146  24201192.361    24201191.8984   24201199.2814
       177.0004        178.0004
 21  2  6  2  0  0.0000000  0 11G07G14G28G21G30G17G19G01G06G22G09
 -22503559.54149 -17515815.77648  20178336.908    20178338.1604   20178343.0194
       212.0004        213.0004
  -7017880.63248  -5461298.93346  22310054.865    22310056.0984   22310059.9244
       176.0004        176.0004
  -3871482.32347  -2893341.27146  22962914.930    22962915.0824   22962920.3294
       163.0004        164.0004
  -1992267.49147  -1540373.68945  23784987.383    23784986.9484   23784993.1534
       155.0004        157.0004
 -21736119.58049 -16908712.28848  20426082.026    20426082.1764   20426088.8094
       215.0004        215.0004
 -14600965.91449 -11030114.96347  21611717.915    21611718.2444   21611723.4834
       197.0004        198.0004
 -10313640.48548  -8008986.43746  22891228.382    22891227.8704   22891231.4464
       174.0004        176.0004
 -18811802.58748 -14648382.01847  21071763.619    21071763.6064   21071771.2914
       192.0004        193.0004
  -1493901.26247  -1129212.08845  24039357.675    24039358.6214   24039367.9544
       149.0004        152.0004
  -5583458.65147  -4336409.67645  24650428.618    24650427.4194   24650428.3144
       135.0004        140.0004
  -1070448.63448   -810149.23146  24215306.050    24215306.3304   24215314.3784
       178.0004        180.0004
 21  2  6  2  0 30.0000000  0 11G07G14G28G21G30G17G19G01G06G22G09
 -22476704.74449 -17494889.98447  20183448.860    20183448.8464   20183453.0864
       212.0004        212.0004
  -7054199.04248  -5489599.01246  22303144.337    22303144.6904   22303148.7314
       177.0004        178.0004
  -3902315.06947  -2917366.79446  22957047.947    22957047.6944   22957051.8714
       162.0004        165.0004
  -1901253.71747  -1469453.87945  23802305.821    23802305.8754   23802311.3634
       153.0004        155.0004
 -21769744.65749 -16934913.65248  20419683.421    20419683.2204   20419690.1604
       214.0004        214.0004
 -14607393.54949 -11035123.50447  21610494.607    21610495.1324   21610500.2084
       197.0004        196.0004
 -10365407.71548  -8049324.51046  22881377.464    22881376.6234   22881380.8494
       175.0004        176.0004
 -18766450.40749 -14613042.66247  21080393.524    21080393.9814   21080401.6634
       206.0004        209.0004
  -1602071.88147  -1213500.82645  24018773.264    24018774.8304   24018783.5724
       149.0004        152.0004
  -5601181.96847  -4350220.05445  24647053.775    24647054.2984   24647058.0954
       138.0004        143.0004
   -996444.84748   -752483.96446  24229388.989    24229389.4594   24229396.6114
       180.0004        181.0004
 21  2  6  2  1  0.0000000  0 11G07G14G28G21G30G17G19G01G06G22G09
 -22449266.19749 -17473509.28447  20188667.430    20188669.3214   20188674.3364
       211.0004        211.0004
  -7090572.95648  -5517942.31046  22296221.813    22296222.7834   22296227.6854
       177.0004        178.0004
  -3933281.64647  -2941496.58346  22951155.125    22951155.1934   22951160.4034
       163.0004        165.0004
  -1810000.24147  -1398347.26145  23819670.360    23819670.4904   23819675.6164
       151.0004        153.0004
 -21802854.79449 -16960713.76148  20413382.343    20413382.3854   20413389.4294
       214.0004        214.0004
 -14613488.31149 -11039872.65747  21609335.509    21609335.6734   21609340.0344
       196.0004        196.0004
 -10416847.30148  -8089407.31046  22871588.351    22871588.1804   22871591.9594
       174.0004        174.0004
 -18720521.41649 -14577253.82047  21089132.877    21089133.3914   21089141.5554
       210.0004        209.0004
  -1710188.91547  -1297747.82045  23998199.262    23998201.2354   23998209.3634
       151.0004        155.0004
  -5618728.82847  -4363892.92945  24643714.315    24643714.6454   24643719.9844
       138.0004        143.0004
   -922609.38248   -694949.89246  24243439.214    24243439.8834   24243447.2134
       182.0004        182.0004
 21  2  6  2  1 30.0000000  0 11G07G14G28G21G30G17G19G01G06G22G09
 -22421245.15349 -17451674.74247  20194004.103    20194003.4784   20194006.9164
       212.0004        212.0004
  -7127002.42348  -5546328.92146  22289290.096    22289290.4244   22289294.7934
       178.0004        179.0004
  -3964382.60347  -2965731.09446  22945237.189    22945237.8134   22945241.7404
       163.0004        164.0004
  -1718510.61447  -1327056.64745  23837080.883    23837081.1454   23837084.5014
       150.0004        152.0004
 -21835449.04149 -16986111.89348  20407180.056    20407180.1824   20407186.9874
       214.0004        215.0004
 -14619252.45849 -11044364.19847  21608237.991    21608238.3514   21608242.7704
       195.0004        194.0004
 -10467960.48848  -8129235.76746  22861862.262    22861861.7944   22861865.4324
       174.0004        174.0004
 -18674017.83649 -14541017.27548  21097982.837    21097983.3014   21097990.7154
       219.0004        224.0004
  -1818250.42147  -1381951.53045  23977636.257    23977637.1614   23977645.4724
       151.0004        153.0004
  -5636097.60147  -4377427.04845  24640409.919    24640409.1324   24640413.9104
       138.0004        143.0004
   -848944.95248   -637549.07646  24257456.511    24257456.3754   24257463.8544
       179.0004        179.0004
 21  2  6  2  2  0.0000000  0 11G07G14G28G21G30G17G19G01G06G22G09
 -22392641.16349 -17429385.90147  20199442.126    20199444.3494   20199449.6874
       211.0004        211.0004
  -7163485.84848  -5574757.55446  22282346.742    22282347.4544   22282352.8784
       178.0004        177.0004
  -3995616.90047  -2990069.50246  22939293.430    22939293.3554   22939297.1164
       163.0004        165.0004
  -1626786.01447  -1255582.93545  23854535.771    23854534.8304   23854539.2804
       148.0004        150.0004
 -21867524.79049 -17011105.99648  20401076.601    20401076.6054   20401083.2754
       215.0004        215.0004
 -14624686.89148 -11048598.82147  21607203.914    21607204.2354   21607208.6464
       194.0004        194.0004
 -10518746.17148  -8168808.99946  22852198.410    22852197.6294   22852201.1184
       174.0004        175.0004
 -18626940.25349 -14504333.43948  21106940.543    21106941.4404   21106949.3144
       223.0004        224.0004
  -1926252.82247  -1466109.17845  23957083.860    23957085.7784   23957093.9344
       151.0004        154.0004
  -5653285.20947  -4390819.97045  24637139.448    24637139.5604   24637143.4064
       138.0004        142.0004
   -775452.68848   -580282.37046  24271441.218    24271441.5964   24271449.3974
       179.0004        179.0004
 21  2  6  2  2 30.0000000  0 11G07G14G28G21G30G17G19G01G06G22G09
 -22363455.80749 -17406644.11647  20205002.497    20205000.7044   20205003.3354
       212.0004        212.0004
  -7200023.57948  -5603228.51546  22275394.779    22275394.6444   22275399.2214
       178.0004        178.0004
  -4026985.52548  -3014512.59246  22933324.777    22933325.1384   22933328.3724
       165.0004        167.0004
  -1534830.65347  -1183929.41345  23872036.197    23872034.6904   23872037.4264
       147.0004        150.0004
 -21899081.41849 -17035695.58648  20395071.173    20395071.4674   20395077.8854
       214.0004        215.0004
 -14629794.10049 -11052578.45947  21606232.577    21606232.9664   21606237.0804
       196.0004        197.0004
 -10569205.42448  -8208127.87346  22842595.539    22842595.3634   22842599.1344
       174.0004        175.0004
 -18579291.31049 -14467204.38548  21116008.034    21116008.5784   21116016.5084
       223.0004        223.0004
  -2034194.44347  -1550219.47845  23936544.154    23936545.1754   23936553.6054
       151.0004        154.0004
  -5670290.45047  -4404070.81745  24633905.441    24633904.2144   24633908.4264
       139.0004        144.0004
   -702135.63048   -523152.20846  24285393.217    24285393.9094   24285400.4614
       179.0004        180.0004
 21  2  6  2  3  0.0000000  0 11G07G14G28G21G30G17G19G01G06G22G09
 -22333689.65849 -17383449.69847  20210662.080    20210663.4694   20210667.5624
       211.0004        211.0004
  -7236615.03148  -5631741.33046  22268431.154    22268431.7444   22268436.3454
       178.0004        178.0004
  -4058488.33148  -3039060.22746  22927329.408    22927329.7114   22927334.2254
       166.0004        167.0004
  -1442646.71647  -1112097.78245  23889577.801    23889577.1204   23889579.4294
       147.0004        151.0004
 -21930117.40849 -17059879.48448  20389165.699    20389165.6464   20389172.2374
       215.0004        215.0004
 -14634576.31249 -11056304.84947  21605322.572    21605322.8464   21605327.4804
       197.0004        198.0004
 -10619338.93148  -8247192.95346  22833055.990    22833054.5914   22833059.2114
       173.0004        173.0004
 -18531072.68749 -14429631.43448  21125183.949    21125184.4534   21125192.3294
       223.0004        223.0004
  -2142072.67647  -1634280.41145  23916015.691    23916015.8084   23916024.3584
       150.0004        153.0004
  -5687111.44147  -4417178.10045  24630705.648    24630704.4554   24630707.0434
       140.0004        143.0004
   -628995.92448   -466160.22746  24299311.505    24299311.2324   24299319.1304
       180.0004        180.0004
 21  2  6  2  3 30.0000000  0 11G07G14G28G21G30G17G19G01G06G22G09
 -22303343.08849 -17359803.02447  20216438.568    20216438.5644   20216442.6434
       211.0004        212.0004
  -7273259.46048  -5660295.41846  22261458.302    22261458.7134   22261464.0904
       179.0004        179.0004
  -4090125.14348  -3063712.26446  22921309.160    22921309.1784   22921314.3774
       165.0004        167.0004
  -1350236.63847  -1040089.91045  23907160.764    23907160.6854   23907163.6744
       146.0004        148.0004
 -21960631.10949 -17083656.39148  20383359.195    20383358.9384   20383366.1254
       215.0004        215.0004
 -14639034.78049 -11059778.97147  21604473.922    21604474.2454   21604478.8384
       197.0004        197.0004
 -10669146.38048  -8286003.94746  22823577.424    22823577.8614   22823581.0794
       174.0004        176.0004
 -18482285.91549 -14391615.75448  21134468.368    21134468.3214   21134476.2204
       223.0004        223.0004
  -2249884.72647  -1718289.76445  23895498.706    23895500.2374   23895508.4694
       150.0004        153.0004
  -5703745.71547  -4430139.86245  24627538.630    24627537.1184   24627540.8434
       139.0004        143.0004
   -556035.57148   -409307.99246  24313196.350    24313195.8694   24313203.1774
       181.0004        182.0004
 21  2  6  2  4  0.0000000  0 11G07G14G28G21G30G17G19G01G06G22G09
 -22272415.96249 -17335703.97247  20222322.550    20222323.0924   20222328.1574
       211.0004        211.0004
  -7309955.34848  -5688889.61046  22254475.214    22254475.9694   22254480.5374
       179.0004        180.0004
  -4121895.07447  -3088468.06746  22915263.797    22915263.0354   22915266.2474
       164.0004        165.0004
  -1257601.82147   -967906.96345  23924788.913    23924788.0574   23924792.5764
       145.0004        147.0004
 -21990620.15549 -17107024.48948  20377652.516    20377652.3884   20377659.1824
       215.0004        215.0004
 -14643170.49149 -11063001.59147  21603687.275    21603687.5584   21603691.7854
       197.0004        197.0004
 -10718627.23248  -8324560.44246  22814161.486    22814161.0754   22814164.4954
       174.0004        175.0004
 -18432931.95849 -14353158.12448  21143859.004    21143859.6144   21143867.7804
       223.0004        222.0004
  -2357627.03247  -1802244.76845  23874997.151    23874997.5574   23875005.0804
       149.0004        151.0004
  -5720190.51347  -4442953.97445  24624409.031    24624407.5954   24624411.3044
       138.0004        143.0004
   -483255.76548   -352596.44946  24327046.141    24327046.6634   24327052.1814
       183.0004        184.0004
 21  2  6  2  4 30.0000000  0 11G07G14G28G21G30G17G19G01G06G22G09
 -22240909.15149 -17311153.21147  20228318.213    20228319.1054   20228323.5874
       210.0004        211.0004
  -7346702.13748  -5717523.46646  22247482.029    22247482.8534   22247487.5504
       179.0004        180.0004
  -4153797.93547  -3113327.41646  22909192.774    22909192.2564   22909196.6674
       162.0004        165.0004
  -1164745.13547   -895551.11445  23942461.628    23942459.0744   23942461.8104
       145.0004        148.0004
 -22020083.08849 -17129982.62448  20372046.203    20372046.0164   20372052.4064
       215.0004        215.0004
 -14646985.40049 -11065974.24047  21602961.081    21602961.1614   21602965.9464
       197.0004        197.0004
 -10767782.00948  -8362862.86146  22804808.031    22804807.0544   22804811.6384
       174.0004        175.0004
 -18383012.49749 -14314259.84548  21153358.743    21153359.8514   21153367.2974
       223.0004        223.0004
  -2465297.10547  -1886143.46045  23854506.434    23854507.6834   23854516.5314
       148.0004        150.0004
  -5736443.83347  -4455618.86845  24621314.103    24621313.9244   24621318.6024
       138.0004        143.0004
   -410658.68548   -296027.33646  24340861.423    24340861.2134   24340867.6974
       184.0004        184.0004
 21  2  6  2  5  0.0000000  0 11G07G14G28G21G30G17G19G01G06G22G09
 -22208823.40349 -17286151.35047  20234424.455    20234424.6354   20234429.5184
       211.0004        211.0004
  -7383499.20348  -5746196.52346  22240480.842    22240480.6044   22240484.8734
       180.0004        180.0004
  -4185833.61647  -3138290.28946  22903098.042    22903096.8844   22903101.4384
       164.0004        167.0004
  -1071669.20647   -823024.42545  23960171.923    23960170.0434   23960174.6124
       146.0004        149.0004
 -22049018.52149 -17152529.73048  20366539.494    20366539.5824   20366546.6264
       215.0004        216.0004
 -14650481.49649 -11068698.46447  21602295.341    21602295.9234   21602300.8584
       196.0004        197.0004
 -10816610.94648  -8400911.37946  22795515.825    22795514.8484   22795518.9924
       174.0004        173.0004
 -18332529.46649 -14274922.41248  21162965.510    21162966.1334   21162973.7764
       223.0004        223.0004
  -2572892.24347  -1969983.75145  23834032.359    23834032.8344   23834042.3184
       147.0004        151.0004
  -5752503.67147  -4468133.04245  24618258.471    24618259.0184   24618261.1654
       137.0004        143.0004
   -338246.39948   -239602.18446  24354638.205    24354638.6514   24354647.4614
       182.0004        182.0004
 21  2  6  2  5 30.0000000  0 11G07G14G28G21G30G17G19G01G06G22G09
 -22176158.70749 -17260698.34747  20240639.887    20240640.4864   20240645.2434
       210.0004        210.0004
  -7420345.18248  -5774907.67646  22233467.723    22233468.6094   22233473.2314
       178.0004        178.0004
  -4218001.49248  -3163356.17046  22896975.942    22896975.3664   22896978.7354
       165.0004        167.0004
   -978375.79647   -750328.28045  23977924.343    23977923.6944   23977927.9234
       146.0004        151.0004
 -22077424.29249 -17174664.11148  20361133.605    20361133.9974   20361140.8754
       215.0004        215.0004
 -14653659.66149 -11071174.95047  21601691.030    21601691.3654   21601695.8574
       197.0004        197.0004
 -10865113.54348  -8438705.59646  22786286.640    22786286.5534   22786290.1284
       172.0004        174.0004
 -18281483.88049 -14235146.63148  21172678.752    21172679.4314   21172687.1044
       222.0004        222.0004
  -2680409.12647  -2053763.07745  23813573.207    23813573.3974   23813581.9424
       150.0004        154.0004
  -5768367.18547  -4480494.21445  24615237.764    24615239.8134   24615245.3624
       137.0004        142.0004
   -266020.41448   -183322.21046  24368380.792    24368382.8554   24368392.2204
       180.0004        180.0004
 21  2  6  2  6  0.0000000  0 11G07G14G28G21G30G17G19G01G06G22G09
 -22142915.31449 -17234794.41447  20246966.791    20246966.8274   20246971.1104
       210.0004        211.0004
  -7457238.79248  -5803655.93346  22226447.936    22226448.7744   22226453.3864
       180.0004        181.0004
  -4250300.78948  -3188524.44846  22890827.518    22890828.3524   22890832.5324
       165.0004        167.0004
   -884867.23747   -677464.47645  23995717.356    23995717.6094   23995723.5714
       148.0004        151.0004
 -22105298.42949 -17196384.22248  20355829.999    20355829.9944   20355836.4254
       215.0004        215.0004
 -14656521.14449 -11073404.67647  21601146.856    21601146.9824   21601150.6814
       197.0004        197.0004
 -10913289.80148  -8476245.51246  22777118.003    22777117.9684   22777122.3994
       172.0004        173.0004
 -18229877.00449 -14194933.47948  21182498.794    21182500.0394   21182507.6164
       222.0004        222.0004
  -2787844.52747  -2137478.95445  23793128.603    23793129.7994   23793137.6714
       151.0004        154.0004
  -5784031.66647  -4492700.31445  24612260.727    24612259.8394   24612263.8054
       138.0004        143.0004
   -193981.88748   -127188.29746  24382090.670    24382091.6404   24382099.9474
       180.0004        181.0004
 21  2  6  2  6 30.0000000  0 11G07G14G28G21G30G17G19G01G06G22G09
 -22109095.17749 -17208441.07047  20253400.889    20253401.9994   20253406.6654
       210.0004        211.0004
  -7494180.58348  -5832441.73946  22219417.556    22219417.9854   22219423.4354
       181.0004        181.0004
  -4282732.53548  -3213795.94946  22884657.915    22884657.9484   22884661.7744
       166.0004        169.0004
   -791147.40247   -604436.05845  24013550.983    24013551.7384   24013557.8074
       149.0004        151.0004
 -22132640.76149 -17217689.95048  20350626.406    20350626.7034   20350633.5994
       215.0004        215.0004
 -14659069.06049 -11075390.06747  21600661.617    21600662.1584   21600666.3704
       197.0004        196.0004
 -10961141.38848  -8513532.46146  22768013.742    22768012.6004   22768016.8484
       173.0004        174.0004
 -18177711.96349 -14154285.40648  21192426.630    21192427.3934   21192434.1234
       222.0004        222.0004
  -2895197.05147  -2221130.22145  23772699.374    23772700.2624   23772708.9104
       152.0004        154.0004
  -5799496.58047  -4504750.87945  24609318.334    24609317.9264   24609320.9394
       139.0004        144.0004
   -122134.23148    -71203.14846  24395765.137    24395765.0604   24395772.8204
       181.0004        182.0004
