     2.11           OBSERVATION DATA    G (GPS)             RINEX VERSION / TYPE
teqc  2018Jun8                          20210202 03:10:46UTCPGM / RUN BY / DATE
Linux2.6.32-573.12.1.el6.x86_64|x86_64|gcc|Win64-MinGW64|=+ COMMENT
BIT 2 OF LLI FLAGS DATA COLLECTED UNDER A/S CONDITION       COMMENT
-Unknown-                                                   MARKER NAME
CRNO                                                        MARKER NUMBER
-Unknown-           -Unknown-                               OBSERVER / AGENCY
-Unknown-           ASHTECH             -Unknown-           REC # / TYPE / VERS
-Unknown-           -Unknown-                               ANT # / TYPE
   408078.7968 -6158375.3901  1605162.3903                  APPROX POSITION XYZ
        0.0000        0.0000        0.0000                  ANTENNA: DELTA H/E/N
     1     1                                                WAVELENGTH FACT L1/2
     7    L1    L2    C1    P1    P2    S1    S2            # / TYPES OF OBSERV
    30.0000                                                 INTERVAL
Forced Modulo Decimation to 30 seconds                      COMMENT
 SNR is mapped to RINEX snr flag value [1-9]                COMMENT
  L1: 1 -> 1;  90 -> 5; 210 -> 9                            COMMENT
  L2: 1 -> 1; 150 -> 5; 250 -> 9                            COMMENT
pseudorange smoothing corrections not applied               COMMENT
  2021     1    31     0     0   30.0000000     GPS         TIME OF FIRST OBS
                                                            END OF HEADER
 21  1 31  0  0 30.0000000  0  9G21G30G08G07G17G09G01G04G14
 -15631588.88348 -12173234.43646  21752955.564    21752954.9744   21752960.2014
       183.0004        184.0004
  -4411209.29447  -3421920.99346  23590054.466    23590054.7184   23590062.1094
       160.0004        163.0004
 -16503872.66949 -12835980.87347  21580168.392    21580168.5064   21580174.8244
       207.0004        210.0004
 -16621215.49449 -12937631.36347  21556890.943    21556891.0974   21556895.2054
       197.0004        197.0004
  -2222363.12747  -1699255.56245  23852927.571    23852927.3454   23852934.8114
       155.0004        158.0004
 -17387045.85649 -13517715.59347  21106123.695    21106124.1554   21106131.7394
       209.0004        209.0004
 -13860481.23648 -10777246.62246  21946894.330    21946894.9784   21946903.4724
       180.0004        182.0004
 -11872073.43448  -9225345.78246  22324673.491    22324674.1034   22324679.6674
       179.0004        179.0004
  -1723444.86946  -1328777.41945                  23605167.4314   23605170.2774
       132.0004        143.0004
 21  1 31  0  1  0.0000000  0  9G21G30G08G07G17G09G01G04G14
 -15638724.77848 -12178794.84946  21751598.039    21751597.6844   21751602.1454
       184.0004        185.0004
  -4498874.80247  -3490231.75945  23573372.434    23573371.7684   23573379.2444
       161.0004        162.0004
 -16422687.66049 -12772719.82247  21595617.134    21595617.5584   21595624.5334
       211.0004        210.0004
 -16692146.45349 -12992902.22547  21543392.643    21543393.1894   21543396.8204
       196.0004        196.0004
  -2315015.05747  -1771451.77945  23835296.469    23835296.7604   23835302.3564
       155.0004        156.0004
 -17344169.11549 -13484305.16147  21114283.505    21114284.0614   21114290.9324
       209.0004        210.0004
 -13930497.57348 -10831804.78446  21933570.956    21933571.6114   21933579.5154
       181.0004        182.0004
 -11779771.78448  -9153422.41546  22342236.779    22342237.7554   22342244.7924
       178.0004        178.0004
  -1756613.49347  -1354623.04145  23598857.256    23598857.3384   23598860.5304
       139.0004        145.0004
 21  1 31  0  1 30.0000000  0  9G21G30G08G07G17G09G01G04G14
 -15645408.33548 -12184002.78646  21750326.588    21750325.7314   21750331.4484
       184.0004        185.0004
  -4586580.15447  -3558573.56546  23556682.705    23556682.6874   23556689.1034
       161.0004        164.0004
 -16341230.22549 -12709246.47848  21611118.208    21611118.4824   21611125.5294
       220.0004        224.0004
 -16762931.47749 -13048059.38347  21529922.808    21529923.1314   21529927.2444
       196.0004        196.0004
  -2407404.57747  -1843443.55245  23817714.511    23817714.8144   23817721.7564
       155.0004        156.0004
 -17300840.27549 -13450542.43647  21122529.392    21122529.4454   21122536.0294
       209.0004        210.0004
 -14000288.12948 -10886187.01746  21920289.631    21920290.2734   21920298.0954
       181.0004        180.0004
 -11687283.76648  -9081353.84746  22359835.967    22359837.5774   22359845.2054
       177.0004        177.0004
  -1783814.34247  -1375818.44445  23593681.091    23593681.1524   23593687.9234
       141.0004        146.0004
 21  1 31  0  2  0.0000000  0  9G21G30G08G07G17G09G01G04G14
 -15651637.19148 -12188856.41246  21749140.511    21749139.8604   21749146.6024
       185.0004        185.0004
  -4674322.92947  -3626944.54346  23539985.465    23539985.6334   23539992.9214
       163.0004        165.0004
 -16259502.73449 -12645562.70648  21626671.324    21626671.2104   21626677.6244
       224.0004        225.0004
 -16833567.40649 -13103100.35147  21516480.227    21516481.2294   21516485.6954
       196.0004        196.0004
  -2499529.04347  -1915228.77945  23800184.687    23800184.4934   23800190.0204
       154.0004        157.0004
 -17257060.98949 -13416428.71447  21130859.647    21130860.2584   21130866.8694
       209.0004        209.0004
 -14069848.98748 -10940390.26146  21907052.356    21907053.4584   21907061.3894
       180.0004        182.0004
 -11594611.79048  -9009141.93846  22377471.832    22377472.5094   22377479.5924
       176.0004        176.0004
  -1810961.39747  -1396971.95545  23588514.164    23588515.1374   23588523.6284
       145.0004        150.0004
 21  1 31  0  2 30.0000000  0  9G21G30G08G07G17G09G01G04G14
 -15657409.22748 -12193354.07846  21748041.536    21748041.4804   21748047.2654
       184.0004        184.0004
  -4762100.49747  -3695342.60446  23523280.954    23523281.2284   23523289.8004
       164.0004        166.0004
 -16177507.36049 -12581670.20948  21642274.536    21642274.3744   21642280.8244
       225.0004        224.0004
 -16904050.75649 -13158022.42847  21503068.767    21503069.1204   21503073.5194
       197.0004        197.0004
  -2591385.25547  -1986804.98545  23782703.491    23782704.8484   23782710.7694
       155.0004        157.0004
 -17212832.66749 -13381965.09247  21139276.048    21139276.3654   21139283.3724
       209.0004        209.0004
 -14139175.97748 -10994411.26346  21893860.844    21893861.3764   21893869.7894
       182.0004        182.0004
 -11501757.91948  -8936788.29346  22395143.022    22395142.7484   22395149.4564
       176.0004        177.0004
  -1838055.06147  -1418083.88745  23583358.941    23583359.7744   23583367.7264
       151.0004        155.0004
 21  1 31  0  3  0.0000000  0  9G21G30G08G07G17G09G01G04G14
 -15662723.94948 -12197495.40946  21747030.231    21747030.3544   21747035.8964
       184.0004        184.0004
  -4849911.69048  -3763766.86946  23506571.395    23506571.5144   23506579.5904
       165.0004        167.0004
 -16095247.95849 -12517571.96248  21657926.122    21657927.1154   21657934.0274
       224.0004        223.0004
 -16974379.56049 -13212824.07547  21489685.283    21489685.5304   21489690.2694
       197.0004        197.0004
  -2682972.06747  -2058171.28045  23765273.384    23765275.0994   23765282.7184
       153.0004        154.0004
 -17168158.37649 -13347153.95047  21147776.633    21147777.2494   21147785.1994
       209.0004        210.0004
 -14208266.50948 -11048248.02546  21880713.212    21880713.3134   21880721.7414
       182.0004        184.0004
 -11408725.95148  -8864295.86346  22412846.504    22412846.6524   22412852.2244
       177.0004        178.0004
  -1865097.31147  -1439155.74945  23578213.041    23578214.0574   23578220.9454
       154.0004        157.0004
 21  1 31  0  3 30.0000000  0  9G21G30G08G07G17G09G01G04G14
 -15667579.12348 -12201278.62246  21746107.481    21746106.3974   21746111.4194
       184.0004        184.0004
  -4937754.11447  -3832215.45446  23489855.802    23489855.9064   23489863.1544
       164.0004        166.0004
 -16012726.67749 -12453269.64548  21673629.492    21673630.2324   21673637.3554
       223.0004        222.0004
 -17044550.53249 -13267502.74947  21476332.692    21476333.4544   21476336.7204
       197.0004        198.0004
  -2774286.90347  -2129325.60145  23747898.215    23747898.6204   23747906.0244
       151.0004        154.0004
 -17123039.86449 -13311996.67747  21156363.844    21156363.7244   21156370.4634
       210.0004        210.0004
 -14277116.70148 -11101897.49746  21867610.109    21867611.2964   21867619.9304
       182.0004        182.0004
 -11315518.26948  -8791666.50146  22430582.110    22430583.0204   22430588.0774
       176.0004        175.0004
  -1892088.83647  -1460188.05745  23573076.669    23573077.3484   23573082.4804
       154.0004        156.0004
 21  1 31  0  4  0.0000000  0  9G21G30G08G07G17G09G01G04G14
 -15671973.99948 -12204703.19346  21745272.033    21745270.1494   21745274.7194
       184.0004        184.0004
  -5025626.34748  -3900687.32846  23473135.047    23473134.8294   23473141.2854
       165.0004        166.0004
 -15929946.98949 -12388766.00048  21689383.042    21689383.1234   21689390.0124
       223.0004        223.0004
 -17114561.53049 -13322056.76547  21463010.206    21463010.4224   21463014.6364
       198.0004        199.0004
  -2865328.00147  -2200266.67445  23730574.905    23730575.0734   23730579.9444
       154.0004        158.0004
 -17077479.96849 -13276495.48347  21165032.617    21165033.4054   21165040.6874
       210.0004        210.0004
 -14345723.77948 -11155357.55346  21854555.402    21854556.1344   21854564.0264
       182.0004        183.0004
 -11222138.42548  -8718903.00146  22448352.412    22448352.6724   22448358.6134
       176.0004        176.0004
  -1919031.43647  -1481182.26645  23567949.941    23567950.5114   23567955.4074
       154.0004        156.0004
 21  1 31  0  4 30.0000000  0  9G21G30G08G07G17G09G01G04G14
 -15675908.28648 -12207768.85646  21744522.065    21744521.4624   21744525.2854
       183.0004        183.0004
  -5113527.13348  -3969181.41746  23456408.144    23456407.4834   23456414.6844
       165.0004        166.0004
 -15846912.11749 -12324063.50548  21705184.683    21705184.6634   21705190.8074
       224.0004        224.0004
 -17184410.52349 -13376484.54047  21449717.332    21449718.0294   21449723.0664
       198.0004        198.0004
  -2956093.92447  -2270993.31645  23713303.094    23713303.0774   23713307.8204
       156.0004        159.0004
 -17031481.58149 -13240652.59247  21173786.053    21173786.2124   21173793.6974
       209.0004        209.0004
 -14414084.91948 -11208625.96746  21841546.573    21841547.4944   21841555.4924
       182.0004        182.0004
 -11128589.86548  -8646008.02946  22466154.665    22466154.7274   22466160.2004
       176.0004        176.0004
  -1945926.87047  -1502139.69845  23562831.368    23562832.0764   23562836.7644
       153.0004        155.0004
 21  1 31  0  5  0.0000000  0  9G21G30G08G07G17G09G01G04G14
 -15679380.42048 -12210474.38246  21743860.018    21743860.6564   21743865.1994
       183.0004        183.0004
  -5201454.55747  -4037696.28446  23439675.640    23439675.0204   23439682.3254
       164.0004        165.0004
 -15763625.35049 -12259164.71748  21721034.267    21721033.8654   21721039.3774
       224.0004        223.0004
 -17254094.95649 -13430784.11647  21436457.507    21436458.1934   21436462.1614
       198.0004        198.0004
  -3046582.70547  -2341503.95945  23696083.028    23696083.2784   23696089.1504
       156.0004        159.0004
 -16985047.11349 -13204469.89947  21182622.455    21182622.8404   21182629.7464
       209.0004        209.0004
 -14482196.91948 -11261700.21546  21828585.318    21828586.0924   21828594.9824
       182.0004        182.0004
 -11034875.68648  -8572984.01546  22483986.469    22483987.4954   22483994.1494
       176.0004        176.0004
  -1972776.42147  -1523061.38345  23557722.229    23557723.1934   23557727.5964
       156.0004        158.0004
 21  1 31  0  5 30.0000000  0  9G21G30G08G07G17G09G01G04G14
 -15682387.78548 -12212817.78646  21743287.733    21743287.6424   21743292.9164
       183.0004        183.0004
  -5289405.45347  -4106229.40546  23422936.889    23422937.7804   23422945.4864
       163.0004        164.0004
 -15680088.26549 -12194070.87548  21736929.366    21736929.5934   21736936.1594
       223.0004        221.0004
 -17323610.70349 -13484952.24047  21423229.805    21423229.6684   21423233.6254
       198.0004        198.0004
  -3136791.29647  -2411796.29545  23678916.529    23678916.9374   23678923.9584
       158.0004        160.0004
 -16938177.61749 -13167948.23247  21191540.890    21191542.0664   21191548.5544
       209.0004        209.0004
 -14550055.09048 -11314576.69946  21815672.270    21815672.7834   21815681.5334
       182.0004        184.0004
 -10940997.48848  -8499832.18446  22501850.847    22501851.2174   22501858.5094
       176.0004        176.0004
  -1999579.99147  -1543947.24145  23552621.772    23552622.1524   23552627.7104
       156.0004        158.0004
 21  1 31  0  6  0.0000000  0  9G21G30G08G07G17G09G01G04G14
 -15684928.97748 -12214797.89946  21742805.393    21742805.1564   21742809.9784
       184.0004        185.0004
  -5377377.57147  -4174779.06846  23406197.668    23406198.2164   23406205.4234
       163.0004        166.0004
 -15596303.40949 -12128783.96448  21752871.989    21752872.5984   21752880.2664
       222.0004        221.0004
 -17392954.94549 -13538986.69647  21410032.407    21410033.3924   21410038.1014
       197.0004        198.0004
  -3226716.95547  -2481868.18845  23661805.645    23661805.4214   23661811.8264
       158.0004        160.0004
 -16890875.22249 -13131089.21747  21200543.226    21200542.9944   21200549.9914
       209.0004        209.0004
 -14617655.83648 -11367252.58946  21802808.981    21802809.3664   21802818.4394
       183.0004        184.0004
 -10846957.98048  -8426554.65546  22519746.886    22519747.1594   22519753.1764
       176.0004        177.0004
  -2026338.56447  -1564798.04045  23547529.981    23547529.9744   23547535.3164
       154.0004        155.0004
 21  1 31  0  6 30.0000000  0  9G21G30G08G07G17G09G01G04G14
 -15687004.67848 -12216415.31146  21742410.825    21742410.3704   21742415.7844
       186.0004        186.0004
  -5465371.05147  -4243345.38046  23389452.578    23389453.1144   23389461.0024
       164.0004        166.0004
 -15512276.05649 -12063308.11148  21768862.365    21768862.8224   21768870.1784
       222.0004        222.0004
 -17462126.97749 -13592886.97747  21396870.791    21396871.0094   21396874.8594
       198.0004        198.0004
  -3316359.80447  -2551719.71845  23644747.629    23644747.2104   23644751.9424
       158.0004        161.0004
 -16843144.37149 -13093896.35347  21209625.512    21209626.0194   21209632.6744
       209.0004        209.0004
 -14684997.96848 -11419726.93946  21789993.502    21789994.0564   21790003.1724
       184.0004        184.0004
 -10752762.22848  -8353155.38346  22537671.285    22537671.7994   22537679.0144
       176.0004        177.0004
  -2053055.37647  -1585616.30845  23542443.981    23542445.4634   23542451.2034
       154.0004        156.0004
 21  1 31  0  7  0.0000000  0  9G21G30G08G07G17G09G01G04G14
 -15688612.50448 -12217668.13646  21742104.368    21742104.1174   21742109.9624
       187.0004        187.0004
  -5553382.36247  -4311925.60946  23372705.059    23372704.9804   23372712.1304
       163.0004        164.0004
 -15428007.13249 -11997644.00748  21784898.814    21784899.1374   21784905.4054
       222.0004        221.0004
 -17531122.37449 -13646649.63447  21383742.250    21383742.5464   21383745.0764
       199.0004        199.0004
  -3405716.48147  -2621348.25045  23627742.602    23627742.9574   23627748.6444
       160.0004        162.0004
 -16794985.89449 -13056370.27047  21218789.740    21218789.8084   21218796.8294
       208.0004        208.0004
 -14752076.52448 -11471995.92446  21777228.950    21777230.2744   21777238.6474
       185.0004        186.0004
 -10658411.57148  -8279635.40746  22555626.598    22555626.5904   22555632.2904
       176.0004        176.0004
  -2079730.08747  -1606401.77145  23537369.075    23537369.9984   23537376.1894
       158.0004        161.0004
 21  1 31  0  7 30.0000000  0  9G21G30G08G07G17G09G01G04G14
 -15689751.81748 -12218555.90847  21741887.318    21741886.5704   21741893.4714
       187.0004        188.0004
  -5641410.44247  -4380518.90745  23355953.330    23355954.4784   23355961.1594
       161.0004        162.0004
 -15343500.62749 -11931794.78448  21800980.687    21800980.6664   21800986.5934
       222.0004        221.0004
 -17599939.53749 -13700273.39447  21370645.925    21370646.5424   21370649.5634
       199.0004        199.0004
  -3494785.64147  -2690752.71845  23610791.270    23610791.9664   23610798.3134
       160.0004        161.0004
 -16746403.09549 -13018513.55547  21228034.865    21228035.1834   21228042.4844
       208.0004        209.0004
 -14818889.08948 -11524057.64546  21764514.751    21764515.7844   21764524.1384
       184.0004        184.0004
 -10563909.84648  -8205997.69246  22573608.425    22573609.0264   22573614.9474
       176.0004        176.0004
  -2106364.71047  -1627155.99746  23532300.500    23532301.0204   23532306.8384
       162.0004        165.0004
 21  1 31  0  8  0.0000000  0  9G21G30G08G07G17G09G01G04G14
 -15690420.78948 -12219077.14347  21741759.396    21741760.2204   21741765.9844
       188.0004        188.0004
  -5729452.45447  -4449123.02346  23339200.496    23339200.9414   23339208.0314
       163.0004        166.0004
 -15258758.44049 -11865761.90748  21817106.517    21817106.5214   21817112.4484
       221.0004        220.0004
 -17668574.57649 -13753755.23247  21357584.912    21357585.4864   21357589.7494
       199.0004        199.0004
  -3583564.39347  -2759930.90145  23593899.136    23593899.0674   23593903.4954
       159.0004        160.0004
 -16697397.43349 -12980327.31747  21237360.304    21237360.6224   21237367.5144
       208.0004        208.0004
 -14885431.34848 -11575908.72846  21751851.890    21751853.3424   21751861.5574
       184.0004        185.0004
 -10469259.02248  -8132243.83046  22591620.139    22591620.1914   22591626.6244
       176.0004        176.0004
  -2132959.61148  -1647879.27446  23527240.267    23527241.2564   23527246.3904
       165.0004        167.0004
 21  1 31  0  8 30.0000000  0  9G21G30G08G07G17G09G01G04G14
 -15690619.59648 -12219232.03047  21741722.707    21741721.8774   21741729.1764
       188.0004        189.0004
  -5817507.57948  -4517737.35546  23322444.246    23322443.7404   23322451.2664
       165.0004        166.0004
 -15173785.00049 -11799548.83648  21833275.417    21833275.9514   21833282.4674
       221.0004        220.0004
 -17737026.24749 -13807094.19247  21344558.599    21344559.1114   21344562.9934
       199.0004        198.0004
  -3672052.33047  -2828882.48645  23577059.655    23577059.4784   23577064.7424
       156.0004        157.0004
 -16647972.80549 -12941814.63347  21246765.636    21246765.7934   21246772.7634
       207.0004        207.0004
 -14951701.45348 -11627547.74846  21739243.380    21739243.0364   21739250.3324
       186.0004        187.0004
 -10374463.52148  -8058377.21146  22609659.202    22609659.5064   22609666.6504
       176.0004        175.0004
  -2159517.33848  -1668573.57046  23522186.643    23522187.1134   23522192.7784
       165.0004        166.0004
 21  1 31  0  9  0.0000000  0  9G21G30G08G07G17G09G01G04G14
 -15690347.01248 -12219019.59447  21741774.053    21741773.3504   21741780.6204
       189.0004        188.0004
  -5905574.02048  -4586360.52146  23305685.218    23305684.9634   23305693.2734
       165.0004        168.0004
 -15088582.73249 -11733157.45348  21849489.298    21849489.4384   21849496.2234
       220.0004        220.0004
 -17805292.03349 -13860288.30147  21331567.907    21331568.6154   21331572.8224
       199.0004        199.0004
  -3760247.32347  -2897605.81045  23560275.944    23560276.4374   23560281.5124
       156.0004        159.0004
 -16598131.75149 -12902977.45647  21256249.562    21256249.9084   21256257.0554
       207.0004        207.0004
 -15017696.16348 -11678972.17846  21726683.034    21726683.4934   21726692.5504
       186.0004        186.0004
 -10279526.33948  -7984400.19846  22627725.227    22627725.8334   22627732.5574
       175.0004        176.0004
  -2186039.20747  -1689239.95146  23517139.843    23517139.7754   23517145.5424
       164.0004        165.0004
 21  1 31  0  9 30.0000000  0  9G21G30G08G07G17G09G01G04G14
 -15689600.90148 -12218438.17747  21741915.198    21741915.2094   21741922.9394
       188.0004        188.0004
  -5993648.70348  -4654990.09946  23288925.108    23288925.5204   23288933.0604
       166.0004        167.0004
 -15003154.01149 -11666589.62048  21865745.717    21865746.1314   21865752.9134
       221.0004        220.0004
 -17873367.91049 -13913334.42747  21318614.330    21318614.3444   21318618.5694
       199.0004        199.0004
  -3848146.72247  -2966098.81145  23543550.540    23543550.6074   23543555.2424
       159.0004        162.0004
 -16547875.68849 -12863816.88347  21265813.276    21265813.5014   21265820.9134
       207.0004        207.0004
 -15083411.08048 -11730178.58246  21714177.569    21714178.5994   21714186.9404
       185.0004        186.0004
 -10184449.35848  -7910314.25846  22645817.824    22645817.8734   22645823.8834
       174.0004        174.0004
  -2212525.26447  -1709878.38946  23512099.352    23512099.8074   23512105.7304
       163.0004        164.0004
 21  1 31  0 10  0.0000000  0  9G21G30G08G07G17G09G01G04G14
 -15688380.72348 -12217487.36046  21742147.402    21742147.2074   21742153.9884
       187.0004        187.0004
  -6081730.04848  -4723624.86246  23272164.697    23272163.9314   23272171.3204
       165.0004        166.0004
 -14917502.16049 -11599847.91648  21882044.782    21882045.0134   21882051.6584
       220.0004        219.0004
 -17941251.34249 -13966230.60447  21305695.029    21305695.8694   21305700.9134
       199.0004        199.0004
  -3935748.75047  -3034360.07845  23526879.324    23526879.6914   23526885.4204
       160.0004        161.0004
 -16497207.45649 -12824335.15847  21275454.797    21275455.4284   21275462.6284
       207.0004        207.0004
 -15148843.31848 -11781164.72446  21701727.003    21701727.2784   21701735.6414
       186.0004        186.0004
 -10089235.94648  -7836121.99646  22663936.885    22663937.4054   22663943.3544
       174.0004        175.0004
  -2238977.24947  -1730490.27846  23507066.914    23507066.8504   23507072.9444
       164.0004        166.0004
 21  1 31  0 10 30.0000000  0  9G21G30G08G07G17G09G01G04G14
 -15686685.87948 -12216166.69146  21742470.188    21742469.9694   21742476.1304
       186.0004        186.0004
  -6169816.36848  -4792263.54946  23255402.507    23255402.2684   23255409.0734
       167.0004        169.0004
 -14831630.33449 -11532934.79848  21898384.899    21898385.4124   21898392.4614
       219.0004        218.0004
 -18008940.25849 -14018975.20947  21292815.293    21292815.5734   21292819.8594
       199.0004        199.0004
  -4023051.50047  -3102388.15545  23510267.346    23510267.6244   23510272.0814
       159.0004        160.0004
 -16446130.02449 -12784534.56947  21285174.491    21285174.9834   21285182.3154
       207.0004        206.0004
 -15213989.94648 -11831928.31546  21689329.301    21689330.1324   21689339.3194
       186.0004        187.0004
  -9993889.38048  -7761825.98946  22682080.449    22682080.8984   22682087.1574
       173.0004        173.0004
  -2265396.66648  -1751076.80446  23502037.790    23502038.9714   23502043.7184
       166.0004        167.0004
 21  1 31  0 11  0.0000000  0  9G21G30G08G07G17G09G01G04G14
 -15684515.12348 -12214475.16946  21742883.651    21742883.1854   21742889.0014
       186.0004        186.0004
  -6257905.42348  -4860904.33146  23238637.141    23238638.3704   23238647.1584
       168.0004        169.0004
 -14745540.82649 -11465852.07048  21914767.561    21914767.7414   21914774.8404
       218.0004        218.0004
 -18076432.06649 -14071566.23047  21279971.826    21279972.4274   21279976.5994
       199.0004        200.0004
  -4110053.53247  -3170181.88445  23493711.303    23493711.1364   23493714.7034
       156.0004        157.0004
 -16394645.70349 -12744416.92447  21294971.288    21294971.6984   21294978.6484
       205.0004        205.0004
 -15278847.49448 -11882466.64446  21676987.921    21676988.1314   21676996.3524
       186.0004        186.0004
  -9898412.46648  -7687428.41246  22700248.772    22700249.2444   22700256.0144
       171.0004        170.0004
  -2291784.52648  -1771638.73646  23497016.758    23497017.0254   23497022.5664
       166.0004        167.0004
 21  1 31  0 11 30.0000000  0  9G21G30G08G07G17G09G01G04G14
 -15681866.63748 -12212411.38546  21743387.368    21743387.4014   21743392.4164
       185.0004        184.0004
  -6345994.61548  -4929545.23246  23221874.632    23221875.3404   23221882.3854
       166.0004        166.0004
 -14659235.94849 -11398601.51348  21931191.831    21931191.5774   21931198.0754
       219.0004        219.0004
 -18143723.10749 -14124000.80447  21267166.729    21267167.2194   21267171.3954
       199.0004        200.0004
  -4196751.86747  -3237738.95545  23477211.862    23477212.9474   23477219.1044
       155.0004        158.0004
 -16342756.41949 -12703983.71747  21304846.070    21304846.3644   21304853.3594
       206.0004        206.0004
 -15343412.09348 -11932776.69546  21664701.714    21664702.9144   21664710.3664
       186.0004        187.0004
  -9802807.50548  -7612931.04146  22718442.106    22718442.2964   22718448.7224
       170.0004        170.0004
  -2318141.43848  -1792176.53546  23492001.450    23492002.4164   23492006.9894
       165.0004        166.0004
 21  1 31  0 12  0.0000000  0  9G21G30G08G07G17G09G01G04G14
 -15678739.24148 -12209974.43046  21743982.295    21743982.3654   21743986.8974
       184.0004        184.0004
  -6434081.85648  -4998184.63046  23205113.625    23205113.8594   23205121.1004
       167.0004        169.0004
 -14572718.91949 -11331185.64748  21947655.595    21947655.3864   21947661.3594
       219.0004        218.0004
 -18210810.43049 -14176276.63747  21254400.290    21254400.8884   21254405.4284
       200.0004        200.0004
  -4283144.59747  -3305057.90245  23460771.814    23460772.7754   23460780.0544
       159.0004        162.0004
 -16290464.68449 -12663236.92047  21314796.511    21314796.9544   21314804.2394
       206.0004        206.0004
 -15407680.41048 -11982855.88446  21652471.824    21652472.4174   21652480.5114
       186.0004        186.0004
  -9707077.43748  -7538336.20146  22736658.773    22736658.5594   22736664.7984
       170.0004        170.0004
  -2344468.50548  -1812691.09046  23486991.311    23486992.2024   23486997.5704
       166.0004        167.0004
 21  1 31  0 12 30.0000000  0  9G21G30G08G07G17G09G01G04G14
 -15675133.21948 -12207164.52546  21744668.663    21744668.5164   21744672.8094
       183.0004        182.0004
  -6522166.08448  -5066821.66446  23188351.762    23188351.5914   23188359.6464
       169.0004        171.0004
 -14485993.48049 -11263607.37648  21964158.107    21964158.3544   21964165.3124
       219.0004        218.0004
 -18277692.38049 -14228392.42547  21241672.917    21241673.7994   21241678.0484
       200.0004        200.0004
  -4369230.83547  -3372138.00645  23444390.317    23444389.9014   23444396.7114
       158.0004        160.0004
 -16237774.12449 -12622179.35847  21324823.074    21324823.7864   21324831.4274
       206.0004        206.0004
 -15471650.21648 -12032702.47046  21640298.546    21640299.0344   21640307.4714
       186.0004        187.0004
  -9611226.21148  -7463646.96546  22754898.237    22754899.0754   22754904.9164
       170.0004        171.0004
  -2370767.94748  -1833184.12846  23481986.797    23481987.0584   23481992.7504
       165.0004        165.0004
 21  1 31  0 13  0.0000000  0  9G21G30G08G07G17G09G01G04G14
 -15671047.33948 -12203980.70446  21745447.065    21745446.7594   21745450.5594
       183.0004        184.0004
  -6610244.44548  -5135454.15246  23171592.069    23171591.6874   23171597.6014
       170.0004        171.0004
 -14399061.95849 -11195868.51348  21980700.499    21980700.7394   21980708.0234
       218.0004        217.0004
 -18344365.51449 -14280345.51247  21228986.485    21228986.6774   21228990.2514
       200.0004        201.0004
  -4455008.07947  -3438977.34245  23428067.313    23428068.1504   23428073.7164
       158.0004        161.0004
 -16184686.54349 -12580812.40347  21334925.858    21334926.1674   21334933.7464
       206.0004        207.0004
 -15535317.43448 -12082313.26646  21628182.375    21628183.3884   21628191.6984
       186.0004        187.0004
  -9515255.97848  -7388864.97346  22773162.186    22773161.6964   22773167.0384
       170.0004        171.0004
  -2397040.23847  -1853655.98846  23476986.990    23476987.4654   23476992.1754
       163.0004        164.0004
 21  1 31  0 13 30.0000000  0  9G21G30G08G07G17G09G01G04G14
 -15666481.42848 -12200422.83846  21746316.595    21746315.7614   21746319.5734
       183.0004        184.0004
  -6698315.72348  -5204081.14046  23154832.527    23154831.5334   23154839.0844
       170.0004        172.0004
 -14311927.99749 -11127971.93148  21997280.993    21997281.6084   21997288.7024
       218.0004        217.0004
 -18410827.97249 -14332134.44247  21216338.597    21216339.0424   21216343.2674
       201.0004        201.0004
  -4540475.30147  -3505575.11045  23411803.978    23411804.0464   23411808.5954
       160.0004        162.0004
 -16131205.35049 -12539138.76447  21345103.210    21345103.4194   21345110.4814
       206.0004        206.0004
 -15598679.64848 -12131686.40646  21616124.851    21616126.3094   21616134.4114
       186.0004        187.0004
  -9419170.53348  -7313993.23246  22791444.539    22791445.3264   22791451.6234
       169.0004        169.0004
  -2423287.36747  -1874108.28346  23471993.074    23471992.1974   23471998.3234
       163.0004        164.0004
 21  1 31  0 14  0.0000000  0  9G21G30G08G07G17G09G01G04G14
 -15661433.37848 -12196489.27546  21747275.875    21747276.1724   21747278.8774
       183.0004        183.0004
  -6786377.02548  -5272700.31146  23138073.939    23138074.0594   23138080.8474
       171.0004        172.0004
 -14224593.42249 -11059919.01248  22013900.331    22013900.8714   22013907.5764
       217.0004        217.0004
 -18477076.01749 -14383756.29747  21203732.222    21203732.9094   21203736.6024
       201.0004        202.0004
  -4625630.15247  -3571929.48445  23395598.939    23395599.1704   23395603.5694
       160.0004        162.0004
 -16077332.38749 -12497159.84047  21355354.161    21355355.0064   21355361.8744
       206.0004        206.0004
 -15661732.83348 -12180818.74446  21604126.784    21604127.7454   21604135.6334
       187.0004        187.0004
  -9322971.97348  -7239033.33546  22809751.645    22809751.1274   22809758.5784
       167.0004        167.0004
  -2449509.77947  -1894541.29446  23467002.169    23467002.7764   23467007.9014
       163.0004        165.0004
 21  1 31  0 14 30.0000000  0  9G21G30G08G07G17G09G01G04G14
 -15655902.65848 -12192179.60446  21748327.473    21748328.0654   21748331.3034
       182.0004        182.0004
  -6874426.24248  -5341310.08046  23121318.947    23121318.7564   23121326.3894
       171.0004        172.0004
 -14137061.13949 -10991712.02748  22030557.081    22030557.5514   22030564.6164
       217.0004        217.0004
 -18543107.00449 -14435209.01347  21191166.924    21191167.4334   21191171.0884
       201.0004        201.0004
  -4710470.60647  -3638038.85046  23379455.301    23379456.3304   23379460.4414
       163.0004        166.0004
 -16023070.28649 -12454877.68547  21365680.670    21365680.9194   21365688.0334
       205.0004        206.0004
 -15724473.75148 -12229707.75147  21592188.133    21592188.5464   21592197.0974
       187.0004        188.0004
  -9226663.26748  -7163987.60346  22828077.825    22828079.1854   22828085.3594
       167.0004        169.0004
  -2475708.65147  -1914955.94746  23462017.883    23462018.0634   23462023.1504
       164.0004        166.0004
 21  1 31  0 15  0.0000000  0  9G21G30G08G07G17G09G01G04G14
 -15649887.92648 -12187492.77346  21749473.036    21749473.0914   21749475.9794
       182.0004        182.0004
  -6962460.88348  -5409908.48646  23104566.828    23104566.4164   23104573.5704
       171.0004        172.0004
 -14049334.03649 -10923353.23648  22047252.143    22047251.9144   22047258.3244
       217.0004        216.0004
 -18608917.95249 -14486490.27147  21178643.101    21178643.4154   21178647.8094
       201.0004        201.0004
  -4794993.97947  -3703901.14346  23363369.400    23363370.7334   23363375.5114
       163.0004        164.0004
 -15968421.26049 -12412294.02947  21376080.458    21376080.4294   21376087.1464
       205.0004        205.0004
 -15786898.74148 -12278350.57847  21580309.512    21580310.3114   21580317.8994
       188.0004        189.0004
  -9130246.92648  -7088857.99046  22846426.032    22846426.2964   22846432.7814
       168.0004        169.0004
  -2501884.60147  -1935352.77146  23457036.056    23457037.4064   23457041.5614
       163.0004        163.0004
 21  1 31  0 15 30.0000000  0  9G21G30G08G07G17G09G01G04G14
 -15643389.38448 -12182428.94846  21750709.879    21750709.1734   21750713.3514
       182.0004        182.0004
  -7050480.01648  -5478494.81846  23087816.466    23087817.5314   23087823.5634
       169.0004        169.0004
 -13961415.65749 -10854845.40548  22063981.770    22063982.0754   22063989.0984
       216.0004        215.0004
 -18674507.07549 -14537598.67447  21166160.991    21166162.2224   21166166.8914
       201.0004        202.0004
  -4879200.17647  -3769516.30346  23347346.736    23347346.5894   23347351.8314
       163.0004        165.0004
 -15913389.15649 -12369411.88547  21386552.443    21386552.8264   21386559.3124
       205.0004        204.0004
 -15849005.71648 -12326745.60547  21568491.362    21568491.4804   21568498.9734
       189.0004        189.0004
  -9033727.05748  -7013647.71346  22864794.654    22864794.3764   22864800.0824
       168.0004        169.0004
  -2528040.14347  -1955733.70246  23452057.629    23452058.6914   23452064.7884
       161.0004        163.0004
 21  1 31  0 16  0.0000000  0  9G21G30G08G07G17G09G01G04G14
 -15636406.57948 -12176987.78146  21752037.318    21752037.7864   21752042.0914
       182.0004        182.0004
  -7138481.93348  -5547067.75246  23071070.606    23071070.2064   23071077.5244
       169.0004        171.0004
 -13873309.56249 -10786191.30248  22080747.251    22080748.0254   22080754.8774
       215.0004        215.0004
 -18739871.83549 -14588532.24547  21153723.891    21153723.9024   21153727.6364
       201.0004        201.0004
  -4963087.83447  -3834883.25446  23331383.872    23331383.6784   23331388.9244
       164.0004        167.0004
 -15857977.10049 -12326233.66347  21397096.861    21397097.0084   21397103.9494
       204.0004        204.0004
 -15910791.96348 -12374890.71947  21556732.498    21556733.1904   21556740.9544
       188.0004        188.0004
  -8937107.03148  -6938359.39746  22883179.145    22883180.1684   22883185.9644
       169.0004        170.0004
  -2554176.90147  -1976099.95945  23447084.426    23447084.6014   23447091.9604
       160.0004        160.0004
 21  1 31  0 16 30.0000000  0  9G21G30G08G07G17G09G01G04G14
 -15628936.99548 -12171167.30246  21753459.717    21753459.4704   21753463.8134
       183.0004        184.0004
  -7226462.33048  -5615623.88746  23054328.344    23054328.4214   23054335.9964
       171.0004        172.0004
 -13785015.96649 -10717391.09148  22097549.339    22097549.6264   22097556.3414
       215.0004        215.0004
 -18805007.41049 -14639287.23447  21141329.167    21141329.2804   21141332.8444
       201.0004        201.0004
  -5046652.86848  -3899998.79446  23315480.862    23315481.5334   23315487.6444
       165.0004        165.0004
 -15802185.50249 -12282759.69447  21407713.120    21407713.4524   21407720.9384
       204.0004        204.0004
 -15972252.05648 -12422781.66747  21545037.205    21545038.4634   21545045.5474
       188.0004        188.0004
  -8840387.58348  -6862993.60946  22901584.608    22901584.4134   22901591.7454
       170.0004        170.0004
  -2580293.81547  -1996450.74145  23442113.160    23442114.7804   23442120.6794
       158.0004        160.0004
 21  1 31  0 17  0.0000000  0  9G21G30G08G07G17G09G01G04G14
 -15620981.17548 -12164967.95046  21754972.715    21754973.1854   21754977.8574
       183.0004        184.0004
  -7314420.17748  -5684162.44446  23037590.954    23037590.3964   23037599.1544
       172.0004        172.0004
 -13696539.49949 -10648448.39548  22114386.326    22114386.1454   22114392.8864
       215.0004        214.0004
 -18869912.67049 -14689862.77447  21128977.639    21128978.3234   21128982.5814
       202.0004        202.0004
  -5129895.12347  -3964862.82246  23299640.037    23299641.0484   23299646.2874
       164.0004        166.0004
 -15746018.23849 -12238993.01947  21418402.437    21418402.1974   21418409.0234
       204.0004        204.0004
 -16033383.85048 -12470416.81147  21533405.172    21533405.1044   21533412.4504
       188.0004        188.0004
  -8743572.73948  -6787553.49146  22920007.352    22920008.0084   22920014.7784
       169.0004        169.0004
  -2606393.13647  -2016787.87045  23437147.280    23437148.3264   23437153.4664
       158.0004        159.0004
 21  1 31  0 17 30.0000000  0  9G21G30G08G07G17G09G01G04G14
 -15612537.41248 -12158388.35946  21756579.793    21756579.5654   21756584.5584
       184.0004        184.0004
  -7402352.91048  -5752681.44746  23020858.036    23020857.4274   23020864.8604
       172.0004        173.0004
 -13607882.51249 -10579365.01848  22131257.107    22131256.7554   22131263.4334
       214.0004        213.0004
 -18934583.85349 -14740255.89147  21116671.409    21116671.7764   21116675.8594
       202.0004        203.0004
  -5212811.76148  -4029473.12946  23283861.516    23283862.1814   23283867.6214
       165.0004        167.0004
 -15689477.53549 -12194935.32247  21429160.356    21429160.9964   21429168.5984
       203.0004        204.0004
 -16094183.73148 -12517793.32547  21521835.577    21521835.9574   21521842.9554
       188.0004        189.0004
  -8646664.94748  -6712040.94446  22938447.884    22938448.8814   22938455.3884
       168.0004        168.0004
  -2632475.64647  -2037111.84845  23432185.178    23432186.1374   23432190.8474
       158.0004        161.0004
 21  1 31  0 18  0.0000000  0  9G21G30G08G07G17G09G01G04G14
 -15603606.58648 -12151429.25546  21758279.703    21758279.4974   21758284.6404
       185.0004        185.0004
  -7490259.88048  -5821180.37846  23004129.744    23004130.0104   23004137.2134
       172.0004        172.0004
 -13519048.89049 -10510144.01547  22148160.971    22148160.5544   22148168.0904
       213.0004        211.0004
 -18999019.66149 -14790465.62847  21104409.389    21104410.0674   21104413.6364
       202.0004        202.0004
  -5295402.52648  -4093829.48246  23268146.202    23268146.0164   23268151.4294
       167.0004        169.0004
 -15632567.65849 -12150589.97647  21439990.436    21439991.0004   21439998.5314
       203.0004        204.0004
 -16154650.04848 -12564909.91747  21510328.107    21510328.3744   21510336.8644
       188.0004        188.0004
  -8549668.67848  -6636459.43846  22956906.190    22956907.0304   22956911.9444
       168.0004        169.0004
  -2658543.97247  -2057424.79145  23427224.330    23427224.8624   23427230.5514
       160.0004        162.0004
 21  1 31  0 18 30.0000000  0  9G21G30G08G07G17G09G01G04G14
 -15594187.97548 -12144090.06246  21760072.553    21760071.7424   21760076.9454
       185.0004        185.0004
  -7578138.63748  -5889657.34446  22987407.235    22987407.2424   22987413.6254
       172.0004        172.0004
 -13430041.41549 -10440787.54447  22165096.627    22165097.9894   22165105.7884
       211.0004        211.0004
 -19063217.33149 -14840489.79047  21092193.504    21092193.2224   21092197.4044
       202.0004        202.0004
  -5377665.84748  -4157930.72746  23252491.128    23252490.7444   23252498.7624
       167.0004        168.0004
 -15575291.09149 -12105958.89747  21450889.495    21450889.7764   21450897.4714
       203.0004        202.0004
 -16214779.39748 -12611763.91747  21498884.604    21498885.4274   21498894.0864
       187.0004        188.0004
  -8452586.60848  -6560811.07946  22975381.601    22975381.4264   22975386.8324
       168.0004        169.0004
  -2684599.16847  -2077727.49245  23422265.916    23422266.3404   23422271.5014
       160.0004        162.0004
 21  1 31  0 19  0.0000000  0 10G21G30G08G22G07G17G09G01G04G14
 -15584280.04948 -12136369.56646  21761957.474    21761956.8724   21761962.2684
       185.0004        186.0004
  -7665986.06448  -5958109.85946  22970690.521    22970690.8484   22970697.5144
       172.0004        175.0004
 -13340862.04449 -10371297.12447  22182068.455    22182068.6124   22182075.8044
       212.0004        211.0004
  -2021591.11254
        74.0004
 -19127172.99449 -14890325.36447  21080022.063    21080022.9314   21080027.2734
       203.0004        203.0004
  -5459599.05748  -4221774.71746  23236898.751    23236899.4954   23236906.9144
       166.0004        166.0004
 -15517649.52349 -12061043.38947  21461858.545    21461859.3934   21461866.0194
       202.0004        203.0004
 -16274567.50348 -12658352.02947  21487509.098    21487509.8974   21487517.8454
       189.0004        192.0004
  -8355420.62848  -6485097.33346  22993870.034    22993870.9504   22993877.6224
       168.0004        168.0004
  -2710641.26047  -2098019.99645  23417311.913    23417311.6414   23417316.0474
       161.0004        162.0004
 21  1 31  0 19 30.0000000  0 11G21G28G30G08G22G07G17G09G01G04G14
 -15573883.09548 -12128268.01946  21763935.661    21763935.5164   21763941.2294
       186.0004        186.0004
   1406007.12554   1418387.467 2                                  24702658.895
        74.0004         27.000
  -7753800.79248  -6026536.92246  22953980.751    22953979.6344   22953986.4164
       173.0004        173.0004
 -13251514.64449 -10301675.77447  22199071.470    22199070.9754   22199078.2034
       212.0004        212.0004
  -2021591.11244
        74.0004
 -19190884.93649 -14939971.03047  21067898.469    21067898.9004   21067903.0494
       202.0004        202.0004
  -5541201.10348  -4285360.69646  23221370.497    23221371.1074   23221377.5484
       165.0004        166.0004
 -15459646.62249 -12015846.34347  21472896.853    21472897.1624   21472903.7964
       202.0004        203.0004
 -16334012.10948 -12704672.50247  21476199.547    21476199.6014   21476205.5304
       193.0004        195.0004
  -8258174.47548  -6409321.13246  23012375.094    23012376.4744   23012382.7984
       167.0004        168.0004
  -2736672.29147  -2118303.91945  23412357.423    23412358.2664   23412362.6024
       161.0004        161.0004
 21  1 31  0 20  0.0000000  0 10G21G30G08G22G07G17G09G01G04G14
 -15562995.50948 -12119784.16746  21766007.130    21766007.2484   21766012.8764
       186.0004        186.0004
  -7841579.82248  -6094936.14046  22937274.120    22937275.1294   22937283.0474
       170.0004        171.0004
 -13162000.92449 -10231924.82247  22216104.036    22216104.2844   22216112.4694
       212.0004        212.0004
  -2021591.11244
        74.0004
 -19254349.12449 -14989423.64747  21055822.324    21055822.6594   21055826.1584
       202.0004        203.0004
  -5622469.44547  -4348686.65946  23205906.753    23205906.9574   23205911.4594
       164.0004        165.0004
 -15401284.19249 -11970369.13047  21484002.285    21484002.6164   21484009.8054
       202.0004        202.0004
 -16393109.15148 -12750722.15047  21464952.157    21464952.9934   21464958.6804
       194.0004        193.0004
  -8160850.16948  -6333484.03346  23030896.549    23030896.3804   23030903.5374
       167.0004        168.0004
  -2762692.53747  -2138579.41045  23407405.843    23407405.3174   23407410.8774
       158.0004        158.0004
 21  1 31  0 20 30.0000000  0 10G21G28G30G08G07G17G09G01G04G14
 -15551616.60248 -12110917.48346  21768172.840    21768172.4554   21768178.0814
       186.0004        187.0004
   -144148.90854   -104643.752 3                                  23701053.155
        74.0004         74.000
  -7929320.83148  -6163305.74446  22920578.252    22920577.4274   22920586.0714
       170.0004        170.0004
 -13072323.63249 -10162046.42147  22233169.822    22233169.9084   22233177.2684
       211.0004        210.0004
 -19317563.18449 -15038681.33647  21043792.302    21043792.5184   21043797.0874
       203.0004        203.0004
  -5703402.62247  -4411751.41746  23190505.975    23190506.2294   23190511.0564
       163.0004        163.0004
 -15342565.03649 -11924613.95347  21495175.568    21495176.4344   21495184.0134
       202.0004        203.0004
 -16451855.51848 -12796498.52047  21453771.081    21453770.9564   21453780.0024
       191.0004        188.0004
  -8063450.59248  -6257588.27246  23049430.204    23049431.5074   23049436.9154
       167.0004        168.0004
  -2788703.12247  -2158847.37145  23402455.455    23402455.9394   23402461.5544
       157.0004        158.0004
 21  1 31  0 21  0.0000000  0 10G21G28G30G08G07G17G09G01G04G14
 -15539746.36448 -12101667.92446  21770431.568    21770432.0124   21770436.9174
       187.0004        187.0004
   -161278.51844   -117991.304 4                                  23697766.571
        74.0004        131.000
  -8017022.12848  -6231644.41946  22903888.794    22903889.6064   22903897.0494
       169.0004        170.0004
 -12982485.75149 -10092042.89047  22250265.400    22250265.5884   22250272.8644
       210.0004        210.0004
 -19380524.58149 -15087742.15947  21031811.246    21031811.5314   21031815.8044
       203.0004        203.0004
  -5783999.52347  -4474554.18146  23175169.868    23175169.0044   23175172.6324
       163.0004        163.0004
 -15283492.40249 -11878583.34047  21506417.558    21506417.7894   21506424.6094
       202.0004        203.0004
 -16510248.54248 -12841999.53546  21442658.009    21442658.8974   21442668.6394
       187.0004        187.0004
  -7965979.06348  -6181636.43946  23067979.401    23067978.9904   23067985.2924
       167.0004        167.0004
  -2814705.64647  -2179109.06845  23397507.364    23397508.3584   23397513.8744
       157.0004        158.0004
 21  1 31  0 21 30.0000000  0 10G21G28G30G08G07G17G09G01G04G14
 -15527384.45548 -12092035.24646  21772784.909    21772784.1714   21772789.3474
       187.0004        187.0004
   -176869.69946   -130140.32045  23694794.760                    23694802.2054
       117.0004        139.0004
  -8104681.69648  -6299950.57446  22887207.290    22887208.1414   22887216.8944
       170.0004        172.0004
 -12892490.83049 -10021916.97447  22267391.097    22267390.8514   22267398.4354
       210.0004        211.0004
 -19443230.71649 -15136604.08847  21019878.723    21019879.3754   21019883.2134
       203.0004        203.0004
  -5864258.49047  -4537093.65045  23159895.809    23159896.0674   23159897.8474
       160.0004        160.0004
 -15224069.27849 -11832279.61147  21517724.695    21517725.1424   21517732.8284
       202.0004        202.0004
 -16568285.22248 -12887222.89847  21431614.280    21431615.9024   21431624.3554
       187.0004        188.0004
  -7868438.75448  -6105631.02646  23086540.269    23086540.8464   23086546.6404
       166.0004        167.0004
  -2840701.51647  -2199365.58545  23392561.972    23392562.8024   23392566.1444
       156.0004        158.0004
 21  1 31  0 22  0.0000000  0 10G21G28G30G08G07G17G09G01G04G14
 -15514530.20948 -12082018.93946  21775230.632    21775230.1194   21775235.2684
       187.0004        186.0004
   -191934.87046   -141879.43145  23691928.719    23691928.5184   23691933.7354
       132.0004        141.0004
  -8192297.03648  -6368222.24146  22870534.942    22870535.4144   22870543.0334
       171.0004        173.0004
 -12802341.31549  -9951670.59747  22284543.709    22284545.2584   22284553.2724
       210.0004        210.0004
 -19505678.49149 -15185264.68247  21007995.619    21007995.6494   21008000.0534
       203.0004        203.0004
  -5944177.62147  -4599368.28245  23144686.888    23144687.9364   23144689.8614
       157.0004        159.0004
 -15164298.19549 -11785704.74247  21529099.389    21529099.8014   21529106.9564
       202.0004        203.0004
 -16625962.17548 -12932165.95547  21420639.924    21420641.0604   21420648.5544
       189.0004        191.0004
  -7770832.17647  -6029573.97646  23105113.712    23105114.5234   23105120.9324
       164.0004        164.0004
  -2866691.57147  -2219617.54845  23387615.826    23387616.0404   23387620.8064
       156.0004        158.0004
 21  1 31  0 22 30.0000000  0 10G21G28G30G08G07G17G09G01G04G14
 -15501183.56848 -12071618.93946  21777770.121    21777769.9924   21777775.1264
       187.0004        187.0004
   -206979.45047   -153602.46445  23689064.895    23689064.8944   23689070.6434
       135.0004        141.0004
  -8279866.35948  -6436458.07046  22853871.580    22853871.5254   22853880.1164
       171.0004        172.0004
 -12712040.26949  -9881306.15147  22301729.209    22301729.3514   22301736.8204
       209.0004        209.0004
 -19567865.71849 -15233722.26547  20996161.109    20996161.6084   20996166.0034
       203.0004        203.0004
  -6023755.71647  -4661377.19245  23129544.445    23129544.3324   23129548.2024
       159.0004        161.0004
 -15104182.41549 -11738861.27747  21540539.397    21540539.3494   21540546.2604
       202.0004        202.0004
 -16683276.76148 -12976826.66147  21409734.429    21409735.2514   21409742.0084
       191.0004        193.0004
  -7673162.71847  -5953467.90946  23123699.108    23123699.8954   23123706.2044
       162.0004        164.0004
  -2892677.33647  -2239866.21045  23382669.519    23382670.2134   23382675.2114
       154.0004        155.0004
 21  1 31  0 23  0.0000000  0 10G21G28G30G08G07G17G09G01G04G14
 -15487346.11748 -12060836.49546  21780403.206    21780402.8054   21780408.1304
       186.0004        187.0004
   -222006.77547   -165312.05245  23686206.815    23686205.6174   23686210.2614
       136.0004        142.0004
  -8367389.42648  -6504657.83146  22837216.635    22837216.9804   22837224.4654
       172.0004        174.0004
 -12621592.55649  -9810827.41847  22318941.110    22318940.9454   22318948.4094
       208.0004        208.0004
 -19629791.53449 -15281976.15147  20984377.392    20984378.0134   20984382.1934
       203.0004        204.0004
  -6102993.38847  -4723120.77545  23114464.236    23114464.6774   23114470.6784
       159.0004        162.0004
 -15043726.71449 -11691752.94647  21552043.484    21552043.8834   21552050.6604
       202.0004        203.0004
 -16740227.84848 -13021204.12047  21398897.847    21398898.0434   21398904.9604
       193.0004        194.0004
  -7575435.26647  -5877316.65446  23142296.714    23142297.1214   23142303.3004
       162.0004        163.0004
  -2918662.06247  -2260114.02545  23377725.435    23377725.5194   23377731.8624
       153.0004        156.0004
 21  1 31  0 23 30.0000000  0 10G21G28G30G08G07G17G09G01G04G14
 -15473015.17148 -12049669.50746  21783130.241    21783130.4834   21783134.8514
       187.0004        187.0004
   -237016.33647   -177007.77945  23683348.962    23683349.8814   23683354.3014
       138.0004        143.0004
  -8454861.58348  -6572817.95246  22820570.590    22820571.1224   22820578.2924
       171.0004        172.0004
 -12530998.56849  -9740234.69247  22336180.318    22336180.3494   22336187.9504
       208.0004        207.0004
 -19691450.88449 -15330022.39047  20972643.733    20972644.1254   20972648.7324
       204.0004        203.0004
  -6181886.78947  -4784596.11846  23099453.286    23099453.2534   23099459.4514
       163.0004        168.0004
 -14982931.59049 -11644380.13147  21563612.543    21563613.2474   21563619.7184
       203.0004        204.0004
 -16796809.99648 -13065294.08847  21388129.915    21388130.4304   21388137.2734
       193.0004        193.0004
  -7477650.24847  -5801120.54846  23160903.790    23160905.2734   23160912.2464
       162.0004        163.0004
  -2944644.39847  -2280359.97145  23372780.749    23372781.3274   23372787.0874
       155.0004        158.0004
 21  1 31  0 24  0.0000000  0 10G21G28G30G08G07G17G09G01G04G14
 -15458189.86848 -12038117.30246  21785951.708    21785951.1194   21785956.4234
       187.0004        187.0004
   -252009.22747   -188690.52145  23680495.705    23680496.2884   23680502.2714
       140.0004        143.0004
  -8542280.15248  -6640936.32246  22803936.922    22803936.9634   22803944.1974
       174.0004        177.0004
 -12440261.15549  -9669530.21547  22353447.521    22353447.3414   22353453.9844
       207.0004        207.0004
 -19752840.47549 -15377858.43447  20960961.412    20960962.0324   20960966.5484
       203.0004        203.0004
  -6260434.00048  -4845801.68246  23084505.381    23084505.8574   23084512.7004
       167.0004        169.0004
 -14921799.48949 -11596744.73147  21575245.564    21575245.7174   21575253.2564
       203.0004        203.0004
 -16853019.73048 -13109093.86547  21377432.474    21377433.0324   21377441.1534
       193.0004        192.0004
  -7379810.14147  -5724881.53546  23179523.507    23179523.3424   23179530.5924
       162.0004        164.0004
  -2970625.04547  -2300604.58845  23367837.663    23367837.8224   23367842.9104
       156.0004        160.0004
 21  1 31  0 24 30.0000000  0 10G21G28G30G08G07G17G09G01G04G14
 -15442868.79748 -12026178.77746  21788867.766    21788867.1794   21788871.9034
       187.0004        187.0004
   -266986.09247   -200360.78445  23677647.030    23677647.3174   23677651.2284
       140.0004        144.0004
  -8629642.08448  -6709010.54246  22787311.894    22787311.8384   22787319.6224
       176.0004        177.0004
 -12349381.59249  -9598714.97547  22370741.375    22370741.3974   22370748.0444
       207.0004        207.0004
 -19813956.71249 -15425481.48147  20949332.072    20949332.5064   20949336.2734
       203.0004        204.0004
  -6338631.94448  -4906735.11646  23069623.290    23069624.7684   23069632.1084
       167.0004        169.0004
 -14860332.39149 -11548848.28947  21586942.280    21586942.8744   21586949.4684
       203.0004        203.0004
 -16908853.13248 -13152600.39447  21366807.795    21366808.1484   21366816.3724
       191.0004        191.0004
  -7281917.00147  -5648601.20046  23198152.037    23198152.3434   23198159.5444
       163.0004        164.0004
  -2996604.32447  -2320848.14745  23362892.963    23362893.4904   23362898.4494
       158.0004        160.0004
 21  1 31  0 25  0.0000000  0 10G21G28G30G08G07G17G09G01G04G14
 -15427051.12548 -12013853.30346  21791876.906    21791876.7324   21791881.5414
       187.0004        186.0004
   -281947.81347   -212019.23245  23674800.343    23674800.0094   23674806.1044
       141.0004        146.0004
  -8716944.68648  -6777038.54546  22770698.623    22770699.1204   22770705.8484
       177.0004        178.0004
 -12258362.83149  -9527791.25947  22388060.782    22388060.9754   22388068.2404
       207.0004        206.0004
 -19874796.25649 -15472888.91947  20937754.673    20937754.8974   20937758.9124
       203.0004        203.0004
  -6416479.26348  -4967395.33546  23054810.675    23054811.4054   23054818.8844
       171.0004        173.0004
 -14798532.74849 -11500692.73747  21598703.240    21598703.0734   21598709.5414
       202.0004        202.0004
 -16964306.71048 -13195810.96347  21356254.342    21356255.2124   21356263.5264
       190.0004        190.0004
  -7183973.29247  -5572281.45446  23216790.327    23216791.0934   23216798.1024
       164.0004        165.0004
  -3022582.93247  -2341091.18545  23357949.388    23357950.1584   23357956.8914
       159.0004        161.0004
 21  1 31  0 25 30.0000000  0 10G21G28G30G08G07G17G09G01G04G14
 -15410737.40548 -12001141.29346  21794980.526    21794981.1514   21794985.6204
       186.0004        186.0004
   -296897.16047   -223668.05445  23671953.840    23671954.3464   23671959.8534
       142.0004        146.0004
  -8804186.47948  -6845019.13946  22754097.546    22754097.7404   22754103.9914
       177.0004        178.0004
 -12167207.70549  -9456761.28747  22405406.272    22405406.7494   22405415.0174
       206.0004        205.0004
 -19935357.45449 -15520079.44347  20926228.996    20926230.2824   20926234.8214
       203.0004        204.0004
  -6493975.59248  -5027782.02946  23040064.246    23040064.7394   23040071.0894
       172.0004        174.0004
 -14736404.29249 -11452280.94347  21610524.752    21610525.2754   21610532.2204
       202.0004        203.0004
 -17019378.26748 -13238723.82447  21345773.973    21345775.3594   21345784.0054
       190.0004        190.0004
  -7085982.65647  -5495925.12746  23235437.623    23235437.5784   23235443.4944
       162.0004        163.0004
  -3048562.86647  -2361335.26745  23353005.400    23353006.6384   23353011.7334
       158.0004        160.0004
 21  1 31  0 26  0.0000000  0 10G21G28G30G08G07G17G09G01G04G14
 -15393927.91448 -11988042.97046  21798180.853    21798180.1234   21798184.9664
       186.0004        186.0004
   -311835.90647   -235308.60045  23669110.790    23669111.0484   23669117.6514
       143.0004        147.0004
  -8891365.57948  -6912950.90146  22737508.840    22737508.5784   22737515.1064
       180.0004        182.0004
 -12075919.83449  -9385627.89247  22422777.968    22422778.3294   22422786.6944
       205.0004        205.0004
 -19995637.87949 -15567051.19547  20914759.559    20914759.8014   20914763.1944
       203.0004        204.0004
  -6571119.18848  -5087893.87046  23025384.916    23025385.0754   23025391.2034
       173.0004        174.0004
 -14673950.25249 -11403615.46547  21622409.763    21622409.9814   21622417.5244
       202.0004        202.0004
 -17074065.18448 -13281336.97847  21335368.576    21335368.9034   21335377.4554
       190.0004        190.0004
  -6987948.34347  -5419534.75645  23254090.681    23254091.7774   23254099.0894
       160.0004        160.0004
  -3074545.61547  -2381581.53545  23348061.599    23348061.9144   23348066.2614
       157.0004        160.0004
 21  1 31  0 26 30.0000000  0 10G21G28G30G08G07G17G09G01G04G14
 -15376622.27948 -11974558.03046  21801473.379    21801472.4194   21801477.8954
       186.0004        185.0004
   -326765.20947   -246941.75745  23666271.473    23666271.3544   23666275.5304
       145.0004        150.0004
  -8978479.33348  -6980831.73646  22720931.731    22720931.8074   22720938.1564
       181.0004        182.0004
 -11984501.83149  -9314393.08547  22440175.538    22440175.4514   22440182.8334
       205.0004        206.0004
 -20055634.02549 -15613801.44947  20903342.837    20903343.1104   20903346.3994
       204.0004        204.0004
  -6647908.69048  -5147729.78046  23010771.343    23010771.2734   23010778.5424
       172.0004        172.0004
 -14611173.20649 -11354698.28747  21634355.422    21634355.7184   21634363.2454
       201.0004        201.0004
 -17128364.03748 -13323647.74947  21325035.938    21325036.8764   21325044.8574
       190.0004        191.0004
  -6889872.79947  -5343112.29445  23272755.034    23272755.3104   23272762.3024
       160.0004        161.0004
  -3100531.84647  -2401830.50846  23343117.309    23343117.6044   23343122.7954
       160.0004        163.0004
 21  1 31  0 27  0.0000000  0 10G21G28G30G08G07G17G09G01G04G14
 -15358820.47148 -11960686.47946  21804860.789    21804860.3074   21804864.8054
       186.0004        186.0004
   -341687.04047   -258569.14645  23663431.327    23663431.2884   23663436.7074
       148.0004        153.0004
  -9065525.86248  -7048660.20046  22704366.951    22704366.3844   22704373.9564
       180.0004        180.0004
 -11892956.84849  -9243059.32447  22457595.227    22457595.9854   22457603.0664
       206.0004        206.0004
 -20115344.37649 -15660328.98847  20891979.686    20891979.8034   20891984.9504
       204.0004        204.0004
  -6724342.87348  -5207288.85646  22996226.264    22996227.4494   22996232.8184
       172.0004        172.0004
 -14548076.44949 -11305531.99847  21646362.242    21646362.5774   21646370.2104
       200.0004        200.0004
 -17182272.26548 -13365654.13647  21314778.134    21314778.4684   21314785.8984
       191.0004        192.0004
  -6791759.39247  -5266660.30846  23291426.030    23291426.2114   23291431.8574
       161.0004        163.0004
  -3126523.16547  -2422083.46445  23338169.788    23338170.9794   23338176.1514
       161.0004        162.0004
 21  1 31  0 27 30.0000000  0 10G21G28G30G08G07G17G09G01G04G14
 -15340522.59448 -11946428.37546  21808342.335    21808342.2454   21808346.5574
       185.0004        185.0004
   -356603.16147   -270192.04945  23660592.682    23660593.2294   23660598.0094
       149.0004        152.0004
  -9152503.20748  -7116434.74546  22687815.156    22687815.6134   22687821.5714
       179.0004        179.0004
 -11801287.50249  -9171628.66547  22475038.846    22475039.1934   22475047.6384
       206.0004        205.0004
 -20174766.21949 -15706631.72147  20880672.065    20880672.6244   20880676.7684
       204.0004        204.0004
  -6800420.94048  -5266570.43946  22981750.269    22981749.8434   22981755.4984
       172.0004        173.0004
 -14484663.19949 -11256119.09147  21658429.676    21658429.8894   21658437.3054
       200.0004        200.0004
 -17235787.20348 -13407354.07347  21304594.942    21304595.1224   21304602.7094
       192.0004        192.0004
  -6693611.20447  -5190181.23246  23310101.035    23310102.5664   23310109.7684
       162.0004        164.0004
  -3152520.99547  -2442341.48646  23333224.346    23333224.3534   23333228.6074
       161.0004        163.0004
 21  1 31  0 28  0.0000000  0 10G21G28G30G08G07G17G09G01G04G14
 -15321727.68548 -11931782.97946  21811919.087    21811919.3934   21811923.7974
       185.0004        186.0004
   -371514.49747   -281811.22445  23657755.070    23657755.2284   23657760.1364
       150.0004        153.0004
  -9239408.43748  -7184153.11146  22671276.783    22671277.5854   22671283.5094
       178.0004        179.0004
 -11709496.32349  -9100103.07647  22492507.151    22492506.8824   22492514.6724
       205.0004        205.0004
 -20233895.83449 -15752706.75347  20869419.728    20869420.3704   20869424.6474
       204.0004        204.0004
  -6876140.60648  -5325572.74146  22967340.491    22967341.2084   22967346.0974
       173.0004        174.0004
 -14420935.81849 -11206461.40047  21670556.392    21670556.7864   21670563.6164
       200.0004        200.0004
 -17288905.24948 -13448744.74447  21294485.870    21294486.6204   21294494.4544
       193.0004        193.0004
  -6595430.46547  -5113676.80946  23328785.699    23328786.4014   23328792.7784
       162.0004        163.0004
  -3178525.81047  -2462604.97445  23328275.556    23328275.7994   23328279.2704
       161.0004        161.0004
 21  1 31  0 28 30.0000000  0 10G21G28G30G08G07G17G09G01G04G14
 -15302435.83348 -11916750.33546  21815590.044    21815590.3094   21815594.8994
       185.0004        185.0004
   -386423.04447   -293428.24645  23654919.298    23654918.9274   23654922.4764
       151.0004        154.0004
  -9326239.30948  -7251813.55146  22654755.047    22654754.9744   22654760.4644
       180.0004        182.0004
 -11617585.72549  -9028484.42347  22509996.434    22509996.4934   22510004.0834
       204.0004        203.0004
 -20292730.80949 -15798552.17647  20858224.320    20858224.8534   20858228.8754
       204.0004        205.0004
  -6951500.67748  -5384294.84146  22953000.109    22953000.0804   22953004.2834
       172.0004        171.0004
 -14356897.30349 -11156561.26047  21682742.749    21682743.0264   21682750.0624
       199.0004        199.0004
 -17341623.59648 -13489823.95047  21284453.773    21284454.4444   21284462.7444
       194.0004        194.0004
  -6497220.14247  -5037149.29145  23347474.466    23347474.6974   23347480.9654
       161.0004        162.0004
  -3204538.87347  -2482874.84545  23323323.759    23323324.8424   23323329.9064
       159.0004        158.0004
 21  1 31  0 29  0.0000000  0 10G21G28G30G08G07G17G09G01G04G14
 -15282647.60748 -11901330.92146  21819356.788    21819355.7614   21819360.2654
       185.0004        185.0004
   -401330.70247   -305044.56645  23652081.136    23652080.6884   23652085.5184
       151.0004        154.0004
  -9412994.18248  -7319414.73746  22638245.747    22638245.8004   22638252.6534
       181.0004        183.0004
 -11525559.44249  -8956775.63747  22527508.442    22527508.3804   22527516.3964
       202.0004        202.0004
 -20351269.05049 -15844166.38847  20847084.925    20847085.2354   20847089.4894
       205.0004        205.0004
  -7026500.34848  -5442736.11546  22938727.261    22938728.1894   22938732.4354
       170.0004        169.0004
 -14292551.20949 -11106421.46347  21694986.918    21694987.7734   21694994.7844
       199.0004        199.0004
 -17393939.85748 -13530589.85447  21274499.469    21274499.6134   21274507.7974
       194.0004        195.0004
  -6398983.66447  -4960601.41446  23366169.731    23366169.6144   23366175.5524
       162.0004        163.0004
  -3230561.78047  -2503152.43345  23318373.127    23318373.3294   23318378.3564
       157.0004        159.0004
 21  1 31  0 29 30.0000000  0 10G21G28G30G08G07G17G09G01G04G14
 -15262361.87848 -11885523.84046  21823215.917    21823215.5714   21823220.6134
       185.0004        185.0004
   -416237.96947   -316660.57445  23649244.848    23649244.9234   23649249.7654
       152.0004        155.0004
  -9499669.71048  -7386954.08946  22621752.202    22621752.3074   22621758.2554
       182.0004        182.0004
 -11433419.21149  -8884978.06047  22545041.633    22545042.2174   22545050.3334
       202.0004        203.0004
 -20409506.81549 -15889546.46347  20836002.438    20836002.9954   20836006.6874
       204.0004        204.0004
  -7101137.10348  -5500894.58846  22924525.210    22924525.9164   22924529.0874
       170.0004        172.0004
 -14227899.55649 -11056043.55847  21707290.562    21707290.9864   21707297.7994
       199.0004        200.0004
 -17445850.16849 -13571039.43247  21264621.659    21264621.7064   21264628.9234
       195.0004        195.0004
  -6300722.90747  -4884034.60045  23384868.247    23384868.6134   23384873.5424
       161.0004        162.0004
  -3256594.73347  -2523437.84145  23313418.177    23313419.5134   23313424.9714
       156.0004        158.0004
 21  1 31  0 30  0.0000000  0 10G21G28G30G08G07G17G09G01G04G14
 -15241578.96248 -11869329.34646  21827171.228    21827170.4284   21827175.2444
       185.0004        185.0004
   -431147.06747   -328278.02545  23646407.820    23646407.7854   23646412.3614
       153.0004        155.0004
  -9586264.21048  -7454430.32546  22605274.255    22605273.2864   22605280.3774
       182.0004        181.0004
 -11341168.30049  -8813094.23347  22562596.006    22562596.8384   22562605.3604
       203.0004        203.0004
 -20467441.78349 -15934690.59547  20824977.894    20824978.2344   20824982.5024
       204.0004        205.0004
  -7175410.38748  -5558769.84146  22910392.156    22910391.4684   22910395.9714
       171.0004        173.0004
 -14162945.92949 -11005430.34547  21719650.784    21719651.1024   21719658.4034
       200.0004        200.0004
 -17497352.23749 -13611170.90647  21254820.136    21254821.0264   21254828.7664
       195.0004        195.0004
  -6202441.29647  -4807451.54445  23403570.201    23403570.2714   23403576.0664
       160.0004        161.0004
  -3282639.42547  -2543732.40045  23308461.372    23308461.6814   23308468.5354
       156.0004        157.0004
 21  1 31  0 30 30.0000000  0 10G21G28G30G08G07G17G09G01G04G14
 -15220298.42548 -11852747.08746  21831220.597    21831219.9764   21831225.1774
       185.0004        185.0004
   -446058.58147   -339897.32845  23643569.791    23643569.9914   23643574.4044
       152.0004        154.0004
  -9672774.68848  -7521841.08046  22588811.278    22588811.0814   22588816.9614
       180.0004        180.0004
 -11248808.82149  -8741125.81847  22580172.046    22580172.1484   22580181.1984
       203.0004        203.0004
 -20525070.68549 -15979596.22747  20814012.047    20814011.9464   20814015.9814
       205.0004        205.0004
  -7249318.05948  -5616360.19046  22896326.065    22896326.6974   22896332.1014
       172.0004        173.0004
 -14097692.59549 -10954583.60047  21732067.980    21732068.1664   21732075.4224
       200.0004        199.0004
 -17548442.48849 -13650981.47247  21245098.295    21245098.3984   21245106.3324
       195.0004        195.0004
  -6104141.01147  -4730853.91545  23422274.368    23422275.2114   23422281.4334
       159.0004        160.0004
  -3308696.35147  -2564036.47845  23303504.016    23303506.1624   23303508.9344
       156.0004        159.0004
 21  1 31  0 31  0.0000000  0 10G21G28G30G08G07G17G09G01G04G14
 -15198519.39048 -11835776.39346  21835365.354    21835364.9804   21835369.6354
       185.0004        185.0004
   -460973.66547   -351519.38545  23640731.586    23640731.9884   23640736.8294
       152.0004        154.0004
  -9759198.10948  -7589184.00346  22572364.595    22572365.0574   22572372.4334
       180.0004        181.0004
 -11156342.85149  -8669074.40547  22597766.641    22597767.3774   22597776.2574
       202.0004        201.0004
 -20582390.06849 -16024260.67047  20803104.336    20803104.3434   20803108.5534
       205.0004        205.0004
  -7322858.75548  -5673664.59946  22882332.825    22882332.6374   22882337.3184
       172.0004        173.0004
 -14032141.87549 -10903505.13147  21744541.149    21744542.0614   21744548.7424
       198.0004        198.0004
 -17599117.37248 -13690468.37347  21235454.954    21235455.5734   21235463.3724
       194.0004        194.0004
  -6005824.17347  -4654243.40745  23440983.615    23440984.2564   23440989.7824
       157.0004        159.0004
  -3334765.84247  -2584350.34745  23298543.355    23298543.9684   23298548.0264
       158.0004        160.0004
 21  1 31  0 31 30.0000000  0 10G21G28G30G08G07G17G09G01G04G14
 -15176242.72948 -11818417.94746  21839603.599    21839603.7904   21839609.3264
       185.0004        186.0004
   -475894.55447   -363145.99445  23637893.019    23637892.2784   23637896.3374
       152.0004        155.0004
  -9845532.92048  -7656457.87746  22555935.679    22555935.9364   22555942.6864
       180.0004        180.0004
 -11063773.93849  -8596942.79147  22615380.888    22615382.1074   22615391.7174
       200.0004        200.0004
 -20639398.16849 -16068682.56847  20792255.958    20792256.5744   20792260.3594
       205.0004        206.0004
  -7396031.72048  -5730682.45146  22868408.166    22868408.7934   22868413.6914
       172.0004        173.0004
 -13966297.54449 -10852197.86647  21757071.412    21757071.6184   21757078.9104
       199.0004        199.0004
 -17649374.79448 -13729629.97947  21225891.624    21225892.2204   21225899.6604
       194.0004        195.0004
  -5907494.39247  -4577622.84645  23459696.030    23459696.2644   23459701.9484
       157.0004        159.0004
  -3360849.79347  -2604675.49845  23293579.987    23293580.2594   23293585.0724
       159.0004        161.0004
 21  1 31  0 32  0.0000000  0 10G21G28G30G08G07G17G09G01G04G14
 -15153468.04248 -11800671.41246  21843937.915    21843937.9034   21843942.6454
       185.0004        185.0004
   -490822.47447   -374778.10245  23635050.827    23635050.1734   23635055.8624
       150.0004        152.0004
  -9931776.56048  -7723660.68746  22539523.794    22539524.1874   22539531.3614
       179.0004        180.0004
 -10971104.17649  -8524732.59147  22633017.796    22633017.3984   22633026.2974
       200.0004        200.0004
 -20696092.01949 -16112859.58747  20781467.608    20781467.5264   20781471.7134
       205.0004        205.0004
  -7468835.21648  -5787412.39946  22854554.048    22854553.7674   22854559.9314
       173.0004        174.0004
 -13900162.38449 -10800663.98347  21769656.520    21769656.6154   21769664.0144
       198.0004        198.0004
 -17699211.72348 -13768463.92047  21216407.259    21216408.4314   21216416.0874
       194.0004        194.0004
  -5809154.29047  -4500994.20845  23478410.392    23478410.2044   23478414.6144
       156.0004        157.0004
  -3386949.05747  -2625012.57045  23288612.502    23288612.9214   23288618.9464
       160.0004        162.0004
 21  1 31  0 32 30.0000000  0 10G21G28G30G08G07G17G09G01G04G14
 -15130196.59948 -11782537.80746  21848366.654    21848365.5894   21848370.9374
       185.0004        185.0004
   -505759.99947   -386417.70145  23632208.317    23632209.4224   23632213.6714
       149.0004        152.0004
 -10017927.58648  -7790791.35246  22523129.584    22523129.8114   22523136.8664
       178.0004        178.0004
 -10878337.94049  -8452447.20347  22650670.843    22650670.7404   22650679.5024
       200.0004        201.0004
 -20752469.86749 -16156790.37847  20770738.438    20770739.3154   20770743.4584
       205.0004        206.0004
  -7541269.06848  -5843854.34346  22840770.542    22840770.5514   22840776.2244
       173.0004        174.0004
 -13833740.33849 -10748906.55247  21782296.270    21782296.7654   21782303.6324
       198.0004        198.0004
 -17748626.21548 -13806968.70447  21207004.296    21207004.2284   21207012.7504
       194.0004        194.0004
  -5710807.59647  -4424360.43845  23497123.381    23497124.5494   23497130.0254
       153.0004        154.0004
  -3413065.71447  -2645363.20546  23283643.542    23283643.5734   23283649.1014
       161.0004        163.0004
 21  1 31  0 33  0.0000000  0 10G21G28G30G08G07G17G09G01G04G14
 -15106427.37148 -11764016.32346  21852889.373    21852889.4154   21852894.0414
       185.0004        185.0004
   -520707.83447   -398065.34745  23629363.822    23629363.7874   23629369.2494
       149.0004        153.0004
 -10103982.86048  -7857847.40346  22506754.695    22506754.8014   22506760.6484
       177.0004        180.0004
 -10785476.47149  -8380087.61947  22668341.743    22668341.3464   22668349.6774
       200.0004        200.0004
 -20808528.24449 -16200472.22947  20760071.495    20760071.7574   20760075.9874
       206.0004        206.0004
  -7613331.20648  -5900006.61846  22827057.647    22827058.0194   22827062.8254
       174.0004        176.0004
 -13767033.60549 -10696927.29247  21794989.985    21794990.7074   21794997.1754
       198.0004        198.0004
 -17797614.66948 -13845141.50947  21197680.919    21197682.2674   21197689.7334
       193.0004        193.0004
  -5612456.28147  -4347723.05545  23515839.113    23515840.0144   23515845.8994
       152.0004        155.0004
  -3439199.95347  -2665727.50445  23278669.484    23278669.9444   23278675.9554
       161.0004        162.0004
 21  1 31  0 33 30.0000000  0 10G21G28G30G08G07G17G09G01G04G14
 -15082161.03348 -11745107.47146  21857507.044    21857507.1444   21857512.0624
       185.0004        185.0004
   -535667.73547   -409722.39045  23626517.330    23626517.6664   23626521.8274
       151.0004        154.0004
 -10189940.10248  -7924827.06646  22490397.667    22490398.0344   22490403.9134
       179.0004        180.0004
 -10692522.87549  -8307656.25847  22686029.502    22686029.5034   22686037.7344
       200.0004        199.0004
 -20864264.43449 -16243903.03147  20749464.946    20749465.2914   20749469.7544
       206.0004        206.0004
  -7685020.55048  -5955868.39446  22813416.190    22813416.2034   22813421.8344
       177.0004        179.0004
 -13700045.30749 -10644728.60847  21807738.478    21807738.4944   21807744.5644
       198.0004        198.0004
 -17846174.40348 -13882980.24847  21188441.520    21188441.5314   21188449.5994
       194.0004        195.0004
  -5514103.24447  -4271084.35045  23534556.128    23534555.2834   23534562.3914
       153.0004        155.0004
  -3465352.96647  -2686106.47145  23273692.882    23273693.8184   23273697.6894
       161.0004        162.0004
 21  1 31  0 34  0.0000000  0 10G21G28G30G08G07G17G09G01G04G14
 -15057397.24748 -11725810.99746  21862220.940    21862219.5994   21862224.4794
       185.0004        186.0004
   -550640.77847   -421389.66445  23623667.896    23623668.7764   23623673.5274
       150.0004        153.0004
 -10275796.53548  -7991728.16846  22474059.368    22474059.3244   22474066.7124
       180.0004        180.0004
 -10599479.43149  -8235154.87147  22703734.168    22703735.0394   22703743.8584
       198.0004        198.0004
 -20919675.57649 -16287080.53347  20738920.328    20738920.7634   20738925.1974
       205.0004        206.0004
  -7756335.67748  -6011438.59246  22799844.025    22799844.5344   22799850.8794
       177.0004        177.0004
 -13632778.08849 -10592312.60147  21820538.704    21820539.0344   21820545.3404
       198.0004        197.0004
 -17894302.20848 -13920482.41447  21179282.423    21179282.9974   21179290.9074
       194.0004        195.0004
  -5415750.88747  -4194446.17845  23553271.017    23553271.7604   23553278.5914
       153.0004        156.0004
  -3491525.42747  -2706500.60046  23268713.556    23268713.5744   23268718.3074
       162.0004        164.0004
 21  1 31  0 34 30.0000000  0 10G21G28G30G08G07G17G09G01G04G14
 -15032136.11148 -11706126.98046  21867026.765    21867026.3564   21867031.4524
       185.0004        185.0004
   -565628.30747   -433068.21945  23620816.573    23620816.2034   23620820.7314
       150.0004        153.0004
 -10361550.02548  -8058549.05146  22457740.720    22457740.6694   22457748.3714
       179.0004        179.0004
 -10506349.11649  -8162585.78947  22721457.020    22721457.0344   22721466.4614
       198.0004        198.0004
 -20974759.19249 -16330002.82847  20728438.061    20728438.8114   20728443.3964
       205.0004        206.0004
  -7827275.73848  -6066716.51846  22786344.266    22786344.7824   22786351.4804
       175.0004        175.0004
 -13565235.19449 -10539681.77247  21833390.991    21833391.2944   21833399.1144
       197.0004        197.0004
 -17941995.52549 -13957646.01847  21170206.772    21170207.5614   21170215.6694
       195.0004        195.0004
  -5317402.21347  -4117810.86345  23571987.254    23571986.8524   23571994.6784
       156.0004        158.0004
  -3517718.62147  -2726910.88346  23263728.544    23263728.5774   23263734.0704
       163.0004        165.0004
 21  1 31  0 35  0.0000000  0 10G21G28G30G08G07G17G09G01G04G14
 -15006378.23448 -11686055.89746  21871927.973    21871928.0574   21871932.5004
       185.0004        184.0004
   -580632.47447   -444759.77645  23617961.383    23617961.0824   23617966.2234
       151.0004        154.0004
 -10447198.28348  -8125287.94846  22441442.610    22441443.1274   22441449.9664
       179.0004        181.0004
 -10413134.68549  -8089951.17447  22739195.433    22739195.2264   22739205.3284
       199.0004        199.0004
 -21029512.45249 -16372667.71047  20718019.621    20718019.9214   20718023.8684
       206.0004        206.0004
  -7897839.35348  -6121701.13646  22772917.649    22772917.2284   22772922.0064
       174.0004        174.0004
 -13497419.76349 -10486838.57947  21846295.197    21846295.8374   21846303.5154
       195.0004        194.0004
 -17989251.70849 -13994469.00647  21161214.256    21161215.5504   21161223.1434
       195.0004        196.0004
  -5219060.13047  -4041180.68945  23590699.899    23590700.2914   23590708.0454
       155.0004        157.0004
  -3543933.70348  -2747338.21246  23258740.123    23258740.3084   23258745.4114
       165.0004        166.0004
 21  1 31  0 35 30.0000000  0 10G21G28G30G08G07G17G09G01G04G14
 -14980122.33248 -11665596.72946  21876924.832    21876923.9334   21876928.2224
       185.0004        184.0004
   -595653.07647   -456464.10845  23615102.662    23615102.7584   23615108.0404
       152.0004        156.0004
 -10532737.69148  -8191942.00046  22425164.662    22425164.5454   22425171.4954
       179.0004        180.0004
 -10319837.21249  -8017251.83347  22756948.567    22756948.9344   22756958.4814
       199.0004        199.0004
 -21083931.60249 -16415072.23047  20707663.702    20707663.7724   20707668.1944
       206.0004        206.0004
  -7968024.50448  -6176390.81446  22759560.717    22759561.3674   22759566.0934
       173.0004        175.0004
 -13429333.59148 -10433784.42447  21859251.773    21859252.0204   21859260.1614
       194.0004        194.0004
 -18036066.82249 -14030948.29147  21152305.871    21152306.4714   21152314.3824
       196.0004        197.0004
  -5120726.15247  -3964556.84045  23609412.896    23609412.9354   23609419.6204
       153.0004        155.0004
  -3570170.49148  -2767782.43246  23253747.557    23253748.8624   23253753.0404
       166.0004        168.0004
 21  1 31  0 36  0.0000000  0 10G21G28G30G08G07G17G09G01G04G14
 -14953369.82148 -11644750.59746  21882014.929    21882014.6344   21882020.1414
       185.0004        184.0004
   -610693.09247   -468183.56845  23612241.468    23612241.1054   23612246.0634
       153.0004        156.0004
 -10618167.02848  -8258510.30846  22408908.477    22408907.8994   22408914.9684
       179.0004        181.0004
 -10226461.07549  -7944491.20247  22774717.561    22774717.8094   22774726.7394
       198.0004        197.0004
 -21138015.19049 -16457215.30947  20697371.613    20697372.1104   20697376.6304
       206.0004        207.0004
  -8037831.06448  -6230785.50846  22746278.224    22746278.1034   22746283.2304
       174.0004        176.0004
 -13360980.91248 -10380522.60947  21872257.368    21872258.4734   21872267.4164
       193.0004        193.0004
 -18082439.27949 -14067082.66347  21143481.620    21143482.2624   21143490.1474
       197.0004        197.0004
  -5022404.21547  -3887942.37345  23628122.828    23628122.6444   23628129.4194
       152.0004        153.0004
  -3596431.25348  -2788245.34246  23248750.928    23248750.9414   23248755.2414
       166.0004        166.0004
 21  1 31  0 36 30.0000000  0 10G21G28G30G08G07G17G09G01G04G14
 -14926120.54948 -11623517.38046  21887200.479    21887199.9814   21887204.9604
       184.0004        184.0004
   -625753.86347   -479919.21245  23609375.879    23609374.7134   23609378.9834
       154.0004        156.0004
 -10703483.55448  -8324990.71746  22392674.096    22392672.9944   22392679.7474
       180.0004        181.0004
 -10133008.03049  -7871670.65047  22792501.196    22792501.5414   22792510.7104
       195.0004        195.0004
 -21191760.19649 -16499094.54247  20687144.958    20687145.3814   20687149.3264
       207.0004        207.0004
  -8107257.59148  -6284884.09946  22733066.431    22733067.2564   22733072.3104
       175.0004        177.0004
 -13292364.45748 -10327055.26347  21885314.889    21885315.7214   21885323.5614
       192.0004        192.0004
 -18128366.09749 -14102869.77547  21134741.716    21134742.4784   21134750.1994
       197.0004        197.0004
  -4924096.82247  -3811339.25345  23646830.585    23646831.3294   23646837.4944
       153.0004        156.0004
  -3622716.67148  -2808727.48646  23243748.883    23243748.9234   23243753.6154
       167.0004        168.0004
 21  1 31  0 37  0.0000000  0 10G21G28G30G08G07G17G09G01G04G14
 -14898375.02148 -11601897.48246  21892480.240    21892479.9504   21892484.7984
       184.0004        184.0004
   -640836.22747   -491671.67245  23606504.739    23606504.9454   23606509.7524
       155.0004        157.0004
 -10788684.75648  -8391381.26646  22376459.955    22376459.4844   22376466.4834
       181.0004        182.0004
 -10039481.21249  -7798792.61447  22810300.320    22810299.7944   22810308.2204
       195.0004        194.0004
 -21245163.84149 -16540707.77347  20676982.702    20676982.5424   20676986.6554
       207.0004        207.0004
  -8176303.08548  -6338685.71846  22719927.412    22719928.1974   22719932.6584
       175.0004        176.0004
 -13223487.19248 -10273384.68547  21898422.098    21898422.8044   21898430.4634
       191.0004        192.0004
 -18173844.44949 -14138307.43947  21126088.253    21126088.7344   21126095.9214
       197.0004        198.0004
  -4825806.57347  -3734749.45745  23665534.154    23665535.0474   23665541.5774
       153.0004        155.0004
  -3649027.65148  -2829229.52646  23238741.035    23238742.4604   23238747.7284
       168.0004        168.0004
 21  1 31  0 37 30.0000000  0 10G21G28G30G08G07G17G09G01G04G14
 -14870132.58048 -11579890.36046  21897853.976    21897854.3994   21897859.7114
       184.0004        184.0004
   -655941.40647   -503441.94245  23603630.394    23603630.5194   23603635.6344
       154.0004        156.0004
 -10873767.69448  -8457679.65246  22360269.355    22360269.8864   22360276.2444
       182.0004        184.0004
  -9945882.66548  -7725858.68647  22828110.762    22828110.8794   22828118.5924
       194.0004        195.0004
 -21298222.91549 -16582052.49747  20666884.964    20666885.6674   20666890.1474
       206.0004        207.0004
  -8244965.89148  -6392189.19546  22706861.137    22706861.4674   22706866.8054
       174.0004        174.0004
 -13154351.65548 -10219512.83947  21911579.751    21911579.8274   21911587.5744
       192.0004        194.0004
 -18218871.11449 -14173393.12947  21117519.400    21117519.9754   21117527.5734
       198.0004        198.0004
  -4727535.72447  -3658174.78745  23684234.413    23684235.1514   23684242.5544
       154.0004        156.0004
  -3675364.70548  -2849751.89546  23233729.787    23233730.2774   23233735.0124
       168.0004        170.0004
 21  1 31  0 38  0.0000000  0 10G21G28G30G08G07G17G09G01G04G14
 -14841393.52548 -11557496.27446  21903323.330    21903322.3584   21903327.8174
       184.0004        183.0004
   -671070.61347   -515230.92645  23600751.883    23600752.2384   23600755.9724
       154.0004        156.0004
 -10958729.57648  -8523883.71846  22344102.203    22344102.1564   22344108.6574
       184.0004        185.0004
  -9852214.25648  -7652870.30047  22845934.172    22845934.6704   22845943.0904
       194.0004        195.0004
 -21350934.57749 -16623126.52047  20656855.036    20656855.1944   20656859.4634
       207.0004        207.0004
  -8313244.67048  -6445393.42146  22693868.164    22693868.4454   22693873.1854
       173.0004        174.0004
 -13084960.53948 -10165441.84147  21924784.711    21924785.2224   21924791.8514
       194.0004        195.0004
 -18263443.11649 -14208124.55347  21109037.301    21109038.1934   21109045.9054
       197.0004        198.0004
  -4629286.61147  -3581617.06445  23702930.845    23702931.2324   23702938.4484
       154.0004        156.0004
  -3701728.47648  -2870295.09846  23228713.185    23228713.4684   23228717.5484
       168.0004        166.0004
 21  1 31  0 38 30.0000000  0 10G21G28G30G08G07G17G09G01G04G14
 -14812158.25248 -11534715.53346  21908886.529    21908886.2034   21908891.0104
       183.0004        183.0004
   -686225.44447   -527039.85045  23597869.245    23597868.1274   23597872.5364
       154.0004        156.0004
 -11043568.25048  -8589991.76846  22327957.218    22327957.5504   22327963.9044
       185.0004        185.0004
  -9758479.36949  -7579830.13347  22863771.501    22863772.5244   22863780.9144
       195.0004        195.0004
 -21403296.23249 -16663927.80747  20646890.705    20646890.9274   20646895.4744
       207.0004        208.0004
  -8381138.32048  -6498297.53746  22680947.868    22680948.5914   22680953.8584
       173.0004        174.0004
 -13015317.19749 -10111174.29547  21938037.909    21938038.2224   21938044.4154
       196.0004        197.0004
 -18307558.06249 -14242499.81647  21100642.930    21100643.7144   21100651.1544
       198.0004        198.0004
  -4531062.21347  -3505078.59245  23721621.229    23721622.1984   23721630.5504
       154.0004        157.0004
  -3728120.29947  -2890860.16146  23223689.445    23223690.8884   23223695.9884
       164.0004        163.0004
 21  1 31  0 39  0.0000000  0 10G21G28G30G08G07G17G09G01G04G14
 -14782426.98948 -11511548.29046  21914544.961    21914544.1584   21914549.3074
       183.0004        184.0004
   -701406.68047   -538869.35545  23594979.114    23594978.2934   23594983.4994
       154.0004        156.0004
 -11128280.81448  -8656001.56546  22311837.603    22311837.4214   22311843.4454
       186.0004        187.0004
  -9664679.58748  -7506739.40547  22881621.649    22881621.6694   22881630.2534
       194.0004        193.0004
 -21455304.76949 -16704453.93947  20636993.362    20636994.1734   20636998.0794
       207.0004        208.0004
  -8448645.80748  -6550900.75646  22668102.330    22668102.0014   22668106.8444
       173.0004        173.0004
 -12945424.23949 -10056712.24647  21951337.868    21951338.4374   21951344.1544
       196.0004        197.0004
 -18351212.90649 -14276516.55947  21092335.837    21092336.2394   21092344.1444
       198.0004        198.0004
  -4432864.88247  -3428561.24445  23740308.388    23740309.5074   23740315.7844
       155.0004        157.0004
  -3754540.70847  -2911447.49346  23218662.595    23218662.9734   23218668.5044
       163.0004        163.0004
 21  1 31  0 39 30.0000000  0 10G21G28G30G08G07G17G09G01G04G14
 -14752200.66548 -11487995.29746  21920296.346    21920296.2554   21920300.9314
       184.0004        184.0004
   -716617.23947   -550721.71845  23592083.566    23592083.3494   23592088.5924
       154.0004        157.0004
 -11212865.84548  -8721911.97546  22295740.960    22295741.2564   22295747.4164
       186.0004        186.0004
  -9570818.71948  -7433601.07547  22899483.170    22899483.3274   22899491.1404
       192.0004        193.0004
 -21506958.77249 -16744703.80847  20627164.111    20627164.6744   20627169.2394
       207.0004        207.0004
  -8515766.96348  -6603202.90946  22655328.781    22655329.1184   22655334.6124
       173.0004        175.0004
 -12875285.71249 -10002058.84747  21964685.631    21964685.8364   21964691.7304
       197.0004        198.0004
 -18394406.00149 -14310173.50047  21084115.718    21084116.6534   21084124.5514
       197.0004        198.0004
  -4334698.25147  -3352067.80445  23758988.821    23758989.6704   23758996.8594
       155.0004        157.0004
  -3780991.66247  -2932058.60446  23213630.931    23213630.3594   23213633.9694
       164.0004        165.0004
 21  1 31  0 40  0.0000000  0 10G21G28G30G08G07G17G09G01G04G14
 -14721479.23048 -11464056.49146  21926141.282    21926141.0344   21926146.4694
       184.0004        183.0004
   -731857.71747   -562597.42145  23589183.201    23589183.2264   23589188.8454
       154.0004        156.0004
 -11297320.19048  -8787720.55346  22279670.044    22279669.9234   22279676.7114
       186.0004        186.0004
  -9476898.59848  -7360416.57147  22917353.274    22917354.4994   22917364.0964
       192.0004        192.0004
 -21558254.82949 -16784674.76547  20617403.252    20617403.5764   20617407.8454
       207.0004        208.0004
  -8582499.95648  -6655202.62446  22642629.772    22642630.7084   22642634.7914
       174.0004        175.0004
 -12804904.04449  -9947215.99447  21978078.055    21978077.8444   21978084.6274
       197.0004        195.0004
 -18437134.07549 -14343468.09147  21075984.986    21075986.0614   21075993.8914
       198.0004        198.0004
  -4236564.39247  -3275599.88345  23777662.408    23777663.8964   23777669.7354
       155.0004        157.0004
  -3807473.52447  -2952693.80546  23208589.656    23208589.4524   23208595.3774
       164.0004        164.0004
 21  1 31  0 40 30.0000000  0 10G21G28G30G08G07G17G09G01G04G14
 -14690262.29948 -11439731.60846  21932081.086    21932081.6184   21932087.2024
       183.0004        183.0004
   -747128.40147   -574496.64145  23586278.196    23586277.6934   23586282.1604
       153.0004        155.0004
 -11381640.32948  -8853424.56746  22263624.855    22263624.5514   22263631.3244
       186.0004        187.0004
  -9382921.13348  -7287187.36847  22935237.235    22935237.4044   22935246.9724
       192.0004        192.0004
 -21609189.12349 -16824363.82347  20607710.147    20607710.7314   20607715.2974
       207.0004        208.0004
  -8648842.73048  -6706898.28146  22630006.038    22630006.4444   22630010.9244
       175.0004        177.0004
 -12734281.24649  -9892185.25247  21991515.372    21991516.1544   21991524.1234
       195.0004        195.0004
 -18479393.50049 -14376397.49947  21067943.526    21067943.9584   21067952.2244
       198.0004        198.0004
  -4138464.92347  -3199158.76945  23796331.347    23796331.2964   23796338.6904
       155.0004        157.0004
  -3833986.16047  -2973353.00546  23203543.970    23203545.0804   23203549.8194
       164.0004        165.0004
 21  1 31  0 41  0.0000000  0 10G21G28G30G08G07G17G09G01G04G14
 -14658551.31848 -11415021.74146  21938117.677    21938116.5004   21938122.2324
       184.0004        184.0004
   -762432.03847   -586421.54145  23583365.109    23583365.3444   23583369.6504
       151.0004        153.0004
 -11465825.08548  -8919023.08446  22247604.270    22247604.1564   22247611.2074
       187.0004        187.0004
  -9288889.76148  -7213916.15847  22953130.973    22953131.5604   22953141.1934
       192.0004        193.0004
 -21659760.49649 -16863770.08847  20598087.063    20598087.5244   20598091.6344
       207.0004        208.0004
  -8714796.35548  -6758290.67046  22617455.452    22617455.8754   22617459.7834
       176.0004        178.0004
 -12663421.65148  -9836970.00147  22004999.832    22004999.7404   22005008.1524
       194.0004        194.0004
 -18521183.02449 -14408960.74447  21059991.327    21059992.1114   21059999.5514
       197.0004        197.0004
  -4040403.81647  -3122747.54945  23814991.467    23814991.6634   23814998.8214
       155.0004        157.0004
  -3860531.85747  -2994037.95546  23198493.122    23198493.5594   23198498.8694
       163.0004        163.0004
 21  1 31  0 41 30.0000000  0 10G21G28G30G08G07G17G09G01G04G14
 -14626346.84848 -11389927.31946  21944246.357    21944245.2914   21944250.4514
       183.0004        184.0004
   -777769.99047   -598373.20045  23580446.216    23580445.3654   23580450.8184
       148.0004        149.0004
 -11549871.98948  -8984514.15247  22231610.913    22231610.7094   22231618.3204
       187.0004        189.0004
  -9194807.20248  -7140605.06347  22971033.918    22971034.0394   22971044.8224
       191.0004        191.0004
 -21709966.61949 -16902891.72947  20588532.846    20588533.5364   20588537.8984
       208.0004        208.0004
  -8780359.40148  -6809378.72246  22604979.832    22604979.9274   22604983.6754
       177.0004        178.0004
 -12592328.36348  -9781572.64447  22018528.442    22018529.1804   22018536.2274
       193.0004        192.0004
 -18562500.06349 -14441155.81147  21052129.096    21052129.5884   21052137.0514
       197.0004        196.0004
  -3942383.76347  -3046368.30445  23833645.016    23833645.0124   23833650.9274
       155.0004        157.0004
  -3887111.57447  -3014749.43646  23193435.694    23193436.4104   23193440.0794
       162.0004        164.0004
 21  1 31  0 42  0.0000000  0 10G21G28G30G08G07G17G09G01G04G14
 -14593650.02048 -11364449.25446  21950467.913    21950467.0494   21950472.0934
       183.0004        183.0004
   -793144.84447   -610353.61945  23577521.575    23577521.0564   23577526.4224
       147.0004        151.0004
 -11633779.18848  -9049896.39647  22215644.346    22215643.8514   22215651.8734
       189.0004        191.0004
  -9100677.01448  -7067256.89647  22988949.863    22988948.7844   22988956.8064
       192.0004        193.0004
 -21759805.22849 -16941727.01447  20579049.392    20579049.6054   20579053.8964
       208.0004        208.0004
  -8845531.71048  -6860162.32046  22592577.036    22592577.2484   22592582.2624
       177.0004        177.0004
 -12521005.14348  -9725996.10547  22032101.263    22032101.6314   22032109.0644
       192.0004        192.0004
 -18603342.80449 -14472981.31147  21044356.504    21044357.2214   21044364.9844
       196.0004        196.0004
  -3844408.11247  -2970023.70145  23852289.840    23852290.1134   23852295.2764
       154.0004        156.0004
  -3913727.02047  -3035488.74346  23188369.978    23188370.2714   23188375.8404
       163.0004        165.0004
 21  1 31  0 42 30.0000000  0 10G21G28G30G08G07G17G09G01G04G14
 -14560460.70048 -11338587.42946  21956782.554    21956782.4414   21956788.1324
       182.0004        182.0004
   -808556.31547   -622362.53145  23574588.694    23574588.9144   23574593.2434
       147.0004        151.0004
 -11717543.22248  -9115167.06247  22199703.928    22199704.3604   22199711.1574
       190.0004        190.0004
  -9006500.04948  -6993872.24747  23006869.245    23006869.4954   23006878.6574
       193.0004        193.0004
 -21809272.62949 -16980273.03347  20569635.672    20569636.2124   20569640.4664
       208.0004        208.0004
  -8910311.23348  -6910639.83546  22580249.228    22580250.4954   22580255.7024
       178.0004        179.0004
 -12449454.03448  -9670241.98447  22045717.076    22045718.1674   22045724.4184
       192.0004        192.0004
 -18643707.69049 -14504434.44147  21036674.995    21036675.7694   21036684.0494
       196.0004        196.0004
  -3746478.49947  -2893714.92645  23870924.882    23870924.2484   23870930.6264
       153.0004        155.0004
  -3940378.03748  -3056255.74246  23183299.549    23183299.9504   23183305.2254
       165.0004        166.0004
 21  1 31  0 43  0.0000000  0 10G21G28G30G08G07G17G09G01G04G14
 -14526779.31648 -11312342.19446  21963192.150    21963192.5634   21963197.0354
       183.0004        182.0004
   -824006.47047   -634401.64145  23571648.164    23571648.5094   23571652.7224
       146.0004        147.0004
 -11801161.68248  -9180324.29947  22183792.165    22183792.1704   22183798.6514
       189.0004        189.0004
  -8912279.28848  -6920453.48047  23024801.345    23024800.1724   23024807.7414
       193.0004        194.0004
 -21858366.51049 -17018528.01247  20560293.403    20560293.9994   20560298.3414
       208.0004        209.0004
  -8974697.42048  -6960810.88646  22567998.502    22567998.1834   22568002.0684
       178.0004        178.0004
 -12377678.23148  -9614312.80547  22059375.123    22059375.8234   22059383.0724
       192.0004        192.0004
 -18683592.35149 -14535513.38747  21029084.844    21029085.8254   21029094.1014
       195.0004        196.0004
  -3648597.64547  -2817444.15845  23889550.930    23889550.0374   23889556.6824
       151.0004        153.0004
  -3967065.72848  -3077051.33946  23178221.705    23178222.7424   23178226.2344
       167.0004        169.0004
 21  1 31  0 43 30.0000000  0 10G21G28G30G08G07G17G09G01G04G14
 -14492605.79348 -11285713.44346  21969694.733    21969694.8094   21969699.2114
       183.0004        183.0004
   -839495.90647   -646471.28445  23568702.130    23568703.4034   23568705.4344
       143.0004        146.0004
 -11884631.48848  -9245365.70847  22167909.345    22167908.9414   22167915.0994
       189.0004        189.0004
  -8818016.51248  -6847001.95947  23042737.742    23042737.1504   23042744.8524
       193.0004        193.0004
 -21907083.83849 -17056489.56947  20551023.330    20551023.5414   20551027.8394
       208.0004        209.0004
  -9038688.77348  -7010674.22546  22555820.326    22555821.2864   22555826.0524
       178.0004        180.0004
 -12305680.23348  -9558210.46947  22073076.485    22073076.8674   22073084.6234
       192.0004        193.0004
 -18722993.70849 -14566215.72047  21021587.569    21021588.3014   21021596.3534
       196.0004        196.0004
  -3550767.63447  -2741213.01645  23908167.121    23908167.7984   23908173.4274
       150.0004        152.0004
  -3993790.45848  -3097875.74846  23173136.281    23173136.8724   23173140.5264
       168.0004        170.0004
 21  1 31  0 44  0.0000000  0 10G21G28G30G08G07G17G09G01G04G14
 -14457940.64948 -11258701.63046  21976291.251    21976291.0614   21976296.5224
       182.0004        182.0004
   -855025.87347   -658572.52945  23565746.005    23565745.8094   23565750.7614
       144.0004        149.0004
 -11967950.02048  -9310289.23447  22152054.035    22152053.6364   22152060.7164
       189.0004        189.0004
  -8723714.24248  -6773519.66647  23060682.190    23060682.3234   23060690.8354
       194.0004        194.0004
 -21955421.80749 -17094155.51647  20541824.096    20541825.0144   20541829.2634
       209.0004        209.0004
  -9102284.28148  -7060229.13846  22543718.538    22543719.0704   22543724.0994
       179.0004        181.0004
 -12233463.01048  -9501937.30047  22086819.179    22086819.4554   22086826.8564
       192.0004        193.0004
 -18761909.22449 -14596539.47747  21014181.694    21014182.2584   21014190.7544
       196.0004        196.0004
  -3452990.97547  -2665023.45245  23926773.503    23926774.2074   23926780.9514
       150.0004        153.0004
  -4020552.97348  -3118729.65446  23168041.996    23168041.8584   23168047.5884
       167.0004        167.0004
 21  1 31  0 44 30.0000000  0 10G21G28G30G08G07G17G09G01G04G14
 -14422783.31948 -11231306.30646  21982983.058    21982981.9144   21982986.2644
       182.0004        183.0004
   -870596.83047   -670705.75445  23562782.113    23562782.9414   23562787.7164
       146.0004        151.0004
 -12051114.22648  -9375092.50847  22136227.130    22136227.4524   22136234.6074
       188.0004        188.0004
  -8629374.83248  -6700008.43747  23078633.869    23078634.1774   23078642.0444
       192.0004        192.0004
 -22003376.84649 -17131523.08847  20532699.916    20532699.7314   20532703.9244
       209.0004        210.0004
  -9165482.59148  -7109474.57046  22531693.234    22531692.8654   22531698.1214
       181.0004        182.0004
 -12161029.14348  -9445495.32647  22100602.410    22100602.8934   22100610.9734
       192.0004        193.0004
 -18800335.92049 -14626482.34547  21006869.699    21006870.4244   21006878.1504
       196.0004        196.0004
  -3355269.80747  -2588877.12645  23945367.886    23945368.3864   23945376.2204
       150.0004        152.0004
  -4047353.54447  -3139613.24946  23162938.631    23162940.1524   23162948.5464
       164.0004        164.0004
 21  1 31  0 45  0.0000000  0 10G21G28G30G08G07G17G09G01G04G14
 -14387133.87648 -11203527.48746  21989766.005    21989765.6404   21989770.5084
       183.0004        183.0004
   -886209.35747   -682871.34845  23559811.016    23559811.6154   23559815.9084
       148.0004        150.0004
 -12134120.43048  -9439772.64447  22120432.209    22120432.1464   22120438.3464
       188.0004        188.0004
  -8534999.30848  -6626469.08747  23096593.254    23096593.1054   23096601.7704
       192.0004        192.0004
 -22050945.64649 -17168589.67147  20523647.149    20523647.7354   20523651.5204
       209.0004        210.0004
  -9228281.88148  -7158409.04546  22519742.205    22519742.1324   22519748.2074
       182.0004        184.0004
 -12088380.51348  -9388886.00647  22114427.351    22114428.4154   22114434.6634
       192.0004        193.0004
 -18838270.19849 -14656041.49547  20999650.814    20999651.2734   20999659.3854
       196.0004        195.0004
  -3257605.53347  -2512775.13745  23963952.939    23963953.0164   23963960.6794
       149.0004        152.0004
  -4074192.11147  -3160526.39646  23157834.502    23157835.4714   23157839.8344
       163.0004        165.0004
 21  1 31  0 45 30.0000000  0 10G21G28G30G08G07G17G09G01G04G14
 -14350995.39248 -11175367.61846  21996642.392    21996642.9244   21996647.3324
       182.0004        183.0004
   -901867.09947   -695072.17445  23556832.146    23556832.0214   23556837.3114
       148.0004        152.0004
 -12216968.42548  -9504329.51947  22104666.194    22104666.6854   22104673.5224
       187.0004        188.0004
  -8440592.33748  -6552905.22147  23114557.778    23114557.8164   23114566.6784
       191.0004        191.0004
 -22098127.86449 -17205355.04947  20514668.947    20514669.1234   20514673.1524
       209.0004        210.0004
  -9290683.49048  -7207033.65946  22507866.928    22507867.8724   22507872.6974
       183.0004        183.0004
 -12015522.56248  -9332113.58847  22128291.968    22128292.4434   22128299.0054
       192.0004        191.0004
 -18875712.00949 -14685216.92647  20992525.925    20992526.6464   20992534.4464
       196.0004        197.0004
  -3160003.11147  -2436721.34645  23982527.836    23982527.5174   23982533.1344
       148.0004        151.0004
  -4101071.87848  -3181471.65746  23152721.706    23152721.8464   23152726.1734
       166.0004        169.0004
 21  1 31  0 46  0.0000000  0 10G21G28G30G08G07G17G09G01G04G14
 -14314367.90848 -11146826.71646  22003613.058    22003612.7134   22003617.7484
       183.0004        183.0004
   -917571.10947   -707309.05245  23553845.062    23553844.3794   23553847.9394
       149.0004        153.0004
 -12299655.09748  -9568760.68947  22088932.395    22088932.3434   22088938.6464
       187.0004        188.0004
  -8346155.90848  -6479318.38547  23132528.108    23132528.0974   23132537.1014
       190.0004        190.0004
 -22144920.55949 -17241816.89747  20505764.257    20505764.8244   20505769.0074
       209.0004        210.0004
  -9352686.02948  -7255347.31946  22496069.356    22496069.2494   22496074.3264
       183.0004        183.0004
 -11942457.80948  -9275180.02547  22142195.579    22142195.7734   22142203.0594
       191.0004        191.0004
 -18912658.39049 -14714006.29347  20985496.253    20985496.0564   20985503.7524
       196.0004        197.0004
  -3062464.58747  -2360717.35745  24001089.438    24001088.3684   24001093.4814
       148.0004        150.0004
  -4127993.12748  -3202449.21946  23147598.909    23147599.0414   23147602.9504
       168.0004        168.0004
 21  1 31  0 46 30.0000000  0 10G21G28G30G08G07G17G09G01G04G14
 -14277252.33148 -11117905.47146  22010676.221    22010675.5184   22010680.2034
       183.0004        183.0004
   -933322.45147   -719582.82045  23550846.227    23550845.7484   23550850.8924
       149.0004        152.0004
 -12382178.10448  -9633064.32947  22073228.902    22073228.5184   22073235.2864
       188.0004        188.0004
  -8251692.31848  -6405710.40647  23150504.494    23150504.7474   23150512.9064
       191.0004        192.0004
 -22191321.16349 -17277973.22747  20496934.981    20496935.3364   20496939.2964
       210.0004        211.0004
  -9414288.63948  -7303349.33146  22484346.201    22484347.2224   22484351.1924
       182.0004        182.0004
 -11869189.51648  -9218087.84747  22156137.260    22156137.8654   22156145.1774
       190.0004        190.0004
 -18949107.15149 -14742407.92547  20978560.658    20978561.0324   20978568.1154
       197.0004        198.0004
  -2964992.69847  -2284765.26645  24019634.008    24019636.0584   24019642.4294
       145.0004        147.0004
  -4154956.92947  -3223459.96046  23142464.860    23142465.8874   23142471.1344
       164.0004        163.0004
 21  1 31  0 47  0.0000000  0 10G21G28G30G08G07G17G09G01G04G14
 -14239647.53448 -11088603.01846  22017831.443    22017831.7324   22017836.3144
       183.0004        183.0004
   -949121.00247   -731893.36245  23547839.891    23547840.2844   23547843.8314
       149.0004        152.0004
 -12464533.02748  -9697236.98147  22057555.288    22057555.9724   22057563.8464
       188.0004        188.0004
  -8157202.76948  -6332082.17547  23168483.767    23168484.9014   23168493.7054
       192.0004        192.0004
 -22237325.57649 -17313820.81647  20488180.182    20488180.3114   20488184.8204
       210.0004        210.0004
  -9475489.83748  -7351038.55546  22472699.548    22472699.9984   22472704.5654
       181.0004        181.0004
 -11795718.91648  -9160838.02747  22170119.428    22170119.9994   22170126.6744
       191.0004        192.0004
 -18985054.10249 -14770418.51247  20971719.687    20971720.4744   20971727.5884
       198.0004        198.0004
  -2867588.17047  -2208865.68345  24038171.762    24038172.2144   24038178.5234
       144.0004        147.0004
  -4181962.28547  -3244503.10646  23137325.628    23137326.2904   23137332.2044
       163.0004        165.0004
 21  1 31  0 47 30.0000000  0 10G21G28G30G08G07G17G09G01G04G14
 -14201554.89348 -11058920.42446  22025080.904    22025080.7114   22025084.7174
       183.0004        182.0004
   -964969.32247   -744242.66545  23544823.594    23544823.1014   23544828.6304
       148.0004        151.0004
 -12546718.21648  -9761277.38447  22041917.200    22041917.1714   22041923.9894
       187.0004        188.0004
  -8062689.89748  -6258435.76547  23186468.313    23186469.8794   23186479.1974
       191.0004        191.0004
 -22282931.96849 -17349358.27547  20479501.757    20479502.1804   20479506.2894
       210.0004        210.0004
  -9536289.40848  -7398414.81046  22461130.051    22461130.0324   22461135.7334
       181.0004        182.0004
 -11722049.93848  -9103433.64747  22184138.264    22184138.2494   22184145.4324
       192.0004        192.0004
 -19020497.80949 -14798036.97647  20964974.385    20964975.0054   20964982.4034
       198.0004        198.0004
  -2770254.41047  -2133021.24845  24056694.968    24056693.3134   24056701.0074
       143.0004        147.0004
  -4209010.98448  -3265579.99646  23132179.657    23132180.8124   23132185.7354
       165.0004        167.0004
 21  1 31  0 48  0.0000000  0 10G21G28G30G08G07G17G09G01G04G14
 -14162975.97848 -11028858.91246  22032421.337    22032421.7324   22032425.8024
       183.0004        183.0004
   -980868.86947   -756631.92745  23541798.498    23541798.2234   23541802.3644
       149.0004        152.0004
 -12628731.84648  -9825184.10047  22026311.719    22026311.1944   22026317.0964
       188.0004        188.0004
  -7968157.39848  -6184774.08947  23204458.025    23204458.5204   23204469.1544
       190.0004        190.0004
 -22328138.68949 -17384584.29147  20470898.713    20470899.1414   20470903.7954
       210.0004        210.0004
  -9596686.97348  -7445477.82546  22449636.128    22449636.3894   22449642.5924
       181.0004        181.0004
 -11648186.47748  -9045877.68847  22198192.046    22198192.8874   22198200.6894
       190.0004        189.0004
 -19055436.71749 -14825262.07547  20958325.694    20958326.2524   20958333.9154
       198.0004        198.0004
  -2672994.76647  -2057234.56345  24075202.307    24075201.8714   24075207.9334
       142.0004        146.0004
  -4236104.62047  -3286691.90046  23127023.205    23127023.7354   23127030.1804
       164.0004        164.0004
 21  1 31  0 48 30.0000000  0 10G21G28G30G08G07G17G09G01G04G14
 -14123911.20548 -10998418.80846  22039855.871    22039855.3324   22039860.0184
       183.0004        182.0004
   -996820.47947   -769061.71445  23538763.128    23538762.7874   23538767.4264
       150.0004        153.0004
 -12710570.84848  -9888954.75247  22010737.003    22010737.3204   22010744.3974
       188.0004        189.0004
  -7873607.09848  -6111098.54547  23222451.875    23222452.0254   23222460.3734
       189.0004        189.0004
 -22372942.86149 -17419496.63947  20462373.127    20462373.6624   20462377.7204
       210.0004        211.0004
  -9656681.45848  -7492226.74746  22438220.331    22438220.2514   22438225.4944
       181.0004        182.0004
 -11574131.06248  -8988172.17447  22212285.617    22212286.4574   22212292.5864
       189.0004        190.0004
 -19089868.00449 -14852091.63547  20951773.414    20951774.5124   20951782.0154
       198.0004        198.0004
  -2575811.27547  -1981507.20845  24093695.703    24093695.3864   24093702.2194
       144.0004        148.0004
  -4263243.53347  -3307839.09145  23121858.270    23121859.3344   23121864.9434
       162.0004        162.0004
 21  1 31  0 49  0.0000000  0 10G21G28G30G08G07G17G09G01G04G14
 -14084361.63948 -10967600.95246  22047381.497    22047381.0004   22047385.8014
       182.0004        182.0004
  -1012825.92447   -781533.47945  23535717.202    23535717.4474   23535720.5544
       152.0004        155.0004
 -12792232.88548  -9952587.49947  21995196.511    21995196.9394   21995204.8084
       188.0004        190.0004
  -7779041.36548  -6037410.98147  23240447.046    23240447.9714   23240455.2784
       188.0004        188.0004
 -22417341.62949 -17454093.09047  20453924.416    20453924.8604   20453929.2474
       210.0004        211.0004
  -9716272.50848  -7538661.31946  22426880.249    22426880.5754   22426885.1694
       181.0004        181.0004
 -11499887.01848  -8930319.67447  22226413.436    22226413.8794   22226421.2514
       188.0004        188.0004
 -19123789.68749 -14878524.09647  20945319.077    20945319.5344   20945327.3234
       198.0004        199.0004
  -2478706.75847  -1905841.39845  24112173.543    24112174.9264   24112181.0374
       146.0004        150.0004
  -4290428.80247  -3329022.43246  23116687.556    23116686.0704   23116691.5174
       162.0004        163.0004
 21  1 31  0 49 30.0000000  0 10G21G28G30G08G07G17G09G01G04G14
 -14044327.54148 -10936405.53546  22054999.554    22054999.5424   22055004.1964
       181.0004        182.0004
  -1028886.07047   -794047.86645  23532661.454    23532661.3654   23532665.8944
       151.0004        153.0004
 -12873714.97148 -10016080.01347  21979692.436    21979692.0644   21979698.8544
       190.0004        191.0004
  -7684462.25448  -5963712.99147  23258446.394    23258446.3104   23258453.4084
       188.0004        189.0004
 -22461332.38849 -17488371.60147  20445552.785    20445553.2754   20445557.6634
       210.0004        210.0004
  -9775459.22348  -7584780.79446  22415616.974    22415617.9024   22415623.0334
       181.0004        182.0004
 -11425456.97348  -8872322.24847  22240577.950    22240578.4064   22240585.6324
       190.0004        191.0004
 -19157199.02649 -14904557.34747  20938961.335    20938961.9304   20938969.4664
       199.0004        199.0004
  -2381683.24147  -1830238.69545  24130637.029    24130638.3054   24130644.2924
       147.0004        151.0004
  -4317660.81147  -3350242.14646  23111503.561    23111503.9264   23111510.0914
       161.0004        163.0004
 21  1 31  0 50  0.0000000  0 12G21G28G30G19G08G22G07G17G09G01G04G14
 -14003810.53248 -10904833.83246  22062709.913    22062709.8684   22062713.8454
       181.0004        181.0004
  -1045002.64347   -806606.21045  23529593.724    23529594.0364   23529598.5284
       149.0004        151.0004
 -12955014.90448 -10079430.59647  21964221.282    21964221.5304   21964227.7194
       190.0004        191.0004
  -1591049.30656  -1212393.57845  24701749.275                    24701755.3014
       126.0004        144.0004
  -7589872.53348  -5890006.71346  23276444.313    23276444.7344   23276453.0234
       188.0004        187.0004
  -2021591.11254  -1549815.998 4                                  24581253.310
        74.0004        117.000
 -22504913.15149 -17522330.65047  20437260.474    20437260.4734   20437264.5144
       210.0004        210.0004
  -9834240.86448  -7630584.66646  22404431.595    22404432.1314   22404437.5244
       181.0004        182.0004
 -11350844.50248  -8814182.66947  22254775.547    22254776.3974   22254783.2614
       190.0004        190.0004
 -19190094.31849 -14930190.03047  20932701.513    20932702.1374   20932709.7644
       199.0004        200.0004
  -2284743.67947  -1754701.44245  24149084.389    24149083.7234   24149090.9074
       147.0004        150.0004
  -4344940.80147  -3371499.27146  23106312.315    23106312.8174   23106318.8244
       163.0004        165.0004
 21  1 31  0 50 30.0000000  0 12G21G28G30G19G08G22G07G17G09G01G04G14
 -13962810.51948 -10872885.74646  22070512.361    22070512.0494   22070516.7314
       181.0004        182.0004
  -1061176.41347   -819209.14545  23526516.041    23526515.7064   23526520.1874
       147.0004        149.0004
 -13036129.63448 -10142636.88447  21948785.524    21948785.5414   21948791.9524
       191.0004        190.0004
  -1681089.56447  -1282554.77945  24684620.024    24684615.6504   24684618.6534
       139.0004        147.0004
  -7495274.12648  -5816293.67046  23294445.189    23294445.4724   23294454.5094
       187.0004        187.0004
  -2021591.11244  -1549815.998 4                                  24581253.310
        74.0004        117.000
 -22548081.05949 -17555967.98147  20429045.147    20429045.9104   20429050.1024
       210.0004        211.0004
  -9892617.02548  -7676072.55546  22393323.452    22393323.7704   22393328.7374
       184.0004        186.0004
 -11276052.09348  -8755902.87247  22269008.422    22269008.6514   22269015.1444
       189.0004        188.0004
 -19222472.76749 -14955419.96647  20926539.660    20926540.7004   20926548.7664
       199.0004        200.0004
  -2187890.08947  -1679231.15845  24167514.995    24167514.2944   24167520.2314
       145.0004        148.0004
  -4372269.06048  -3392794.02446  23101113.613    23101113.5854   23101118.3034
       166.0004        168.0004
 21  1 31  0 51  0.0000000  0 11G21G28G30G19G08G07G17G09G01G04G14
 -13921329.71648 -10840563.03546  22078406.287    22078405.7014   22078409.2074
       181.0004        181.0004
  -1077410.12647   -831858.76345  23523428.048    23523427.7954   23523430.0384
       148.0004        152.0004
 -13117058.05048 -10205697.99047  21933385.235    21933385.3064   21933392.1214
       190.0004        191.0004
  -1770913.59347  -1352547.44645  24667524.054    24667523.5514   24667526.0014
       141.0004        146.0004
  -7400670.94148  -5742576.90846  23312445.300    23312447.3674   23312457.2304
       187.0004        187.0004
 -22590834.85349 -17589282.63847  20420909.963    20420910.4354   20420914.3944
       210.0004        211.0004
  -9950588.23348  -7721244.91046  22382291.666    22382291.7644   22382296.9704
       185.0004        185.0004
 -11201084.31248  -8697486.42247  22283274.187    22283274.2104   22283281.8244
       188.0004        188.0004
 -19254333.68449 -14980246.64647  20920476.643    20920477.5014   20920485.4714
       200.0004        200.0004
  -2091126.41447  -1603830.96745  24185928.159    24185928.0954   24185934.9494
       145.0004        149.0004
  -4399647.92648  -3414128.18646  23095903.113    23095902.4784   23095908.5574
       166.0004        166.0004
 21  1 31  0 51 30.0000000  0 11G21G28G30G19G08G07G17G09G01G04G14
 -13879367.56148 -10807865.24546  22086390.807    22086390.4794   22086394.8604
       181.0004        181.0004
  -1093703.21947   -844554.67145  23520326.685    23520326.1764   23520331.4484
       148.0004        152.0004
 -13197795.84448 -10268610.54547  21918021.380    21918021.8694   21918027.8654
       191.0004        192.0004
  -1860518.16547  -1422369.14645  24650471.582    24650471.1194   24650474.8784
       140.0004        145.0004
  -7306063.35648  -5668856.71446  23330448.451    23330450.6614   23330460.4404
       185.0004        185.0004
 -22633170.59749 -17622271.52647  20412853.033    20412853.5854   20412858.0924
       210.0004        210.0004
 -10008152.17548  -7766099.90946  22371336.681    22371337.7434   22371343.0214
       184.0004        185.0004
 -11125942.58848  -8638934.42846  22297572.494    22297573.3534   22297580.5914
       187.0004        187.0004
 -19285673.24049 -15004667.06447  20914513.447    20914514.1684   20914521.4074
       200.0004        200.0004
  -1994453.50547  -1528501.47845  24204322.576    24204323.4094   24204329.3814
       145.0004        148.0004
  -4427076.48147  -3435501.05446  23090683.724    23090684.4214   23090688.4184
       164.0004        165.0004
 21  1 31  0 52  0.0000000  0 11G21G28G30G19G08G07G17G09G01G04G14
 -13836924.63848 -10774792.80846  22094466.855    22094467.2204   22094471.3564
       181.0004        181.0004
  -1110056.14947   -857297.18445  23517214.989    23517214.7104   23517220.0984
       148.0004        150.0004
 -13278339.47548 -10331371.80747  21902694.626    21902694.3974   21902701.2394
       191.0004        192.0004
  -1949901.05447  -1492018.06945  24633462.315    24633461.3614   24633465.6694
       140.0004        144.0004
  -7211453.32348  -5595134.63946  23348456.209    23348455.5824   23348464.1664
       185.0004        185.0004
 -22675084.62249 -17654931.81047  20404877.349    20404877.7704   20404882.2514
       210.0004        211.0004
 -10065307.46348  -7810636.47646  22360461.843    22360461.7264   22360466.1084
       183.0004        182.0004
 -11050629.05148  -8580248.56346  22311904.415    22311905.2004   22311912.9224
       186.0004        187.0004
 -19316488.35649 -15028678.83047  20908649.470    20908650.1934   20908657.5184
       200.0004        200.0004
  -1897872.87547  -1453243.90645  24222702.157    24222703.0274   24222709.9074
       146.0004        150.0004
  -4454554.49148  -3456912.49146  23085455.241    23085455.1594   23085460.7224
       166.0004        168.0004
 21  1 31  0 52 30.0000000  0 11G21G28G30G19G08G07G17G09G01G04G14
 -13794002.63548 -10741347.07646  22102635.557    22102635.3064   22102638.9264
       181.0004        181.0004
  -1126471.37747   -870088.24445  23514091.798    23514092.7044   23514095.3104
       148.0004        151.0004
 -13358687.53848 -10393980.66947  21887404.758    21887404.5434   21887411.9334
       192.0004        193.0004
  -2039061.74147  -1561493.90245  24616495.205    24616494.7204   24616498.5034
       139.0004        144.0004
  -7116844.02448  -5521413.11746  23366460.918    23366460.4834   23366467.9094
       186.0004        186.0004
 -22716576.00649 -17687262.76047  20396981.528    20396982.5764   20396986.5014
       210.0004        211.0004
 -10122054.81948  -7854855.16746  22349662.358    22349662.0214   22349666.8664
       181.0004        180.0004
 -10975147.93248  -8521432.11346  22326268.705    22326268.4364   22326275.4814
       186.0004        186.0004
 -19346778.09149 -15052281.21047  20902885.751    20902886.4504   20902893.4364
       200.0004        200.0004
  -1801388.20247  -1378061.09045  24241062.469    24241063.0544   24241070.0074
       148.0004        151.0004
  -4482084.02948  -3478364.08346  23080215.951    23080215.7964   23080221.6544
       167.0004        168.0004
 21  1 31  0 53  0.0000000  0 11G21G28G30G19G08G07G17G09G01G04G14
 -13750601.45748 -10707527.97346  22110894.519    22110893.9524   22110897.9774
       181.0004        182.0004
  -1142949.37447   -882928.23445  23510955.705    23510955.1484   23510960.2934
       150.0004        153.0004
 -13438836.59248 -10456434.47947  21872153.256    21872153.2034   21872159.4904
       194.0004        194.0004
  -2127997.99347  -1630794.86845  24599571.161    24599570.9694   24599575.1724
       139.0004        144.0004
  -7022236.71348  -5447693.16546  23384465.856    23384464.4434   23384470.4274
       186.0004        187.0004
 -22757641.30249 -17719261.70247  20389168.122    20389168.1204   20389171.8054
       210.0004        211.0004
 -10178392.91448  -7898754.96446  22338941.346    22338941.7104   22338945.7924
       179.0004        180.0004
 -10899501.47348  -8462486.82646  22340663.260    22340663.6654   22340671.0364
       186.0004        186.0004
 -19376539.52249 -15075471.92847  20897222.016    20897222.5934   20897230.1314
       200.0004        200.0004
  -1705001.05047  -1302954.25045  24259404.583    24259405.0004   24259411.9254
       148.0004        151.0004
  -4509664.99648  -3499855.72946  23074966.889    23074967.2874   23074971.9544
       166.0004        166.0004
 21  1 31  0 53 30.0000000  0 11G21G28G30G19G08G07G17G09G01G04G14
 -13706722.08048 -10673336.24146  22119244.065    22119243.1504   22119248.6944
       181.0004        181.0004
  -1159491.57047   -895818.25645  23507806.024    23507806.1764   23507810.8844
       147.0004        149.0004
 -13518784.22648 -10518731.33047  21856938.850    21856938.8114   21856945.7454
       193.0004        192.0004
  -2216708.59147  -1699919.94645  24582689.236    24582689.1814   24582693.4074
       139.0004        143.0004
  -6927634.28748  -5373976.99346  23402465.974    23402466.0164   23402472.3304
       187.0004        187.0004
 -22798278.69949 -17750927.21947  20381434.595    20381434.9014   20381439.0834
       211.0004        212.0004
 -10234321.21748  -7942335.45646  22328299.284    22328299.4414   22328303.4434
       180.0004        182.0004
 -10823692.95448  -8403415.26446  22355089.448    22355089.8334   22355096.2654
       185.0004        186.0004
 -19405770.75049 -15098249.49247  20891659.724    20891660.2494   20891667.8084
       200.0004        200.0004
  -1608714.06847  -1227925.49945  24277727.549    24277727.6074   24277735.8334
       147.0004        150.0004
  -4537298.33948  -3521388.20046  23069708.369    23069708.4914   23069714.3634
       166.0004        167.0004
 21  1 31  0 54  0.0000000  0 11G21G28G30G19G08G07G17G09G01G04G14
 -13662365.95048 -10638772.98946  22127685.545    22127684.2294   22127688.9354
       180.0004        181.0004
  -1176098.51247   -908758.72045  23504646.514    23504646.4264   23504651.4554
       147.0004        151.0004
 -13598527.36048 -10580868.82447  21841764.653    21841764.6144   21841771.1794
       193.0004        193.0004
  -2305191.73147  -1768867.77145  24565852.263    24565851.7324   24565857.8144
       140.0004        145.0004
  -6833038.46548  -5300265.96546  23420466.308    23420466.0704   23420473.9314
       186.0004        186.0004
 -22838484.83649 -17782256.66847  20373783.702    20373784.0744   20373788.2904
       211.0004        212.0004
 -10289839.10348  -7985596.09646  22317734.887    22317734.8534   22317738.6434
       181.0004        182.0004
 -10747724.97948  -8344219.42846  22369545.442    22369545.7694   22369552.1434
       185.0004        185.0004
 -19434469.31249 -15120611.98147  20886198.371    20886198.9024   20886206.8634
       200.0004        200.0004
  -1512529.32947  -1152976.43045  24296030.434    24296030.6764   24296037.7124
       146.0004        149.0004
  -4564984.37248  -3542961.70646  23064440.574    23064440.0904   23064445.0284
       165.0004        166.0004
 21  1 31  0 54 30.0000000  0 11G21G28G30G19G08G07G17G09G01G04G14
 -13617533.38248 -10603838.50346  22136215.524    22136215.6024   22136219.7334
       180.0004        181.0004
  -1192771.32447   -921750.51445  23501475.550    23501475.3114   23501478.6374
       149.0004        152.0004
 -13678063.20948 -10642844.80347  21826629.722    21826629.5364   21826636.7464
       194.0004        194.0004
  -2393445.30747  -1837636.73345  24549058.538    24549057.5624   24549062.5594
       142.0004        146.0004
  -6738450.80048  -5226561.31446  23438465.710    23438465.8354   23438473.6254
       185.0004        185.0004
 -22878257.37449 -17813248.25547  20366214.775    20366215.4124   20366219.7914
       211.0004        211.0004
 -10344945.82748  -8028536.38946  22307247.135    22307247.4514   22307253.2434
       181.0004        182.0004
 -10671600.46648  -8284901.62046  22384031.408    22384031.5024   22384039.1004
       184.0004        184.0004
 -19462633.03549 -15142557.71847  20880838.809    20880839.6104   20880847.1244
       200.0004        200.0004
  -1416449.05247  -1078108.73145  24314312.843    24314314.8674   24314320.8924
       144.0004        147.0004
  -4592723.64048  -3564576.73046  23059161.855    23059162.2974   23059168.2704
       165.0004        167.0004
 21  1 31  0 55  0.0000000  0 11G21G28G30G19G08G07G17G09G01G04G14
 -13572226.05948 -10568534.08146  22144837.589    22144837.2144   22144841.5474
       180.0004        180.0004
  -1209512.11047   -934795.26145  23498288.976    23498288.5494   23498293.5684
       149.0004        152.0004
 -13757389.88148 -10704657.77147  21811533.571    21811533.6584   21811541.2494
       194.0004        194.0004
  -2481468.85147  -1906226.47045  24532308.158    24532307.6674   24532313.4404
       145.0004        149.0004
  -6643874.88448  -5152865.80146  23456462.044    23456462.9234   23456470.2664
       184.0004        184.0004
 -22917594.46549 -17843900.53547  20358729.274    20358729.5924   20358733.5764
       211.0004        212.0004
 -10399641.61748  -8071156.45646  22296838.847    22296839.0864   22296844.5544
       182.0004        182.0004
 -10595323.13748  -8225464.75446  22398546.073    22398547.0794   22398554.6484
       184.0004        185.0004
 -19490260.56549 -15164085.64347  20875581.489    20875582.2384   20875589.5324
       199.0004        199.0004
  -1320476.33047  -1003324.85345  24332575.472    24332576.7954   24332583.5764
       144.0004        148.0004
  -4620517.62248  -3586234.36546  23053872.132    23053872.6994   23053878.4814
       166.0004        168.0004
 21  1 31  0 55 30.0000000  0 11G21G28G30G19G08G07G17G09G01G04G14
 -13526444.02248 -10532859.75646  22153549.164    22153550.0104   22153553.9184
       180.0004        181.0004
  -1226321.05947   -947893.13045  23495088.899    23495089.1054   23495094.8464
       149.0004        153.0004
 -13836503.78648 -10766304.96747  21796478.527    21796478.7434   21796485.9794
       194.0004        194.0004
  -2569260.02447  -1974635.11445  24515603.802    24515602.6334   24515607.4624
       149.0004        154.0004
  -6549311.48848  -5079180.03546  23474456.068    23474456.7474   23474465.2654
       183.0004        183.0004
 -22956492.86249 -17874210.97747  20351326.967    20351327.5804   20351331.8424
       211.0004        212.0004
 -10453924.99648  -8113455.19346  22286509.967    22286510.0564   22286514.2414
       182.0004        183.0004
 -10518895.14648  -8165910.48346  22413090.994    22413091.5214   22413098.1204
       185.0004        185.0004
 -19517349.11849 -15185193.60447  20870426.357    20870427.1024   20870434.8274
       199.0004        199.0004
  -1224612.63747   -928625.94145  24350819.946    24350822.3084   24350827.5424
       145.0004        149.0004
  -4648366.05148  -3607934.43746  23048572.029    23048573.0764   23048577.9844
       167.0004        169.0004
 21  1 31  0 56  0.0000000  0 11G21G28G30G19G08G07G17G09G01G04G14
 -13480189.65748 -10496817.38446  22162352.525    22162351.5254   22162355.8914
       180.0004        180.0004
  -1243200.47547   -961045.93145  23491877.475    23491878.1964   23491882.8164
       152.0004        156.0004
 -13915403.11348 -10827784.95347  21781465.688    21781465.4664   21781472.1294
       194.0004        195.0004
  -2656817.75047  -2042861.86945  24498940.888    24498940.0424   24498945.1414
       152.0004        155.0004
  -6454764.10648  -5005506.77446  23492448.287    23492448.5144   23492456.4124
       182.0004        183.0004
 -22994951.28949 -17904178.59047  20344009.219    20344009.6664   20344013.7414
       211.0004        212.0004
 -10507796.47548  -8155432.94146  22276257.935    22276258.0924   22276263.3794
       183.0004        183.0004
 -10442320.34348  -8106241.80046  22427662.873    22427662.7314   22427669.3224
       185.0004        185.0004
 -19543897.27649 -15205880.46947  20865374.776    20865375.5164   20865382.7584
       199.0004        200.0004
  -1128861.23747   -854014.53545  24369041.791    24369041.4474   24369048.2254
       144.0004        148.0004
  -4676270.46848  -3629678.14546  23043262.805    23043263.7464   23043268.1694
       166.0004        168.0004
 21  1 31  0 56 30.0000000  0 11G21G28G30G19G08G07G17G09G01G04G14
 -13433463.71948 -10460407.55346  22171242.759    22171242.9754   22171247.1814
       179.0004        179.0004
  -1260151.37147   -974254.42645  23488653.793    23488653.8314   23488657.1734
       156.0004        159.0004
 -13994085.15749 -10889095.63147  21766493.069    21766493.1594   21766499.0634
       195.0004        195.0004
  -2744140.97747  -2110905.90145  24482323.052    24482322.1554   24482326.6494
       151.0004        154.0004
  -6360234.80748  -4931847.57746  23510436.805    23510436.9144   23510444.9324
       183.0004        183.0004
 -23032967.26649 -17933801.43247  20336774.490    20336774.9304   20336779.1034
       211.0004        212.0004
 -10561255.59348  -8197089.38246  22266084.836    22266085.8504   22266089.6154
       182.0004        183.0004
 -10365601.77048  -8046461.08546  22442260.740    22442261.2234   22442269.3884
       185.0004        185.0004
 -19569903.23749 -15226144.83447  20860425.706    20860425.9284   20860434.2164
       199.0004        199.0004
  -1033224.42147   -779492.40745  24387239.199    24387240.9144   24387247.1944
       142.0004        146.0004
  -4704231.53548  -3651465.99446  23037941.404    23037942.7144   23037948.0334
       167.0004        169.0004
 21  1 31  0 57  0.0000000  0 11G21G28G30G19G08G07G17G09G01G04G14
 -13386267.28348 -10423631.09346  22180224.989    22180224.2114   22180229.0934
       179.0004        180.0004
  -1277174.83847   -987519.44845  23485414.209    23485413.9584   23485417.9294
       156.0004        159.0004
 -14072547.65349 -10950235.23647  21751561.528    21751561.6284   21751568.1844
       195.0004        196.0004
  -2831228.45847  -2178766.21745  24465750.353    24465749.7814   24465755.9194
       151.0004        154.0004
  -6265726.17248  -4858204.50346  23528422.094    23528422.3484   23528430.3164
       185.0004        186.0004
 -23070538.67449 -17963077.86047  20329624.461    20329625.1864   20329629.4954
       211.0004        212.0004
 -10614302.53048  -8238424.64846  22255990.236    22255990.4174   22255995.6844
       183.0004        185.0004
 -10288742.78548  -7986570.98346  22456887.641    22456887.8894   22456893.7604
       184.0004        184.0004
 -19595365.38449 -15245985.45247  20855580.890    20855581.1734   20855588.7024
       199.0004        199.0004
   -937704.90247   -705061.69045  24405416.495    24405417.0494   24405425.0144
       140.0004        143.0004
  -4732250.26448  -3673298.75946  23032610.103    23032610.4074   23032616.2174
       167.0004        168.0004
 21  1 31  0 57 30.0000000  0 11G21G28G30G19G08G07G17G09G01G04G14
 -13338601.46648 -10386488.87246  22189295.462    22189295.1264   22189299.0744
       179.0004        179.0004
  -1294272.01647  -1000841.92145  23482159.695    23482160.0614   23482163.6384
       156.0004        158.0004
 -14150787.51049 -11011201.34947  21736672.911    21736673.3024   21736679.5304
       195.0004        195.0004
  -2918078.33647  -2246441.38845  24449224.304    24449223.3124   24449228.5244
       151.0004        154.0004
  -6171239.96248  -4784578.89046  23546400.389    23546401.9234   23546409.6794
       184.0004        184.0004
 -23107662.74249 -17992005.69347  20322560.505    20322560.8644   20322565.3974
       211.0004        212.0004
 -10666936.58448  -8279438.16446  22245974.533    22245974.8224   22245979.7984
       183.0004        183.0004
 -10211745.99348  -7926573.48346  22471539.138    22471539.6834   22471546.3584
       183.0004        183.0004
 -19620281.38949 -15265400.49147  20850839.285    20850839.9394   20850847.5764
       199.0004        199.0004
   -842304.62547   -630723.91545  24423570.409    24423572.8804   24423576.8154
       136.0004        140.0004
  -4760326.91748  -3695176.68246  23027269.260    23027269.1144   23027272.5184
       168.0004        170.0004
 21  1 31  0 58  0.0000000  0 11G21G28G30G19G08G07G17G09G01G04G14
 -13290467.35548 -10348981.76846  22198454.442    22198454.7804   22198458.8654
       179.0004        179.0004
  -1311443.30747  -1014222.13745  23478893.545    23478893.1074   23478897.1624
       157.0004        160.0004
 -14228801.64049 -11071991.56347  21721828.344    21721827.7744   21721834.6594
       195.0004        196.0004
  -3004688.96547  -2313930.15245  24432742.398    24432741.8394   24432746.4514
       149.0004        152.0004
  -6076777.96848  -4710972.13846  23564377.405    23564378.3904   23564385.5914
       184.0004        185.0004
 -23144336.97849 -18020583.00747  20315581.736    20315582.1734   20315585.9464
       211.0004        212.0004
 -10719157.02748  -8320129.40946  22236037.535    22236037.6724   22236042.1634
       183.0004        184.0004
 -10134614.01148  -7866470.64146  22486215.751    22486216.5174   22486224.6354
       182.0004        182.0004
 -19644648.99349 -15284388.22847  20846202.342    20846203.0434   20846211.1784
       199.0004        200.0004
   -747025.50547   -556480.52245  24441700.877    24441700.0754   24441709.9664
       136.0004        140.0004
  -4788461.74048  -3717099.91246  23021913.522    23021914.6434   23021919.6544
       170.0004        171.0004
 21  1 31  0 58 30.0000000  0 11G21G28G30G19G08G07G17G09G01G04G14
 -13241866.46148 -10311110.91346  22207703.816    22207702.6354   22207707.1544
       179.0004        180.0004
  -1328690.65047  -1027661.61345  23475611.737    23475610.9374   23475614.3674
       156.0004        156.0004
 -14306587.87749 -11132604.20647  21707024.670    21707025.6704   21707032.3204
       196.0004        197.0004
  -3091059.36747  -2381231.69145  24416306.359    24416306.0904   24416310.9544
       149.0004        152.0004
  -5982342.89248  -4637386.40346  23582350.660    23582349.8344   23582355.7904
       185.0004        185.0004
 -23180558.96449 -18048807.92847  20308688.918    20308689.4574   20308693.3274
       211.0004        212.0004
 -10770963.76248  -8360498.27046  22226179.470    22226179.3234   22226184.8154
       185.0004        187.0004
 -10057350.35948  -7806265.19946  22500918.443    22500918.9614   22500926.6964
       180.0004        180.0004
 -19668466.82349 -15302947.55847  20841669.545    20841670.3404   20841678.2394
       199.0004        199.0004
   -651870.33647   -482333.71645  24459808.233    24459808.5574   24459818.2734
       137.0004        142.0004
  -4816655.85748  -3739069.32046  23016548.443    23016548.4024   23016553.9454
       168.0004        167.0004
 21  1 31  0 59  0.0000000  0 11G21G28G30G19G08G07G17G09G01G04G14
 -13192798.57548 -10272876.18946  22217041.104    22217040.1764   22217045.1454
       179.0004        180.0004
  -1346014.35547  -1041160.59445  23472313.974    23472313.2574   23472317.1014
       151.0004        152.0004
 -14384143.09349 -11193036.84047  21692267.373    21692267.4714   21692273.7154
       196.0004        197.0004
  -3177187.87747  -2448344.74945  24399917.419    24399916.7284   24399920.7404
       150.0004        153.0004
  -5887936.53648  -4563823.01546  23600313.969    23600313.7894   23600320.3874
       184.0004        183.0004
 -23216326.48349 -18076678.73147  20301882.496    20301882.9894   20301887.1794
       211.0004        212.0004
 -10822355.72748  -8400543.94346  22216398.609    22216399.5684   22216405.3184
       185.0004        185.0004
  -9979957.61648  -7745959.16646  22515646.888    22515647.1084   22515654.2914
       181.0004        182.0004
 -19691732.51849 -15321076.66147  20837242.209    20837243.0484   20837251.0074
       199.0004        199.0004
   -556841.05647   -408285.01845  24477892.923    24477894.0254   24477901.5214
       138.0004        144.0004
  -4844909.41848  -3761085.09546  23011172.526    23011172.5224   23011177.5744
       167.0004        167.0004
 21  1 31  0 59 30.0000000  0 11G21G28G30G19G08G07G17G09G01G04G14
 -13143266.12048 -10234279.46046  22226466.519    22226466.4544   22226470.8044
       179.0004        180.0004
  -1363416.16447  -1054720.49545  23468998.490    23468999.2764   23469005.7554
       147.0004        149.0004
 -14461465.09249 -11253287.74747  21677552.688    21677552.8674   21677560.2244
       196.0004        196.0004
  -3263072.91647  -2515268.12545  24383573.373    24383572.6794   24383577.6954
       149.0004        152.0004
  -5793560.90648  -4490283.58046  23618271.487    23618271.8654   23618278.8444
       181.0004        180.0004
 -23251637.75949 -18104194.01447  20295163.068    20295163.5834   20295167.5684
       211.0004        212.0004
 -10873333.57648  -8440266.93946  22206698.043    22206698.2164   22206703.4634
       184.0004        184.0004
  -9902439.19848  -7685555.22346  22530399.192    22530398.5914   22530406.0324
       182.0004        183.0004
 -19714444.80749 -15338774.53247  20832920.055    20832921.0024   20832928.9434
       199.0004        199.0004
   -461940.39947   -334336.52345  24495952.237    24495953.6484   24495961.3084
       139.0004        145.0004
  -4873223.56348  -3783148.07746  23005784.243    23005784.2914   23005789.5944
       166.0004        167.0004
 21  1 31  1  0  0.0000000  0 11G21G28G30G19G08G07G17G09G01G04G14
 -13093268.92948 -10195320.59146  22235980.293    22235979.8044   22235985.0014
       179.0004        179.0004
  -1380895.92647  -1068341.10145  23465675.776    23465676.0034   23465679.9164
       148.0004        154.0004
 -14538549.74949 -11313353.68447  21662883.766    21662883.9714   21662890.9654
       196.0004        196.0004
  -3348711.80547  -2581999.66745  24367278.254    24367276.7934   24367280.8984
       150.0004        153.0004
  -5699217.01448  -4416768.87446  23636223.229    23636224.1114   23636232.9554
       181.0004        182.0004
 -23286488.94849 -18131350.78347  20288530.878    20288531.2954   20288535.5074
       211.0004        212.0004
 -10923895.48948  -8479665.79746  22197076.179    22197077.4734   22197082.4424
       184.0004        186.0004
  -9824796.74748  -7625054.60246  22545173.502    22545173.7994   22545180.1384
       182.0004        182.0004
 -19736600.42349 -15356038.62847  20828704.692    20828705.1194   20828713.0794
       199.0004        199.0004
   -367169.21947   -260488.95545  24513985.544    24513987.3634   24513993.4774
       139.0004        143.0004
  -4901597.44848  -3805257.56846  23000384.329    23000385.4564   23000390.1814
       166.0004        167.0004
 21  1 31  1  0 30.0000000  0 11G21G28G30G19G08G07G17G09G01G04G14
 -13042808.51348 -10156000.78846  22245582.237    22245581.8274   22245586.4644
       178.0004        178.0004
  -1398455.31247  -1082023.71245  23462336.627    23462335.9554   23462339.3454
       152.0004        156.0004
 -14615394.86149 -11373233.00347  21648261.269    21648261.1044   21648268.3934
       196.0004        197.0004
  -3434104.02547  -2648538.99745  24351028.080    24351027.2274   24351031.1064
       151.0004        154.0004
  -5604907.69148  -4343281.05746  23654169.343    23654170.5264   23654179.2654
       180.0004        180.0004
 -23320878.18649 -18158147.59847  20281986.660    20281987.1024   20281991.4394
       211.0004        212.0004
 -10974041.55448  -8518740.64147  22187535.209    22187534.9494   22187540.5154
       186.0004        189.0004
  -9747033.67148  -7564460.01746  22559970.543    22559971.4164   22559978.1574
       182.0004        183.0004
 -19758198.10549 -15372867.97847  20824594.091    20824594.6594   20824602.8044
       199.0004        198.0004
   -272530.25547   -186744.41145  24531994.858    24531994.1824   24532003.6634
       138.0004        142.0004
  -4930032.09848  -3827414.41446  22994974.294    22994974.5574   22994979.2004
       167.0004        169.0004
 21  1 31  1  1  0.0000000  0 11G21G28G30G19G08G07G17G09G01G04G14
 -12991886.98348 -10116321.64446  22255272.309    22255271.6804   22255277.0874
       178.0004        178.0004
  -1416095.85347  -1095769.59945  23458979.429    23458977.6184   23458981.8984
       153.0004        155.0004
 -14691998.20949 -11432923.90647  21633683.484    21633683.4664   21633691.2964
       196.0004        196.0004
  -3519248.74647  -2714885.47345  24334824.701    24334824.4094   24334828.6604
       150.0004        153.0004
  -5510634.61248  -4269821.55146  23672111.174    23672110.9234   23672118.5374
       179.0004        179.0004
 -23354803.93249 -18184583.24548  20275531.635    20275531.7164   20275535.9124
       212.0004        213.0004
 -11023772.18748  -8557491.76647  22178071.129    22178071.6024   22178076.2694
       187.0004        188.0004
  -9669153.53548  -7503774.19746  22574790.402    22574791.1284   22574798.9284
       182.0004        181.0004
 -19779236.56349 -15389261.57047  20820590.679    20820591.0184   20820598.8454
       198.0004        198.0004
   -178026.21247   -113105.00945  24549978.429    24549979.0614   24549987.3264
       138.0004        142.0004
  -4958528.65548  -3849619.50146  22989551.061    22989551.2514   22989556.5294
       167.0004        167.0004
 21  1 31  1  1 30.0000000  0 11G21G28G30G19G08G07G17G09G01G04G14
 -12940505.38248 -10076284.03746  22265049.670    22265049.6934   22265054.1514
       178.0004        177.0004
  -1433818.63847  -1109579.57545  23455603.693    23455603.6104   23455610.2704
       152.0004        153.0004
 -14768357.21749 -11492424.41747  21619152.571    21619152.9914   21619160.4864
       196.0004        196.0004
  -3604144.18647  -2781037.68845  24318670.103    24318668.5734   24318673.8704
       152.0004        155.0004
  -5416401.09948  -4196392.84246  23690043.869    23690043.2554   23690051.1234
       179.0004        180.0004
 -23388263.94449 -18210655.98648  20269163.756    20269164.1494   20269168.6394
       212.0004        213.0004
 -11073087.09348  -8595918.95446  22168686.373    22168686.5784   22168691.7054
       187.0004        186.0004
  -9591159.29448  -7442999.46846  22589632.281    22589632.7964   22589640.0574
       181.0004        182.0004
 -19799714.17049 -15405218.13847  20816694.673    20816695.2494   20816702.5544
       198.0004        199.0004
    -83659.45147    -39572.59545  24567935.677    24567935.9464   24567944.8194
       137.0004        141.0004
  -4987087.76748  -3871873.35446  22984116.471    22984117.1934   22984121.9904
       167.0004        168.0004
 21  1 31  1  2  0.0000000  0 11G21G28G30G19G08G07G17G09G01G04G14
 -12888665.55548 -10035889.34246  22274914.680    22274914.4154   22274919.5694
       178.0004        179.0004
  -1451624.43747  -1123454.23345  23452214.503    23452214.9934   23452219.8094
       150.0004        153.0004
 -14844469.30949 -11551732.53747  21604669.169    21604669.3334   21604676.7354
       196.0004        197.0004
  -3688789.45547  -2846994.97145  24302562.430    24302561.7544   24302566.8114
       153.0004        156.0004
  -5322208.81048  -4122996.28646  23707967.634    23707967.5374   23707975.6214
       179.0004        179.0004
 -23421255.85249 -18236363.96348  20262886.243    20262886.7424   20262890.3444
       212.0004        213.0004
 -11121986.15548  -8634022.11346  22159381.362    22159381.5574   22159386.3164
       184.0004        184.0004
  -9513054.19048  -7382138.34946  22604495.613    22604495.6674   22604503.2274
       182.0004        182.0004
 -19819629.38749 -15420736.46347  20812904.694    20812905.2464   20812912.9344
       199.0004        198.0004
     10567.56047     33850.98445  24585867.486    24585869.4304   24585873.2594
       138.0004        142.0004
  -5015710.11348  -3894176.46646  22978669.804    22978670.0024   22978675.4384
       169.0004        172.0004
 21  1 31  1  2 30.0000000  0 11G21G28G30G19G08G07G17G09G01G04G14
 -12836367.07648  -9995137.26646  22284867.116    22284866.1304   22284871.6134
       178.0004        178.0004
  -1469513.69847  -1137393.89745  23448812.792    23448812.0444   23448817.3374
       150.0004        153.0004
 -14920330.79349 -11610845.37347  21590233.638    21590233.5434   21590240.8954
       197.0004        198.0004
  -3773182.04547  -2912755.37745  24286502.371    24286501.8154   24286506.9874
       153.0004        155.0004
  -5228059.24648  -4049632.98846  23725882.183    23725882.4524   23725891.0734
       178.0004        178.0004
 -23453776.61949 -18261704.82348  20256697.732    20256697.9904   20256702.0894
       212.0004        213.0004
 -11170468.35248  -8671800.42546  22150155.425    22150156.1804   22150160.6564
       185.0004        186.0004
  -9434840.09648  -7321192.30446  22619379.240    22619379.3974   22619386.7364
       182.0004        181.0004
 -19838979.46649 -15435814.43647  20809222.325    20809222.7594   20809230.4564
       199.0004        199.0004
    104653.72147    107164.78345  24603772.018    24603773.2594   24603778.2614
       136.0004        142.0004
  -5044395.26448  -3916528.52246  22973211.806    22973211.3564   22973216.1764
       170.0004        171.0004
 21  1 31  1  3  0.0000000  0 11G21G28G30G19G08G07G17G09G01G04G14
 -12783612.23648  -9954029.59546  22294905.256    22294905.5524   22294910.2284
       177.0004        177.0004
  -1487488.20547  -1151400.03145  23445393.033    23445392.2374   23445395.9674
       152.0004        157.0004
 -14995939.68449 -11669761.38047  21575845.939    21575845.7284   21575852.5424
       198.0004        198.0004
  -3857321.40147  -2978318.43945  24270490.410    24270490.7954   24270496.2294
       151.0004        153.0004
  -5133954.33148  -3976304.51546  23743787.475    23743789.3684   23743798.8074
       176.0004        176.0004
 -23485824.93349 -18286677.54148  20250598.653    20250599.0234   20250603.1774
       212.0004        213.0004
 -11218534.16348  -8709254.29446  22141009.232    22141009.2714   22141014.1424
       186.0004        187.0004
  -9356520.75248  -7260164.25746  22634283.122    22634284.0844   22634289.9114
       181.0004        183.0004
 -19857763.53649 -15450451.36447  20805647.430    20805648.3664   20805655.8384
       199.0004        199.0004
    198596.02947    180366.47845  24621649.418    24621649.3364   24621655.7374
       137.0004        141.0004
  -5073144.47348  -3938930.50646  22967740.674    22967740.9774   22967746.3524
       170.0004        171.0004
 21  1 31  1  3 30.0000000  0 11G21G28G30G19G08G07G17G09G01G04G14
 -12730401.93448  -9912567.00446  22305030.559    22305031.2874   22305035.7304
       177.0004        176.0004
  -1505548.45947  -1165472.93545  23441954.238    23441954.7134   23441959.7124
       154.0004        156.0004
 -15071292.76849 -11728478.06747  21561505.502    21561506.1324   21561512.9214
       196.0004        196.0004
  -3941205.78147  -3043682.84345  24254528.958    24254528.0814   24254531.1894
       148.0004        149.0004
  -5039896.27148  -3903012.52146  23761689.269    23761688.7664   23761698.0924
       177.0004        178.0004
 -23517398.00649 -18311279.93748  20244590.542    20244591.0674   20244595.4264
       212.0004        214.0004
 -11266182.84448  -8746383.13047  22131942.633    22131942.5074   22131947.0994
       187.0004        188.0004
  -9278098.61548  -7199056.09346  22649205.560    22649205.7354   22649213.9854
       182.0004        181.0004
 -19875979.45649 -15464645.57447  20802181.931    20802182.4474   20802189.5694
       199.0004        199.0004
    292392.78747    253454.78545  24639497.418    24639499.3024   24639505.8994
       138.0004        143.0004
  -5101957.73348  -3961382.36246  22962257.932    22962257.8144   22962262.1444
       170.0004        170.0004
 21  1 31  1  4  0.0000000  0 11G21G28G30G19G08G07G17G09G01G04G14
 -12676738.41748  -9870751.27246  22315243.091    22315242.4784   22315247.4554
       176.0004        176.0004
  -1523696.42147  -1179614.20745  23438501.779    23438502.1614   23438506.8684
       154.0004        157.0004
 -15146388.39649 -11786994.15447  21547215.766    21547216.0154   21547223.7654
       197.0004        197.0004
  -4024834.79247  -3108848.22745  24238613.774    24238613.3174   24238619.5504
       145.0004        148.0004
  -4945887.34148  -3829758.88746  23779576.775    23779577.7664   23779585.8244
       175.0004        175.0004
 -23548494.69249 -18335511.13848  20238673.038    20238673.5494   20238677.4954
       212.0004        213.0004
 -11313415.46148  -8783187.76447  22122953.409    22122953.6424   22122959.0034
       187.0004        188.0004
  -9199577.65748  -7137870.94746  22664147.522    22664149.0274   22664156.2344
       181.0004        182.0004
 -19893626.65149 -15478396.62447  20798823.171    20798823.3404   20798831.1834
       199.0004        198.0004
    386040.78647    326427.16945  24657318.165    24657318.2804   24657326.2384
       139.0004        143.0004
  -5130836.63248  -3983885.43446  22956762.582    22956762.5234   22956767.5514
       169.0004        169.0004
 21  1 31  1  4 30.0000000  0 11G21G28G30G19G08G07G17G09G01G04G14
 -12622622.63948  -9828583.11746  22325541.146    22325540.6654   22325545.3864
       176.0004        177.0004
  -1541932.33247  -1193824.02045  23435032.919    23435032.5964   23435035.2614
       155.0004        157.0004
 -15221223.08549 -11845306.88947  21532975.142    21532975.5214   21532982.7934
       197.0004        198.0004
  -4108206.15847  -3173812.87145  24222750.275    24222749.4954   24222753.8014
       147.0004        151.0004
  -4851929.49848  -3756544.94446  23797456.867    23797458.3034   23797465.8314
       175.0004        176.0004
 -23579112.04749 -18359368.81848  20232846.521    20232847.0614   20232851.3294
       212.0004        213.0004
 -11360231.14048  -8819667.49247  22114044.662    22114045.1154   22114050.6604
       188.0004        188.0004
  -9120960.10948  -7076610.51846  22679109.373    22679109.7034   22679115.7874
       182.0004        181.0004
 -19910702.80849 -15491702.70947  20795573.081    20795573.9584   20795581.6604
       198.0004        199.0004
    479538.56447    399282.49845  24675109.612    24675110.9224   24675118.4004
       140.0004        145.0004
  -5159780.92748  -4006439.42346  22951254.688    22951255.1334   22951259.3304
       169.0004        169.0004
 21  1 31  1  5  0.0000000  0 11G21G28G30G19G08G07G17G09G01G04G14
 -12568055.88148  -9786063.55546  22335924.318    22335924.2504   22335929.9194
       176.0004        176.0004
  -1560257.37147  -1208103.27245  23431545.018    23431544.3004   23431548.5754
       155.0004        157.0004
 -15295794.05349 -11903414.12947  21518785.227    21518784.9474   21518792.0624
       198.0004        198.0004
  -4191318.83847  -3238575.93045  24206933.440    24206933.5604   24206937.7714
       148.0004        152.0004
  -4758024.28248  -3683372.09146  23815328.561    23815328.5024   23815335.7704
       175.0004        176.0004
 -23609247.79749 -18382851.22548  20227112.242    20227112.7134   20227116.9104
       212.0004        214.0004
 -11406629.40848  -8855821.97247  22105215.978    22105216.4264   22105220.5944
       188.0004        188.0004
  -9042248.80148  -7015277.03446  22694086.976    22694086.8864   22694094.1574
       181.0004        181.0004
 -19927206.23549 -15504562.51447  20792433.056    20792433.7774   20792441.1044
       199.0004        199.0004
    572884.10947    472019.17845  24692872.972    24692873.0814   24692880.1774
       138.0004        142.0004
  -5188791.01348  -4029044.66746  22945733.132    22945733.9324   22945738.7114
       169.0004        171.0004
 21  1 31  1  5 30.0000000  0 11G21G28G30G19G08G07G17G09G01G04G14
 -12513040.07848  -9743194.09746  22346393.339    22346393.2034   22346398.2184
       175.0004        175.0004
  -1578672.96247  -1222453.09245  23428040.693    23428040.3724   23428044.9554
       155.0004        158.0004
 -15370099.36349 -11961314.37147  21504645.123    21504645.1994   21504652.5204
       198.0004        199.0004
  -4274172.18147  -3303136.93845  24191167.680    24191167.4054   24191170.5874
       149.0004        152.0004
  -4664174.71748  -3610242.59046  23833187.198    23833187.4204   23833194.7404
       175.0004        175.0004
 -23638900.96349 -18405957.58748  20221469.081    20221469.4354   20221473.5944
       212.0004        213.0004
 -11452611.48448  -8891652.14247  22096465.776    22096466.3024   22096471.6454
       188.0004        190.0004
  -8963447.46448  -6953873.40746  22709082.208    22709081.9634   22709090.3494
       180.0004        181.0004
 -19943136.28249 -15516975.52147  20789401.925    20789402.4334   20789410.0374
       199.0004        200.0004
    666074.36147    544634.83645  24710605.979    24710606.1014   24710613.8714
       137.0004        142.0004
  -5217868.16048  -4051702.18046  22940200.831    22940201.6334   22940206.3574
       172.0004        173.0004
 21  1 31  1  6  0.0000000  0 11G21G28G30G19G08G07G17G09G01G04G14
 -12457575.96048  -9699975.28546  22356948.171    22356948.1864   22356952.0024
       175.0004        176.0004
  -1597179.33547  -1236873.65545  23424518.485    23424519.5594   23424522.0924
       156.0004        158.0004
 -15444135.53649 -12019004.88347  21490556.914    21490557.2034   21490564.1124
       199.0004        200.0004
  -4356764.10247  -3367494.22945  24175450.122    24175449.3374   24175453.9004
       150.0004        153.0004
  -4570382.00548  -3537157.38146  23851035.674    23851035.5184   23851042.7344
       173.0004        174.0004
 -23668068.47149 -18428685.52248  20215919.109    20215919.6374   20215923.4004
       213.0004        214.0004
 -11498176.22348  -8927157.12947  22087794.977    22087794.9764   22087800.1414
       189.0004        188.0004
  -8884558.29248  -6892401.33146  22724093.298    22724094.0914   22724102.9134
       179.0004        178.0004
 -19958490.59749 -15528939.91647  20786479.415    20786480.6924   20786487.9404
       199.0004        200.0004
    759108.07547    617128.51445  24728310.304    24728312.6074   24728318.3504
       137.0004        141.0004
  -5247012.03148  -4074411.67846  22934654.406    22934653.8234   22934659.7384
       172.0004        172.0004
 21  1 31  1  6 30.0000000  0 10G21G28G30G19G08G07G17G09G01G14
 -12401663.47348  -9656407.10946  22367588.276    22367588.1664   22367592.7034
       175.0004        176.0004
  -1615776.40347  -1251364.87645  23420979.320    23420978.6164   23420983.3044
       156.0004        157.0004
 -15517898.58749 -12076482.57647  21476520.288    21476520.2494   21476526.8954
       199.0004        199.0004
  -4439091.85947  -3431645.65845  24159784.671    24159783.0944   24159788.1154
       154.0004        158.0004
  -4476646.34148  -3464116.61446  23868872.729    23868872.8534   23868880.5564
       173.0004        173.0004
 -23696746.58249 -18451032.11148  20210461.862    20210462.1704   20210466.5314
       213.0004        214.0004
 -11543322.23148  -8962335.82647  22079203.762    22079203.9024   22079208.6854
       188.0004        188.0004
  -8805582.90748  -6830862.08746  22739123.621    22739123.9334   22739130.6914
       179.0004        179.0004
 -19973266.45149 -15540453.56547  20783668.524    20783669.0114   20783676.6004
       200.0004        200.0004
  -5276221.85448  -4097172.58346  22929096.271    22929097.2184   22929100.7524
       170.0004        171.0004
 21  1 31  1  7  0.0000000  0 10G21G28G30G19G08G07G17G09G01G14
 -12345305.16548  -9612491.54146  22378312.047    22378312.1954   22378316.5504
       175.0004        176.0004
  -1634465.99647  -1265928.18945  23417423.151    23417422.6424   23417428.0344
       155.0004        157.0004
 -15591386.67649 -12133746.02147  21462535.538    21462536.1084   21462542.1954
       199.0004        200.0004
  -4521155.23347  -3495591.06645  24144166.938    24144166.5104   24144171.5454
       155.0004        157.0004
  -4382971.23048  -3391123.05446  23886697.663    23886698.4034   23886706.6324
       174.0004        175.0004
 -23724934.45449 -18472996.68448  20205097.414    20205098.3724   20205102.1414
       213.0004        214.0004
 -11588050.45848  -8997188.98647  22070692.534    22070693.0254   22070697.3574
       189.0004        191.0004
  -8726525.15548  -6769258.63946  22754168.443    22754168.2184   22754174.1974
       179.0004        179.0004
 -19987463.31449 -15551516.03347  20780966.911    20780967.1794   20780974.6514
       200.0004        200.0004
  -5305498.95848  -4119985.90846  22923525.726    22923525.6934   22923529.6434
       170.0004        172.0004
 21  1 31  1  7 30.0000000  0 10G21G28G30G19G08G07G17G09G01G14
 -12288503.12848  -9568230.19746  22389121.014    22389121.6674   22389126.0714
       174.0004        174.0004
  -1653249.90047  -1280564.97645  23413848.658    23413848.4624   23413853.2134
       156.0004        159.0004
 -15664598.02549 -12190793.82547  21448604.146    21448604.4304   21448611.0804
       200.0004        201.0004
  -4602953.86447  -3559330.21345  24128600.594    24128600.2174   24128605.8414
       153.0004        155.0004
  -4289359.17748  -3318178.61846  23904512.328    23904512.7764   23904520.1504
       177.0004        179.0004
 -23752630.78849 -18494578.24648  20199828.054    20199828.2324   20199831.7654
       213.0004        214.0004
 -11632361.95148  -9031717.38847  22062260.535    22062261.0954   22062265.7724
       191.0004        192.0004
  -8647388.81248  -6707593.98746  22769225.938    22769226.3764   22769234.2554
       179.0004        179.0004
 -20001080.65849 -15562126.94147  20778374.818    20778375.3714   20778383.5954
       199.0004        199.0004
  -5334844.69748  -4142852.69046  22917939.925    22917940.7314   22917945.6674
       170.0004        170.0004
 21  1 31  1  8  0.0000000  0 10G21G28G30G19G08G07G17G09G01G14
 -12231258.55648  -9523624.02746  22400015.531    22400015.0364   22400018.9104
       174.0004        176.0004
  -1672128.29447  -1295275.42045  23410257.506    23410257.1044   23410259.9144
       158.0004        160.0004
 -15737529.15349 -12247623.27947  21434726.123    21434726.3104   21434732.8524
       201.0004        201.0004
  -4684485.93647  -3622861.65345  24113086.282    24113085.1494   24113092.0064
       153.0004        156.0004
  -4195811.50148  -3245284.36046  23922313.310    23922314.3354   23922322.2284
       177.0004        177.0004
 -23779832.87049 -18515774.68148  20194650.961    20194651.4054   20194655.3494
       213.0004        214.0004
 -11676255.82848  -9065920.40247  22053907.593    22053907.8814   22053912.9474
       192.0004        193.0004
  -8568176.08948  -6645869.80746  22784299.217    22784300.5834   22784307.8004
       179.0004        179.0004
 -20014116.35349 -15572284.62147  20775894.340    20775895.2444   20775903.0104
       199.0004        200.0004
  -5364258.77248  -4165772.72846  22912342.790    22912343.7414   22912349.4304
       170.0004        171.0004
 21  1 31  1  8 30.0000000  0 10G21G28G30G19G08G07G17G09G01G14
 -12173573.08648  -9478674.29546  22410992.549    22410992.5164   22410995.7994
       174.0004        175.0004
  -1691101.91947  -1310060.03645  23406645.751    23406645.1544   23406649.6634
       157.0004        158.0004
 -15810177.51049 -12304232.37347  21420901.417    21420901.5054   21420908.3824
       201.0004        201.0004
  -4765750.07747  -3686184.31645  24097623.208    24097622.3654   24097627.3544
       155.0004        158.0004
  -4102329.70048  -3172441.36346  23940103.671    23940102.9624   23940110.2394
       175.0004        176.0004
 -23806539.01249 -18536584.68148  20189569.173    20189569.6034   20189573.3304
       213.0004        215.0004
 -11719732.22948  -9099798.10247  22045634.232    22045634.2824   22045639.6494
       191.0004        191.0004
  -8488890.00548  -6584088.43446  22799387.499    22799387.9454   22799396.1084
       177.0004        178.0004
 -20026569.17849 -15581988.09747  20773524.382    20773525.1764   20773533.0954
       199.0004        199.0004
  -5393741.76148  -4188746.46346  22906732.827    22906733.1204   22906738.2254
       170.0004        170.0004
 21  1 31  1  9  0.0000000  0 10G21G28G30G19G08G07G17G09G01G14
 -12115449.73048  -9433383.36646  22422052.134    22422052.6834   22422056.4244
       173.0004        174.0004
  -1710174.05847  -1324921.44045  23403015.213    23403015.6474   23403019.7214
       155.0004        158.0004
 -15882542.20549 -12360620.44447  21407130.751    21407131.0524   21407138.0344
       201.0004        201.0004
  -4846747.08347  -3749298.82045  24082209.335    24082208.7154   24082212.9764
       155.0004        156.0004
  -4008917.95348  -3099653.00646  23957879.148    23957878.9724   23957887.3334
       176.0004        177.0004
 -23832748.88849 -18557007.96548  20184581.824    20184581.6444   20184586.2454
       213.0004        215.0004
 -11762793.19648  -9133352.08147  22037439.970    22037440.6864   22037445.2324
       191.0004        191.0004
  -8409535.34248  -6522253.66546  22814488.889    22814488.3974   22814496.1314
       177.0004        178.0004
 -20038439.60949 -15591237.77347  20771265.767    20771266.5564   20771274.3564
       199.0004        200.0004
  -5423295.85548  -4211775.62346  22901108.544    22901109.4274   22901114.5494
       170.0004        170.0004
 21  1 31  1  9 30.0000000  0 10G21G28G30G19G08G07G17G09G01G14
 -12056887.94548  -9387750.78446  22433197.474    22433196.8024   22433200.1074
       174.0004        174.0004
  -1729343.06947  -1339858.31845  23399369.198    23399368.4064   23399372.7764
       156.0004        158.0004
 -15954618.15549 -12416783.50247  21393415.043    21393414.8954   21393422.1034
       200.0004        200.0004
  -4927473.38447  -3812202.34645  24066847.550    24066847.0174   24066852.0044
       156.0004        159.0004
  -3915575.87348  -3026918.92146  23975640.943    23975641.5364   23975648.1124
       175.0004        175.0004
 -23858458.31449 -18577041.27948  20179688.638    20179689.4524   20179693.7014
       214.0004        215.0004
 -11805436.04148  -9166580.25347  22029325.596    22029325.7124   22029330.9614
       190.0004        190.0004
  -8330112.64848  -6460365.86346  22829602.551    22829602.9684   22829609.0934
       177.0004        177.0004
 -20049724.06349 -15600030.84047  20769118.718    20769119.1554   20769127.3364
       200.0004        200.0004
  -5452919.18048  -4234858.71746  22895471.612    22895471.4944   22895476.2834
       169.0004        169.0004
 21  1 31  1 10  0.0000000  0 10G21G28G30G19G08G07G17G09G01G14
 -11997890.56948  -9341778.79646  22444424.112    22444423.3304   22444427.5144
       174.0004        174.0004
  -1748611.11747  -1354872.37545  23395701.676    23395701.8914   23395705.2214
       155.0004        157.0004
 -16026403.96649 -12472720.50447  21379754.835    21379755.1734   21379761.5394
       201.0004        202.0004
  -5007928.95847  -3874894.96245  24051538.169    24051536.9404   24051542.0614
       157.0004        160.0004
  -3822306.05748  -2954241.17046  23993390.549    23993390.0024   23993397.4894
       172.0004        172.0004
 -23883666.51449 -18596684.03648  20174892.430    20174892.7274   20174896.7044
       214.0004        215.0004
 -11847662.36948  -9199483.87747  22021290.607    22021290.7844   22021295.1924
       191.0004        191.0004
  -8250625.99048  -6398428.21046  22844727.531    22844727.5964   22844735.0214
       176.0004        175.0004
 -20060422.36949 -15608367.18047  20767083.029    20767083.4914   20767091.3854
       200.0004        200.0004
  -5482613.28548  -4257996.97046  22889820.984    22889821.0004   22889826.7264
       169.0004        170.0004
 21  1 31  1 10 30.0000000  0 10G21G28G30G19G08G07G17G09G01G14
 -11938458.26348  -9295467.88946  22455732.331    22455732.2574   22455737.1834
       173.0004        172.0004
  -1767978.19547  -1369963.57745  23392016.609    23392016.8654   23392021.7794
       157.0004        160.0004
 -16097896.12649 -12528428.67847  21366150.434    21366150.1444   21366157.5204
       201.0004        201.0004
  -5088112.06147  -3937375.21645  24036279.335    24036278.5554   24036283.9174
       157.0004        158.0004
  -3729109.83848  -2881620.75546  24011126.588    24011125.6634   24011132.3864
       174.0004        175.0004
 -23908370.29449 -18615933.74148  20170191.607    20170191.7114   20170195.6624
       214.0004        215.0004
 -11889471.48148  -9232062.40647  22013334.029    22013334.2664   22013338.4314
       191.0004        191.0004
  -8171077.48648  -6336442.36446  22859865.003    22859865.3914   22859873.3874
       175.0004        176.0004
 -20070532.58149 -15616245.25747  20765159.741    20765160.0364   20765167.3784
       200.0004        201.0004
  -5512377.78948  -4281190.07746  22884156.213    22884156.3164   22884162.0964
       169.0004        170.0004
 21  1 31  1 11  0.0000000  0 10G21G28G30G19G08G07G17G09G01G14
 -11878591.90048  -9248818.78346  22467124.922    22467124.4974   22467127.9554
       173.0004        173.0004
  -1787444.64247  -1385132.24745  23388312.851    23388311.6934   23388315.1424
       157.0004        158.0004
 -16169091.31849 -12583905.44347  21352601.711    21352601.9154   21352609.5054
       201.0004        201.0004
  -5168020.43547  -3999641.46745  24021073.064    24021072.4224   24021077.1844
       155.0004        157.0004
  -3635988.28148  -2809058.48746  24028843.047    24028843.4934   24028851.9264
       171.0004        171.0004
 -23932567.77149 -18634788.92148  20165586.358    20165586.9034   20165591.1424
       214.0004        215.0004
 -11930862.96448  -9264315.50347  22005457.417    22005457.5334   22005462.4164
       190.0004        190.0004
  -8091469.36548  -6274410.07546  22875013.591    22875014.7064   22875023.0954
       175.0004        177.0004
 -20080052.78949 -15623663.59447  20763346.491    20763347.7074   20763355.8374
       200.0004        200.0004
  -5542212.43948  -4304437.84846  22878479.497    22878480.1814   22878483.4154
       169.0004        171.0004
 21  1 31  1 11 30.0000000  0 10G21G28G30G19G08G07G17G09G01G14
 -11818293.71948  -9201833.16746  22478600.189    22478599.6874   22478603.0064
       173.0004        173.0004
  -1807012.25647  -1400379.71745  23384588.235    23384588.6404   23384592.7244
       154.0004        155.0004
 -16239987.44649 -12639149.16247  21339111.973    21339111.7444   21339118.2544
       201.0004        202.0004
  -5247653.80647  -4061693.40145  24005919.165    24005919.2984   24005922.3384
       156.0004        158.0004
  -3542944.16548  -2736556.61146  24046549.094    24046549.7954   24046558.9984
       174.0004        176.0004
 -23956257.47449 -18653248.43248  20161078.611    20161079.0764   20161083.1284
       214.0004        215.0004
 -11971837.76348  -9296243.89847  21997660.003    21997660.3284   21997664.2114
       189.0004        189.0004
  -8011805.28348  -6212334.18046  22890174.101    22890174.6004   22890181.5284
       177.0004        178.0004
 -20088982.55449 -15630621.84247  20761647.921    20761649.0574   20761656.4824
       200.0004        201.0004
  -5572118.32348  -4327741.13546  22872789.380    22872790.3864   22872793.4274
       170.0004        171.0004
 21  1 31  1 12  0.0000000  0 10G21G28G30G19G08G07G17G09G01G14
 -11757564.66148  -9154511.82446  22490156.199    22490155.9254   22490158.8184
       172.0004        173.0004
  -1826680.44147  -1415705.56045  23380846.287    23380845.8684   23380850.9104
       155.0004        159.0004
 -16310580.98849 -12694157.11347  21325677.457    21325677.5364   21325685.0134
       202.0004        202.0004
  -5327010.12947  -4123529.45445  23990818.626    23990817.6954   23990820.6734
       154.0004        156.0004
  -3449978.14748  -2664115.55846  24064237.329    24064239.2364   24064248.9844
       173.0004        173.0004
 -23979436.30849 -18671309.86648  20156667.789    20156668.0974   20156672.2254
       214.0004        215.0004
 -12012394.92748  -9327846.86447  21989942.806    21989942.8034   21989946.6474
       189.0004        190.0004
  -7932087.18848  -6150216.22246  22905344.087    22905344.1654   22905351.8634
       176.0004        176.0004
 -20097319.81849 -15637118.40847  20760061.677    20760062.2504   20760069.9014
       200.0004        200.0004
  -5602094.89348  -4351099.47246  22867084.644    22867085.5864   22867088.6734
       170.0004        170.0004
 21  1 31  1 12 30.0000000  0 10G21G28G30G19G08G07G17G09G01G14
 -11696407.20648  -9106856.64346  22501793.888    22501794.0564   22501797.6314
       172.0004        173.0004
  -1846451.77147  -1431111.80045  23377083.845    23377083.6494   23377087.8254
       157.0004        159.0004
 -16380870.21249 -12748927.92847  21312301.866    21312301.9804   21312308.9934
       202.0004        202.0004
  -5406089.26147  -4185149.50745  23975769.615    23975768.3134   23975771.0774
       152.0004        153.0004
  -3357093.37648  -2591737.81446  24081912.243    24081915.0734   24081924.2884
       172.0004        172.0004
 -24002103.94249 -18688972.96248  20152354.369    20152354.8414   20152358.7504
       214.0004        216.0004
 -12052535.65648  -9359125.32147  21982303.493    21982304.2604   21982308.8354
       190.0004        190.0004
  -7852318.94948  -6088059.16746  22920523.795    22920524.1204   22920530.8714
       175.0004        175.0004
 -20105064.44349 -15643153.16747  20758587.388    20758588.5534   20758595.8964
       200.0004        200.0004
  -5632143.50548  -4374513.95346  22861364.740    22861366.2174   22861371.2844
       169.0004        168.0004
 21  1 31  1 13  0.0000000  0 10G21G28G30G19G08G07G17G09G01G14
 -11634822.34048  -9058868.43746  22513512.640    22513512.5374   22513516.2694
       172.0004        173.0004
  -1866326.00247  -1446598.19345  23373300.895    23373301.0934   23373305.9894
       156.0004        158.0004
 -16450851.67749 -12803458.93947  21298985.172    21298985.2744   21298991.7504
       202.0004        202.0004
  -5484889.39847  -4246552.17545  23960774.742    23960774.1184   23960777.6384
       154.0004        158.0004
  -3264290.69848  -2519424.03246  24099574.827    24099575.8884   24099584.8094
       173.0004        174.0004
 -24024257.48949 -18706235.45248  20148138.589    20148138.9364   20148142.8634
       214.0004        215.0004
 -12092259.29948  -9390078.80047  21974744.545    21974745.1404   21974749.5624
       190.0004        191.0004
  -7772502.60748  -6025864.61846  22935710.680    22935712.1274   22935718.6994
       173.0004        174.0004
 -20112214.48849 -15648724.62247  20757227.443    20757227.8094   20757234.8794
       200.0004        200.0004
  -5662263.68848  -4397984.22546  22855634.231    22855634.3324   22855641.1934
       170.0004        172.0004
 21  1 31  1 13 30.0000000  0 10G21G28G30G19G08G07G17G09G01G14
 -11572812.83148  -9010549.34346  22525313.546    22525312.8974   22525317.5304
       172.0004        173.0004
  -1886304.75647  -1462166.04245  23369499.634    23369499.8614   23369504.2864
       156.0004        158.0004
 -16520523.62749 -12857748.77247  21285726.589    21285726.9124   21285733.8314
       202.0004        202.0004
  -5563410.50947  -4307737.39045  23945831.666    23945831.7464   23945835.4374
       156.0004        159.0004
  -3171572.86048  -2447176.41446  24117219.520    24117219.3014   24117227.6214
       172.0004        173.0004
 -24045895.85249 -18723096.53148  20144020.837    20144021.3604   20144025.5734
       214.0004        216.0004
 -12131567.61048  -9420708.65947  21967264.697    21967264.6094   21967269.7874
       190.0004        191.0004
  -7692642.02248  -5963635.59646  22950909.354    22950909.3484   22950915.9404
       175.0004        176.0004
 -20118769.89849 -15653832.73747  20755979.759    20755980.3714   20755987.7604
       200.0004        200.0004
  -5692456.69548  -4421511.23146  22849889.462    22849889.8734   22849894.8204
       172.0004        172.0004
 21  1 31  1 14  0.0000000  0 10G21G28G30G19G08G07G17G09G01G14
 -11510379.56848  -8961900.03746  22537194.455    22537193.7294   22537197.3684
       173.0004        174.0004
  -1906388.13647  -1477815.42045  23365677.710    23365677.7134   23365682.4654
       156.0004        158.0004
 -16589882.67049 -12911794.76947  21272528.451    21272528.4104   21272534.9214
       202.0004        202.0004
  -5641650.43047  -4368703.54245  23930943.723    23930943.0624   23930947.2894
       157.0004        160.0004
  -3078940.52148  -2374995.37246  24134849.589    24134848.9124   24134856.0364
       175.0004        177.0004
 -24067016.75249 -18739554.37848  20140001.522    20140002.2984   20140006.4154
       215.0004        216.0004
 -12170459.64648  -9451014.12347  21959862.697    21959862.9474   21959868.0884
       189.0004        189.0004
  -7612739.26348  -5901373.72246  22966114.263    22966113.8344   22966121.7064
       175.0004        175.0004
 -20124728.84949 -15658476.06847  20754845.636    20754846.6134   20754853.8594
       200.0004        200.0004
  -5722722.14748  -4445094.67346  22844129.625    22844130.3794   22844134.1524
       171.0004        171.0004
 21  1 31  1 14 30.0000000  0 10G21G28G30G19G08G07G17G09G01G14
 -11447525.67948  -8912922.96746  22549153.896    22549154.0324   22549158.4624
       173.0004        174.0004
  -1926578.70347  -1493548.30045  23361835.501    23361835.6034   23361840.5454
       156.0004        158.0004
 -16658927.71949 -12965596.10147  21259388.998    21259389.2754   21259396.5114
       202.0004        202.0004
  -5719609.65147  -4429450.94245  23916108.332    23916107.4494   23916112.6964
       157.0004        158.0004
  -2986397.41048  -2302883.89446  24152457.732    24152458.0764   24152465.6364
       174.0004        174.0004
 -24087620.08449 -18755608.92948  20136080.364    20136081.1014   20136085.3384
       214.0004        215.0004
 -12208937.13648  -9480996.57147  21952542.129    21952541.4144   21952546.3154
       188.0004        188.0004
  -7532798.77748  -5839082.43346  22981325.107    22981325.8534   22981333.6054
       174.0004        174.0004
 -20130091.95449 -15662655.09747  20753825.463    20753825.6584   20753833.5494
       200.0004        200.0004
  -5753061.92848  -4468736.04246  22838355.921    22838355.5174   22838361.2934
       169.0004        168.0004
 21  1 31  1 15  0.0000000  0 10G21G28G30G19G08G07G17G09G01G14
 -11384251.79948  -8863618.64346  22561194.772    22561194.5044   22561199.7654
       174.0004        174.0004
  -1946876.05447  -1509364.41145  23357972.775    23357972.6934   23357977.8224
       155.0004        157.0004
 -16727655.03049 -13019149.83747  21246310.698    21246310.7294   21246318.4024
       202.0004        203.0004
  -5797286.38047  -4489978.22745  23901327.283    23901326.7024   23901331.4174
       158.0004        162.0004
  -2893943.98748  -2230842.25946  24170050.404    24170051.0494   24170059.7204
       176.0004        177.0004
 -24107702.86749 -18771257.85948  20132259.331    20132259.9324   20132263.8694
       214.0004        216.0004
 -12246999.54948  -9510655.56647  21945298.379    21945299.0814   21945302.7014
       188.0004        188.0004
  -7452822.43948  -5776763.20946  22996544.204    22996544.4434   22996553.1504
       174.0004        175.0004
 -20134857.18249 -15666368.25747  20752918.393    20752919.2054   20752926.2394
       200.0004        200.0004
  -5783475.32648  -4492434.77446  22832568.227    22832569.9824   22832572.8964
       169.0004        170.0004
 21  1 31  1 15 30.0000000  0 10G21G28G30G19G08G07G17G09G01G14
 -11320558.86348  -8813987.77146  22573315.284    22573315.3454   22573320.3044
       174.0004        175.0004
  -1967280.54347  -1525263.97845  23354089.615    23354090.1674   23354093.9814
       155.0004        157.0004
 -16796061.13249 -13072453.28547  21233293.963    21233294.0644   21233300.5114
       202.0004        202.0004
  -5874678.52647  -4550283.73845  23886599.525    23886599.5484   23886604.0244
       159.0004        161.0004
  -2801581.62448  -2158871.63846  24187627.846    24187627.9314   24187635.0214
       173.0004        174.0004
 -24127262.79249 -18786499.35148  20128537.152    20128537.4724   20128541.9374
       214.0004        216.0004
 -12284646.15648  -9539990.55747  21938134.799    21938135.1244   21938139.1154
       189.0004        189.0004
  -7372812.23148  -5714417.60146  23011770.835    23011770.4354   23011778.2474
       174.0004        173.0004
 -20139022.76449 -15669614.14747  20752126.157    20752126.3664   20752133.7424
       200.0004        200.0004
  -5813961.77548  -4516190.45146  22826768.087    22826768.4294   22826772.5884
       170.0004        171.0004
 21  1 31  1 16  0.0000000  0 10G21G28G30G19G08G07G17G09G01G14
 -11256450.02848  -8764032.81946  22585516.428    22585514.8964   22585519.9484
       174.0004        177.0004
  -1987794.10947  -1541248.57845  23350186.540    23350187.3234   23350190.0334
       153.0004        155.0004
 -16864144.69449 -13125505.42647  21220337.565    21220338.0224   21220344.9454
       203.0004        203.0004
  -5951786.28947  -4610367.70345  23871926.620    23871926.5244   23871930.4454
       159.0004        162.0004
  -2709312.93648  -2086973.94346  24205185.181    24205185.6204   24205194.4384
       172.0004        172.0004
 -24146299.39549 -18801333.07548  20124915.035    20124915.4464   20124919.2514
       215.0004        216.0004
 -12321878.79448  -9569002.98647  21931049.377    21931049.7454   21931053.9484
       190.0004        191.0004
  -7292772.27948  -5652048.84846  23027002.639    23027002.3804   23027009.0504
       172.0004        173.0004
 -20142589.09549 -15672393.10347  20751446.642    20751447.7074   20751455.1794
       200.0004        200.0004
  -5844522.91748  -4540004.31346  22820951.232    22820952.2254   22820956.7984
       169.0004        169.0004
 21  1 31  1 16 30.0000000  0 10G21G28G30G19G08G07G17G09G01G14
 -11191926.16148  -8713754.48246  22597792.918    22597793.6224   22597798.7804
       175.0004        175.0004
  -2008416.45347  -1557317.92945  23346263.144    23346262.4684   23346267.0764
       154.0004        157.0004
 -16931902.12449 -13178303.41747  21207443.902    21207444.1624   21207451.4734
       203.0004        203.0004
  -6028607.83447  -4670228.58646  23857309.050    23857308.4134   23857312.5084
       161.0004        163.0004
  -2617139.11848  -2015150.21946  24222724.032    24222725.7964   24222733.7924
       173.0004        175.0004
 -24164809.75149 -18815756.74248  20121392.486    20121392.6954   20121396.8974
       215.0004        216.0004
 -12358697.16148  -9597692.60147  21924042.349    21924042.8324   21924047.7934
       190.0004        189.0004
  -7212704.50448  -5589658.37746  23042237.379    23042238.3394   23042246.4784
       172.0004        174.0004
 -20145554.36449 -15674703.69347  20750882.549    20750883.0864   20750890.7364
       200.0004        200.0004
  -5875158.06148  -4563875.84646  22815121.791    22815121.9884   22815127.5514
       169.0004        169.0004
 21  1 31  1 17  0.0000000  0 10G21G28G30G19G08G07G17G09G01G14
 -11126988.80548  -8663153.93846  22610152.352    22610150.4294   22610156.2264
       175.0004        177.0004
  -2029147.95947  -1573472.31545  23342316.219    23342317.0804   23342322.1634
       155.0004        159.0004
 -16999330.10849 -13230844.71047  21194613.736    21194613.3104   21194619.7484
       203.0004        204.0004
  -6105141.77447  -4729865.38345  23842743.357    23842742.9764   23842748.7264
       159.0004        161.0004
  -2525060.86048  -1943400.96046  24240245.312    24240246.8284   24240255.7984
       173.0004        174.0004
 -24182791.98549 -18829768.88148  20117970.693    20117971.0654   20117975.2214
       215.0004        216.0004
 -12395100.56448  -9626058.88347  21917115.653    21917115.5494   21917120.4094
       190.0004        190.0004
  -7132611.04248  -5527247.89246  23057478.344    23057478.8304   23057486.4834
       172.0004        173.0004
 -20147917.07249 -15676544.76247  20750433.220    20750433.9474   20750441.5104
       200.0004        200.0004
  -5905866.83448  -4587804.73146  22809278.923    22809279.1754   22809284.7004
       170.0004        171.0004
 21  1 31  1 17 30.0000000  0 10G21G28G30G19G08G07G17G09G01G14
 -11061639.76048  -8612232.61246  22622585.372    22622585.7934   22622591.9474
       176.0004        177.0004
  -2049989.80247  -1589712.70245  23338350.837    23338350.2234   23338356.0214
       155.0004        158.0004
 -17066426.42749 -13283127.55647  21181845.038    21181845.0044   21181852.0114
       203.0004        204.0004
  -6181387.28547  -4789277.43945  23828235.676    23828234.4544   23828239.5524
       160.0004        162.0004
  -2433080.26248  -1871727.76846  24257750.887    24257750.9444   24257759.2764
       173.0004        175.0004
 -24200244.68049 -18843368.38948  20114649.379    20114649.9954   20114654.1224
       215.0004        217.0004
 -12431089.85748  -9654102.47447  21910267.533    21910267.5054   21910271.9084
       191.0004        192.0004
  -7052495.16748  -5464819.95246  23072724.520    23072724.9334   23072732.6574
       172.0004        174.0004
 -20149676.80049 -15677915.96047  20750098.656    20750098.7144   20750106.1344
       200.0004        200.0004
  -5936649.94448  -4611791.53046  22803421.203    22803420.9094   22803426.2354
       171.0004        172.0004
 21  1 31  1 18  0.0000000  0 10G21G28G30G19G08G07G17G09G01G14
 -10995880.98948  -8560992.00546  22635099.299    22635099.1504   22635105.3844
       176.0004        177.0004
  -2070942.75747  -1606039.64245  23334363.782    23334363.5364   23334369.8494
       155.0004        157.0004
 -17133188.62449 -13335150.03947  21169140.382    21169140.7354   21169147.7774
       204.0004        204.0004
  -6257343.67247  -4848464.19545  23813781.417    23813780.5254   23813785.4634
       160.0004        162.0004
  -2341199.29548  -1800132.20146  24275234.679    24275235.3364   24275243.7184
       174.0004        175.0004
 -24217166.13249 -18856553.93748  20111428.862    20111429.5024   20111433.9734
       215.0004        216.0004
 -12466665.62748  -9681823.83447  21903496.674    21903497.5944   21903501.7174
       191.0004        191.0004
  -6972359.90248  -5402376.89446  23087973.368    23087973.9264   23087981.3464
       171.0004        171.0004
 -20150832.95549 -15678816.85147  20749878.196    20749878.7994   20749886.3764
       200.0004        200.0004
  -5967507.79248  -4635836.57046  22797548.833    22797548.3334   22797554.1934
       170.0004        170.0004
 21  1 31  1 18 30.0000000  0 10G21G28G30G19G08G07G17G09G01G14
 -10929715.45248  -8509434.42846  22647690.767    22647689.9964   22647695.7194
       176.0004        176.0004
  -2092008.21247  -1622454.25945  23330353.584    23330353.9064   23330359.2214
       154.0004        155.0004
 -17199614.68849 -13386910.60747  21156500.774    21156500.5864   21156507.2134
       204.0004        205.0004
  -6333010.08447  -4907425.00246  23799383.289    23799381.3404   23799385.8534
       161.0004        163.0004
  -2249420.39648  -1728616.20046  24292700.110    24292700.2924   24292708.2064
       173.0004        173.0004
 -24233555.61849 -18869324.96348  20108310.377    20108310.7474   20108315.2324
       215.0004        216.0004
 -12501829.06648  -9709223.88647  21896805.410    21896805.9684   21896811.2264
       190.0004        191.0004
  -6892208.65848  -5339921.40346  23103226.142    23103226.5354   23103234.3394
       170.0004        171.0004
 -20151385.41149 -15679247.32547  20749773.429    20749773.9614   20749780.9854
       200.0004        201.0004
  -5998441.25148  -4659940.54246  22791661.577    22791662.1004   22791667.6074
       169.0004        170.0004
 21  1 31  1 19  0.0000000  0 10G21G28G30G19G08G07G17G09G01G14
 -10863143.06348  -8457559.84546  22660359.910    22660357.9884   22660364.4154
       176.0004        177.0004
  -2113185.63547  -1638956.16145  23326324.826    23326324.0624   23326330.1794
       153.0004        157.0004
 -17265700.80349 -13438406.28547  21143924.197    21143924.5024   21143931.6084
       205.0004        205.0004
  -6408384.85547  -4966158.57146  23785038.320    23785037.7834   23785042.6614
       161.0004        163.0004
  -2157743.84648  -1657179.93646  24310145.146    24310145.4424   24310153.6614
       171.0004        172.0004
 -24249410.17449 -18881679.17148  20105293.942    20105294.0364   20105298.0794
       215.0004        217.0004
 -12536579.60048  -9736302.19847  21890191.990    21890192.5564   21890198.1194
       190.0004        190.0004
  -6812043.04048  -5277454.73046  23118482.443    23118482.3494   23118488.6734
       171.0004        172.0004
 -20151332.24749 -15679205.88247  20749783.858    20749784.0534   20749791.8064
       200.0004        201.0004
  -6029449.35548  -4684102.69346  22785761.068    22785761.0234   22785766.8484
       169.0004        169.0004
 21  1 31  1 19 30.0000000  0 10G21G28G30G19G08G07G17G09G01G14
 -10796166.88848  -8405370.63446  22673103.565    22673103.0054   22673110.0594
       175.0004        175.0004
  -2134476.81447  -1655546.65345  23322273.490    23322274.1224   23322278.4764
       155.0004        158.0004
 -17331445.14749 -13489635.64947  21131413.425    21131413.7684   21131420.8124
       205.0004        205.0004
  -6483467.84847  -5024664.79945  23770750.153    23770750.0944   23770753.4064
       160.0004        162.0004
  -2066172.43248  -1585825.59546  24327568.914    24327569.9724   24327578.8014
       168.0004        168.0004
 -24264729.42749 -18893616.25748  20102378.003    20102378.6224   20102383.0374
       215.0004        216.0004
 -12570918.35748  -9763059.64747  21883659.034    21883658.7274   21883662.7004
       190.0004        190.0004
  -6731866.62748  -5214979.60146  23133738.769    23133739.2174   23133745.2094
       170.0004        170.0004
 -20150673.50049 -15678692.57247  20749908.176    20749909.2484   20749916.4924
       200.0004        200.0004
  -6060533.13948  -4708323.81346  22779846.299    22779846.8084   22779851.3374
       168.0004        170.0004
 21  1 31  1 20  0.0000000  0 10G21G28G30G19G08G07G17G09G01G14
 -10728787.95548  -8352867.55046  22685925.361    22685924.7914   22685931.1384
       175.0004        175.0004
  -2155881.77547  -1672225.84545  23318199.915    23318200.5614   23318203.6994
       153.0004        155.0004
 -17396844.26549 -13540595.99147  21118969.243    21118969.2054   21118975.6564
       205.0004        206.0004
  -6558256.98647  -5082942.01846  23756519.857    23756518.5044   23756523.7914
       163.0004        165.0004
  -1974706.28948  -1514553.28746  24344977.706    24344977.0924   24344984.0924
       169.0004        171.0004
 -24279510.97749 -18905134.34148  20099565.330    20099565.7664   20099570.0194
       215.0004        217.0004
 -12604845.08448  -9789496.02747  21877202.130    21877202.5834   21877206.9084
       190.0004        191.0004
  -6651681.41648  -5152497.62246  23148997.412    23148997.9094   23149004.1894
       169.0004        172.0004
 -20149407.76249 -15677706.25847  20750150.375    20750150.4694   20750157.8304
       200.0004        201.0004
  -6091691.94948  -4732603.36546  22773917.787    22773917.4014   22773922.0264
       169.0004        169.0004
 21  1 31  1 20 30.0000000  0 10G21G28G30G19G08G07G17G09G01G14
 -10661008.51548  -8300052.41546  22698823.870    22698823.0564   22698828.8794
       175.0004        176.0004
  -2177401.49147  -1688994.44645  23314105.749    23314104.7414   23314109.7174
       154.0004        156.0004
 -17461896.13949 -13591285.75747  21106589.896    21106589.9894   21106596.7674
       206.0004        207.0004
  -6632752.26147  -5140990.26646  23742343.297    23742342.5774   23742346.7964
       163.0004        165.0004
  -1883348.35048  -1443365.32146  24362360.824    24362361.5644   24362369.5814
       170.0004        171.0004
 -24293753.47549 -18916232.40448  20096855.335    20096855.7204   20096859.9154
       216.0004        217.0004
 -12638360.73148  -9815612.10947  21870824.634    21870824.7154   21870829.9594
       191.0004        192.0004
  -6571490.79648  -5090011.44546  23164256.009    23164256.2504   23164264.6454
       169.0004        169.0004
 -20147534.95949 -15676246.92547  20750506.018    20750506.2914   20750513.9914
       200.0004        200.0004
  -6122926.60648  -4756942.05346  22767973.428    22767973.4194   22767978.7034
       168.0004        169.0004
 21  1 31  1 21  0.0000000  0 10G21G28G30G19G08G07G17G09G01G14
 -10592830.52548  -8246926.71046  22711797.558    22711797.2314   22711803.0034
       174.0004        175.0004
  -2199036.96847  -1705853.22345  23309987.352    23309988.3844   23309992.4094
       154.0004        157.0004
 -17526598.14849 -13641702.90447  21094277.827    21094277.7804   21094284.1284
       206.0004        207.0004
  -6706952.70647  -5198808.77946  23728222.242    23728221.4194   23728226.5284
       162.0004        164.0004
  -1792100.13148  -1372262.83446  24379724.800    24379725.5414   24379732.2774
       170.0004        170.0004
 -24307455.68849 -18926909.45448  20094247.276    20094248.0774   20094252.3624
       215.0004        217.0004
 -12671465.75448  -9841408.21947  21864524.217    21864524.8894   21864529.9114
       191.0004        190.0004
  -6491297.48748  -5027523.18346  23179517.153    23179517.3964   23179525.4404
       169.0004        172.0004
 -20145054.44949 -15674314.04547  20750977.068    20750978.5514   20750985.9724
       200.0004        201.0004
  -6154237.28248  -4781339.96546  22762014.340    22762015.2684   22762019.9854
       168.0004        169.0004
 21  1 31  1 21 30.0000000  0 10G21G28G30G19G08G07G17G09G01G14
 -10524254.85748  -8193491.13446  22724845.908    22724847.2354   22724852.0214
       173.0004        172.0004
  -2220787.33047  -1722801.54945  23305848.567    23305849.3354   23305853.0464
       155.0004        159.0004
 -17590946.42349 -13691844.41947  21082032.504    21082032.4274   21082039.0364
       207.0004        207.0004
  -6780855.93347  -5256395.68746  23714159.658    23714159.4784   23714162.5504
       164.0004        166.0004
  -1700961.27348  -1301245.55746  24397065.024    24397067.0434   24397076.5394
       168.0004        169.0004
 -24320615.18949 -18937163.61948  20091743.735    20091743.9614   20091748.5024
       215.0004        217.0004
 -12704159.58848  -9866883.91947  21858303.464    21858303.8294   21858308.2344
       190.0004        190.0004
  -6411103.01048  -4965033.98646  23194776.448    23194777.0384   23194784.6044
       170.0004        170.0004
 -20141964.39049 -15671906.20347  20751565.947    20751566.9524   20751573.7824
       200.0004        200.0004
  -6185622.87248  -4805796.25046  22756042.324    22756042.4664   22756047.8024
       169.0004        170.0004
 21  1 31  1 22  0.0000000  0 10G21G28G30G19G08G07G17G09G01G14
 -10455284.86048  -8139748.27746  22737972.158    22737971.5914   22737976.6804
       173.0004        172.0004
  -2242654.51747  -1739840.91545  23301689.652    23301689.1244   23301692.8884
       157.0004        159.0004
 -17654939.48949 -13741709.14247  21069854.740    21069854.7224   21069861.7024
       207.0004        207.0004
  -6854462.49947  -5313751.42646  23700153.259    23700152.3894   23700156.9934
       164.0004        165.0004
  -1609935.60648  -1230316.50346  24414391.572    24414391.0584   24414397.5024
       169.0004        170.0004
 -24333231.33049 -18946994.38448  20089342.313    20089343.0394   20089347.6504
       215.0004        217.0004
 -12736443.99448  -9892040.57847  21852160.221    21852160.0904   21852165.0564
       190.0004        192.0004
  -6330911.19248  -4902546.87246  23210038.058    23210038.2564   23210044.7574
       168.0004        169.0004
 -20138265.35349 -15669023.82947  20752268.975    20752270.3094   20752277.8024
       200.0004        200.0004
  -6217084.65948  -4830311.90246  22750055.053    22750054.9334   22750060.8034
       170.0004        172.0004
 21  1 31  1 22 30.0000000  0 10G21G28G30G19G08G07G17G09G01G14
 -10385922.87148  -8085699.97746  22751171.625    22751170.4424   22751175.3604
       172.0004        171.0004
  -2264640.12947  -1756972.50345  23297502.416    23297503.3824   23297508.5084
       155.0004        157.0004
 -17718575.49149 -13791295.63847  21057745.604    21057745.6434   21057752.0354
       207.0004        207.0004
  -6927772.04348  -5370875.72946  23686203.587    23686203.2244   23686206.6514
       165.0004        166.0004
  -1519024.57648  -1159476.71446  24431690.108    24431690.4964   24431698.9834
       170.0004        171.0004
 -24345303.35749 -18956401.16048  20087045.820    20087046.0964   20087050.3724
       215.0004        216.0004
 -12768320.16448  -9916879.11247  21846094.370    21846094.8044   21846099.6104
       193.0004        194.0004
  -6250725.57848  -4840064.59446  23225296.999    23225296.9934   23225303.3164
       166.0004        167.0004
 -20133957.58149 -15665667.10247  20753088.824    20753089.7894   20753097.2784
       200.0004        199.0004
  -6248623.56548  -4854887.65246  22744054.285    22744054.7364   22744059.7894
       171.0004        172.0004
 21  1 31  1 23  0.0000000  0 10G21G28G30G19G08G07G17G09G01G14
 -10316170.30348  -8031347.33346  22764443.306    22764443.8064   22764449.0074
       170.0004        171.0004
  -2286743.88847  -1774196.20945  23293297.494    23293297.3414   23293302.7914
       155.0004        158.0004
 -17781851.26049 -13840601.43347  21045704.553    21045704.1674   21045711.2214
       207.0004        207.0004
  -7000783.34147  -5427767.64245  23672309.421    23672308.7804   23672312.9744
       162.0004        162.0004
  -1428229.47048  -1088727.28246  24448967.958    24448968.3044   24448975.6544
       170.0004        170.0004
 -24356829.34249 -18965382.46048  20084852.449    20084852.6464   20084856.8414
       215.0004        217.0004
 -12799788.12948  -9941399.59347  21840105.778    21840106.3234   21840110.4444
       193.0004        193.0004
  -6170548.27948  -4777588.81746  23240554.247    23240555.0274   23240562.5194
       168.0004        170.0004
 -20129039.96749 -15661835.19147  20754025.091    20754025.8034   20754033.0764
       200.0004        200.0004
  -6280239.10548  -4879523.12146  22738037.763    22738038.2734   22738043.0454
       171.0004        171.0004
 21  1 31  1 23 30.0000000  0 10G21G28G30G19G08G07G17G09G01G14
 -10246028.18848  -7976691.12946  22777790.439    22777791.2514   22777796.4004
       170.0004        170.0004
  -2308965.87647  -1791512.00945  23289070.051    23289069.1774   23289074.7904
       156.0004        158.0004
 -17844763.33649 -13889623.83247  21033731.972    21033732.4044   21033739.2034
       207.0004        207.0004
  -7073494.80647  -5484425.92046  23658472.763    23658472.1904   23658476.4664
       162.0004        164.0004
  -1337550.87848  -1018068.61246  24466223.862    24466224.0074   24466232.7244
       171.0004        172.0004
 -24367807.63849 -18973936.97748  20082762.846    20082763.2714   20082767.8254
       215.0004        216.0004
 -12830847.82148  -9965601.92547  21834195.198    21834195.7834   21834200.2194
       193.0004        193.0004
  -6090381.22448  -4715121.01246  23255808.905    23255808.9894   23255817.1674
       168.0004        168.0004
 -20123511.21749 -15657527.06847  20755077.255    20755078.1574   20755085.5714
       200.0004        200.0004
  -6311930.58148  -4904217.78046  22732006.553    22732007.1564   22732013.1004
       171.0004        171.0004
 21  1 31  1 24  0.0000000  0 10G21G28G30G19G08G07G17G09G01G14
 -10175499.02648  -7921733.34946  22791212.450    22791212.5604   22791217.4994
       168.0004        169.0004
  -2331307.17247  -1808920.80945  23284818.446    23284818.3454   23284822.1394
       155.0004        158.0004
 -17907309.61249 -13938361.19947  21021830.583    21021830.4504   21021837.0464
       207.0004        207.0004
  -7145905.78247  -5540850.03846  23644694.222    23644693.5254   23644697.5374
       164.0004        166.0004
  -1246990.86548   -947502.38646  24483453.549    24483455.1054   24483465.5634
       170.0004        170.0004
 -24378236.60549 -18982063.46048  20080778.290    20080779.1054   20080783.0764
       215.0004        217.0004
 -12861500.04148  -9989486.76847  21828363.062    21828363.0154   21828366.6624
       192.0004        191.0004
  -6010227.56248  -4652663.64646  23271060.785    23271061.2534   23271070.8164
       167.0004        168.0004
 -20117371.35949 -15652742.75947  20756245.535    20756246.5254   20756253.7844
       200.0004        200.0004
  -6343698.55448  -4928972.02446  22725961.157    22725961.7644   22725966.6124
       170.0004        171.0004
 21  1 31  1 24 30.0000000  0 10G21G28G30G19G08G07G17G09G01G14
 -10104584.21648  -7866475.03546  22804707.853    22804707.3444   22804712.3954
       169.0004        170.0004
  -2353767.80047  -1826422.55145  23280542.827    23280542.4664   23280548.6534
       155.0004        157.0004
 -17969487.08149 -13986811.17647  21009998.383    21009998.5704   21010005.2474
       208.0004        208.0004
  -7218014.69247  -5597038.79846  23630971.542    23630970.4224   23630975.3024
       163.0004        163.0004
  -1156550.65548   -877029.49246  24500664.246    24500665.8774   24500674.7454
       167.0004        168.0004
 -24388114.67349 -18989760.66848  20078899.058    20078899.4104   20078903.4494
       215.0004        217.0004
 -12891745.43948 -10013054.59547  21822606.707    21822607.2854   21822612.4824
       192.0004        192.0004
  -5930089.56448  -4590218.48546  23286312.091    23286312.5714   23286319.4954
       181.0004        187.0004
 -20110619.54049 -15647481.59247  20757530.906    20757531.2234   20757538.6004
       200.0004        200.0004
  -6375542.66048  -4953785.61546  22719902.096    22719902.9074   22719907.4304
       170.0004        170.0004
 21  1 31  1 25  0.0000000  0 10G21G28G30G19G08G07G17G09G01G14
 -10033285.96348  -7810917.93446  22818275.046    22818275.0534   22818279.2594
       168.0004        168.0004
  -2376348.63647  -1844017.96845  23276245.834    23276246.5744   23276250.7324
       156.0004        159.0004
 -18031293.31149 -14034971.85947  20998237.311    20998237.2654   20998243.9234
       208.0004        208.0004
  -7289821.20547  -5652991.93246  23617307.113    23617305.7504   23617311.9054
       163.0004        164.0004
  -1066231.75548   -806651.11746  24517854.718    24517854.9444   24517862.2304
       167.0004        167.0004
 -24397440.55849 -18997027.58148  20077123.991    20077124.8274   20077128.9964
       215.0004        217.0004
 -12921584.46048 -10036305.75247  21816928.943    21816929.3594   21816933.8934
       192.0004        193.0004
  -5849970.07148  -4527787.69546  23301557.900    23301557.8814   23301565.3624
       185.0004        185.0004
 -20103255.51149 -15641743.36447  20758932.069    20758932.5954   20758939.9324
       200.0004        200.0004
  -6407463.17348  -4978658.68946  22713826.362    22713827.1794   22713832.2344
       168.0004        168.0004
 21  1 31  1 25 30.0000000  0 10G21G28G30G19G08G07G17G09G01G14
  -9961606.64648  -7755063.93446  22831914.238    22831914.5874   22831918.6704
       167.0004        167.0004
  -2399050.57947  -1861707.77845  23271926.889    23271927.3234   23271930.7064
       156.0004        159.0004
 -18092726.01949 -14082841.51247  20986547.125    20986547.3224   20986553.6094
       208.0004        208.0004
  -7361324.89447  -5708709.07845  23603700.011    23603699.7704   23603702.9994
       162.0004        162.0004
   -976035.80857   -736368.60846  24535015.132    24535016.8665   24535024.0354
       163.0004        164.0004
 -24406213.47649 -19003863.63048  20075454.878    20075455.4024   20075459.4624
       216.0004        217.0004
 -12951017.86448 -10059240.84847  21811327.671    21811328.1884   21811332.8654
       193.0004        194.0004
  -5769872.07848  -4465373.70547  23316799.084    23316800.1624   23316807.4654
       193.0004        198.0004
 -20095279.19749 -15635528.04647  20760450.142    20760450.5564   20760457.9394
       200.0004        201.0004
  -6439460.45448  -5003591.64046  22707738.283    22707738.8764   22707743.1214
       168.0004        170.0004
 21  1 31  1 26  0.0000000  0 10G21G28G30G19G08G07G17G09G01G14
  -9889547.42348  -7698913.88746  22845629.017    22845627.7314   22845631.3504
       167.0004        168.0004
  -2421873.04347  -1879491.48845  23267583.330    23267583.3554   23267588.4714
       155.0004        158.0004
 -18153781.53949 -14130417.23847  20974928.564    20974928.8514   20974935.5264
       208.0004        209.0004
  -7432523.83047  -5764188.76946  23590151.543    23590150.7824   23590155.7934
       161.0004        163.0004
   -885963.32247   -666182.25946  24552159.331    24552158.1114   24552166.2124
       163.0004        165.0004
 -24414431.24449 -19010267.09148  20073890.986    20073891.5694   20073895.6674
       216.0004        217.0004
 -12980045.41748 -10081859.70147  21805803.889    21805804.1594   21805809.0764
       193.0004        194.0004
  -5689797.15449  -4402977.69647  23332037.839    23332037.7724   23332044.8984
       197.0004        197.0004
 -20086689.21449 -15628834.54747  20762085.008    20762085.3334   20762092.5784
       200.0004        200.0004
  -6471533.40648  -5028583.53746  22701636.692    22701636.5194   22701640.6514
       170.0004        172.0004
 21  1 31  1 26 30.0000000  0 10G21G28G30G19G08G07G17G09G01G14
  -9817112.57948  -7642471.15446  22859411.987    22859411.0664   22859414.3354
       166.0004        167.0004
  -2444818.80447  -1897371.27245  23263216.800    23263216.6374   23263220.9974
       156.0004        159.0004
 -18214459.74549 -14177698.97547  20963381.539    20963381.8434   20963388.5224
       209.0004        209.0004
  -7503419.64947  -5819432.25146  23576659.779    23576659.1404   23576665.1754
       162.0004        163.0004
   -796018.34947   -596095.34646  24569274.308    24569273.9504   24569281.9764
       164.0004        167.0004
 -24422094.74449 -19016238.67148  20072432.964    20072433.1944   20072437.1574
       216.0004        217.0004
 -13008670.88048 -10104165.24647  21800357.201    21800357.4174   21800361.8004
       194.0004        194.0004
  -5609750.34549  -4340603.59347  23347269.492    23347270.2894   23347277.5064
       197.0004        198.0004
 -20077487.68849 -15621664.52847  20763835.039    20763836.2914   20763843.1394
       200.0004        200.0004
  -6503684.56448  -5053636.36546  22695517.157    22695517.6304   22695522.4564
       171.0004        172.0004
 21  1 31  1 27  0.0000000  0 10G21G28G30G19G08G07G17G09G01G14
  -9744302.08348  -7585735.68446  22873267.082    22873266.5074   22873270.6954
       166.0004        167.0004
  -2467886.91347  -1915346.38145  23258827.322    23258827.7864   23258832.1644
       158.0004        161.0004
 -18274756.13949 -14224683.16147  20951907.505    20951907.5574   20951913.9974
       208.0004        207.0004
  -7574009.50947  -5874437.32946  23563227.932    23563227.7354   23563231.5624
       163.0004        165.0004
   -706199.99847   -526107.02745  24586364.533    24586365.3894   24586373.1764
       162.0004        162.0004
 -24429200.86349 -19021775.90848  20071080.142    20071080.9864   20071085.5814
       216.0004        217.0004
 -13036892.51448 -10126156.10647  21794986.220    21794986.6144   21794992.2374
       193.0004        193.0004
  -5529732.41949  -4278251.97247  23362496.312    23362497.2814   23362504.6044
       197.0004        197.0004
 -20067672.40549 -15614016.22647  20765702.538    20765703.4554   20765711.0724
       200.0004        200.0004
  -6535911.97048  -5078748.60646  22689383.917    22689384.7944   22689389.5004
       170.0004        170.0004
 21  1 31  1 27 30.0000000  0 10G21G28G30G19G08G07G17G09G01G14
  -9671118.13548  -7528709.22746  22887193.147    22887193.2274   22887196.2864
       165.0004        166.0004
  -2491078.11047  -1933417.43245  23254415.504    23254414.9964   23254418.8694
       159.0004        161.0004
 -18334668.19749 -14271367.88647  20940506.941    20940506.7404   20940513.4694
       208.0004        208.0004
  -7644292.80947  -5929203.52046  23549853.675    23549852.5204   23549857.7774
       164.0004        166.0004
   -616510.15647   -456218.86846  24603433.223    24603433.3204   24603441.8394
       162.0004        164.0004
 -24435748.33649 -19026877.84048  20069834.638    20069834.8704   20069839.2114
       216.0004        217.0004
 -13064711.04148 -10147832.86247  21789692.933    21789692.9874   21789697.4724
       193.0004        193.0004
  -5449746.01249  -4215924.93747  23377719.075    23377718.9664   23377725.2094
       198.0004        199.0004
 -20057243.13849 -15605889.52947  20767687.763    20767688.3044   20767695.5654
       199.0004        200.0004
  -6568215.66548  -5103920.32646  22683237.289    22683237.4644   22683242.0634
       169.0004        169.0004
 21  1 31  1 28  0.0000000  0 10G21G28G30G19G08G07G17G09G01G14
  -9597563.53048  -7471393.93446  22901189.177    22901189.6724   22901194.6134
       165.0004        167.0004
  -2514393.35947  -1951585.12045  23249976.922    23249977.9434   23249982.7704
       158.0004        160.0004
 -18394194.31649 -14317751.87047  20929179.329    20929179.5204   20929186.2014
       208.0004        209.0004
  -7714269.79147  -5983731.02946  23536536.863    23536536.7194   23536541.6794
       163.0004        164.0004
   -526950.94447   -386432.48446  24620471.931    24620474.0484   24620483.6324
       162.0004        163.0004
 -24441737.19649 -19031544.48148  20068694.906    20068695.5184   20068699.3584
       216.0004        217.0004
 -13092128.31748 -10169196.93747  21784475.044    21784475.3154   21784479.9474
       193.0004        193.0004
  -5369794.71349  -4153625.24947  23392932.695    23392933.1184   23392939.3064
       199.0004        199.0004
 -20046200.64649 -15597284.96847  20769788.590    20769789.1774   20769796.6034
       199.0004        199.0004
  -6600596.65348  -5129152.21646  22677073.534    22677075.0764   22677080.5774
       168.0004        169.0004
 21  1 31  1 28 30.0000000  0 10G21G28G30G19G08G07G17G09G01G14
  -9523638.44348  -7413789.98146  22915257.540    22915257.4274   22915260.6104
       165.0004        167.0004
  -2537830.99047  -1969848.18745  23245517.921    23245517.3764   23245521.5964
       158.0004        160.0004
 -18453329.77649 -14363831.45147  20917925.894    20917926.1564   20917932.9534
       209.0004        209.0004
  -7783937.43847  -6038017.49246  23523279.738    23523278.8394   23523282.8394
       162.0004        163.0004
   -437521.52847   -316747.30946  24637490.076    24637491.9434   24637501.3164
       162.0004        164.0004
 -24447163.79449 -19035773.00848  20067662.212    20067662.6804   20067667.2044
       216.0004        217.0004
 -13119142.83148 -10190247.18647  21779334.012    21779334.7154   21779339.3644
       193.0004        193.0004
  -5289879.00549  -4091353.28547  23408139.083    23408140.3474   23408146.1864
       198.0004        197.0004
 -20034542.52649 -15588200.70247  20772006.988    20772007.7844   20772015.0954
       199.0004        199.0004
  -6633052.69648  -5154442.63146  22670897.786    22670899.0844   22670903.8654
       169.0004        171.0004
 21  1 31  1 29  0.0000000  0 10G21G28G30G19G08G07G17G09G01G14
  -9449346.65048  -7355900.26346  22929395.256    22929394.7904   22929399.4934
       165.0004        167.0004
  -2561393.72447  -1988208.73746  23241033.778    23241033.8294   23241038.0564
       160.0004        163.0004
 -18512073.90349 -14409606.08247  20906747.516    20906747.5584   20906754.5564
       208.0004        209.0004
  -7853297.05447  -6092063.93945  23510081.692    23510080.4314   23510083.8124
       160.0004        161.0004
   -348225.51647   -247166.01046  24654484.433    24654485.1514   24654494.6784
       163.0004        165.0004
 -24452029.03849 -19039564.10948  20066736.174    20066736.8754   20066741.3044
       216.0004        217.0004
 -13145757.30948 -10210985.72947  21774270.298    21774270.3824   21774274.9054
       193.0004        193.0004
  -5210003.26849  -4029112.47347  23423339.366    23423339.9414   23423346.8674
       196.0004        195.0004
 -20022270.50049 -15578638.07847  20774342.286    20774343.0844   20774350.6064
       199.0004        199.0004
  -6665585.59248  -5179792.92746  22664709.428    22664709.0964   22664713.4484
       171.0004        174.0004
 21  1 31  1 29 30.0000000  0 10G21G28G30G19G08G07G17G09G01G14
  -9374690.37448  -7297726.54046  22943602.506    22943602.3184   22943605.3024
       166.0004        166.0004
  -2585081.94647  -2006667.07045  23236526.590    23236525.6564   23236531.0104
       160.0004        161.0004
 -18570424.23949 -14455073.88647  20895643.490    20895643.8624   20895650.7944
       208.0004        209.0004
  -7922347.83047  -6145869.72346  23496940.950    23496940.4704   23496945.4204
       161.0004        164.0004
   -259063.77648   -177689.38746  24671455.304    24671454.6754   24671459.8994
       165.0004        168.0004
 -24456331.91749 -19042917.01648  20065917.539    20065918.2124   20065922.1144
       216.0004        217.0004
 -13171972.51548 -10231413.15547  21769281.564    21769282.3684   21769285.8154
       193.0004        194.0004
  -5130170.20049  -3966904.93247  23438531.934    23438532.0024   23438539.3124
       195.0004        196.0004
 -20009384.50149 -15568597.03947  20776795.338    20776795.7564   20776802.8454
       199.0004        200.0004
  -6698195.43548  -5205203.18646  22658503.225    22658504.7484   22658508.5614
       175.0004        177.0004
 21  1 31  1 30  0.0000000  0 10G21G28G30G19G08G07G17G09G01G14
  -9299672.62248  -7239271.14046  22957877.693    22957877.1314   22957882.0164
       166.0004        168.0004
  -2608896.87547  -2025224.12245  23231993.890    23231994.6464   23231998.5404
       159.0004        161.0004
 -18628379.22049 -14500233.61647  20884615.558    20884615.5914   20884621.9684
       208.0004        208.0004
  -7991089.99947  -6199435.03246  23483860.366    23483859.2484   23483862.4894
       162.0004        163.0004
   -170038.97648   -108319.43546  24688395.453    24688395.1844   24688401.4214
       167.0004        168.0004
 -24460072.10849 -19045831.46048  20065206.175    20065206.5564   20065210.4654
       215.0004        217.0004
 -13197790.28648 -10251530.88047  21764368.030    21764368.7714   21764373.3754
       194.0004        195.0004
  -5050383.35249  -3904733.41547  23453714.296    23453714.9744   23453722.1834
       197.0004        197.0004
 -19995885.40449 -15558078.25447  20779364.015    20779364.4574   20779371.6514
       199.0004        200.0004
  -6730883.08048  -5230674.07046  22652284.060    22652283.4354   22652287.1324
       176.0004        177.0004
 21  1 31  1 30 30.0000000  0 10G21G28G30G19G08G07G17G09G01G14
  -9224294.02448  -7180534.57146  22972221.460    22972221.2654   22972225.9764
       167.0004        169.0004
  -2632837.80547  -2043879.36845  23227439.000    23227438.1114   23227441.8114
       159.0004        161.0004
 -18685934.85849 -14545082.17047  20873663.667    20873663.2044   20873669.5014
       209.0004        209.0004
  -8059521.53447  -6252758.29246  23470837.473    23470837.1884   23470841.7094
       162.0004        164.0004
    -81150.97148    -39056.09546  24705308.068    24705308.3114   24705316.5574
       165.0004        166.0004
 -24463247.35249 -19048305.68148  20064601.721    20064602.1314   20064606.5534
       216.0004        217.0004
 -13223209.87648 -10271338.32847  21759531.252    21759531.8654   21759535.8894
       194.0004        194.0004
  -4970643.82149  -3842598.73347  23468887.993    23468888.6604   23468896.7634
       198.0004        198.0004
 -19981771.59749 -15547080.48047  20782048.733    20782050.0694   20782057.5444
       199.0004        199.0004
  -6763647.02248  -5256204.39346  22646047.521    22646048.6754   22646053.8134
       176.0004        176.0004
 21  1 31  1 31  0.0000000  0 10G21G28G30G19G08G07G17G09G01G14
  -9148556.25648  -7121518.11946  22986633.426    22986633.3514   22986639.3574
       167.0004        169.0004
  -2656904.21647  -2062632.39345  23222858.576    23222858.7584   23222862.8194
       159.0004        162.0004
 -18743087.77349 -14589616.89847  20862786.568    20862786.8534   20862794.2874
       209.0004        209.0004
  -8127640.72347  -6305838.13646  23457875.525    23457874.0584   23457878.5924
       163.0004        165.0004
      7599.71747     30100.27346  24722193.891    24722196.2744   24722204.1934
       163.0004        163.0004
 -24465855.63449 -19050338.10048  20064104.859    20064105.7644   20064109.8614
       215.0004        216.0004
 -13248231.30548 -10290835.52247  21754769.194    21754769.8744   21754774.3964
       194.0004        194.0004
  -4890953.30949  -3780502.25447  23484052.904    23484053.2834   23484060.6604
       198.0004        197.0004
 -19967042.25249 -15535603.05347  20784851.148    20784852.3584   20784860.4544
       199.0004        199.0004
  -6796486.31748  -5281793.42646  22639799.328    22639799.4034   22639803.9804
       175.0004        176.0004
 21  1 31  1 31 30.0000000  0 10G21G28G30G19G08G07G17G09G01G14
  -9072461.30648  -7062223.37046  23001113.647    23001114.1784   23001119.7804
       168.0004        168.0004
  -2681097.54747  -2081484.33945  23218255.050    23218254.1484   23218258.6334
       160.0004        162.0004
 -18799836.32849 -14633836.54847  20851987.764    20851987.8364   20851994.7894
       208.0004        208.0004
  -8195447.75847  -6358674.78346  23444972.208    23444971.9714   23444976.2704
       163.0004        166.0004
     96211.16657     99148.08545  24739059.090    24739058.7355   24739067.8694
       161.0004        162.0004
 -24467896.74949 -19051928.59048  20063717.349    20063717.6604   20063721.4024
       215.0004        217.0004
 -13272856.41348 -10310023.90747  21750083.632    21750084.0564   21750088.2714
       194.0004        195.0004
  -4811315.15249  -3718446.58547  23499206.875    23499207.5964   23499215.1074
       195.0004        193.0004
 -19951698.14849 -15523646.60347  20787771.540    20787772.5684   20787780.3684
       199.0004        199.0004
  -6829401.67348  -5307441.74446  22633535.454    22633535.8264   22633540.1664
       175.0004        175.0004
 21  1 31  1 32  0.0000000  0  9G21G28G30G19G07G17G09G01G14
  -8996010.90148  -7002651.62146  23015662.299    23015661.6784   23015667.5524
       168.0004        168.0004
  -2705417.39047  -2100434.83945  23213627.309    23213626.8854   23213630.4834
       160.0004        161.0004
 -18856177.30549 -14677738.60947  20841266.649    20841266.7844   20841273.5724
       208.0004        209.0004
  -8262941.34247  -6411267.15746  23432127.168    23432127.2024   23432131.7104
       164.0004        165.0004
 -24469368.86349 -19053075.70048  20063436.671    20063437.3134   20063441.6274
       215.0004        217.0004
 -13297085.55049 -10328903.74447  21745473.906    21745473.8034   21745477.6814
       195.0004        195.0004
  -4731731.23748  -3656433.16347  23514351.523    23514352.1624   23514359.6054
       193.0004        192.0004
 -19935738.62349 -15511210.60047  20790809.434    20790810.2014   20790817.6504
       199.0004        200.0004
  -6862392.29748  -5333148.71846  22627257.249    22627257.9044   22627262.2674
       174.0004        174.0004
 21  1 31  1 32 30.0000000  0  9G21G28G30G19G07G17G09G01G14
  -8919207.70448  -6942804.97046  23030276.180    23030275.7704   23030281.8314
       167.0004        167.0004
  -2729864.39147  -2119484.44445  23208976.135    23208974.8524   23208978.9074
       160.0004        162.0004
 -18912108.38849 -14721321.26447  20830623.512    20830623.3484   20830630.4304
       208.0004        208.0004
  -8330121.09047  -6463614.96646  23419344.538    23419343.3734   23419347.8834
       163.0004        164.0004
 -24470271.13649 -19053778.76748  20063265.149    20063265.5074   20063269.9264
       215.0004        216.0004
 -13320919.20949 -10347475.39947  21740937.851    21740938.0124   21740942.6284
       195.0004        195.0004
  -4652204.26348  -3594464.13047  23529486.581    23529486.5774   23529493.2214
       194.0004        194.0004
 -19919163.88049 -15498295.20647  20793963.393    20793964.1074   20793971.4594
       199.0004        199.0004
  -6895458.25648  -5358914.38746  22620965.423    22620966.0064   22620969.8144
       175.0004        176.0004
 21  1 31  1 33  0.0000000  0  9G21G28G30G19G07G17G09G01G14
  -8842055.12148  -6882686.06746  23044958.347    23044958.9504   23044963.3694
       167.0004        168.0004
  -2754440.37947  -2138634.53045  23204297.494    23204297.8214   23204302.3044
       159.0004        159.0004
 -18967628.42549 -14764583.62947  20820058.626    20820058.6644   20820064.9414
       208.0004        209.0004
  -8396987.78447  -6515718.86546  23406620.178    23406619.0754   23406623.7644
       163.0004        163.0004
 -24470604.03049 -19054038.17248  20063201.415    20063201.9784   20063206.5644
       215.0004        216.0004
 -13344360.09648 -10365741.01247  21736476.397    21736477.0764   21736481.9904
       194.0004        194.0004
  -4572738.06448  -3532542.44447  23544606.561    23544607.8124   23544615.6114
       194.0004        195.0004
 -19901975.29249 -15484901.49047  20797233.604    20797234.1124   20797242.3764
       199.0004        199.0004
  -6928600.73148  -5384739.67846  22614658.307    22614658.8934   22614664.4574
       177.0004        179.0004
 21  1 31  1 33 30.0000000  0  9G21G28G30G19G07G17G09G01G14
  -8764554.29648  -6822295.82946  23059707.469    23059706.9024   23059710.8174
       166.0004        168.0004
  -2779144.74347  -2157884.69345  23199596.604    23199597.0414   23199601.0154
       158.0004        161.0004
 -19022734.14249 -14807523.15847  20809572.498    20809572.3864   20809578.7094
       209.0004        209.0004
  -8463539.43447  -6567577.29446  23393955.072    23393954.6354   23393959.7524
       161.0004        163.0004
 -24470366.05749 -19053852.75748  20063247.043    20063247.4744   20063251.4204
       215.0004        216.0004
 -13367408.03848 -10383700.44447  21732091.351    21732091.5224   21732096.3134
       194.0004        195.0004
  -4493334.33548  -3470669.47247  23559717.288    23559717.4534   23559725.1044
       193.0004        192.0004
 -19884172.15749 -15471028.92247  20800622.072    20800622.6264   20800630.3764
       199.0004        199.0004
  -6961818.70148  -5410623.79846  22608336.921    22608337.6334   22608343.7774
       177.0004        177.0004
 21  1 31  1 34  0.0000000  0  9G21G28G30G19G07G17G09G01G14
  -8686708.37548  -6761636.67146  23074520.611    23074520.1944   23074524.5104
       166.0004        167.0004
  -2803978.44347  -2177235.60445  23194870.946    23194870.6254   23194875.8784
       158.0004        159.0004
 -19077423.94749 -14850138.59947  20799164.765    20799164.8274   20799171.7084
       208.0004        208.0004
  -8529776.61247  -6619190.64646  23381352.711    23381351.3224   23381355.3784
       164.0004        167.0004
 -24469557.25749 -19053222.53048  20063400.399    20063401.1914   20063405.3834
       215.0004        216.0004
 -13390065.04849 -10401355.23947  21727779.507    21727780.0864   21727785.0994
       195.0004        196.0004
  -4413996.43848  -3408847.77047  23574814.548    23574815.0604   23574822.2564
       191.0004        190.0004
 -19865755.34949 -15456678.15247  20804126.504    20804126.8464   20804134.9774
       199.0004        199.0004
  -6995112.92848  -5436567.33546  22602001.078    22602001.1724   22602006.7884
       176.0004        176.0004
 21  1 31  1 34 30.0000000  0  9G21G28G30G19G07G17G09G01G14
  -8608519.31847  -6700710.12146  23089399.323    23089399.0754   23089402.4194
       164.0004        166.0004
  -2828942.01647  -2196687.72045  23190121.454    23190121.6114   23190125.2624
       158.0004        160.0004
 -19131695.22449 -14892427.89547  20788837.672    20788837.4584   20788844.0744
       208.0004        208.0004
  -8595698.84147  -6670558.58146  23368806.532    23368806.0974   23368811.4704
       164.0004        164.0004
 -24468176.01549 -19052146.23448  20063663.740    20063663.9714   20063668.5774
       215.0004        216.0004
 -13412331.77449 -10418705.93347  21723542.450    21723542.2924   21723547.0674
       195.0004        195.0004
  -4334726.67348  -3347079.14847  23589899.729    23589899.7944   23589906.3764
       191.0004        191.0004
 -19846725.09749 -15441849.37447  20807747.000    20807748.2404   20807756.0684
       198.0004        198.0004
  -7028483.08648  -5462570.04246  22595651.666    22595652.0744   22595656.4894
       175.0004        174.0004
 21  1 31  1 35  0.0000000  0  9G21G28G30G19G07G17G09G01G14
  -8529988.81948  -6639517.52846  23104343.970    23104343.9294   23104346.6474
       165.0004        165.0004
  -2854035.59547  -2216241.14746  23185346.213    23185345.9714   23185350.6004
       161.0004        164.0004
 -19185545.32249 -14934389.00847  20778590.204    20778590.0894   20778596.7804
       208.0004        209.0004
  -8661305.06147  -6721680.28445  23356320.852    23356320.5884   23356325.6054
       161.0004        161.0004
 -24466221.40249 -19050623.16348  20064035.836    20064036.3184   20064040.5434
       215.0004        216.0004
 -13434208.96249 -10435753.07947  21719378.454    21719379.2214   21719384.1664
       195.0004        194.0004
  -4255527.36448  -3285365.42547  23604970.394    23604971.2164   23604979.2334
       192.0004        192.0004
 -19827081.27649 -15426542.48447  20811485.412    20811486.4724   20811494.2094
       198.0004        199.0004
  -7061928.76148  -5488631.59046  22589287.798    22589287.7484   22589291.5384
       175.0004        175.0004
 21  1 31  1 35 30.0000000  0  9G21G28G30G19G07G17G09G01G14
  -8451118.95147  -6578060.49246  23119351.795    23119352.4754   23119354.6114
       164.0004        165.0004
  -2879259.16847  -2235895.86845  23180544.344    23180545.2654   23180549.6894
       160.0004        161.0004
 -19238971.52049 -14976019.81747  20768423.241    20768423.3534   20768430.4414
       209.0004        209.0004
  -8726594.19047  -6772554.90646  23343898.838    23343897.7064   23343901.5764
       161.0004        163.0004
 -24463692.59349 -19048652.68048  20064517.047    20064517.4194   20064521.4544
       215.0004        216.0004
 -13455697.37548 -10452497.29147  21715290.660    21715290.2384   21715295.3974
       194.0004        195.0004
  -4176400.64348  -3223708.27347  23620028.021    23620028.3034   23620036.3294
       191.0004        191.0004
 -19806823.79749 -15410757.42947  20815340.718    20815341.6094   20815349.2014
       198.0004        199.0004
  -7095449.46948  -5514751.64246  22582908.215    22582908.3544   22582911.6794
       175.0004        176.0004
 21  1 31  1 36  0.0000000  0  9G21G28G30G19G07G17G09G01G14
  -8371912.38547  -6516341.08446  23134424.763    23134423.8214   23134427.1494
       163.0004        163.0004
  -2904613.76147  -2255652.66045  23175721.354    23175720.4074   23175724.8674
       160.0004        162.0004
 -19291971.84949 -15017318.76947  20758337.612    20758337.6974   20758344.7354
       209.0004        209.0004
  -8791566.64947  -6823182.76946  23331533.555    23331533.2224   23331537.5954
       161.0004        164.0004
 -24460589.17849 -19046234.43348  20065107.298    20065107.9684   20065112.2364
       215.0004        216.0004
 -13476798.60049 -10468939.78447  21711274.619    21711275.2114   21711280.3074
       195.0004        196.0004
  -4097349.37548  -3162109.94547  23635071.737    23635071.9174   23635078.8094
       191.0004        192.0004
 -19785953.37249 -15394494.75647  20819312.274    20819312.8214   20819320.2434
       198.0004        198.0004
  -7129045.41648  -5540930.28446  22576514.215    22576515.0524   22576520.1284
       176.0004        176.0004
 21  1 31  1 36 30.0000000  0  9G21G28G30G19G07G17G09G01G14
  -8292371.47547  -6454361.13845  23149561.852    23149560.1954   23149561.7174
       162.0004        162.0004
  -2930099.06447  -2275511.31945  23170870.657    23170870.2004   23170875.4654
       160.0004        161.0004
 -19344543.49249 -15058283.69547  20748333.823    20748333.5694   20748340.8194
       209.0004        209.0004
  -8856221.13747  -6873562.83846  23319230.482    23319229.9894   23319234.2884
       161.0004        163.0004
 -24456910.08049 -19043367.61448  20065807.900    20065808.0614   20065812.3044
       215.0004        216.0004
 -13497513.13049 -10485080.96647  21707332.862    21707333.1594   21707338.2874
       196.0004        197.0004
  -4018375.63748  -3100572.01247  23650098.228    23650098.6854   23650106.8864
       189.0004        188.0004
 -19764469.93949 -15377754.41147  20823400.782    20823401.4044   20823408.3594
       198.0004        198.0004
  -7162716.02048  -5567167.09646  22570106.540    22570107.3044   22570112.2264
       176.0004        177.0004
 21  1 31  1 37  0.0000000  0  9G21G28G30G19G07G17G09G01G14
  -8212497.17047  -6392121.41346  23164759.291    23164758.9364   23164762.1984
       161.0004        164.0004
  -2955714.62547  -2295471.51745  23165997.644    23165997.4874   23166000.6164
       160.0004        161.0004
 -19396683.44649 -15098912.24047  20738411.712    20738411.9314   20738419.0414
       209.0004        210.0004
  -8920556.80847  -6923694.47946  23306988.234    23306987.0734   23306992.0424
       162.0004        164.0004
 -24452653.74149 -19040050.99548  20066617.636    20066617.9214   20066622.1814
       215.0004        216.0004
 -13517841.39449 -10500921.17247  21703464.665    21703465.0724   21703470.1354
       197.0004        197.0004
  -3939481.29448  -3039095.93447  23665111.977    23665112.3714   23665120.1094
       189.0004        189.0004
 -19742373.02149 -15360536.02347  20827605.368    20827605.8704   20827613.4534
       198.0004        198.0004
  -7196460.41448  -5593461.42146  22563686.063    22563686.9044   22563690.3904
       176.0004        176.0004
 21  1 31  1 37 30.0000000  0  9G21G28G30G19G07G17G09G01G14
  -8132292.52447  -6329624.26246  23180023.297    23180022.0464   23180025.3024
       162.0004        165.0004
  -2981461.78147  -2315534.18345  23161095.903    23161096.4054   23161101.8804
       159.0004        160.0004
 -19448390.17649 -15139203.19047  20728572.365    20728572.5594   20728579.7884
       210.0004        211.0004
  -8984573.66347  -6973577.72846  23294805.463    23294805.3744   23294809.3704
       162.0004        164.0004
 -24447820.66549 -19036284.96448  20067537.098    20067537.7044   20067541.9904
       215.0004        216.0004
 -13537785.01449 -10516461.64647  21699669.782    21699669.9834   21699675.0144
       196.0004        196.0004
  -3860669.58248  -2977684.22847  23680110.236    23680110.1374   23680117.8034
       189.0004        190.0004
 -19719663.88049 -15342840.57747  20831926.933    20831927.5784   20831935.6314
       198.0004        199.0004
  -7230279.22848  -5619813.72646  22557250.385    22557250.6124   22557256.1634
       177.0004        178.0004
 21  1 31  1 38  0.0000000  0  9G21G28G30G19G07G17G09G01G14
  -8051759.70647  -6266871.42446  23195347.764    23195347.0864   23195351.0414
       164.0004        166.0004
  -3007340.46447  -2335699.38845  23156173.351    23156173.9744   23156176.1444
       159.0004        161.0004
 -19499661.07949 -15179154.54647  20718816.167    20718816.0014   20718822.7644
       210.0004        211.0004
  -9048270.88547  -7023211.92546  23282684.614    23282683.9184   23282689.2884
       163.0004        165.0004
 -24442409.31249 -19032068.32848  20068566.818    20068567.1784   20068571.9284
       215.0004        216.0004
 -13557345.21449 -10531703.34947  21695947.134    21695947.8254   21695951.9644
       195.0004        195.0004
  -3781942.65548  -2916338.64047  23695092.200    23695091.8244   23695098.6624
       189.0004        189.0004
 -19696342.70549 -15324668.22847  20836364.332    20836365.2234   20836372.9734
       198.0004        198.0004
  -7264171.94348  -5646223.62246  22550801.523    22550801.6904   22550806.2514
       178.0004        178.0004
 21  1 31  1 38 30.0000000  0 10G21G28G30G19G22G07G17G09G01G14
  -7970903.35247  -6203866.45846  23210733.346    23210732.6084   23210737.7274
       164.0004        165.0004
  -3033353.62747  -2355969.38745  23151222.502    23151222.7164   23151226.3694
       159.0004        161.0004
 -19550496.25849 -15218766.37747  20709141.839    20709142.0774   20709149.4514
       210.0004        210.0004
  -9111650.85047  -7072598.87346  23270624.413    23270623.5064   23270628.0794
       163.0004        166.0004
  -4822172.37756  -3747071.50145  24785619.529    24785618.6845   24785625.3754
       132.0004        138.0004
 -24436421.78549 -19027402.73448  20069706.700    20069706.8884   20069711.3824
       215.0004        216.0004
 -13576525.34948 -10546648.90747  21692297.361    21692297.6814   21692301.8534
       194.0004        194.0004
  -3703305.38548  -2855062.89247  23710055.164    23710055.1504   23710063.2614
       188.0004        188.0004
 -19672412.29449 -15306021.14647  20840919.040    20840919.3614   20840926.1204
       198.0004        198.0004
  -7298140.72548  -5672692.81146  22544337.156    22544336.9054   22544342.6474
       179.0004        178.0004
 21  1 31  1 39  0.0000000  0 10G21G28G30G19G22G07G17G09G01G14
  -7889722.79047  -6140608.87746  23226182.513    23226181.5024   23226186.8424
       163.0004        164.0004
  -3059498.76147  -2376342.21045  23146247.561    23146246.7704   23146251.9554
       160.0004        161.0004
 -19600890.74149 -15258034.80247  20699553.039    20699552.8624   20699559.4834
       210.0004        211.0004
  -9174710.44547  -7121736.18946  23258624.607    23258623.2444   23258627.6874
       163.0004        165.0004
  -4844601.94446  -3764549.08345  24781349.797    24781351.1344   24781352.2374
       132.0004        138.0004
 -24429854.92349 -19022285.70548  20070956.031    20070956.4124   20070960.5484
       215.0004        216.0004
 -13595324.10849 -10561297.27347  21688720.431    21688720.5674   21688724.5784
       195.0004        195.0004
  -3624757.63548  -2793856.88847  23725001.362    23725001.7624   23725010.7024
       188.0004        189.0004
 -19647870.47149 -15286897.62947  20845588.449    20845589.2514   20845596.4074
       198.0004        198.0004
  -7332182.74448  -5699219.01846  22537859.001    22537859.5484   22537864.2414
       178.0004        178.0004
 21  1 31  1 39 30.0000000  0 10G21G28G30G19G22G07G17G09G01G14
  -7808219.71347  -6077100.00146  23241691.264    23241691.9604   23241696.5204
       163.0004        164.0004
  -3085775.38747  -2396817.49845  23141247.366    23141247.5804   23141250.7354
       160.0004        162.0004
 -19650841.29249 -15296957.32247  20690047.583    20690047.4284   20690054.1544
       211.0004        212.0004
  -9237448.18347  -7170622.72446  23246685.129    23246684.8214   23246689.5224
       163.0004        166.0004
  -4866934.13447  -3781950.74645  24777100.777    24777101.1274   24777105.6554
       135.0004        141.0004
 -24422707.16849 -19016716.04148  20072316.624    20072316.9584   20072321.0614
       215.0004        216.0004
 -13613741.14349 -10575648.20747  21685215.565    21685216.0784   21685219.7304
       195.0004        195.0004
  -3546300.84248  -2732721.78247  23739932.239    23739932.2914   23739940.1964
       188.0004        189.0004
 -19622716.82949 -15267297.38547  20850374.979    20850375.2954   20850383.5484
       198.0004        198.0004
  -7366296.77948  -5725801.40046  22531367.820    22531367.8554   22531371.2154
       178.0004        178.0004
 21  1 31  1 40  0.0000000  0 10G21G28G30G19G22G07G17G09G01G14
  -7726397.04147  -6013342.05146  23257262.599    23257261.6854   23257266.4924
       164.0004        165.0004
  -3112183.92547  -2417395.57445  23136221.543    23136221.7724   23136225.1724
       160.0004        162.0004
 -19700346.11049 -15335532.50247  20680626.769    20680626.9504   20680633.7934
       211.0004        211.0004
  -9299863.89247  -7219258.32846  23234807.892    23234807.1684   23234811.7924
       164.0004        167.0004
  -4889167.13147  -3799275.13745  24772871.825    24772872.8294   24772874.0794
       137.0004        143.0004
 -24414978.34149 -19010693.58148  20073786.771    20073787.3324   20073791.8334
       215.0004        216.0004
 -13631778.69749 -10589703.42847  21681782.938    21681783.3764   21681787.3904
       195.0004        196.0004
  -3467937.84748  -2671659.76547  23754844.445    23754844.9404   23754852.0844
       188.0004        188.0004
 -19596952.31549 -15247221.13647  20855278.113    20855278.7314   20855285.6994
       198.0004        198.0004
  -7400483.00148  -5752440.01346  22524862.034    22524861.9954   22524867.1014
       178.0004        178.0004
 21  1 31  1 40 30.0000000  0 10G21G28G30G19G22G07G17G09G01G14
  -7644257.35547  -5949337.10046  23272892.022    23272891.4544   23272896.9784
       164.0004        165.0004
  -3138725.38747  -2438077.20845  23131170.977    23131170.0894   23131175.4224
       159.0004        161.0004
 -19749403.50749 -15373759.04447  20671291.848    20671291.6794   20671298.3584
       211.0004        211.0004
  -9361957.98348  -7267643.30846  23222992.794    23222991.5914   23222996.0414
       167.0004        168.0004
  -4911299.14947  -3816520.86845  24768658.839    24768660.6314   24768663.3474
       135.0004        141.0004
 -24406668.68149 -19004218.52848  20075367.985    20075368.5564   20075372.8234
       215.0004        216.0004
 -13649438.42549 -10603464.24747  21678422.873    21678423.1674   21678427.0504
       196.0004        197.0004
  -3389671.73548  -2610673.20846  23769738.441    23769737.9994   23769745.0164
       187.0004        186.0004
 -19570578.13249 -15226669.80947  20860297.535    20860297.6094   20860304.2744
       197.0004        197.0004
  -7434741.79648  -5779135.14946  22518342.348    22518343.1254   22518348.3134
       178.0004        178.0004
 21  1 31  1 41  0.0000000  0 10G21G28G30G19G22G07G17G09G01G14
  -7561803.19447  -5885087.11246  23288581.738    23288581.7704   23288588.3774
       162.0004        164.0004
  -3165400.31247  -2458862.85345  23126095.101    23126094.6554   23126099.5374
       160.0004        162.0004
 -19798011.51249 -15411635.41547  20662041.321    20662041.6164   20662048.6644
       211.0004        212.0004
  -9423730.30548  -7315777.54746  23211236.221    23211235.4304   23211240.9604
       165.0004        165.0004
  -4933328.12347  -3833686.29145  24764467.753    24764467.5834   24764469.8194
       135.0004        139.0004
 -24397777.92949 -18997290.67948  20077060.542    20077060.7574   20077064.6294
       215.0004        216.0004
 -13666721.70449 -10616931.72447  21675134.021    21675134.0914   21675138.3954
       197.0004        196.0004
  -3311505.04048  -2549764.14846  23784612.245    23784612.2274   23784620.3204
       186.0004        187.0004
 -19543595.04549 -15205644.02447  20865432.031    20865432.5814   20865439.3454
       198.0004        199.0004
  -7469073.08748  -5805886.79446  22511809.739    22511810.1944   22511814.9504
       178.0004        179.0004
 21  1 31  1 41 30.0000000  0 10G21G28G30G19G22G07G17G09G01G14
  -7479035.62847  -5820592.89946  23304332.581    23304332.0254   23304338.3164
       162.0004        163.0004
  -3192207.54647  -2479751.60246  23120994.591    23120994.3664   23120998.3794
       161.0004        164.0004
 -19846166.58749 -15449158.84447  20652878.450    20652878.3034   20652885.1624
       212.0004        212.0004
  -9485179.50748  -7363660.02346  23199544.049    23199543.0934   23199547.4314
       165.0004        167.0004
  -4955250.59147  -3850768.70645  24760298.389    24760295.2064   24760298.4954
       136.0004        141.0004
 -24388304.20949 -18989908.56448  20078863.223    20078863.5204   20078867.5474
       215.0004        216.0004
 -13683628.39049 -10630105.75247  21671916.032    21671916.4354   21671920.7434
       195.0004        195.0004
  -3233438.94048  -2488933.48447  23799469.297    23799469.3974   23799475.4294
       189.0004        191.0004
 -19516002.47649 -15184143.30347  20870681.522    20870682.6714   20870689.9914
       198.0004        197.0004
  -7503475.29448  -5832693.69346  22505263.008    22505263.9254   22505267.8134
       179.0004        179.0004
 21  1 31  1 42  0.0000000  0 10G21G28G30G19G22G07G17G09G01G14
  -7395959.02847  -5755857.89746  23320141.710    23320141.9684   23320147.7254
       161.0004        163.0004
  -3219149.64647  -2500745.44346  23115866.563    23115866.7574   23115871.1754
       161.0004        163.0004
 -19893868.66049 -15486329.29847  20643800.792    20643800.7194   20643807.8354
       212.0004        212.0004
  -9546307.21848  -7411291.96746  23187911.764    23187910.7394   23187914.8734
       167.0004        168.0004
  -4977066.48747  -3867768.08445  24756146.255    24756144.5304   24756148.8224
       136.0004        143.0004
 -24378249.27249 -18982073.55948  20080776.896    20080777.2954   20080781.1964
       215.0004        216.0004
 -13700161.70849 -10642988.85247  21668769.716    21668770.2384   21668774.9374
       196.0004        196.0004
  -3155478.01148  -2428184.77247  23814303.384    23814303.9744   23814311.2734
       191.0004        191.0004
 -19487803.20849 -15162169.84047  20876048.481    20876049.0254   20876055.9564
       197.0004        198.0004
  -7537950.31448  -5859557.34646  22498703.147    22498703.5844   22498708.3414
       179.0004        179.0004
 21  1 31  1 42 30.0000000  0 10G21G28G30G19G22G07G17G09G01G14
  -7312574.29447  -5690882.76845  23336009.496    23336009.6724   23336014.2874
       160.0004        161.0004
  -3246225.28347  -2521843.35045  23110714.890    23110714.6834   23110717.0294
       160.0004        161.0004
 -19941113.91749 -15523143.78548  20634809.879    20634810.2824   20634817.5924
       212.0004        213.0004
  -9607111.47448  -7458671.88846  23176341.208    23176340.5334   23176344.4284
       166.0004        168.0004
  -4998771.79947  -3884681.29445  24752015.132    24752013.9424   24752015.3204
       139.0004        144.0004
 -24367611.24949 -18973784.19948  20082800.744    20082801.2034   20082805.1624
       215.0004        216.0004
 -13716321.70749 -10655581.04447  21665695.074    21665695.1914   21665699.5724
       196.0004        196.0004
  -3077622.97348  -2367518.54647  23829117.487    23829118.1454   23829127.6394
       190.0004        190.0004
 -19458996.30249 -15139722.89347  20881530.306    20881531.0694   20881538.1054
       198.0004        198.0004
  -7572496.20648  -5886476.22046  22492128.548    22492128.9764   22492134.2124
       178.0004        178.0004
 21  1 31  1 43  0.0000000  0 11G21G28G30G19G06G22G07G17G09G01G14
  -7228884.11547  -5625669.63245  23351935.136    23351934.0624   23351939.8874
       160.0004        160.0004
  -3273434.78847  -2543045.56145  23105535.058    23105536.1494   23105540.4004
       157.0004        158.0004
 -19987900.49749 -15559600.86048  20625907.277    20625907.3094   20625914.0214
       213.0004        213.0004
  -9667592.18848  -7505799.68346  23164831.416    23164831.2464   23164834.5574
       167.0004        168.0004
  -1094615.36454   -835290.882 5                                  24574215.975
        74.0004        140.000
  -5020364.41447  -3901506.70545  24747905.164    24747903.3974   24747909.7524
       140.0004        145.0004
 -24356390.01549 -18965040.38448  20084936.588    20084936.9074   20084940.8244
       215.0004        216.0004
 -13732109.40749 -10667883.14447  21662689.895    21662690.2464   21662695.5424
       195.0004        195.0004
  -2999876.53048  -2306936.94647  23843912.830    23843913.4234   23843921.7564
       191.0004        191.0004
 -19429582.78249 -15116803.25347  20887127.984    20887128.3234   20887135.1564
       198.0004        198.0004
  -7607112.97148  -5913450.31046  22485541.402    22485541.4024   22485547.1504
       178.0004        177.0004
 21  1 31  1 43 30.0000000  0 11G21G28G30G19G06G22G07G17G09G01G14
  -7144890.35547  -5560219.95445  23367918.256    23367918.4344   23367922.5544
       159.0004        162.0004
  -3300777.86947  -2564351.84545  23100333.672    23100332.4304   23100337.6174
       159.0004        161.0004
 -20034225.72149 -15595698.43248  20617091.790    20617091.5404   20617098.5484
       213.0004        213.0004
  -9727748.70848  -7552674.86446  23153384.251    23153383.4074   23153387.6944
       168.0004        169.0004
  -1208643.52146   -924143.79045  24552506.413                    24552517.8294
       131.0004        144.0004
  -5041841.55547  -3918242.09545  24743818.916    24743816.9344   24743823.1714
       138.0004        142.0004
 -24344584.87749 -18955841.58448  20087182.676    20087183.1534   20087187.3524
       215.0004        216.0004
 -13747526.46749 -10679896.42747  21659757.107    21659757.4914   21659762.2014
       195.0004        196.0004
  -2922240.48748  -2246441.39047  23858686.737    23858687.1134   23858694.9694
       191.0004        191.0004
 -19399562.88549 -15093411.11847  20892840.056    20892840.4364   20892847.7294
       197.0004        197.0004
  -7641799.71048  -5940478.92146  22478939.278    22478940.3024   22478945.3354
       176.0004        176.0004
 21  1 31  1 44  0.0000000  0 12G21G28G30G19G06G22G07G17G09G01G03G14
  -7060596.44947  -5494536.38545  23383959.096    23383958.9464   23383962.6564
       158.0004        159.0004
  -3328255.95247  -2585763.29545  23095103.858    23095104.1244   23095107.8334
       160.0004        162.0004
 -20080088.40249 -15631435.57848  20608364.256    20608364.4164   20608371.4264
       213.0004        213.0004
  -9787581.81148  -7599298.01846  23141997.395    23141997.6304   23142001.5354
       167.0004        168.0004
  -1317259.07747  -1008779.12145  24531837.843    24531838.1434   24531848.1424
       136.0004        142.0004
  -5063202.04347  -3934886.61445  24739754.348    24739753.0154   24739757.0754
       137.0004        142.0004
 -24332196.33849 -18946188.17548  20089540.516    20089540.7894   20089544.6334
       215.0004        215.0004
 -13762574.78249 -10691622.37147  21656893.328    21656893.7504   21656898.2024
       197.0004        197.0004
  -2844718.17348  -2186034.44647  23873439.091    23873439.8294   23873447.0294
       189.0004        189.0004
 -19368938.38149 -15069547.85347  20898667.815    20898668.3354   20898675.8074
       197.0004        198.0004
   -717376.12254   -548029.53443  24673446.817
        74.0004         74.0004
  -7676557.11948  -5967562.61246  22472327.706    22472327.7344   22472332.1354
       178.0004        180.0004
 21  1 31  1 44 30.0000000  0 12G21G28G30G19G06G22G07G17G09G01G03G14
  -6976004.58447  -5428620.63945  23400056.763    23400055.9394   23400059.4334
       157.0004        158.0004
  -3355869.31747  -2607280.19646  23089849.898    23089849.4994   23089853.5334
       160.0004        163.0004
 -20125486.59649 -15666810.80348  20599725.541    20599725.6304   20599732.2114
       213.0004        213.0004
  -9847091.38848  -7645669.11046  23130675.033    23130674.2144   23130677.0764
       170.0004        173.0004
  -1425889.26947  -1093425.88245  24511166.910    24511167.7954   24511176.4484
       135.0004        140.0004
  -5084443.95047  -3951438.71745  24735711.534    24735710.1264   24735715.3614
       139.0004        144.0004
 -24319224.34549 -18936080.14348  20092008.636    20092009.1364   20092013.1514
       214.0004        215.0004
 -13777255.61949 -10703061.98347  21654099.995    21654100.1414   21654104.7634
       197.0004        197.0004
  -2767312.20748  -2125718.17447  23888169.931    23888169.4444   23888176.9164
       188.0004        188.0004
 -19337710.30449 -15045214.28247  20904610.188    20904610.7134   20904618.5104
       198.0004        198.0004
   -755714.86344   -577904.41046  24666152.356
        74.0004        171.0004
  -7711385.07748  -5994701.26746  22465698.503    22465699.5044   22465704.9154
       178.0004        178.0004
 21  1 31  1 45  0.0000000  0 12G21G28G30G19G06G22G07G17G09G01G03G14
  -6891116.89947  -5362474.36145  23416210.127    23416209.7804   23416212.7154
       156.0004        158.0004
  -3383617.22347  -2628901.92746  23084570.160    23084570.1494   23084573.8684
       161.0004        163.0004
 -20170417.56649 -15701821.93848  20591175.605    20591175.6384   20591182.0924
       213.0004        214.0004
  -9906276.39748  -7691787.24546  23119411.681    23119410.8294   23119414.4374
       172.0004        173.0004
  -1534530.71047  -1178081.40345  24490492.419    24490495.3954   24490502.0764
       136.0004        142.0004
  -5105564.11347  -3967895.95045  24731692.841    24731692.2864   24731695.5504
       141.0004        146.0004
 -24305668.22849 -18925516.93048  20094588.356    20094588.5034   20094592.9764
       214.0004        215.0004
 -13791569.71149 -10714215.81247  21651375.203    21651375.7724   21651380.4534
       196.0004        195.0004
  -2690024.21048  -2065493.80947  23902877.508    23902877.4944   23902884.3304
       189.0004        190.0004
 -19305878.81749 -15020410.50847  20910667.714    20910668.0074   20910675.9594
       197.0004        198.0004
   -768512.91944   -587876.924 6                                  24663720.898
        74.0004        172.000
  -7746282.46848  -6021894.03246  22459058.790    22459059.7154   22459063.4614
       178.0004        179.0004
 21  1 31  1 45 30.0000000  0 11G21G28G30G19G06G22G07G17G09G01G14
  -6805936.01447  -5296099.64445  23432419.157    23432418.9894   23432423.9864
       157.0004        160.0004
  -3411500.49747  -2650629.16645  23079263.615    23079263.3484   23079268.9384
       162.0004        162.0004
 -20214879.60549 -15736467.69648  20582715.072    20582714.9814   20582721.2124
       214.0004        214.0004
  -9965137.03848  -7737652.66346  23108210.222    23108209.4814   23108214.3374
       172.0004        173.0004
  -1643181.30547  -1262744.02445  24469817.395    24469817.8414   24469827.3014
       138.0004        143.0004
  -5126560.83047  -3984257.00145  24727699.635    24727698.2124   24727700.2584
       143.0004        148.0004
 -24291527.95649 -18914498.55548  20097278.839    20097279.3714   20097283.5374
       214.0004        215.0004
 -13805518.91448 -10725085.32047  21648720.953    21648721.3244   21648725.9194
       194.0004        195.0004
  -2612856.95048  -2005363.53547  23917561.579    23917561.8294   23917569.4314
       189.0004        189.0004
 -19273445.22749 -14995137.58447  20916838.713    20916839.8434   20916847.1854
       197.0004        197.0004
  -7781249.45248  -6049141.01946  22452403.926    22452404.3394   22452409.9644
       178.0004        177.0004
 21  1 31  1 46  0.0000000  0 12G21G28G30G19G06G22G07G17G09G01G03G14
  -6720462.98547  -5229497.27545  23448683.484    23448683.3524   23448688.0214
       158.0004        160.0004
  -3439518.12247  -2672461.04345  23073931.487    23073931.6574   23073936.8264
       159.0004        159.0004
 -20258869.26049 -15770745.35348  20574343.780    20574343.8424   20574350.3474
       214.0004        214.0004
 -10023671.97748  -7783264.28746  23097072.143    23097071.5004   23097074.8314
       171.0004        172.0004
  -1751837.17747  -1347410.76645  24449141.076    24449141.7374   24449149.1774
       137.0004        142.0004
  -5147430.40047  -4000518.98845  24723725.759    24723725.0874   24723728.9074
       144.0004        147.0004
 -24276801.82649 -18903023.66048  20100081.329    20100081.8214   20100085.8344
       214.0004        215.0004
 -13819103.14249 -10735670.43247  21646136.372    21646136.7834   21646141.3734
       195.0004        197.0004
  -2535811.34848  -1945328.06347  23932222.467    23932222.9724   23932230.0444
       188.0004        188.0004
 -19240409.02049 -14969395.08147  20923125.488    20923126.3924   20923134.3474
       196.0004        197.0004
   -582647.42954   -440832.25943  24644169.846
        74.0004         74.0004
  -7816284.18748  -6076440.81446  22445737.850    22445738.4114   22445743.2084
       178.0004        178.0004
 21  1 31  1 46 30.0000000  0 12G21G28G30G19G06G22G07G17G09G01G03G14
  -6634700.42947  -5162669.32345  23465003.730    23465002.9994   23465010.0484
       158.0004        160.0004
  -3467670.08047  -2694397.65045  23068576.763    23068575.3584   23068578.3474
       159.0004        161.0004
 -20302384.53449 -15804653.36448  20566062.662    20566063.2024   20566069.5594
       214.0004        214.0004
 -10081881.09148  -7828622.00846  23085994.604    23085994.2854   23085998.7844
       172.0004        173.0004
  -1860495.76647  -1432079.65745  24428465.278    24428464.3644   24428472.7584
       137.0004        142.0004
  -5168170.91847  -4016680.40045  24719777.255    24719776.7464   24719783.5414
       141.0004        144.0004
 -24261489.98649 -18891092.36648  20102994.854    20102995.3474   20102999.8104
       214.0004        215.0004
 -13832324.37449 -10745972.68447  21643620.448    21643620.7984   21643625.2554
       197.0004        197.0004
  -2458889.83548  -1885389.27246  23946860.532    23946861.0994   23946868.4224
       186.0004        185.0004
 -19206771.29249 -14943183.86547  20929526.680    20929527.2144   20929535.0744
       196.0004        197.0004
   -621303.95944   -470954.24646  24636814.605
        74.0004        172.0004
  -7851386.46048  -6103793.24646  22439057.256    22439057.4034   22439062.5844
       177.0004        176.0004
 21  1 31  1 47  0.0000000  0 12G21G28G30G19G06G22G07G17G09G01G03G14
  -6548650.98947  -5095617.82645  23481380.333    23481378.3254   23481383.7234
       159.0004        162.0004
  -3495957.06147  -2716439.44145  23063191.338    23063191.8044   23063196.3034
       159.0004        160.0004
 -20345424.01049 -15838190.62248  20557872.884    20557873.1224   20557879.1834
       214.0004        214.0004
 -10139764.68748  -7873726.09346  23074980.438    23074979.3794   23074983.5944
       172.0004        172.0004
  -1969155.08347  -1516749.12645  24407785.944    24407786.6074   24407795.6234
       137.0004        142.0004
  -5188780.42147  -4032739.72745  24715855.073    24715854.1504   24715860.7454
       138.0004        142.0004
 -24245593.17649 -18878705.24848  20106019.902    20106020.3984   20106024.9734
       214.0004        214.0004
 -13845183.91849 -10755993.11247  21641173.268    21641173.6494   21641178.3694
       197.0004        198.0004
  -2382095.30648  -1825549.42146  23961472.552    23961473.2754   23961481.1324
       184.0004        183.0004
 -19172533.59249 -14916505.12247  20936041.933    20936043.1424   20936050.0244
       197.0004        197.0004
   -656158.05644   -498113.250 6                                  24630187.882
        74.0004        174.000
  -7886556.45648  -6131198.40146  22432363.528    22432364.7374   22432370.5314
       176.0004        177.0004
 21  1 31  1 47 30.0000000  0 12G21G28G30G19G06G22G07G17G09G01G03G14
  -6462316.52947  -5028344.20046  23497807.904    23497807.5674   23497813.7974
       160.0004        163.0004
  -3524378.58347  -2738586.06845  23057783.093    23057784.1044   23057787.4084
       158.0004        160.0004
 -20387984.71249 -15871354.79848  20549773.687    20549773.6324   20549780.1134
       214.0004        214.0004
 -10197321.63548  -7918575.62546  23064027.682    23064027.0124   23064030.9794
       170.0004        170.0004
  -2077811.62347  -1601416.43745  24387109.682    24387109.7414   24387117.8214
       138.0004        143.0004
  -5209255.80147  -4048694.55745  24711961.219    24711960.4204   24711961.9234
       138.0004        143.0004
 -24229109.90049 -18865861.13748  20109156.936    20109157.2214   20109161.5454
       214.0004        215.0004
 -13857682.63449 -10765732.36347  21638794.880    21638795.1854   21638799.3194
       197.0004        196.0004
  -2305429.09448  -1765809.57946  23976063.825    23976063.5214   23976069.7514
       183.0004        183.0004
 -19137695.96949 -14889358.91347  20942672.018    20942671.9134   20942679.7604
       196.0004        196.0004
   -698834.96947   -531367.93546  24622057.090    24622058.8924   24622067.3144
       159.0004        167.0004
  -7921792.81448  -6158655.30346  22425660.621    22425660.7394   22425665.2294
       177.0004        177.0004
 21  1 31  1 48  0.0000000  0 12G21G28G30G19G06G22G07G17G09G01G03G14
  -6375700.46347  -4960851.18045  23514289.321    23514289.1964   23514296.0894
       160.0004        162.0004
  -3552935.66147  -2760838.33945  23052349.788    23052349.2044   23052353.5024
       160.0004        162.0004
 -20430065.76649 -15904145.23748  20541766.187    20541766.1464   20541772.5074
       214.0004        214.0004
 -10254553.09348  -7963171.54446  23053136.389    23053135.8164   23053139.0934
       168.0004        169.0004
  -2186463.92847  -1686080.45445  24366434.716    24366436.4274   24366442.7184
       140.0004        145.0004
  -5229595.78747  -4064543.88845  24708090.322    24708089.0754   24708094.4764
       138.0004        143.0004
 -24212041.41749 -18852561.03148  20112404.910    20112404.9654   20112409.3754
       214.0004        214.0004
 -13869822.56249 -10775192.03647  21636484.430    21636484.9584   21636489.0724
       196.0004        196.0004
  -2228894.67848  -1706172.42546  23990628.447    23990628.2914   23990634.8274
       185.0004        187.0004
 -19102260.57549 -14861746.91547  20949414.490    20949415.4014   20949422.2964
       196.0004        196.0004
   -737704.92447   -561656.18446  24614660.970    24614661.9894   24614670.9604
       161.0004        163.0004
  -7957096.27548  -6186164.48646  22418941.256    22418941.9604   22418946.5774
       176.0004        175.0004
 21  1 31  1 48 30.0000000  0 12G21G28G30G19G06G22G07G17G09G01G03G14
  -6288803.85547  -4893139.57245  23530826.043    23530825.3694   23530832.1894
       159.0004        160.0004
  -3581627.56747  -2783195.65645  23046889.349    23046889.9884   23046892.1654
       160.0004        161.0004
 -20471664.17449 -15936559.58248  20533850.042    20533849.9174   20533856.5844
       214.0004        214.0004
 -10311457.79148  -8007512.86346  23042309.050    23042307.7144   23042310.9164
       170.0004        173.0004
  -2295108.42647  -1770738.39045  24345759.491    24345760.2354   24345768.3234
       140.0004        144.0004
  -5249797.31447  -4080285.30445  24704245.377    24704245.5504   24704250.1474
       139.0004        143.0004
 -24194386.81349 -18838804.20448  20115763.535    20115764.2894   20115769.1194
       213.0004        214.0004
 -13881604.91049 -10784373.07547  21634242.881    21634242.6934   21634247.2414
       196.0004        195.0004
  -2152493.24348  -1646638.90146  24005166.738    24005166.6884   24005174.4244
       186.0004        187.0004
 -19066227.48549 -14833669.16047  20956272.204    20956272.7304   20956279.2844
       196.0004        197.0004
   -776640.82457   -591995.81645  24607252.608    24607252.6425   24607261.9734
       160.0004        162.0004
  -7992465.37248  -6213724.82946  22412211.456    22412212.1654   22412216.4204
       175.0004        175.0004
 21  1 31  1 49  0.0000000  0 12G21G28G30G19G06G22G07G17G09G01G03G14
  -6201630.59147  -4825212.36245  23547414.473    23547414.8694   23547419.6314
       159.0004        161.0004
  -3610454.81647  -2805658.44545  23041402.808    23041402.6424   23041407.6144
       159.0004        160.0004
 -20512778.49149 -15968596.72348  20526026.212    20526026.2014   20526032.8744
       214.0004        214.0004
 -10368036.50348  -8051600.12346  23031542.319    23031541.2264   23031544.4594
       172.0004        174.0004
  -2403742.99547  -1855388.57045  24325085.952    24325086.2154   24325095.1654
       141.0004        146.0004
  -5269858.76547  -4095917.56945  24700426.578    24700426.5564   24700433.1684
       137.0004        141.0004
 -24176146.46949 -18824590.97048  20119235.188    20119235.6724   20119239.8804
       213.0004        214.0004
 -13893031.54949 -10793276.95447  21632067.968    21632068.4774   21632072.6874
       195.0004        196.0004
  -2076227.63048  -1587211.23446  24019678.747    24019678.8394   24019687.5024
       185.0004        185.0004
 -19029598.33149 -14805126.95847  20963242.200    20963242.8244   20963250.1084
       197.0004        197.0004
   -815640.83247   -622385.42446  24599832.787    24599832.2664   24599840.7554
       161.0004        164.0004
  -8027900.24348  -6241336.41846  22405468.185    22405468.4834   22405473.0124
       175.0004        176.0004
 21  1 31  1 49 30.0000000  0 12G21G28G30G19G06G22G07G17G09G01G03G14
  -6114181.98247  -4757070.56245  23564055.339    23564055.2624   23564060.1484
       159.0004        161.0004
  -3639417.22147  -2828226.54145  23035892.906    23035892.3934   23035896.6124
       159.0004        162.0004
 -20553406.51849 -16000254.91448  20518294.311    20518294.7004   20518301.9104
       214.0004        214.0004
 -10424288.55748  -8095432.86746  23020836.327    23020836.0344   23020840.1574
       172.0004        172.0004
  -2512364.83647  -1940028.85945  24304416.165    24304417.5204   24304425.2854
       142.0004        146.0004
  -5289777.64147  -4111438.74745  24696638.057    24696636.6674   24696641.9894
       136.0004        141.0004
 -24157320.31749 -18809921.23848  20122817.629    20122817.9214   20122822.7264
       213.0004        214.0004
 -13904103.45749 -10801904.40747  21629960.604    21629961.2574   21629966.2414
       195.0004        196.0004
  -2000099.91048  -1527890.96846  24034163.094    24034165.0704   24034173.9434
       184.0004        183.0004
 -18992373.96049 -14776120.93647  20970324.711    20970325.4834   20970333.5814
       196.0004        196.0004
   -854702.28647   -652822.87746  24592400.792    24592400.6644   24592406.3004
       164.0004        167.0004
  -8063400.13548  -6268998.66546  22398714.074    22398714.2164   22398717.1874
       176.0004        177.0004
 21  1 31  1 50  0.0000000  0 12G21G28G30G19G06G22G07G17G09G01G03G14
  -6026461.33547  -4688716.82345  23580748.643    23580748.1474   23580753.7744
       159.0004        161.0004
  -3668515.35047  -2850900.39245  23030353.617    23030354.3104   23030359.4234
       159.0004        161.0004
 -20593546.74249 -16031533.00848  20510656.694    20510656.4964   20510663.5124
       214.0004        215.0004
 -10480214.43348  -8139011.44546  23010195.028    23010193.3924   23010198.0204
       172.0004        173.0004
  -2620971.74847  -2024657.50145  24283749.337    24283749.4384   24283758.0024
       142.0004        146.0004
  -5309551.95147  -4126847.26445  24692874.873    24692874.6164   24692879.1204
       138.0004        144.0004
 -24137908.70549 -18794795.31248  20126512.078    20126512.2464   20126516.5934
       213.0004        214.0004
 -13914822.61749 -10810256.99447  21627921.238    21627921.6794   21627926.7734
       196.0004        197.0004
  -1924112.71248  -1468680.23146  24048626.092    24048625.6694   24048633.5444
       182.0004        182.0004
 -18954555.98349 -14746652.37347  20977521.130    20977522.1294   20977529.8824
       196.0004        196.0004
   -893823.38148   -683306.84246  24584955.203    24584955.9504   24584963.1224
       168.0004        170.0004
  -8098965.13548  -6296711.63046  22391944.856    22391945.4974   22391949.7304
       176.0004        176.0004
 21  1 31  1 50 30.0000000  0 12G21G28G30G19G06G22G07G17G09G01G03G14
  -5938471.18347  -4620153.08345  23597494.032    23597492.4174   23597496.3564
       158.0004        161.0004
  -3697749.25347  -2873680.05145  23024791.506    23024791.5594   23024796.2894
       159.0004        161.0004
 -20633197.24349 -16062429.51148  20503111.442    20503111.0604   20503117.9904
       214.0004        214.0004
 -10535813.96248  -8182335.71446  22999614.567    22999613.5844   22999618.2184
       173.0004        175.0004
  -2729561.13547  -2109272.51545  24263086.109    24263086.9174   24263095.6474
       144.0004        149.0004
  -5329179.59947  -4142141.52245  24689141.315    24689140.4454   24689143.0214
       140.0004        145.0004
 -24117911.73849 -18779213.27548  20130317.014    20130317.3404   20130321.5034
       213.0004        213.0004
 -13925190.45749 -10818335.84747  21625948.284    21625948.7154   21625953.2904
       196.0004        196.0004
  -1848268.30348  -1409580.75246  24063055.718    24063057.0464   24063066.8224
       182.0004        182.0004
 -18916145.56849 -14716722.17547  20984831.911    20984832.2784   20984838.9554
       196.0004        196.0004
   -933001.61048   -713835.33246  24577498.610    24577499.6764   24577508.0004
       170.0004        172.0004
  -8134594.68548  -6324474.90746  22385164.957    22385165.6534   22385171.0024
       177.0004        177.0004
 21  1 31  1 51  0.0000000  0 12G21G28G30G19G06G22G07G17G09G01G03G14
  -5850213.32247  -4551380.72245  23614287.338    23614286.9624   23614291.1524
       158.0004        159.0004
  -3727118.55747  -2896565.22345  23019202.705    23019203.7564   23019207.3824
       160.0004        162.0004
 -20672355.52649 -16092942.45648  20495659.476    20495659.6794   20495666.1484
       214.0004        214.0004
 -10591086.47448  -8225405.19846  22989097.079    22989095.5714   22989099.6874
       174.0004        175.0004
  -2838129.70647  -2193871.32445  24242426.185    24242426.5664   24242435.9154
       145.0004        149.0004
  -5348657.92947  -4157319.40645  24685432.039    24685430.7244   24685435.9054
       138.0004        142.0004
 -24097328.98049 -18763174.77348  20134233.564    20134234.0654   20134238.7154
       212.0004        213.0004
 -13935208.12349 -10826141.82247  21624042.126    21624042.9644   21624047.0364
       196.0004        196.0004
  -1772568.25748  -1350593.78146  24077464.087    24077463.8494   24077472.3244
       182.0004        183.0004
 -18877143.28849 -14686330.77847  20992252.626    20992253.6124   20992261.0924
       196.0004        196.0004
   -972234.10148   -744406.10946  24570034.006    24570034.6814   24570042.9654
       170.0004        171.0004
  -8170287.75348  -6352287.66846  22378372.677    22378373.2884   22378377.6914
       177.0004        176.0004
 21  1 31  1 51 30.0000000  0 12G21G28G30G19G06G22G07G17G09G01G03G14
  -5761690.18547  -4482401.64645  23631133.110    23631132.1674   23631136.3824
       156.0004        157.0004
  -3756623.53547  -2919556.09645  23013588.034    23013587.4334   23013593.5174
       160.0004        162.0004
 -20711020.08949 -16123070.68748  20488302.381    20488302.1304   20488308.7714
       214.0004        215.0004
 -10646032.54448  -8268220.30046  22978640.429    22978639.2824   22978643.3774
       174.0004        174.0004
  -2946675.31147  -2278452.23245  24221770.241    24221770.7124   24221778.9784
       147.0004        152.0004
  -5367985.05547  -4172379.50545  24681753.996    24681753.3554   24681755.9174
       136.0004        141.0004
 -24076161.03249 -18746680.27648  20138262.173    20138262.4184   20138266.6524
       213.0004        214.0004
 -13944877.29749 -10833676.24647  21622203.179    21622202.7974   21622207.1134
       196.0004        197.0004
  -1697015.21248  -1291721.31646  24091841.549    24091842.1394   24091848.9434
       182.0004        183.0004
 -18837550.80149 -14655479.48447  20999787.173    20999787.9184   20999795.1614
       195.0004        196.0004
  -1011518.80048   -775017.57346  24562556.827    24562558.6854   24562566.8884
       167.0004        167.0004
  -8206044.19748  -6380149.84846  22371568.996    22371568.5144   22371573.6154
       177.0004        177.0004
 21  1 31  1 52  0.0000000  0 12G21G28G30G19G06G22G07G17G09G01G03G14
  -5672903.35047  -4413217.09945  23648028.017    23648028.1984   23648032.2754
       154.0004        157.0004
  -3786263.34347  -2942652.04245  23007948.948    23007948.2904   23007952.6904
       160.0004        162.0004
 -20749188.11649 -16152812.01048  20481038.726    20481038.8264   20481045.5914
       214.0004        215.0004
 -10700651.23948  -8310780.30446  22968247.669    22968247.2154   22968250.6674
       174.0004        176.0004
  -3055194.37147  -2363012.43945  24201119.381    24201120.2864   24201128.7654
       148.0004        151.0004
  -5387157.61147  -4187319.15645  24678108.793    24678108.7144   24678108.0984
       136.0004        140.0004
 -24054407.02449 -18729729.10848  20142400.890    20142401.7284   20142406.5164
       213.0004        213.0004
 -13954198.75449 -10840939.71747  21620428.407    21620428.8304   21620433.3164
       197.0004        198.0004
  -1621610.41148  -1232964.39246  24106190.455    24106189.7724   24106197.0854
       179.0004        178.0004
 -18797368.39549 -14624168.51547  21007432.527    21007433.9934   21007441.8164
       195.0004        195.0004
  -1050852.57347   -805667.26846  24555070.943    24555072.6794   24555081.0434
       164.0004        165.0004
  -8241862.57848  -6408060.25946  22364751.640    22364752.6394   22364758.0834
       176.0004        177.0004
 21  1 31  1 52 30.0000000  0 12G21G28G30G19G06G22G07G17G09G01G03G14
  -5583856.66247  -4343830.06245  23664973.836    23664972.5584   23664976.8234
       154.0004        157.0004
  -3816039.03947  -2965853.86046  23002281.653    23002282.0004   23002286.5404
       161.0004        163.0004
 -20786858.65249 -16182165.67648  20473870.567    20473870.5924   20473877.2524
       215.0004        215.0004
 -10754943.39548  -8353085.84246  22957915.246    22957914.8254   22957919.0544
       174.0004        174.0004
  -3163685.10247  -2447550.56745  24180474.376    24180474.9694   24180484.5334
       147.0004        151.0004
  -5406174.36747  -4202137.37645  24674488.707    24674487.0984   24674491.0104
       136.0004        142.0004
 -24032068.16249 -18712322.21248  20146653.009    20146653.1214   20146657.3524
       213.0004        214.0004
 -13963174.88649 -10847934.11547  21618720.691    21618720.8434   21618725.1214
       198.0004        198.0004
  -1546356.98848  -1174325.43846  24120508.672    24120509.7404   24120517.2324
       176.0004        176.0004
 -18756598.26049 -14592399.57347  21015192.322    21015192.3264   21015199.8184
       195.0004        195.0004
  -1090233.51848   -836353.72346  24547578.895    24547579.4234   24547587.7474
       165.0004        167.0004
  -8277743.33848  -6436019.28846  22357924.954    22357925.0794   22357929.8664
       177.0004        177.0004
 21  1 31  1 53  0.0000000  0 12G21G28G30G19G06G22G07G17G09G01G03G14
  -5494552.17047  -4274242.14445  23681968.116    23681967.7024   23681971.7814
       154.0004        157.0004
  -3845949.74047  -2989160.87746  22996589.823    22996590.0614   22996594.5584
       161.0004        163.0004
 -20824029.11449 -16211129.67548  20466796.883    20466797.1664   20466803.8854
       215.0004        215.0004
 -10808908.23848  -8395136.34946  22947646.558    22947645.4614   22947649.7524
       174.0004        175.0004
  -3272144.16147  -2532064.03545  24159834.924    24159835.8694   24159843.7204
       147.0004        150.0004
  -5425032.31547  -4216831.88445  24670899.458    24670899.3614   24670903.1714
       138.0004        142.0004
 -24009143.78249 -18694459.06948  20151014.413    20151015.0804   20151019.7214
       213.0004        213.0004
 -13971806.60449 -10854660.13247  21617077.991    21617077.8954   21617082.1224
       197.0004        196.0004
  -1471256.30148  -1115805.49846  24134800.645    24134800.8794   24134809.3074
       177.0004        178.0004
 -18715240.93548 -14560173.06847  21023061.891    21023062.3514   21023070.0084
       194.0004        194.0004
  -1129658.84948   -867074.74746  24540074.069    24540076.4084   24540084.7584
       167.0004        169.0004
  -8313685.10048  -6464025.85146  22351085.633    22351086.2634   22351090.2424
       176.0004        176.0004
 21  1 31  1 53 30.0000000  0 12G21G28G30G19G06G22G07G17G09G01G03G14
  -5404991.21747  -4204454.38045  23699009.615    23699009.3524   23699016.1864
       155.0004        158.0004
  -3875995.08147  -3012572.81246  22990873.313    22990873.0404   22990876.1174
       161.0004        163.0004
 -20860697.44849 -16239702.40348  20459819.532    20459819.4514   20459826.3224
       215.0004        215.0004
 -10862545.57148  -8436931.65046  22937439.079    22937439.2814   22937442.3974
       173.0004        175.0004
  -3380568.60947  -2616550.53745  24139202.477    24139203.0334   24139210.4814
       146.0004        148.0004
  -5443729.28347  -4231400.90945  24667337.915    24667340.0674   24667343.7684
       137.0004        141.0004
 -23985633.54349 -18676139.41848  20155488.884    20155489.1354   20155493.7074
       212.0004        213.0004
 -13980095.40249 -10861118.93847  21615499.990    21615500.6944   21615505.5494
       196.0004        195.0004
  -1396310.35448  -1057406.12046  24149062.504    24149063.4604   24149071.7834
       180.0004        181.0004
 -18673297.52248 -14527489.89047  21031043.971    21031044.3384   21031051.0874
       194.0004        195.0004
  -1169125.71848   -897828.11146  24532566.022    24532566.2404   24532574.9964
       169.0004        171.0004
  -8349687.19648  -6492079.43046  22344233.184    22344234.5904   22344238.9104
       175.0004        175.0004
 21  1 31  1 54  0.0000000  0 12G21G28G30G19G06G22G07G17G09G01G03G14
  -5315177.56147  -4134469.72945  23716101.024    23716101.7644   23716107.4554
       156.0004        159.0004
  -3906175.52347  -3036090.04546  22985130.405    22985130.4184   22985132.7324
       161.0004        163.0004
 -20896862.00749 -16267882.57948  20452937.222    20452937.8074   20452944.3864
       215.0004        215.0004
 -10915855.44348  -8478471.77446  22927294.915    22927294.2514   22927298.9884
       172.0004        173.0004
  -3488955.97447  -2701008.15245  24118576.283    24118577.0894   24118585.6334
       144.0004        148.0004
  -5462263.16347  -4245842.86445  24663810.507    24663812.8014   24663817.7964
       137.0004        143.0004
 -23961538.51149 -18657364.07748  20160074.013    20160074.4094   20160078.9724
       213.0004        213.0004
 -13988042.73449 -10867311.66147  21613988.374    21613988.5104   21613992.8634
       196.0004        196.0004
  -1321521.45048   -999129.11746  24163294.884    24163294.8814   24163302.6374
       180.0004        180.0004
 -18630769.59648 -14494351.22447  21039135.658    21039136.5594   21039144.4474
       194.0004        194.0004
  -1208631.93648   -928612.15846  24525049.652    24525049.0824   24525057.4444
       168.0004        169.0004
  -8385749.12648  -6520179.62846  22337372.513    22337372.5644   22337377.0574
       177.0004        178.0004
 21  1 31  1 54 30.0000000  0 12G21G28G30G19G06G22G07G17G09G01G03G14
  -5225112.72447  -4064289.35745  23733240.040    23733240.4244   23733245.5584
       158.0004        160.0004
  -3936491.24347  -3059712.65646  22979360.841    22979360.0704   22979364.7114
       161.0004        163.0004
 -20932521.50749 -16295669.20148  20446152.156    20446151.8674   20446158.2074
       215.0004        215.0004
 -10968838.61648  -8519757.34046  22917211.244    22917210.5984   22917214.8814
       172.0004        171.0004
  -3597304.09647  -2785435.18145  24097959.473    24097960.2304   24097968.1404
       147.0004        151.0004
  -5480632.24047  -4260156.43545  24660317.974    24660319.2324   24660321.3674
       139.0004        144.0004
 -23936859.24449 -18638133.48248  20164769.328    20164770.3154   20164775.0964
       212.0004        213.0004
 -13995650.55449 -10873239.81947  21612539.899    21612540.4554   21612545.2694
       197.0004        197.0004
  -1246892.07248   -940976.42046  24177496.238    24177496.1774   24177504.9184
       179.0004        180.0004
 -18587658.97148 -14460758.52247  21047339.568    21047340.5764   21047347.8844
       194.0004        194.0004
  -1248175.60848   -959425.40546  24517524.441    24517524.5174   24517531.2954
       166.0004        166.0004
  -8421870.91448  -6548326.45646  22330497.290    22330497.9264   22330502.2584
       176.0004        176.0004
 21  1 31  1 55  0.0000000  0 12G21G28G30G19G06G22G07G17G09G01G03G14
  -5134799.71647  -3993915.61045  23750426.392    23750426.6744   23750430.6704
       157.0004        158.0004
  -3966942.13447  -3083440.61246  22973566.940    22973566.4424   22973570.4324
       162.0004        165.0004
 -20967674.18449 -16323060.91148  20439462.063    20439462.2534   20439469.1654
       215.0004        215.0004
 -11021495.10848  -8560788.37146  22907191.965    22907191.2834   22907195.9064
       171.0004        173.0004
  -3705610.24247  -2869829.51845  24077348.838    24077348.5914   24077358.7134
       149.0004        151.0004
  -5498834.25347  -4274339.81645  24656855.777    24656853.9494   24656857.7454
       138.0004        141.0004
 -23911596.19349 -18618448.00948  20169578.361    20169578.3634   20169582.6674
       212.0004        213.0004
 -14002920.65349 -10878904.82647  21611157.435    21611157.4554   21611162.1504
       198.0004        199.0004
  -1172424.62148   -882949.90746  24191667.378    24191667.3104   24191675.5364
       180.0004        180.0004
 -18543967.06848 -14426712.89047  21055653.955    21055654.7534   21055662.0014
       193.0004        193.0004
  -1287754.25148   -990265.91946  24509991.497    24509992.6004   24509999.8264
       165.0004        167.0004
  -8458051.87448  -6576519.41646  22323613.094    22323613.9554   22323617.9154
       177.0004        178.0004
 21  1 31  1 55 30.0000000  0 12G21G28G30G19G06G22G07G17G09G01G03G14
  -5044240.64347  -3923350.09645  23767659.100    23767659.0304   23767665.4324
       156.0004        158.0004
  -3997527.89247  -3107273.66046  22967746.140    22967745.5084   22967750.8524
       164.0004        166.0004
 -21002317.67049 -16350055.83748  20432869.983    20432870.1224   20432877.1244
       215.0004        216.0004
 -11073824.47648  -8601564.48446  22897234.681    22897233.9444   22897237.4634
       173.0004        175.0004
  -3813871.21447  -2954188.64545  24056746.525    24056747.5874   24056757.0974
       149.0004        153.0004
  -5516866.29647  -4288390.74245  24653425.166    24653423.3914   24653426.4514
       137.0004        142.0004
 -23885749.10849 -18598307.43148  20174495.950    20174496.2864   20174501.1474
       212.0004        213.0004
 -14009854.01949 -10884307.42847  21609837.718    21609838.2404   21609843.1374
       198.0004        199.0004
  -1098120.44048   -825050.62346  24205808.189    24205807.3874   24205815.5934
       179.0004        179.0004
 -18499694.72248 -14392214.94447  21064079.369    21064080.1054   21064086.7694
       193.0004        194.0004
  -1327364.79348  -1021131.26646  24502452.992    24502454.6724   24502463.4084
       168.0004        170.0004
  -8494290.83948  -6604757.55546  22316716.915    22316717.4284   22316721.7174
       177.0004        177.0004
 21  1 31  1 56  0.0000000  0 12G21G28G30G19G06G22G07G17G09G01G03G14
  -4953438.45847  -3852595.17145  23784937.589    23784938.0834   23784944.8424
       156.0004        158.0004
  -4028248.79047  -3131211.99046  22961899.235    22961899.5014   22961903.8994
       163.0004        165.0004
 -21036450.52749 -16376652.87648  20426374.739    20426374.6924   20426381.4964
       215.0004        216.0004
 -11125827.14448  -8642086.02346  22887338.795    22887338.1094   22887341.0114
       175.0004        177.0004
  -3922084.60947  -3038510.69145  24036153.803    24036154.8574   24036164.5704
       150.0004        152.0004
  -5534726.55147  -4302307.83145  24650025.847    24650025.4244   24650027.6494
       138.0004        142.0004
 -23859319.03949 -18577712.57948  20179525.576    20179526.5144   20179530.7634
       212.0004        214.0004
 -14016452.73349 -10889449.27547  21608581.520    21608582.1174   21608586.8474
       198.0004        198.0004
  -1023981.99048   -767280.46846  24219914.854    24219915.4554   24219924.2164
       180.0004        181.0004
 -18454843.70148 -14357266.09247  21072614.577    21072614.4094   21072621.9884
       194.0004        194.0004
  -1367005.08348  -1052019.77446  24494912.603    24494912.3864   24494920.4354
       169.0004        170.0004
  -8530587.54248  -6633040.69146  22309810.287    22309810.4464   22309815.0034
       177.0004        177.0004
 21  1 31  1 56 30.0000000  0 12G21G28G30G19G06G22G07G17G09G01G03G14
  -4862395.38747  -3781652.50745  23802262.918    23802263.0374   23802268.0904
       153.0004        154.0004
  -4059103.95047  -3155254.97046  22956028.143    22956027.8364   22956032.9514
       163.0004        165.0004
 -21070070.61349 -16402850.34348  20419977.070    20419976.7304   20419983.7894
       215.0004        215.0004
 -11177502.65048  -8682352.62546  22877505.034    22877503.7484   22877508.8154
       175.0004        175.0004
  -4030247.36947  -3122793.26845  24015571.296    24015572.3044   24015581.4714
       150.0004        153.0004
  -5552412.66147  -4316089.19245  24646659.396    24646659.1154   24646663.1244
       138.0004        143.0004
 -23832305.15149 -18556662.81048  20184666.724    20184666.6024   20184671.2564
       213.0004        213.0004
 -14022718.06749 -10894331.33947  21607389.125    21607389.9394   21607394.5624
       197.0004        197.0004
   -950010.92748   -709640.76646  24233992.747    24233992.9744   24233999.6544
       182.0004        183.0004
 -18409415.03848 -14321867.12647  21081259.072    21081259.4964   21081266.8824
       194.0004        194.0004
  -1406672.26748  -1082929.25046  24487364.103    24487364.0184   24487370.3274
       166.0004        166.0004
  -8566940.87648  -6661367.95946  22302893.117    22302892.3584   22302897.0254
       178.0004        178.0004
 21  1 31  1 57  0.0000000  0 12G21G28G30G19G06G22G07G17G09G01G03G14
  -4771113.14147  -3710523.49245  23819633.117    23819633.8314   23819638.6674
       151.0004        153.0004
  -4090093.11847  -3179402.36146  22950131.378    22950131.4104   22950136.4084
       164.0004        167.0004
 -21103176.12149 -16428646.85748  20413676.893    20413676.9674   20413683.8844
       215.0004        215.0004
 -11228850.80248  -8722364.19146  22867733.894    22867733.1114   22867737.4814
       175.0004        176.0004
  -4138356.56947  -3207034.13445  23994998.427    23995000.5164   23995008.9224
       153.0004        156.0004
  -5569922.03847  -4329732.82145  24643327.979    24643327.6884   24643332.3434
       139.0004        144.0004
 -23804707.94449 -18535158.48848  20189916.944    20189918.4334   20189922.8264
       212.0004        213.0004
 -14028651.45449 -10898954.75047  21606260.624    21606261.1324   21606265.3394
       196.0004        195.0004
   -876209.16248   -652132.99946  24248035.887    24248035.8584   24248044.1354
       182.0004        182.0004
 -18363410.14448 -14286019.14347  21090012.992    21090013.6674   21090021.4354
       193.0004        193.0004
  -1446363.75247  -1113857.68446  24479810.760    24479811.7124   24479816.2744
       163.0004        164.0004
  -8603350.10148  -6689738.78946  22295963.376    22295963.8814   22295969.0014
       178.0004        177.0004
 21  1 31  1 57 30.0000000  0 12G21G28G30G19G06G22G07G17G09G01G03G14
  -4679594.99447  -3639210.64245  23837048.662    23837048.6514   23837051.1054
       150.0004        151.0004
  -4121216.92247  -3203654.65946  22944208.129    22944208.2894   22944212.3194
       164.0004        166.0004
 -21135765.92649 -16454041.51648  20407475.411    20407475.7234   20407482.0884
       215.0004        216.0004
 -11279872.52248  -8762121.34346  22858024.245    22858023.5234   22858027.7664
       175.0004        175.0004
  -4246410.03747  -3291231.57945  23974436.943    23974438.4234   23974447.3814
       151.0004        153.0004
  -5587253.12247  -4343237.58645  24640029.477    24640029.6804   24640033.4634
       139.0004        144.0004
 -23776528.53349 -18513200.54048  20195282.520    20195281.2604   20195285.2254
       213.0004        213.0004
 -14034254.94349 -10903321.07747  21605193.576    21605194.2564   21605198.7574
       195.0004        195.0004
   -802579.25148   -594759.12146  24262045.914    24262046.1124   24262054.7174
       180.0004        180.0004
 -18316830.98048 -14249723.68347  21098876.954    21098877.6724   21098884.8624
       193.0004        193.0004
  -1486077.47647  -1144803.43446  24472251.911    24472252.1794   24472261.6134
       162.0004        163.0004
  -8639815.04848  -6718153.02846  22289025.080    22289025.7834   22289029.2794
       178.0004        180.0004
 21  1 31  1 58  0.0000000  0 12G21G28G30G19G06G22G07G17G09G01G03G14
  -4587842.35947  -3567715.08945  23854509.547    23854508.7624   23854511.4804
       148.0004        151.0004
  -4152474.24647  -3228011.00446  22938260.198    22938260.9354   22938263.9604
       164.0004        166.0004
 -21167837.08549 -16479032.03048  20401372.730    20401372.8664   20401379.3244
       216.0004        216.0004
 -11330566.82548  -8801623.36846  22848377.632    22848376.7934   22848381.0074
       175.0004        175.0004
  -4354403.96047  -3375382.62545  23953886.898    23953887.9584   23953896.7594
       152.0004        155.0004
  -5604402.43347  -4356600.66245  24636766.974    24636765.8104   24636770.2694
       139.0004        143.0004
 -23747766.40749 -18490788.46247  20200751.637    20200754.2044   20200758.0544
       212.0004        212.0004
 -14039528.84249 -10907430.58347  21604190.550    21604190.8984   21604195.1304
       196.0004        197.0004
   -729122.12948   -537519.88346  24276025.828    24276025.7964   24276033.1634
       180.0004        181.0004
 -18269678.02048 -14212981.10947  21107849.301    21107850.4884   21107858.1184
       193.0004        193.0004
  -1525809.98447  -1175763.79146  24464691.028    24464692.2764   24464698.7364
       163.0004        166.0004
  -8676333.96148  -6746609.30846  22282074.719    22282075.2194   22282080.0254
       178.0004        179.0004
 21  1 31  1 58 30.0000000  0 12G21G28G30G19G06G22G07G17G09G01G03G14
  -4495859.35447  -3496040.05345  23872014.235    23872014.0464   23872014.4554
       149.0004        152.0004
  -4183866.15648  -3252472.26046  22932287.642    22932287.9214   22932291.6004
       167.0004        169.0004
 -21199389.19349 -16503618.10948  20395368.291    20395368.5644   20395374.9924
       215.0004        216.0004
 -11380934.64348  -8840871.02046  22838792.777    22838791.7534   22838795.7614
       174.0004        175.0004
  -4462336.78247  -3459486.07245  23933347.579    23933349.1884   23933357.7254
       152.0004        154.0004
  -5621368.99747  -4369821.36345  24633539.613    24633539.2314   24633541.0774
       141.0004        145.0004
 -23718423.28749 -18467923.73947  20206338.739    20206337.7804   20206341.8184
       213.0004        212.0004
 -14044476.66049 -10911286.01947  21603249.187    21603249.3244   21603253.9574
       198.0004        199.0004
   -655841.01648   -480417.79346  24289969.823    24289970.6084   24289978.2084
       181.0004        182.0004
 -18221953.98848 -14175793.55647  21116930.725    21116931.6964   21116939.6134
       192.0004        193.0004
  -1565559.77448  -1206737.67546  24457127.834    24457128.4414   24457135.6134
       167.0004        170.0004
  -8712907.28848  -6775108.01046  22275115.847    22275116.4104   22275120.2754
       179.0004        178.0004
 21  1 31  1 59  0.0000000  0 12G21G28G30G19G06G22G07G17G09G01G03G14
  -4403647.05147  -3424186.30245  23889560.770    23889559.4784   23889563.4734
       148.0004        151.0004
  -4215391.87648  -3277037.73046  22926288.065    22926287.8424   22926292.6574
       167.0004        168.0004
 -21230420.25249 -16527798.15848  20389464.021    20389463.5844   20389470.1904
       216.0004        216.0004
 -11430976.40448  -8879864.58946  22829270.462    22829269.2524   22829273.5044
       174.0004        175.0004
  -4570205.32847  -3543539.41145  23912821.227    23912821.6014   23912831.2834
       151.0004        154.0004
  -5638150.50947  -4382897.86545  24630345.583    24630344.6674   24630347.0204
       142.0004        146.0004
 -23688499.15649 -18444606.22848  20212031.786    20212032.5284   20212036.1994
       212.0004        213.0004
 -14049099.34349 -10914888.07547  21602368.972    21602369.5804   21602374.4484
       198.0004        198.0004
   -582737.52348   -423454.09246  24303881.512    24303881.3314   24303889.7064
       181.0004        182.0004
 -18173660.17048 -14138162.00247  21126121.026    21126121.8914   21126129.5734
       192.0004        193.0004
  -1605324.09948  -1237722.83946  24449560.530    24449561.1644   24449568.5144
       168.0004        169.0004
  -8749533.99648  -6803648.30946  22268145.749    22268146.4104   22268150.5584
       179.0004        179.0004
 21  1 31  1 59 30.0000000  0 12G21G28G30G19G06G22G07G17G09G01G03G14
  -4311208.29447  -3352156.09845  23907149.522    23907150.5614   23907154.5154
       147.0004        149.0004
  -4247051.03448  -3301707.17546  22920262.738    22920263.0164   22920267.2944
       167.0004        168.0004
 -21260928.52649 -16551570.84348  20383658.343    20383657.9464   20383665.1814
       216.0004        216.0004
 -11480691.78248  -8918603.85546  22819810.273    22819809.6574   22819813.6134
       176.0004        177.0004
  -4678006.95247  -3627540.58745  23892306.788    23892307.4544   23892317.2704
       151.0004        153.0004
  -5654744.57247  -4395828.29145  24627187.471    24627186.7354   24627189.0834
       140.0004        144.0004
 -23657994.32549 -18420836.24747  20217837.406    20217837.4914   20217841.6684
       212.0004        212.0004
 -14053398.03149 -10918237.67747  21601551.244    21601551.8824   21601556.3444
       198.0004        198.0004
   -509813.54648   -366630.26746  24317759.664    24317759.5834   24317766.7194
       183.0004        185.0004
 -18124797.96748 -14100087.54947  21135419.871    21135420.2094   21135427.9424
       192.0004        193.0004
  -1645100.30748  -1268717.25046  24441991.804    24441991.4424   24441999.5684
       166.0004        167.0004
  -8786213.20048  -6832229.48246  22261166.083    22261166.5824   22261171.2754
       180.0004        180.0004
 21  1 31  2  0  0.0000000  0 12G21G28G30G19G06G22G07G17G09G01G03G14
  -4218545.31147  -3279951.20945  23924784.107    23924783.4624   23924787.0424
       146.0004        149.0004
  -4278843.23848  -3326480.31846  22914213.205    22914212.7894   22914216.8124
       165.0004        166.0004
 -21290912.15449 -16574934.71048  20377952.705    20377952.5794   20377959.2364
       216.0004        217.0004
 -11530080.87448  -8957088.85846  22810411.710    22810410.6084   22810414.6514
       175.0004        175.0004
  -4785738.54847  -3711487.23445  23871806.998    23871807.2394   23871815.0304
       149.0004        152.0004
  -5671148.71147  -4408610.72345  24624064.039    24624063.7314   24624068.5254
       140.0004        145.0004
 -23626909.30349 -18396614.15247  20223750.822    20223751.6614   20223757.0814
       212.0004        212.0004
 -14057374.92849 -10921336.53547  21600794.484    21600794.8334   21600799.5114
       198.0004        198.0004
   -437070.81248   -309947.69146  24331601.913    24331602.1704   24331609.1014
       184.0004        185.0004
 -18075368.81248 -14061571.30847  21144825.279    21144825.8474   21144833.5734
       192.0004        192.0004
  -1684885.59648  -1299718.76746  24434421.401    24434421.4964   24434428.6594
       167.0004        169.0004
  -8822943.94948  -6860850.85546  22254176.717    22254177.4264   22254180.5234
       180.0004        180.0004
 21  1 31  2  0 30.0000000  0 12G21G28G30G19G06G22G07G17G09G01G03G14
  -4125661.14147  -3207573.94045  23942460.492    23942458.4374   23942462.1294
       146.0004        150.0004
  -4310768.61848  -3351357.21646  22908138.411    22908138.1554   22908143.0904
       165.0004        167.0004
 -21320369.95749 -16597888.84648  20372347.097    20372346.9404   20372353.4854
       216.0004        216.0004
 -11579144.01848  -8995319.86246  22801074.892    22801074.0444   22801078.9964
       175.0004        176.0004
  -4893397.75347  -3795377.43845  23851318.186    23851320.5714   23851328.4764
       149.0004        152.0004
  -5687361.07447  -4421243.71945  24620978.815    24620977.7194   24620982.6284
       139.0004        143.0004
 -23595245.08749 -18371940.76347  20229777.959    20229778.3854   20229782.3284
       211.0004        212.0004
 -14061031.27549 -10924185.61147  21600098.683    21600098.8594   21600103.5074
       197.0004        197.0004
   -364511.70148   -253408.20746  24345409.824    24345409.3334   24345416.9114
       184.0004        184.0004
 -18025374.70349 -14022614.87447  21154339.093    21154340.2454   21154347.3214
       206.0004        209.0004
  -1724677.83548  -1330725.66946  24426845.605    24426847.6104   24426856.5834
       166.0004        167.0004
  -8859725.90948  -6889512.09446  22247177.139    22247177.5164   22247182.0924
       180.0004        181.0004
 21  1 31  2  1  0.0000000  0 12G21G28G30G19G06G22G07G17G09G01G03G14
  -4032557.10747  -3135025.35945  23960176.755    23960174.8104   23960179.6294
       147.0004        151.0004
  -4342826.15748  -3376337.11246  22902038.975    22902038.4344   22902041.1574
       166.0004        168.0004
 -21349299.45249 -16620431.31548  20366841.612    20366841.8024   20366848.5114
       216.0004        217.0004
 -11627880.67348  -9033296.46846  22791800.565    22791799.5144   22791803.6614
       174.0004        173.0004
  -5000980.91347  -3879208.38945  23830846.697    23830846.5604   23830856.5704
       149.0004        152.0004
  -5703378.87447  -4433725.12945  24617930.660    24617930.6534   24617934.5434
       139.0004        144.0004
 -23563001.90749 -18346816.19647  20235912.897    20235913.1714   20235918.0604
       211.0004        212.0004
 -14064368.91749 -10926786.34347  21599463.495    21599463.9174   21599468.2804
       197.0004        197.0004
   -292137.25848   -197012.59446  24359178.871    24359180.2034   24359190.2844
       182.0004        181.0004
 -17974816.51449 -13983218.85947  21163959.919    21163960.4314   21163968.1354
       210.0004        209.0004
  -1764473.53448  -1361735.31846  24419272.935    24419274.6544   24419284.7014
       165.0004        167.0004
  -8896557.38548  -6918211.94646  22240169.622    22240169.2544   22240172.8174
       181.0004        181.0004
 21  1 31  2  1 30.0000000  0 12G21G28G30G19G06G22G07G17G09G01G03G14
  -3939235.86747  -3062307.53145  23977934.910    23977934.4814   23977938.8634
       148.0004        152.0004
  -4375015.61248  -3401419.81946  22895912.890    22895913.2774   22895916.5524
       166.0004        168.0004
 -21377699.06149 -16642560.89248  20361437.250    20361437.2094   20361444.2804
       216.0004        216.0004
 -11676291.26748  -9071018.99246  22782588.577    22782587.5874   22782592.0804
       173.0004        174.0004
  -5108485.24147  -3962977.93145  23810389.615    23810390.1174   23810398.5674
       151.0004        155.0004
  -5719200.03047  -4446053.30845  24614919.952    24614919.8774   24614925.0234
       139.0004        143.0004
 -23530179.55849 -18321240.35947  20242158.627    20242159.2714   20242163.5704
       211.0004        212.0004
 -14067388.91949 -10929139.58547  21598889.405    21598889.4984   21598893.8804
       197.0004        198.0004
   -219949.37348   -140762.33946  24372916.770    24372917.5784   24372927.3984
       181.0004        181.0004
 -17923695.77949 -13943384.52048  21173686.933    21173688.1954   21173695.7474
       219.0004        223.0004
  -1804270.15048  -1392745.65246  24411699.876    24411701.8064   24411710.9884
       165.0004        166.0004
  -8933437.57148  -6946949.74946  22233149.039    22233149.8604   22233155.1864
       179.0004        178.0004
 21  1 31  2  2  0.0000000  0 12G21G28G30G19G06G22G07G17G09G01G03G14
  -3845700.60947  -2989422.94245  23995732.949    23995732.5484   23995737.7424
       149.0004        152.0004
  -4407337.79048  -3426605.91646  22889760.578    22889761.6534   22889765.9644
       166.0004        169.0004
 -21405568.25849 -16664277.15148  20356134.307    20356134.1784   20356140.7084
       216.0004        216.0004
 -11724376.67348  -9108488.12746  22773438.034    22773437.5174   22773441.3804
       173.0004        175.0004
  -5215908.92047  -4046684.65345  23789946.993    23789948.0564   23789956.8644
       152.0004        155.0004
  -5734822.60747  -4458226.75145  24611948.504    24611947.6444   24611951.6664
       139.0004        143.0004
 -23496779.81949 -18295214.60047  20248515.100    20248515.4944   20248519.5104
       211.0004        211.0004
 -14070093.94149 -10931247.38447  21598374.630    21598374.9994   21598378.9624
       198.0004        198.0004
   -147950.96248    -84659.74246  24386619.474    24386619.6304   24386627.7934
       182.0004        183.0004
 -17872015.27649 -13903113.99748  21183521.733    21183522.9384   21183530.2534
       222.0004        223.0004
  -1844066.11048  -1423755.48546  24404130.513    24404129.6574   24404137.9814
       167.0004        169.0004
  -8970366.66648  -6975725.65346  22226122.655    22226123.1444   22226128.6954
       180.0004        182.0004
 21  1 31  2  2 30.0000000  0 12G21G28G30G19G06G22G07G17G09G01G03G14
  -3751954.24747  -2916373.83745  24013572.586    24013571.7264   24013577.7854
       149.0004        151.0004
  -4439791.99148  -3451894.91546  22883586.892    22883586.3744   22883589.9514
       168.0004        170.0004
 -21432905.20649 -16685578.68348  20350931.808    20350931.9624   20350938.7804
       216.0004        216.0004
 -11772136.59648  -9145703.65446  22764350.488    22764348.8824   22764352.9154
       175.0004        177.0004
  -5323248.94047  -4130326.15945  23769519.577    23769521.3724   23769530.3954
       152.0004        155.0004
  -5750244.41947  -4470243.73845  24609014.839    24609013.8574   24609015.8024
       139.0004        144.0004
 -23462803.29849 -18268739.40447  20254979.381    20254980.3524   20254985.4924
       211.0004        211.0004
 -14072485.45449 -10933110.88447  21597919.073    21597919.3824   21597923.8964
       197.0004        197.0004
    -76143.60648    -28706.03746  24400284.891    24400284.8204   24400292.7864
       183.0004        183.0004
 -17819776.42149 -13862408.39948  21193463.524    21193464.2704   21193470.6984
       223.0004        223.0004
  -1883858.50648  -1454762.53546  24396558.057    24396557.6934   24396564.9624
       168.0004        169.0004
  -9007343.54348  -7004538.79646  22219086.024    22219086.8394   22219091.6294
       181.0004        182.0004
 21  1 31  2  3  0.0000000  0 12G21G28G30G19G06G22G07G17G09G01G03G14
  -3657999.01447  -2843161.99745  24031450.925    24031451.3104   24031455.7624
       147.0004        148.0004
  -4472378.58448  -3477287.05946  22877384.908    22877385.7614   22877389.2214
       170.0004        172.0004
 -21459709.06249 -16706464.80548  20345830.966    20345831.3934   20345838.0644
       216.0004        216.0004
 -11819572.47148  -9182666.68346  22755323.091    22755322.7204   22755325.7184
       175.0004        176.0004
  -5430503.12347  -4213900.75445  23749111.805    23749112.4214   23749120.5044
       154.0004        156.0004
  -5765464.32547  -4482103.39145  24606116.421    24606115.2474   24606120.0094
       138.0004        142.0004
 -23428251.45749 -18241815.92547  20261556.005    20261556.7164   20261560.1804
       211.0004        211.0004
 -14074566.29749 -10934732.30147  21597522.284    21597522.7844   21597527.5354
       196.0004        196.0004
     -4529.89348     27096.78446  24413911.509    24413912.1534   24413919.6354
       181.0004        180.0004
 -17766981.63449 -13821269.59248  21203510.150    21203510.3504   21203516.7504
       223.0004        222.0004
  -1923645.41448  -1485765.30346  24388986.435    24388987.0174   24388994.2014
       170.0004        172.0004
  -9044368.02948  -7033389.04746  22212040.343    22212041.3434   22212045.9304
       181.0004        182.0004
