     2.11           OBSERVATION DATA    G (GPS)             RINEX VERSION / TYPE
teqc  2018Jun8                          20210202 03:10:39UTCPGM / RUN BY / DATE
Linux2.6.32-573.12.1.el6.x86_64|x86_64|gcc|Win64-MinGW64|=+ COMMENT
BIT 2 OF LLI FLAGS DATA COLLECTED UNDER A/S CONDITION       COMMENT
-Unknown-                                                   MARKER NAME
CRNO                                                        MARKER NUMBER
-Unknown-           -Unknown-                               OBSERVER / AGENCY
-Unknown-           ASHTECH             -Unknown-           REC # / TYPE / VERS
-Unknown-           -Unknown-                               ANT # / TYPE
   408077.8019 -6158368.6978  1605161.6147                  APPROX POSITION XYZ
        0.0000        0.0000        0.0000                  ANTENNA: DELTA H/E/N
     1     1                                                WAVELENGTH FACT L1/2
     7    L1    L2    C1    P1    P2    S1    S2            # / TYPES OF OBSERV
    30.0000                                                 INTERVAL
Forced Modulo Decimation to 30 seconds                      COMMENT
 SNR is mapped to RINEX snr flag value [1-9]                COMMENT
  L1: 1 -> 1;  90 -> 5; 210 -> 9                            COMMENT
  L2: 1 -> 1; 150 -> 5; 250 -> 9                            COMMENT
pseudorange smoothing corrections not applied               COMMENT
  2021     2     6     0     0   30.0000000     GPS         TIME OF FIRST OBS
                                                            END OF HEADER
 21  2  6  0  0 30.0000000  0  8G07G08G27G21G04G09G01G03
  -7179007.07248  -5580525.08046  23441810.333    23441811.8484   23441816.5674
       168.0004        169.0004
 -23920779.72449 -18613705.55347  20268310.744    20268310.7824   20268318.4704
       211.0004        211.0004
 -15838301.14249 -12290684.48747  22267139.096    22267139.5574   22267147.2254
       211.0004        211.0004
  -8674706.73247  -6743217.52046  22464805.881    22464807.1164   22464812.1004
       164.0004        166.0004
 -20530844.73049 -15985079.36147  20596552.901    20596553.1514   20596559.3714
       206.0004        205.0004
 -19000742.31749 -14757458.88347  20878209.581    20878209.7574   20878216.5794
       211.0004        212.0004
  -5418195.95847  -4207614.58745  23706282.094    23706283.9434   23706293.3684
       147.0004        151.0004
    774201.61148    616596.36446  24522502.105    24522503.4744   24522512.8674
       169.0004        169.0004
 21  2  6  0  1  0.0000000  0  8G07G08G27G21G04G09G01G03
  -7251044.95248  -5636658.47146  23428102.785    23428103.3404   23428108.2324
       168.0004        171.0004
 -23892225.16249 -18591455.24047  20273744.325    20273744.7234   20273751.9694
       211.0004        211.0004
 -15749195.06749 -12221251.19347  22284095.369    22284096.0934   22284103.3874
       211.0004        211.0004
  -8721260.53047  -6779493.19546  22455946.456    22455946.8744   22455953.6214
       163.0004        165.0004
 -20483953.69349 -15948540.90647  20605476.237    20605476.6754   20605482.0154
       206.0004        204.0004
 -19025132.51249 -14776464.23947  20873567.999    20873568.3244   20873575.0044
       212.0004        212.0004
  -5492120.55947  -4265218.12345  23692215.931    23692215.6604   23692226.2044
       148.0004        151.0004
    825467.11048    656543.46846  24532259.077    24532259.7114   24532268.8794
       169.0004        170.0004
 21  2  6  0  1 30.0000000  0  8G07G08G27G21G04G09G01G03
  -7323187.64848  -5692873.56446  23414376.108    23414376.1854   23414380.5784
       172.0004        175.0004
 -23863101.11249 -18568761.17247  20279286.650    20279287.0904   20279294.3344
       211.0004        212.0004
 -15659751.96949 -12151555.27147  22301117.538    22301117.0594   22301123.8564
       211.0004        211.0004
  -8767639.39447  -6815632.55646  22447121.747    22447121.6554   22447128.0514
       163.0004        164.0004
 -20436552.96849 -15911605.27947  20614495.804    20614496.5444   20614502.2984
       205.0004        204.0004
 -19048965.10649 -14795035.10547  20869032.348    20869033.1334   20869039.7804
       211.0004        212.0004
  -5566185.57247  -4322931.07445  23678122.645    23678122.1784   23678131.9244
       148.0004        152.0004
    876496.35648    696306.46846  24541969.958    24541970.0374   24541978.4574
       168.0004        169.0004
 21  2  6  0  2  0.0000000  0  8G07G08G27G21G04G09G01G03
  -7395434.32748  -5749169.66446  23400627.261    23400627.0024   23400632.4234
       173.0004        174.0004
 -23833409.24349 -18545624.64347  20284936.858    20284937.3284   20284944.2754
       211.0004        211.0004
 -15569975.19849 -12081599.35747  22318201.358    22318201.0704   22318208.0694
       211.0004        211.0004
  -8813841.26547  -6851634.01446  22438331.226    22438330.7104   22438334.5224
       164.0004        166.0004
 -20388644.61749 -15874274.10947  20623612.497    20623612.9034   20623618.5234
       205.0004        203.0004
 -19072239.75649 -14813171.20247  20864604.085    20864604.3294   20864610.7374
       211.0004        212.0004
  -5640388.87047  -4380751.77545  23664001.547    23664003.3824   23664010.0704
       149.0004        152.0004
    927287.41948    735883.87746  24551635.454    24551635.5434   24551645.0394
       169.0004        171.0004
 21  2  6  0  2 30.0000000  0  8G07G08G27G21G04G09G01G03
  -7467781.16248  -5805543.79146  23386858.465    23386860.1104   23386864.1564
       172.0004        173.0004
 -23803149.48449 -18522045.56847  20290695.171    20290695.3304   20290702.8614
       211.0004        211.0004
 -15479865.97349 -12011384.34647  22335346.182    22335348.0324   22335354.9354
       211.0004        211.0004
  -8859861.20348  -6887493.65846  22429572.873    22429572.5114   22429578.1874
       165.0004        166.0004
 -20340228.67249 -15836547.38447  20632826.187    20632826.5944   20632832.0584
       205.0004        203.0004
 -19094954.01649 -14830870.59647  20860281.840    20860281.9564   20860288.3274
       212.0004        212.0004
  -5714726.28447  -4438676.97545  23649856.271    23649857.2644   23649864.6524
       149.0004        153.0004
    977840.42148    775275.82346  24561255.007    24561255.3704   24561264.7914
       170.0004        171.0004
 21  2  6  0  3  0.0000000  0  8G07G08G27G21G04G09G01G03
  -7540226.59548  -5861994.82646  23373076.012    23373075.0864   23373078.4324
       173.0004        175.0004
 -23772322.15549 -18498024.28547  20296561.044    20296561.3704   20296569.2424
       211.0004        211.0004
 -15389426.30749 -11940911.90947  22352557.252    22352557.7274   22352564.5304
       211.0004        210.0004
  -8905695.39548  -6923208.58746  22420850.685    22420850.4924   22420856.4554
       165.0004        167.0004
 -20291305.96749 -15798425.82047  20642135.496    20642135.9504   20642141.7604
       205.0004        203.0004
 -19117106.21849 -14848132.07747  20856065.796    20856066.4934   20856073.0654
       212.0004        212.0004
  -5789194.35747  -4496703.99945  23635686.359    23635685.3524   23635694.0394
       150.0004        153.0004
   1028154.73148    814481.70946  24570827.530    24570828.3384   24570838.0384
       166.0004        165.0004
 21  2  6  0  3 30.0000000  0  8G07G08G27G21G04G09G01G03
  -7612770.51948  -5918522.52646  23359269.171    23359268.8394   23359273.4504
       171.0004        170.0004
 -23740929.93449 -18473562.78247  20302534.577    20302535.1574   20302543.1524
       211.0004        212.0004
 -15298660.52149 -11870185.30247  22369829.044    22369830.0284   22369836.2954
       209.0004        208.0004
  -8951342.43648  -6958777.69046  22412165.522    22412165.1884   22412168.8144
       165.0004        166.0004
 -20241879.55649 -15759911.72047  20651541.097    20651541.5094   20651547.8064
       205.0004        203.0004
 -19138696.97849 -14864956.02747  20851957.005    20851957.4804   20851964.5494
       212.0004        212.0004
  -5863791.96647  -4554831.92345  23621489.733    23621490.3014   23621498.2614
       150.0004        153.0004
   1078227.55048    853499.47746  24580356.948    24580357.8634   24580365.5884
       165.0004        166.0004
 21  2  6  0  4  0.0000000  0  8G07G08G27G21G04G09G01G03
  -7685411.01048  -5975125.51446  23345446.737    23345447.4184   23345450.4964
       170.0004        172.0004
 -23708974.49749 -18448662.44447  20308616.474    20308616.4684   20308623.9754
       211.0004        212.0004
 -15207571.10849 -11799206.54747  22387163.310    22387164.3604   22387170.3134
       209.0004        209.0004
  -8996799.28448  -6994198.60446  22403514.309    22403514.9884   22403519.7224
       165.0004        166.0004
 -20191950.86649 -15721006.26347  20661042.229    20661042.6504   20661048.6634
       204.0004        203.0004
 -19159725.21149 -14881341.67947  20847956.140    20847956.2264   20847962.8384
       212.0004        212.0004
  -5938516.05647  -4613058.43445  23607270.766    23607270.7194   23607278.5654
       151.0004        154.0004
   1128057.75648    892328.15346  24589839.726    24589840.4984   24589847.7204
       167.0004        169.0004
 21  2  6  0  4 30.0000000  0  8G07G08G27G21G04G09G01G03
  -7758146.63648  -6031802.63146  23331605.256    23331605.4334   23331610.4994
       171.0004        173.0004
 -23676456.97849 -18423324.10547  20314803.848    20314804.3894   20314811.5294
       211.0004        211.0004
 -15116160.97249 -11727977.86347  22404558.115    22404558.5744   22404565.2704
       209.0004        208.0004
  -9042063.07848  -7029469.06446  22394901.506    22394900.6444   22394906.4414
       165.0004        166.0004
 -20141521.65349 -15681710.77947  20670638.593    20670639.1374   20670645.0264
       204.0004        203.0004
 -19180190.25849 -14897288.46447  20844061.455    20844061.5734   20844068.4124
       211.0004        212.0004
  -6013364.05347  -4671381.48945  23593028.607    23593028.7754   23593035.6664
       153.0004        156.0004
   1177643.79748    930966.58146  24599277.116    24599277.0194   24599284.9664
       169.0004        171.0004
 21  2  6  0  5  0.0000000  0  8G07G08G27G21G04G09G01G03
  -7830976.30548  -6088553.00946  23317745.575    23317746.6794   23317751.7314
       172.0004        174.0004
 -23643379.74349 -18397549.62647  20321098.387    20321098.8344   20321105.7604
       211.0004        211.0004
 -15024433.67149 -11656502.05247  22422012.343    22422013.7034   22422019.8914
       208.0004        207.0004
  -9087131.67248  -7064587.44146  22386325.874    22386325.2334   22386329.7334
       165.0004        166.0004
 -20090594.31049 -15642027.13547  20680330.053    20680330.1974   20680335.7504
       204.0004        202.0004
 -19200092.02749 -14912796.33447  20840274.087    20840274.6844   20840281.5974
       212.0004        212.0004
  -6088334.01347  -4729799.60045  23578760.796    23578761.5374   23578768.9664
       154.0004        157.0004
   1226983.66348    969413.20646  24608664.394    24608665.6174   24608674.6484
       170.0004        171.0004
 21  2  6  0  5 30.0000000  0  8G07G08G27G21G04G09G01G03
  -7903897.76148  -6145374.87346  23303868.613    23303869.6124   23303874.9574
       172.0004        172.0004
 -23609743.31849 -18371339.40247  20327498.819    20327499.8454   20327506.3424
       211.0004        211.0004
 -14932391.17449 -11584780.61847  22439529.357    22439529.1784   22439535.2694
       208.0004        208.0004
  -9132001.26248  -7099550.73746  22377786.731    22377786.0024   22377791.7934
       165.0004        166.0004
 -20039169.67349 -15601955.99247  20690115.215    20690115.7484   20690121.7374
       203.0004        202.0004
 -19219428.93049 -14927864.04047  20836595.172    20836595.2154   20836601.4654
       212.0004        212.0004
  -6163422.42247  -4788309.95045  23564472.012    23564472.7924   23564480.5934
       154.0004        156.0004
   1276076.92848   1007667.68246  24618007.927    24618008.0294   24618016.5884
       172.0004        173.0004
 21  2  6  0  6  0.0000000  0  8G07G08G27G21G04G09G01G03
  -7976910.25748  -6202267.71446  23289975.828    23289976.3124   23289978.9204
       170.0004        171.0004
 -23575549.78749 -18344695.08447  20334006.068    20334006.3374   20334013.2014
       211.0004        212.0004
 -14840037.02349 -11512816.34147  22457103.553    22457103.6714   22457109.6974
       208.0004        208.0004
  -9176669.27948  -7134356.96546  22369286.906    22369285.8904   22369291.0664
       165.0004        166.0004
 -19987250.24449 -15561499.29947  20699995.202    20699995.4034   20700001.4264
       203.0004        201.0004
 -19238201.00149 -14942491.63547  20833022.449    20833022.7624   20833029.4784
       212.0004        212.0004
  -6238627.18147  -4846911.00845  23550160.110    23550160.0784   23550169.1164
       153.0004        154.0004
   1324921.45648   1045728.31346  24627302.035    24627302.6484   24627312.2914
       172.0004        173.0004
 21  2  6  0  6 30.0000000  0  8G07G08G27G21G04G09G01G03
  -8050011.70448  -6259229.87846  23276065.307    23276065.6324   23276068.8664
       170.0004        173.0004
 -23540800.55949 -18317617.76147  20340618.489    20340618.7414   20340626.4044
       211.0004        211.0004
 -14747373.66349 -11440611.12747  22474736.729    22474737.2084   22474743.1424
       208.0004        207.0004
  -9221133.04148  -7169004.02746  22360825.622    22360825.5014   22360829.9224
       165.0004        168.0004
 -19934837.37149 -15520658.10047  20709969.330    20709969.6164   20709975.5994
       203.0004        202.0004
 -19256407.18549 -14956678.27747  20829557.397    20829558.0844   20829565.0874
       212.0004        212.0004
  -6313945.30247  -4905600.38645  23535827.629    23535828.2064   23535835.8814
       151.0004        154.0004
   1373516.28348   1083594.36946  24636549.419    24636549.7534   24636558.6424
       170.0004        170.0004
 21  2  6  0  7  0.0000000  0  8G07G08G27G21G04G09G01G03
  -8123201.85548  -6316261.12946  23262137.814    23262138.5334   23262142.0674
       172.0004        173.0004
 -23505498.21649 -18290109.43747  20347336.197    20347336.3084   20347343.9394
       211.0004        211.0004
 -14654405.20649 -11368168.17147  22492428.203    22492427.8484   22492435.2594
       207.0004        207.0004
  -9265390.70147  -7203490.49646  22352401.921    22352401.4874   22352408.2804
       164.0004        165.0004
 -19881934.07749 -15479434.76547  20720036.591    20720036.7314   20720043.1184
       203.0004        201.0004
 -19274048.05349 -14970424.41048  20826201.089    20826201.2454   20826208.3914
       212.0004        213.0004
  -6389375.21047  -4964376.87345  23521473.557    23521473.4464   23521482.9724
       153.0004        155.0004
   1421858.91548   1121263.89846  24645748.220    24645748.9064   24645757.3234
       167.0004        168.0004
 21  2  6  0  7 30.0000000  0  8G07G08G27G21G04G09G01G03
  -8196478.43548  -6373359.75646  23248193.146    23248194.5044   23248197.9934
       171.0004        170.0004
 -23469644.12749 -18262171.17847  20354159.195    20354159.2794   20354166.8274
       211.0004        211.0004
 -14561134.22849 -11295489.48747  22510177.261    22510177.0304   22510183.9174
       208.0004        207.0004
  -9309439.14948  -7237813.96046  22344021.208    22344020.8084   22344026.5874
       165.0004        166.0004
 -19828541.86749 -15437830.45047  20730195.902    20730196.7294   20730203.3214
       203.0004        201.0004
 -19291122.67449 -14983729.31148  20822951.552    20822952.2014   20822958.8734
       213.0004        213.0004
  -6464913.89747  -5023238.11845  23507100.078    23507099.9994   23507108.8224
       154.0004        157.0004
   1469948.35248   1158736.15346  24654899.253    24654900.3294   24654909.3304
       168.0004        170.0004
 21  2  6  0  8  0.0000000  0  8G07G08G27G21G04G09G01G03
  -8269840.48348  -6430524.98146  23234232.623    23234233.4834   23234237.6954
       169.0004        170.0004
 -23433239.90349 -18233804.24547  20361086.368    20361086.6864   20361094.1004
       210.0004        211.0004
 -14467563.61349 -11222577.32547  22527981.824    22527982.7484   22527990.0454
       207.0004        206.0004
  -9353275.06847  -7271971.81546  22335679.182    22335678.9814   22335683.3504
       164.0004        164.0004
 -19774662.72949 -15395846.71747  20740449.667    20740450.2414   20740455.6944
       203.0004        202.0004
 -19307630.66649 -14996592.68148  20819810.303    20819810.4794   20819817.7604
       213.0004        213.0004
  -6540558.82347  -5082182.16845  23492704.251    23492705.2214   23492713.7634
       155.0004        156.0004
   1517783.08948   1196009.93946  24664002.934    24664003.6734   24664012.6334
       170.0004        171.0004
 21  2  6  0  8 30.0000000  0  8G07G08G27G21G04G09G01G03
  -8343286.22048  -6487755.41346  23220257.699    23220257.9944   23220260.7674
       170.0004        172.0004
 -23396287.29349 -18205010.00347  20368118.549    20368118.6474   20368125.6544
       210.0004        211.0004
 -14373696.56349 -11149434.18447  22545845.018    22545845.1994   22545851.7334
       206.0004        205.0004
  -9396896.54247  -7305962.53846  22327377.194    22327377.6524   22327382.9054
       164.0004        166.0004
 -19720298.75249 -15353485.18047  20750794.722    20750795.2024   20750801.3894
       203.0004        202.0004
 -19323571.71249 -15009014.27547  20816776.752    20816777.2284   20816783.7984
       212.0004        212.0004
  -6616307.42547  -5141207.00345  23478289.656    23478290.6254   23478299.2044
       153.0004        155.0004
   1565361.57848   1233084.03246  24673056.892    24673057.4944   24673066.0664
       170.0004        171.0004
 21  2  6  0  9  0.0000000  0  8G07G08G27G21G04G09G01G03
  -8416813.42448  -6545049.32046  23206263.900    23206264.5194   23206268.5314
       170.0004        170.0004
 -23358788.04449 -18175789.81347  20375253.553    20375254.3484   20375261.7044
       210.0004        211.0004
 -14279535.46849 -11076061.91647  22563761.906    22563762.8764   22563770.0034
       204.0004        204.0004
  -9440299.96248  -7339783.38446  22319119.491    22319119.5614   22319123.0324
       166.0004        168.0004
 -19665451.42149 -15310747.01047  20761231.413    20761232.0344   20761238.3924
       203.0004        202.0004
 -19338944.80849 -15020993.31748  20813851.775    20813852.1434   20813858.2244
       212.0004        213.0004
  -6692156.57747  -5200310.17845  23463854.395    23463855.4624   23463865.0064
       152.0004        155.0004
   1612682.98648   1269957.80346  24682060.857    24682061.6484   24682071.1544
       168.0004        169.0004
 21  2  6  0  9 30.0000000  0  8G07G08G27G21G04G09G01G03
  -8490421.75348  -6602406.42946  23192256.447    23192258.3254   23192263.2184
       170.0004        172.0004
 -23320744.52449 -18146145.50147  20382493.268    20382493.8234   20382501.3184
       210.0004        211.0004
 -14185084.07749 -11002463.42747  22581735.479    22581736.1714   22581743.8534
       204.0004        204.0004
  -9483483.16848  -7373432.63146  22310902.720    22310902.1134   22310906.5524
       167.0004        167.0004
 -19610123.43749 -15267634.29447  20771760.194    20771760.4434   20771766.8414
       203.0004        201.0004
 -19353750.32649 -15032530.07948  20811034.473    20811034.9454   20811041.1384
       213.0004        214.0004
  -6768104.26547  -5259490.13545  23449403.755    23449404.6424   23449413.9144
       154.0004        158.0004
   1659745.19248   1306629.63846  24691016.313    24691016.5804   24691026.0464
       167.0004        168.0004
 21  2  6  0 10  0.0000000  0  8G07G08G27G21G04G09G01G03
  -8564109.06248  -6659825.10146  23178235.565    23178235.6164   23178239.9654
       172.0004        172.0004
 -23282157.82849 -18116077.94747  20389835.791    20389836.5384   20389843.9604
       210.0004        210.0004
 -14090344.68149 -10928640.52147  22599762.915    22599763.7124   22599772.1414
       203.0004        203.0004
  -9526443.09348  -7406907.87446  22302725.570    22302725.9874   22302731.4984
       165.0004        165.0004
 -19554316.13549 -15224148.09847  20782380.034    20782380.2724   20782386.7564
       202.0004        201.0004
 -19367987.22849 -15043623.77648  20808325.149    20808325.6504   20808332.0744
       213.0004        214.0004
  -6844147.15147  -5318744.28945  23434933.172    23434932.9944   23434942.7014
       154.0004        156.0004
   1706547.50748   1343098.93646  24699922.650    24699924.0744   24699933.8954
       170.0004        172.0004
 21  2  6  0 10 30.0000000  0  8G07G08G27G21G04G09G01G03
  -8637874.50048  -6717304.64646  23164197.870    23164198.7984   23164202.5544
       170.0004        172.0004
 -23243030.66349 -18085589.24547  20397282.021    20397282.7034   20397289.7364
       210.0004        211.0004
 -13995321.59149 -10854596.57047  22617845.477    22617846.4024   22617854.0404
       203.0004        203.0004
  -9569177.49247  -7440207.38846  22294593.738    22294594.3104   22294599.1724
       164.0004        165.0004
 -19498032.89049 -15180291.03547  20793090.087    20793090.9154   20793096.7834
       202.0004        201.0004
 -19381656.51249 -15054275.16648  20805723.678    20805724.1884   20805730.9064
       213.0004        213.0004
  -6920283.96747  -5378071.61945  23420442.819    23420445.1614   23420453.3744
       153.0004        155.0004
   1753087.31348   1379363.67146  24708779.757    24708780.1924   24708790.3324
       170.0004        171.0004
 21  2  6  0 11  0.0000000  0  8G07G08G27G21G04G09G01G03
  -8711716.04248  -6774843.50446  23150147.597    23150147.5814   23150151.6604
       171.0004        173.0004
 -23203364.77549 -18054680.74947  20404830.325    20404830.4304   20404837.7544
       210.0004        210.0004
 -13900016.84849 -10780333.13747  22635983.264    22635983.1004   22635990.0464
       202.0004        203.0004
  -9611683.54048  -7473328.97546  22286507.106    22286506.8334   22286511.3224
       165.0004        165.0004
 -19441274.84649 -15136064.00047  20803891.805    20803892.1174   20803897.3384
       202.0004        201.0004
 -19394756.92649 -15064483.27748  20803230.944    20803231.4444   20803237.9724
       213.0004        214.0004
  -6996511.07847  -5437469.32045  23405939.404    23405939.3194   23405948.0404
       153.0004        157.0004
   1799364.06348   1415423.44046  24717585.147    24717585.2324   24717595.5744
       167.0004        167.0004
 21  2  6  0 11 30.0000000  0  8G07G08G27G21G04G09G01G03
  -8785633.12648  -6832441.19146  23136080.426    23136081.4944   23136086.1284
       171.0004        172.0004
 -23163162.46549 -18023354.26347  20412479.986    20412480.4414   20412488.1244
       210.0004        210.0004
 -13804434.67949 -10705853.52947  22654171.347    22654171.1104   22654178.9994
       203.0004        202.0004
  -9653959.58347  -7506271.31445  22278457.861    22278458.3924   22278465.1854
       163.0004        162.0004
 -19384045.30649 -15091469.55047  20814781.247    20814781.9814   20814788.4324
       202.0004        201.0004
 -19407289.40049 -15074248.84548  20800846.130    20800846.7904   20800853.2654
       213.0004        214.0004
  -7072826.87447  -5496936.15545  23391416.989    23391417.7214   23391425.5324
       154.0004        156.0004
   1845375.31748   1451276.34846  24726341.812    24726342.2234   24726351.1454
       168.0004        170.0004
 21  2  6  0 12  0.0000000  0  8G07G08G27G21G04G09G01G03
  -8859624.15348  -6890096.52546  23122000.519    23122001.2224   23122004.9854
       171.0004        171.0004
 -23122425.82049 -17991611.42447  20420232.753    20420232.9734   20420240.3564
       210.0004        210.0004
 -13708577.88849 -10631159.95447  22672413.226    22672412.5044   22672419.9084
       202.0004        202.0004
  -9696002.53947  -7539032.01646  22270457.542    22270459.0454   22270464.6904
       161.0004        164.0004
 -19326346.23949 -15046509.25347  20825761.160    20825761.9244   20825768.3614
       202.0004        201.0004
 -19419253.57849 -15083571.59048  20798568.803    20798569.3604   20798576.6514
       213.0004        213.0004
  -7149228.66047  -5556469.97045  23376878.223    23376878.8364   23376887.7674
       152.0004        154.0004
   1891119.81948   1486921.34646  24735048.272    24735048.3954   24735056.0344
       171.0004        173.0004
 21  2  6  0 12 30.0000000  0  8G07G08G27G21G04G09G01G03
  -8933686.70648  -6947807.59246  23107907.153    23107907.7364   23107911.4274
       171.0004        174.0004
 -23081156.26649 -17959453.32147  20428085.362    20428085.9024   20428093.4834
       210.0004        210.0004
 -13612448.82649 -10556254.20147  22690704.399    22690704.8864   22690712.4754
       201.0004        201.0004
  -9737809.17648  -7571608.61346  22262507.813    22262506.0244   22262508.6274
       166.0004        171.0004
 -19268179.08149 -15001184.19447  20836830.316    20836830.6044   20836836.8094
       202.0004        201.0004
 -19430648.54749 -15092450.78948  20796400.839    20796401.0784   20796408.0084
       213.0004        213.0004
  -7225712.96047  -5616068.10245  23362324.187    23362324.1664   23362332.9854
       152.0004        155.0004
   1936596.90648   1522357.96246  24743701.093    24743701.6844   24743709.6814
       170.0004        170.0004
 21  2  6  0 13  0.0000000  0  8G07G08G27G21G04G09G01G03
  -9007819.89748  -7005573.70546  23093799.177    23093800.0174   23093804.3354
       173.0004        174.0004
 -23039356.14249 -17926881.79547  20436040.014    20436040.4164   20436047.5714
       210.0004        210.0004
 -13516050.96449 -10481138.97547  22709048.155    22709049.3594   22709056.1504
       202.0004        201.0004
  -9779377.05148  -7603999.19046  22254596.954    22254596.0294   22254598.7474
       169.0004        171.0004
 -19209546.43349 -14955496.42347  20847987.660    20847987.9294   20847994.4494
       202.0004        200.0004
 -19441474.55749 -15100886.65148  20794340.543    20794341.0944   20794347.7874
       213.0004        213.0004
  -7302277.56247  -5675728.75545  23347753.359    23347754.7204   23347762.8154
       152.0004        156.0004
   1981804.91448   1557584.93446  24752301.902    24752302.5814   24752312.2814
       165.0004        165.0004
 21  2  6  0 13 30.0000000  0  8G07G08G27G21G04G09G01G03
  -9082020.10148  -7063392.02846  23079678.861    23079680.2294   23079684.0004
       173.0004        173.0004
 -22997025.30949 -17893896.72547  20444094.827    20444095.4544   20444102.7644
       209.0004        209.0004
 -13419385.65249 -10405815.34847  22727444.491    22727444.8214   22727451.6594
       202.0004        203.0004
  -9820702.21748  -7636200.61446  22246730.652    22246730.4234   22246734.5124
       168.0004        167.0004
 -19150448.81049 -14909446.34147  20859233.792    20859234.1804   20859240.1324
       202.0004        201.0004
 -19451729.85449 -15108877.79348  20792389.766    20792389.8524   20792396.3624
       213.0004        214.0004
  -7378918.06147  -5735448.58345  23333169.107    23333170.2474   23333177.7894
       152.0004        155.0004
   2026744.07348   1592602.40246  24760855.261    24760855.1384   24760864.7984
       166.0004        168.0004
 21  2  6  0 14  0.0000000  0  8G07G08G27G21G04G09G01G03
  -9156287.13748  -7121262.42646  23065547.056    23065547.3024   23065552.1954
       174.0004        175.0004
 -22954167.43249 -17860500.97647  20452251.059    20452251.3504   20452258.5234
       209.0004        210.0004
 -13322457.11149 -10330286.61547  22745889.225    22745889.4784   22745895.8454
       202.0004        201.0004
  -9861783.00947  -7668211.56146  22238910.519    22238910.4344   22238917.5724
       164.0004        163.0004
 -19090889.67649 -14863036.63047  20870567.067    20870567.6194   20870573.1904
       201.0004        199.0004
 -19461415.53549 -15116425.06948  20790545.772    20790546.2284   20790553.5504
       213.0004        214.0004
  -7455632.99447  -5795226.41345  23318571.810    23318571.8134   23318579.6274
       151.0004        154.0004
   2071411.93048   1627408.47546  24769354.704    24769355.3254   24769365.0814
       168.0004        170.0004
 21  2  6  0 14 30.0000000  0  8G07G08G27G21G04G09G01G03
  -9230619.52548  -7179183.74846  23051403.230    23051404.2714   23051407.1944
       176.0004        178.0004
 -22910784.80449 -17826696.30947  20460506.075    20460506.4824   20460514.2444
       209.0004        210.0004
 -13225268.52049 -10254555.24447  22764383.511    22764383.2454   22764390.1884
       201.0004        200.0004
  -9902616.49947  -7700029.85246  22231141.739    22231142.0694   22231146.9094
       163.0004        165.0004
 -19030871.38249 -14816269.12947  20881987.891    20881988.5474   20881994.7304
       201.0004        200.0004
 -19470531.65349 -15123528.53948  20788811.355    20788811.5094   20788818.5064
       213.0004        213.0004
  -7532419.73547  -5855060.20745  23303960.120    23303959.7824   23303968.5944
       152.0004        155.0004
   2115806.91448   1662001.94146  24777802.512    24777803.4874   24777813.1834
       169.0004        170.0004
 21  2  6  0 15  0.0000000  0  8G07G08G27G21G04G09G01G03
  -9305016.35448  -7237155.29846  23037245.837    23037246.5054   23037250.0584
       178.0004        179.0004
 -22866879.95849 -17792484.73347  20468860.857    20468861.4234   20468868.7554
       209.0004        209.0004
 -13127823.58449 -10178624.13547  22782926.810    22782926.9074   22782932.8094
       200.0004        200.0004
  -9943200.76348  -7731653.93646  22223419.741    22223419.3414   22223425.3784
       165.0004        168.0004
 -18970396.79649 -14769146.08247  20893495.990    20893496.6024   20893502.3224
       201.0004        199.0004
 -19479078.82349 -15130188.68048  20787184.269    20787184.9454   20787192.1114
       213.0004        213.0004
  -7609276.21247  -5914948.33345  23289333.923    23289334.0294   23289343.2914
       153.0004        155.0004
   2159927.25148   1696381.35446  24786199.324    24786199.5634   24786208.4534
       168.0004        169.0004
 21  2  6  0 15 30.0000000  0  7G07G08G27G21G04G09G01
  -9379471.23848  -7295172.05746  23023077.063    23023077.4394   23023081.7614
       177.0004        178.0004
 -22822450.45849 -17757864.33447  20477315.768    20477316.1314   20477323.4704
       209.0004        209.0004
 -13030120.78549 -10102492.08747  22801519.034    22801519.0294   22801525.5404
       200.0004        201.0004
  -9983529.28748  -7763078.76346  22215746.946    22215746.2604   22215750.8774
       168.0004        171.0004
 -18909463.70349 -14721665.75047  20905091.086    20905091.8434   20905097.6824
       201.0004        200.0004
 -19487052.45349 -15136401.89248  20785667.160    20785667.9654   20785674.5294
       213.0004        214.0004
  -7686195.11747  -5974885.12145  23274696.602    23274697.3344   23274705.1024
       153.0004        156.0004
 21  2  6  0 16  0.0000000  0  7G07G08G27G21G04G09G01
  -9453983.47148  -7353233.53946  23008898.061    23008898.1604   23008902.4984
       177.0004        179.0004
 -22777499.03049 -17722837.25847  20485869.529    20485870.0794   20485877.2814
       209.0004        209.0004
 -12932164.05349 -10026162.18547  22820159.483    22820159.4584   22820165.8754
       201.0004        201.0004
 -10023599.98348  -7794302.69646  22208121.741    22208120.9824   22208124.5494
       170.0004        171.0004
 -18848075.25749 -14673830.62147  20916773.336    20916773.7904   20916779.7524
       201.0004        199.0004
 -19494453.48749 -15142168.94748  20784259.709    20784259.6104   20784266.1464
       213.0004        214.0004
  -7763174.70047  -6034869.18145  23260046.113    23260047.9154   23260055.3764
       153.0004        155.0004
 21  2  6  0 16 30.0000000  0  7G07G08G27G21G04G09G01
  -9528556.79148  -7411342.59446  22994706.817    22994707.7924   22994711.7604
       179.0004        181.0004
 -22732033.68649 -17687409.69947  20494522.067    20494521.9884   20494529.0234
       209.0004        210.0004
 -12833961.72649  -9949640.88147  22838846.316    22838847.0034   22838853.1934
       200.0004        200.0004
 -10063415.31548  -7825327.60846  22200544.082    22200543.4364   22200548.9804
       170.0004        170.0004
 -18786239.05149 -14625646.55447  20928539.972    20928540.6104   20928545.9504
       201.0004        199.0004
 -19501287.25149 -15147493.94948  20782958.457    20782958.9924   20782965.6124
       213.0004        213.0004
  -7840217.42547  -6094902.46345  23245386.996    23245387.7084   23245395.5144
       153.0004        156.0004
 21  2  6  0 17  0.0000000  0  7G07G08G27G21G04G09G01
  -9603188.34648  -7469497.03546  22980504.506    22980505.1404   22980509.5134
       179.0004        179.0004
 -22686055.22149 -17651582.31947  20503270.938    20503271.1974   20503278.7134
       209.0004        209.0004
 -12735515.86749  -9872929.82147  22857581.603    22857580.8054   22857587.7134
       201.0004        202.0004
 -10102971.83348  -7856150.85146  22193016.587    22193016.0784   22193021.5114
       169.0004        169.0004
 -18723956.40549 -14577114.63447  20940392.506    20940392.9944   20940398.3904
       200.0004        199.0004
 -19507552.84549 -15152376.23248  20781766.225    20781766.5684   20781773.6774
       213.0004        214.0004
  -7917319.54947  -6154982.00445  23230715.266    23230716.0464   23230724.5414
       155.0004        158.0004
 21  2  6  0 17 30.0000000  0  7G07G08G27G21G04G09G01
  -9677876.78548  -7527695.81346  22966291.955    22966292.7964   22966296.8764
       178.0004        178.0004
 -22639565.72349 -17615356.73147  20512117.673    20512118.0044   20512125.2564
       209.0004        209.0004
 -12636829.43849  -9796031.32647  22876359.436    22876360.1984   22876366.7314
       201.0004        202.0004
 -10142266.34848  -7886769.94746  22185538.395    22185538.6374   22185544.0794
       168.0004        169.0004
 -18661229.64849 -14528236.64747  20952328.390    20952328.9894   20952335.3264
       201.0004        199.0004
 -19513250.29549 -15156815.80348  20780682.799    20780682.9264   20780689.5014
       214.0004        214.0004
  -7994478.26647  -6215105.66345  23216031.410    23216032.3534   23216041.6634
       156.0004        159.0004
 21  2  6  0 18  0.0000000  0  7G07G08G27G21G04G09G01
  -9752618.57248  -7585936.14646  22952069.585    22952069.6154   22952074.7914
       179.0004        181.0004
 -22592565.67949 -17578733.30547  20521061.022    20521061.6774   20521068.9534
       208.0004        209.0004
 -12537903.71849  -9718946.35947  22895184.430    22895184.8454   22895191.0574
       201.0004        200.0004
 -10181295.19248  -7917182.01746  22178111.485    22178111.9534   22178116.2534
       167.0004        168.0004
 -18598059.35649 -14479013.04147  20964349.628    20964349.8764   20964355.9224
       200.0004        198.0004
 -19518377.95449 -15160811.38548  20779706.686    20779707.1084   20779713.4764
       214.0004        214.0004
  -8071688.97947  -6275269.84445  23201340.119    23201340.4654   23201349.0354
       158.0004        161.0004
 21  2  6  0 18 30.0000000  0  7G07G08G27G21G04G09G01
  -9827413.07748  -7644217.56446  22937836.822    22937836.8774   22937841.6434
       180.0004        181.0004
 -22545058.68849 -17541714.87347  20530102.207    20530102.3504   20530109.4314
       209.0004        209.0004
 -12438743.21749  -9641678.44347  22914053.236    22914054.3074   22914061.5124
       200.0004        200.0004
 -10220057.24748  -7947386.20846  22170734.978    22170734.9864   22170740.4954
       167.0004        167.0004
 -18534449.36549 -14429446.83047  20976454.992    20976455.1954   20976460.6954
       200.0004        199.0004
 -19522937.46149 -15164364.25548  20778838.784    20778839.0724   20778845.8114
       213.0004        213.0004
  -8148950.46947  -6335473.60045  23186637.731    23186637.8874   23186645.3144
       158.0004        159.0004
 21  2  6  0 19  0.0000000  0  7G07G08G27G21G04G09G01
  -9902257.63548  -7702537.98846  22923594.594    22923594.6904   22923598.8934
       180.0004        181.0004
 -22497045.73549 -17504302.17547  20539238.141    20539238.6974   20539245.9154
       208.0004        208.0004
 -12339349.65749  -9564228.91547  22932967.333    22932967.9684   22932975.3404
       199.0004        199.0004
 -10258547.90848  -7977378.91746  22163410.910    22163410.1454   22163415.9584
       167.0004        167.0004
 -18470400.74749 -14379538.81747  20988642.753    20988643.3024   20988648.6894
       201.0004        199.0004
 -19526927.66749 -15167473.50448  20778079.478    20778080.1234   20778086.4104
       213.0004        214.0004
  -8226258.48647  -6395713.61745  23171927.380    23171927.1294   23171934.7734
       158.0004        161.0004
 21  2  6  0 19 30.0000000  0  7G07G08G27G21G04G09G01
  -9977151.34448  -7760896.70546  22909341.933    22909342.4194   22909346.8304
       180.0004        180.0004
 -22448530.13649 -17466497.80447  20548470.245    20548470.8214   20548478.2134
       208.0004        208.0004
 -12239726.94949  -9486600.83447  22951924.116    22951925.3824   22951932.4974
       199.0004        199.0004
 -10296766.30648  -8007159.44846  22156138.209    22156137.4374   22156144.2474
       167.0004        169.0004
 -18405916.80549 -14329291.60047  21000912.910    21000913.5894   21000919.3644
       200.0004        198.0004
 -19530349.69749 -15170140.02348  20777428.578    20777428.8224   20777435.7374
       214.0004        215.0004
  -8303611.18447  -6455988.39745  23157205.832    23157207.0354   23157215.1264
       159.0004        162.0004
 21  2  6  0 20  0.0000000  0  7G07G08G27G21G04G09G01
 -10052091.53948  -7819291.64146  22895081.266    22895082.4084   22895085.9534
       180.0004        181.0004
 -22399513.34349 -17428302.89547  20557798.743    20557798.8684   20557805.9024
       208.0004        209.0004
 -12139877.23249  -9408795.86747  22970926.181    22970926.2274   22970933.3294
       199.0004        198.0004
 -10334708.46048  -8036724.74846  22148919.032    22148918.4394   22148924.2184
       169.0004        172.0004
 -18340999.04949 -14278706.33547  21013267.081    21013267.0744   21013273.1854
       199.0004        198.0004
 -19533202.85349 -15172363.26348  20776885.776    20776885.9774   20776892.7554
       214.0004        215.0004
  -8381004.81047  -6516295.10346  23142479.336    23142480.1434   23142487.9944
       161.0004        163.0004
 21  2  6  0 20 30.0000000  0  7G07G08G27G21G04G09G01
 -10127076.23148  -7877721.25446  22880812.361    22880813.0024   22880817.0734
       181.0004        181.0004
 -22349997.10349 -17389718.80447  20567221.279    20567221.5674   20567228.4204
       209.0004        209.0004
 -12039803.41749  -9330816.28047  22989969.707    22989969.8964   22989977.0584
       199.0004        200.0004
 -10372371.67148  -8066072.68246  22141751.592    22141751.3814   22141756.5984
       171.0004        173.0004
 -18275649.80049 -14227784.85247  21025701.927    21025702.2994   21025708.9034
       199.0004        198.0004
 -19535487.29849 -15174143.35548  20776450.698    20776451.2134   20776458.0744
       214.0004        214.0004
  -8458436.49747  -6576631.44246  23127744.443    23127745.0114   23127753.1504
       162.0004        164.0004
 21  2  6  0 21  0.0000000  0  7G07G08G27G21G04G09G01
 -10202104.62748  -7936184.92946  22866534.364    22866535.0844   22866539.4734
       179.0004        179.0004
 -22299984.66249 -17350748.06347  20576738.283    20576738.5294   20576745.3724
       209.0004        209.0004
 -11939509.19349  -9252664.95447  23009055.333    23009055.5114   23009062.1094
       198.0004        198.0004
 -10409753.95948  -8095201.74146  22134638.814    22134637.9084   22134642.2224
       172.0004        172.0004
 -18209872.14549 -14176529.55447  21038219.613    21038219.9434   21038225.3364
       199.0004        198.0004
 -19537203.97449 -15175481.02948  20776124.004    20776124.2564   20776131.1084
       214.0004        214.0004
  -8535903.94647  -6636995.66945  23113002.297    23113002.2234   23113011.0834
       161.0004        162.0004
 21  2  6  0 21 30.0000000  0  7G07G08G27G21G04G09G01
 -10277174.14148  -7994680.63546  22852250.084    22852250.4394   22852255.1264
       179.0004        180.0004
 -22249477.50149 -17311391.83347  20586348.953    20586349.6714   20586356.7084
       208.0004        209.0004
 -11838997.05549  -9174343.81447  23028181.556    23028182.3164   23028189.5034
       197.0004        196.0004
 -10446852.31748  -8124109.54746  22127577.915    22127578.2144   22127582.5544
       172.0004        174.0004
 -18143668.05449 -14124941.96147  21050817.737    21050818.0244   21050823.8154
       199.0004        197.0004
 -19538352.69249 -15176376.14648  20775905.410    20775905.6384   20775912.5654
       213.0004        214.0004
  -8613403.87047  -6697385.19145  23098254.276    23098255.3674   23098262.4884
       160.0004        161.0004
 21  2  6  0 22  0.0000000  0  7G07G08G27G21G04G09G01
 -10352283.27648  -8053207.21246  22837958.406    22837958.2604   22837961.9314
       180.0004        181.0004
 -22198478.54049 -17271652.37647  20596053.470    20596053.9924   20596061.3284
       208.0004        208.0004
 -11738270.22349  -9095855.37947  23047350.571    23047350.9184   23047357.0954
       197.0004        197.0004
 -10483664.83648  -8152794.59546  22120572.435    22120571.7994   22120578.1614
       172.0004        171.0004
 -18077040.20149 -14073024.16347  21063496.159    21063497.1114   21063502.6344
       198.0004        197.0004
 -19538933.96949 -15176829.08848  20775795.110    20775795.3544   20775802.2644
       214.0004        215.0004
  -8690933.57647  -6757797.95545  23083500.464    23083501.6324   23083508.7364
       160.0004        162.0004
 21  2  6  0 22 30.0000000  0  7G07G08G27G21G04G09G01
 -10427431.51148  -8111764.25246  22823656.337    22823657.5594   22823660.9554
       180.0004        180.0004
 -22146991.02849 -17231532.22047  20605851.172    20605851.4054   20605859.1144
       207.0004        207.0004
 -11637332.98249  -9017202.97747  23066558.357    23066558.4944   23066564.9954
       196.0004        196.0004
 -10520189.81048  -8181255.60346  22113622.017    22113621.5204   22113626.4294
       171.0004        172.0004
 -18009992.34349 -14020779.07447  21076255.464    21076255.7964   21076261.0784
       198.0004        197.0004
 -19538949.46049 -15176841.15548  20775792.667    20775792.6614   20775799.0834
       215.0004        215.0004
  -8768491.45547  -6818232.65646  23068743.599    23068743.8244   23068750.4874
       161.0004        164.0004
 21  2  6  0 23  0.0000000  0  7G07G08G27G21G04G09G01
 -10502616.33248  -8170349.83246  22809350.462    22809350.3344   22809353.1924
       180.0004        181.0004
 -22095016.75649 -17191032.80047  20615740.697    20615741.5974   20615749.3274
       207.0004        207.0004
 -11536187.41349  -8938388.26547  23085803.936    23085804.9024   23085812.4894
       195.0004        196.0004
 -10556423.84148  -8209489.92346  22106727.446    22106727.2714   22106732.0644
       171.0004        172.0004
 -17942526.01249 -13968207.91547  21089093.150    21089093.8524   21089099.8094
       198.0004        197.0004
 -19538398.58749 -15176411.91948  20775896.421    20775897.0864   20775903.9944
       214.0004        214.0004
  -8846073.68447  -6878686.33146  23053979.684    23053980.2424   23053988.0154
       162.0004        164.0004
 21  2  6  0 23 30.0000000  0  7G07G08G27G21G04G09G01
 -10577835.41148  -8228962.09146  22795036.516    22795036.0014   22795039.4204
       179.0004        178.0004
 -22042558.14949 -17150155.95547  20625724.762    20625724.8434   20625732.1604
       207.0004        208.0004
 -11434836.52049  -8859413.55847  23105090.813    23105091.0574   23105098.7064
       195.0004        195.0004
 -10592364.23748  -8237495.40746  22099887.794    22099888.0944   22099892.6814
       171.0004        170.0004
 -17874643.73249 -13915312.63647  21102011.626    21102011.8534   21102018.0094
       198.0004        197.0004
 -19537281.76549 -15175541.66648  20776109.720    20776109.8344   20776116.3884
       214.0004        215.0004
  -8923677.33047  -6939156.67646  23039211.979    23039212.3964   23039220.0854
       163.0004        164.0004
 21  2  6  0 24  0.0000000  0  7G07G08G27G21G04G09G01
 -10653086.40148  -8287599.20346  22780714.722    22780715.8084   22780720.2604
       178.0004        178.0004
 -21989615.97549 -17108902.29947  20635799.491    20635799.5594   20635806.6924
       208.0004        208.0004
 -11333282.32948  -8780280.42547  23124413.740    23124415.2624   23124423.5094
       193.0004        192.0004
 -10628007.22048  -8265269.13646  22093105.225    22093105.3364   22093110.0884
       170.0004        171.0004
 -17806347.05349 -13862094.44447  21115006.988    21115007.6304   21115014.2994
       198.0004        196.0004
 -19535598.47249 -15174230.01248  20776430.055    20776430.1644   20776436.8804
       215.0004        215.0004
  -9001298.56947  -6999640.71845  23024440.546    23024441.3144   23024449.6594
       161.0004        162.0004
 21  2  6  0 24 30.0000000  0  7G07G08G27G21G04G09G01
 -10728365.12248  -8346257.92846  22766391.368    22766391.1964   22766396.3874
       178.0004        179.0004
 -21936190.97149 -17067272.41647  20645965.846    20645965.9564   20645972.8284
       208.0004        208.0004
 -11231525.76348  -8700989.60647  23143778.922    23143779.3014   23143787.0294
       192.0004        191.0004
 -10663348.94348  -8292808.12446  22086380.212    22086379.5434   22086384.0144
       171.0004        172.0004
 -17737636.42849 -13808553.70847  21128082.391    21128082.9784   21128088.9824
       197.0004        196.0004
 -19533347.13949 -15172475.73048  20776858.025    20776858.3904   20776865.3054
       215.0004        215.0004
  -9078932.42247  -7060134.61445  23009667.113    23009667.4264   23009675.4054
       161.0004        162.0004
 21  2  6  0 25  0.0000000  0  7G07G08G27G21G04G09G01
 -10803672.49948  -8404938.97346  22752060.558    22752060.4814   22752065.0064
       179.0004        179.0004
 -21882288.44449 -17025270.43547  20656223.246    20656223.1114   20656229.9634
       207.0004        207.0004
 -11129572.56848  -8621545.55547  23163179.546    23163180.5674   23163188.9524
       192.0004        192.0004
 -10698389.62448  -8320112.50946  22079711.876    22079711.0594   22079716.8744
       171.0004        172.0004
 -17668517.18349 -13754694.56547  21141235.592    21141236.0564   21141242.3064
       197.0004        196.0004
 -19530530.97849 -15170281.32048  20777393.779    20777394.1774   20777401.1244
       214.0004        215.0004
  -9156578.65747  -7120638.15146  22994891.333    22994891.6234   22994901.0744
       161.0004        163.0004
 21  2  6  0 25 30.0000000  0  7G07G08G27G21G04G09G01
 -10879007.49148  -8463641.55346  22737725.039    22737724.9094   22737729.1674
       179.0004        179.0004
 -21827911.37049 -16982898.68447  20666570.137    20666570.2154   20666577.8694
       206.0004        206.0004
 -11027426.53648  -8541951.26247  23182617.612    23182618.5404   23182626.4174
       191.0004        191.0004
 -10733127.21448  -8347180.75246  22073101.933    22073100.4804   22073106.3094
       171.0004        171.0004
 -17598992.67149 -13700519.63547  21154465.441    21154466.3424   21154472.3104
       197.0004        196.0004
 -19527151.29049 -15167647.80648  20778037.023    20778037.4864   20778044.1464
       214.0004        215.0004
  -9234235.16747  -7181149.70346  22980114.481    22980115.6644   22980122.9504
       162.0004        164.0004
 21  2  6  0 26  0.0000000  0  7G07G08G27G21G04G09G01
 -10954367.92948  -8522363.95646  22723383.683    22723384.0464   22723388.1424
       178.0004        178.0004
 -21773061.84649 -16940158.80147  20677007.222    20677007.8814   20677015.4034
       206.0004        206.0004
 -10925090.29448  -8462208.74847  23202092.473    23202092.1264   23202101.3744
       191.0004        191.0004
 -10767558.80048  -8374010.54246  22066549.755    22066548.9734   22066554.3684
       171.0004        173.0004
 -17529065.09149 -13646030.61847  21167773.224    21167773.1664   21167779.1864
       197.0004        196.0004
 -19523208.30249 -15164575.35048  20778787.157    20778787.7734   20778794.6704
       214.0004        215.0004
  -9311898.66547  -7241666.69346  22965335.081    22965335.8304   22965344.1854
       161.0004        163.0004
 21  2  6  0 26 30.0000000  0  7G07G08G27G21G04G09G01
 -11029752.62448  -8581105.27446  22709038.776    22709039.3234   22709043.4124
       178.0004        179.0004
 -21717743.34749 -16897053.47047  20687534.136    20687534.8664   20687542.2974
       206.0004        206.0004
 -10822567.61348  -8382320.96147  23221601.859    23221602.3054   23221610.3504
       189.0004        190.0004
 -10801682.94548  -8400600.76346  22060055.292    22060054.9474   22060060.3774
       171.0004        172.0004
 -17458737.84949 -13591230.18047  21181155.451    21181156.0824   21181161.7934
       197.0004        196.0004
 -19518703.37149 -15161065.00948  20779644.550    20779645.1114   20779651.8544
       214.0004        215.0004
  -9389567.01547  -7302187.47545  22950556.034    22950555.7424   22950563.8884
       161.0004        162.0004
 21  2  6  0 27  0.0000000  0  7G07G08G27G21G04G09G01
 -11105157.28948  -8639862.15346  22694689.171    22694689.6784   22694694.8474
       180.0004        181.0004
 -21661956.16449 -16853582.94247  20698150.973    20698150.9914   20698158.0434
       206.0004        207.0004
 -10719859.41548  -8302288.61247  23241147.101    23241147.1124   23241154.8824
       189.0004        190.0004
 -10835494.99948  -8426947.80146  22053621.075    22053621.3394   22053626.7724
       172.0004        173.0004
 -17388011.45349 -13536118.72647  21194614.181    21194614.7644   21194621.1164
       197.0004        196.0004
 -19513635.00549 -15157115.64148  20780609.196    20780609.6164   20780616.2414
       214.0004        215.0004
  -9467235.06947  -7362708.01945  22935774.722    22935775.6124   22935784.4344
       160.0004        161.0004
 21  2  6  0 27 30.0000000  0  7G07G08G27G21G04G09G01
 -11180580.19548  -8698633.22246  22680336.496    22680337.4574   22680341.1194
       179.0004        179.0004
 -21605702.46549 -16809748.86147  20708855.510    20708855.6284   20708862.7284
       206.0004        207.0004
 -10616968.31848  -8222113.72547  23260725.550    23260726.7404   23260734.2374
       190.0004        190.0004
 -10868991.88548  -8453049.26246  22047248.731    22047247.6694   22047251.9774
       173.0004        175.0004
 -17316888.16049 -13480697.97747  21208148.803    21208148.9364   21208155.0494
       197.0004        196.0004
 -19508003.49549 -15152727.44548  20781681.402    20781681.6444   20781687.9024
       215.0004        215.0004
  -9544899.62247  -7423225.83045  22920995.483    22920997.0794   22921004.5744
       160.0004        162.0004
 21  2  6  0 28  0.0000000  0  7G07G08G27G21G04G09G01
 -11256020.06848  -8757417.53546  22665981.063    22665981.3704   22665986.0384
       179.0004        179.0004
 -21548985.61949 -16765553.92347  20719648.634    20719648.6074   20719655.3894
       206.0004        206.0004
 -10513898.19348  -8141799.35447  23280339.171    23280339.6114   23280346.5274
       188.0004        188.0004
 -10902172.16548  -8478904.01946  22040933.849    22040932.6854   22040938.5964
       174.0004        174.0004
 -17245371.50149 -13424970.72247  21221758.070    21221758.2994   21221764.2574
       197.0004        195.0004
 -19501810.50949 -15147901.75248  20782859.231    20782859.4694   20782866.5304
       215.0004        214.0004
  -9622558.51247  -7483739.24746  22906219.700    22906219.1884   22906227.8754
       161.0004        163.0004
 21  2  6  0 28 30.0000000  0  7G07G08G27G21G04G09G01
 -11331475.99348  -8816214.34746  22651622.180    22651622.8154   22651626.7394
       179.0004        180.0004
 -21491808.85949 -16721000.59647  20730528.503    20730528.7244   20730535.9064
       206.0004        206.0004
 -10410652.81448  -8061348.41447  23299985.608    23299986.5654   23299994.7514
       189.0004        190.0004
 -10935034.51948  -8504511.03346  22034679.982    22034679.5454   22034684.3404
       174.0004        175.0004
 -17173464.90049 -13368939.62047  21235441.278    21235441.6614   21235448.0864
       197.0004        196.0004
 -19495057.30649 -15142639.51948  20784144.139    20784144.5254   20784151.6224
       214.0004        214.0004
  -9700209.60847  -7544246.55546  22891442.867    22891442.4164   22891451.2804
       161.0004        163.0004
 21  2  6  0 29  0.0000000  0  7G07G08G27G21G04G09G01
 -11406944.78648  -8875021.18046  22637260.612    22637260.8344   22637266.8524
       180.0004        181.0004
 -21434173.96349 -16676090.27647  20741495.827    20741496.1614   20741503.4724
       205.0004        205.0004
 -10307234.23348  -7980762.52847  23319666.913    23319666.9524   23319673.6324
       189.0004        190.0004
 -10967575.62648  -8529867.73546  22028488.165    22028487.4284   22028492.1974
       174.0004        175.0004
 -17101170.13849 -13312606.03747  21249197.961    21249198.9334   21249204.3154
       196.0004        194.0004
 -19487743.79549 -15136940.67948  20785535.940    20785536.3344   20785543.2384
       214.0004        214.0004
  -9777848.97547  -7604744.75045  22876668.503    22876668.2954   22876676.6764
       161.0004        162.0004
 21  2  6  0 29 30.0000000  0  7G07G08G27G21G04G09G01
 -11482425.88348  -8933837.60446  22622897.198    22622898.0544   22622901.7664
       181.0004        182.0004
 -21376085.08749 -16630826.22447  20752549.343    20752549.7414   20752557.0654
       205.0004        205.0004
 -10203646.96948  -7900045.18046  23339378.416    23339378.4094   23339385.3044
       188.0004        187.0004
 -10999794.29248  -8554973.18046  22022356.684    22022356.6394   22022361.4944
       174.0004        175.0004
 -17028491.37449 -13255973.24747  21263028.570    21263029.1794   21263034.7604
       195.0004        194.0004
 -19479872.26049 -15130807.02248  20787034.187    20787034.5904   20787040.8574
       214.0004        215.0004
  -9855475.13647  -7665232.63445  22861895.465    22861896.5074   22861904.5414
       160.0004        162.0004
 21  2  6  0 30  0.0000000  0  7G07G08G27G21G04G09G01
 -11557916.41248  -8992661.39646  22608532.933    22608533.0004   22608536.3874
       182.0004        183.0004
 -21317543.00249 -16585209.01147  20763690.375    20763690.4994   20763696.8994
       204.0004        205.0004
 -10099892.72348  -7819197.71447  23359122.569    23359122.7174   23359130.6804
       189.0004        191.0004
 -11031686.86248  -8579824.52646  22016287.900    22016287.3494   22016292.6284
       174.0004        175.0004
 -16955430.03649 -13199042.34447  21276931.483    21276932.1434   21276938.5984
       195.0004        194.0004
 -19471442.17949 -15124238.12748  20788638.141    20788638.6104   20788645.1224
       214.0004        214.0004
  -9933083.88247  -7725706.93746  22847128.383    22847129.1404   22847136.1764
       161.0004        163.0004
 21  2  6  0 30 30.0000000  0  7G07G08G27G21G04G09G01
 -11633414.78448  -9051491.29446  22594165.873    22594166.0224   22594169.7654
       183.0004        183.0004
 -21258551.73049 -16539241.76747  20774915.969    20774916.1794   20774923.2364
       205.0004        206.0004
  -9995975.05248  -7738222.92747  23378898.067    23378898.6754   23378904.3654
       191.0004        192.0004
 -11063251.40348  -8604420.25746  22010281.939    22010281.2504   22010285.2744
       174.0004        175.0004
 -16881989.46949 -13141815.92947  21290907.542    21290907.9184   21290912.7174
       195.0004        193.0004
 -19462455.02549 -15117235.14548  20790348.576    20790348.9324   20790355.5264
       214.0004        214.0004
 -10010672.79747  -7786165.81146  22832363.433    22832363.4454   22832371.5374
       162.0004        163.0004
 21  2  6  0 31  0.0000000  0  7G07G08G27G21G04G09G01
 -11708919.10848  -9110325.82346  22579797.865    22579798.2554   22579802.7234
       184.0004        185.0004
 -21199113.15749 -16492925.98147  20786226.797    20786227.0224   20786234.0754
       205.0004        205.0004
  -9891896.92348  -7657123.09247  23398704.302    23398703.9444   23398710.6554
       192.0004        192.0004
 -11094485.84048  -8628758.77246  22004338.132    22004337.5674   22004341.3254
       174.0004        174.0004
 -16808172.31249 -13084296.07447  21304954.602    21304955.0964   21304960.4624
       195.0004        194.0004
 -19452911.54849 -15109798.66648  20792163.987    20792164.3884   20792171.9104
       214.0004        214.0004
 -10088238.82047  -7846606.85846  22817603.002    22817602.9994   22817610.9154
       162.0004        164.0004
 21  2  6  0 31 30.0000000  0  7G07G08G27G21G04G09G01
 -11784426.62448  -9169162.82546  22565429.124    22565429.8684   22565433.9554
       184.0004        185.0004
 -21139229.71449 -16446263.55147  20797621.783    20797622.2554   20797629.6354
       205.0004        205.0004
  -9787660.65648  -7575900.03047  23418538.580    23418539.1694   23418545.6254
       191.0004        191.0004
 -11125387.18848  -8652837.73846  21998457.060    21998456.2594   21998462.0314
       173.0004        174.0004
 -16733980.68949 -13026484.43047  21319072.208    21319072.4034   21319079.0874
       196.0004        194.0004
 -19442812.02849 -15101928.92148  20794086.086    20794086.5544   20794093.4164
       213.0004        213.0004
 -10165778.37047  -7907027.25846  22802847.794    22802847.6194   22802855.2584
       162.0004        164.0004
 21  2  6  0 32  0.0000000  0  7G07G08G27G21G04G09G01
 -11859934.76748  -9228000.32846  22551059.899    22551060.5674   22551064.8014
       185.0004        184.0004
 -21078903.28349 -16399255.94147  20809101.198    20809101.3944   20809109.2404
       204.0004        203.0004
  -9683268.49148  -7494555.49947  23438403.972    23438404.3594   23438411.0014
       192.0004        192.0004
 -11155952.15248  -8676654.58346  21992641.864    21992641.3334   21992645.5694
       173.0004        174.0004
 -16659416.61549 -12968382.56547  21333261.151    21333261.6414   21333267.5064
       195.0004        193.0004
 -19432156.60349 -15093625.99948  20796113.780    20796114.1904   20796121.2364
       213.0004        214.0004
 -10243287.64747  -7967424.06646  22788096.988    22788097.9104   22788106.6804
       163.0004        165.0004
 21  2  6  0 32 30.0000000  0  7G07G08G27G21G04G09G01
 -11935442.59148  -9286837.57646  22536691.949    22536691.7604   22536696.3674
       184.0004        185.0004
 -21018137.10249 -16351905.66147  20820665.241    20820665.3264   20820672.5694
       204.0004        204.0004
  -9578724.24648  -7413092.41947  23458297.483    23458297.7544   23458304.8334
       191.0004        191.0004
 -11186179.89148  -8700208.66146  21986887.728    21986888.5894   21986894.0634
       173.0004        173.0004
 -16584483.73049 -12909993.29047  21347520.457    21347520.8594   21347527.0824
       195.0004        193.0004
 -19420947.09349 -15084891.31048  20798247.172    20798247.4974   20798254.0294
       213.0004        214.0004
 -10320764.51648  -8027795.62546  22773354.644    22773355.4234   22773363.1564
       165.0004        167.0004
 21  2  6  0 33  0.0000000  0  7G07G08G27G21G04G09G01
 -12010946.97148  -9345672.15146  22522324.184    22522323.9734   22522327.5944
       185.0004        186.0004
 -20956933.20749 -16304214.31247  20832311.049    20832311.5104   20832319.2114
       203.0004        203.0004
  -9474030.11748  -7331512.59847  23478220.608    23478220.7114   23478227.2514
       190.0004        189.0004
 -11216066.69248  -8723497.04746  21981199.836    21981200.6744   21981206.1634
       173.0004        173.0004
 -16509183.97449 -12851318.17147  21361850.022    21361850.3454   21361856.2694
       195.0004        194.0004
 -19409183.63349 -15075724.97848  20800485.084    20800485.6854   20800492.6794
       213.0004        214.0004
 -10398205.17648  -8088138.98446  22758618.265    22758618.8084   22758627.0244
       167.0004        168.0004
 21  2  6  0 33 30.0000000  0  7G07G08G27G21G04G09G01
 -12086447.08848  -9404503.39346  22507956.128    22507956.4304   22507961.0424
       186.0004        186.0004
 -20895295.46249 -16256184.88547  20844040.724    20844041.4224   20844048.1654
       203.0004        203.0004
  -9369190.23648  -7249819.16347  23498170.766    23498171.3864   23498178.0594
       190.0004        191.0004
 -11245611.31248  -8746518.82346  21975578.316    21975578.5694   21975584.1624
       172.0004        172.0004
 -16433521.33248 -12792360.27247  21376248.138    21376248.2604   21376254.3484
       194.0004        193.0004
 -19396868.40449 -15066128.69048  20802829.146    20802829.4074   20802836.3384
       213.0004        214.0004
 -10475607.75048  -8148452.66446  22743889.871    22743889.2574   22743897.0044
       167.0004        168.0004
 21  2  6  0 34  0.0000000  0  7G07G08G27G21G04G09G01
 -12161940.60548  -9463329.50746  22493590.386    22493590.7874   22493594.1964
       185.0004        185.0004
 -20833226.26149 -16207819.27147  20855852.980    20855853.1884   20855859.6074
       203.0004        204.0004
  -9264206.84148  -7168013.95047  23518148.815    23518149.0824   23518155.1994
       189.0004        189.0004
 -11274811.42548  -8769272.14146  21970022.169    21970021.0774   21970027.5284
       172.0004        172.0004
 -16357497.92948 -12733121.26647  21390713.544    21390714.3834   21390720.6984
       193.0004        192.0004
 -19384001.74249 -15056102.72848  20805277.547    20805277.7924   20805284.6414
       214.0004        214.0004
 -10552968.55248  -8208733.79246  22729168.330    22729168.2234   22729176.5674
       168.0004        170.0004
 21  2  6  0 34 30.0000000  0  7G07G08G27G21G04G09G01
 -12237424.65348  -9522148.22046  22479226.699    22479226.9724   22479231.0584
       186.0004        187.0004
 -20770727.40549 -16159118.85247  20867745.977    20867746.3774   20867753.3284
       204.0004        204.0004
  -9159082.81248  -7086099.12647  23538154.191    23538153.0044   23538159.4204
       188.0004        188.0004
 -11303664.38248  -8791754.94346  21964531.465    21964531.2274   21964536.8694
       172.0004        173.0004
 -16281116.40048 -12673603.19447  21405249.750    21405249.9664   21405255.7644
       193.0004        193.0004
 -19370584.49349 -15045647.73248  20807831.246    20807831.3864   20807837.7244
       214.0004        214.0004
 -10630284.34448  -8268979.83746  22714455.614    22714455.1474   22714463.0294
       168.0004        169.0004
 21  2  6  0 35  0.0000000  0  7G07G08G27G21G04G09G01
 -12312897.87248  -9580958.51146  22464864.087    22464864.5294   22464868.5624
       186.0004        187.0004
 -20707802.10649 -16110086.14947  20879719.916    20879719.8544   20879727.3634
       203.0004        203.0004
  -9053821.19748  -7004077.10647  23558184.406    23558184.4154   23558190.2854
       189.0004        190.0004
 -11332167.88648  -8813965.45146  21959108.724    21959106.9514   21959112.2294
       172.0004        174.0004
 -16204379.75948 -12613808.42747  21419852.411    21419852.4234   21419858.3144
       193.0004        192.0004
 -19356617.96249 -15034764.72248  20810488.215    20810488.6564   20810495.5804
       214.0004        214.0004
 -10707552.36748  -8329188.66446  22699751.607    22699751.7644   22699760.0094
       168.0004        169.0004
 21  2  6  0 35 30.0000000  0  7G07G08G27G21G04G09G01
 -12388356.76648  -9639757.64646  22450505.086    22450505.4254   22450509.3494
       187.0004        187.0004
 -20644451.25549 -16060721.85047  20891774.606    20891775.1304   20891782.4744
       202.0004        203.0004
  -8948423.44148  -6921948.99047  23578240.799    23578240.7114   23578247.3454
       189.0004        190.0004
 -11360318.19148  -8835900.74346  21953750.018    21953750.1274   21953756.2204
       173.0004        173.0004
 -16127289.27448 -12553737.92247  21434521.254    21434522.3144   21434528.6344
       193.0004        192.0004
 -19342101.63249 -15023453.30148  20813251.177    20813251.6024   20813258.2034
       214.0004        215.0004
 -10784767.94748  -8389356.62246  22685056.706    22685057.5674   22685066.0554
       168.0004        170.0004
 21  2  6  0 36  0.0000000  0  7G07G08G27G21G04G09G01
 -12463800.39448  -9698544.87947  22436147.729    22436148.3864   22436152.9494
       187.0004        188.0004
 -20580679.65249 -16011029.69547  20903909.693    20903910.2914   20903918.1594
       202.0004        202.0004
  -8842893.70748  -6839718.03846  23598320.996    23598321.7944   23598328.7894
       189.0004        187.0004
 -11388113.99248  -8857559.80246  21948460.978    21948461.4384   21948466.9934
       174.0004        175.0004
 -16049849.07648 -12493394.91747  21449258.083    21449258.8354   21449264.5074
       193.0004        192.0004
 -19327037.89549 -15011715.33348  20816116.958    20816117.6314   20816124.6834
       214.0004        214.0004
 -10861929.26148  -8449482.31546  22670373.251    22670374.4404   22670382.3384
       169.0004        170.0004
 21  2  6  0 36 30.0000000  0  7G07G08G27G21G04G09G01
 -12539225.65048  -9757317.77147  22421796.039    22421795.7584   22421800.3434
       187.0004        188.0004
 -20516488.69049 -15961010.75547  20916124.971    20916125.5814   20916132.8344
       202.0004        202.0004
  -8737234.05948  -6757385.83246  23618426.869    23618428.0074   23618435.7494
       187.0004        186.0004
 -11415552.99548  -8878940.82846  21943240.110    21943239.8014   21943245.7424
       175.0004        175.0004
 -15972061.09648 -12432780.91147  21464060.503    21464061.2614   21464067.0244
       192.0004        191.0004
 -19311427.06849 -14999551.04848  20819088.218    20819088.3874   20819094.5334
       213.0004        214.0004
 -10939032.43848  -8509562.69846  22655700.814    22655702.3944   22655709.2404
       169.0004        170.0004
 21  2  6  0 37  0.0000000  0  7G07G08G27G21G04G09G01
 -12614631.47248  -9816075.53647  22407445.989    22407446.6844   22407451.6034
       187.0004        188.0004
 -20451882.43449 -15910668.20247  20928419.027    20928419.3964   20928427.3384
       202.0004        202.0004
  -8631448.50648  -6674955.56346  23638559.671    23638559.3144   23638565.2254
       185.0004        185.0004
 -11442633.83848  -8900042.75946  21938086.879    21938086.0534   21938092.0694
       175.0004        176.0004
 -15893929.22948 -12371898.94547  21478928.781    21478928.9584   21478934.9324
       192.0004        191.0004
 -19295271.32149 -14986962.16248  20822162.313    20822162.8164   20822169.5264
       213.0004        214.0004
 -11016075.40948  -8569596.17146  22641039.200    22641040.8504   22641049.6914
       169.0004        171.0004
 21  2  6  0 37 30.0000000  0  7G07G08G27G21G04G09G01
 -12690016.33448  -9874816.96946  22393100.613    22393100.7924   22393104.8554
       186.0004        186.0004
 -20386863.64449 -15860004.19847  20940791.405    20940792.1024   20940799.6444
       201.0004        201.0004
  -8525540.38948  -6592429.75146  23658713.986    23658713.1174   23658718.7934
       184.0004        183.0004
 -11469354.59248  -8920864.11946  21933002.633    21933001.5414   21933006.1484
       176.0004        176.0004
 -15815456.80848 -12310751.60647  21493862.071    21493862.2124   21493868.1974
       192.0004        192.0004
 -19278572.31249 -14973949.94148  20825340.333    20825340.7164   20825347.2524
       214.0004        214.0004
 -11093055.57448  -8629580.69446  22626392.479    22626393.1574   22626401.3984
       171.0004        172.0004
 21  2  6  0 38  0.0000000  0  7G07G08G27G21G04G09G01
 -12765378.40848  -9933540.65846  22378759.522    22378759.7974   22378763.9904
       186.0004        187.0004
 -20321436.33449 -15809021.88447  20953241.721    20953242.4164   20953250.5554
       201.0004        201.0004
  -8419513.12148  -6509811.12446  23678890.254    23678889.8564   23678895.1034
       185.0004        185.0004
 -11495713.58148  -8941403.58546  21927986.246    21927985.9364   21927990.2654
       176.0004        177.0004
 -15736647.22948 -12249341.56647  21508858.806    21508858.7314   21508864.9044
       192.0004        191.0004
 -19261331.76149 -14960515.74948  20828620.552    20828621.0864   20828627.9184
       213.0004        214.0004
 -11169970.29648  -8689514.23446  22611756.404    22611757.0984   22611764.7764
       171.0004        172.0004
 21  2  6  0 38 30.0000000  0  7G07G08G27G21G04G09G01
 -12840714.86048  -9992244.37147  22364424.088    22364424.2654   22364427.5264
       186.0004        188.0004
 -20255601.53449 -15757722.02347  20965769.991    20965770.4174   20965778.0944
       201.0004        201.0004
  -8313368.49148  -6427100.99946  23699088.242    23699088.3294   23699095.0094
       185.0004        186.0004
 -11521707.51948  -8961658.59446  21923038.974    21923039.5404   21923044.4424
       176.0004        177.0004
 -15657502.22448 -12187670.13447  21523919.573    21523919.9724   21523925.9114
       192.0004        191.0004
 -19243549.79349 -14946659.67048  20832005.340    20832005.6674   20832011.6564
       214.0004        214.0004
 -11246815.43548  -8749393.54646  22597132.997    22597132.8364   22597141.9474
       170.0004        171.0004
 21  2  6  0 39  0.0000000  0  7G07G08G27G21G04G09G01
 -12916023.56348 -10050926.47546  22350093.017    22350093.6674   22350097.2024
       187.0004        187.0004
 -20189362.43549 -15706107.13847  20978374.450    20978375.0064   20978382.8934
       201.0004        201.0004
  -8207109.48948  -6344301.78446  23719310.752    23719309.8324   23719314.4444
       186.0004        186.0004
 -11547334.63548  -8981627.77146  21918162.909    21918162.9844   21918166.7994
       177.0004        177.0004
 -15578024.76748 -12125739.65647  21539042.953    21539043.5714   21539049.9954
       192.0004        190.0004
 -19225227.77949 -14932382.79148  20835491.244    20835491.7194   20835498.3594
       213.0004        213.0004
 -11323587.95848  -8809216.27146  22582522.712    22582522.7774   22582531.8294
       170.0004        171.0004
 21  2  6  0 39 30.0000000  0  8G07G08G30G27G21G04G09G01
 -12991302.20048 -10109585.13246  22335767.792    22335768.3074   22335772.3524
       186.0004        186.0004
 -20122721.36949 -15654179.01847  20991056.733    20991056.9304   20991064.6704
       200.0004        201.0004
  -1466140.72057  -1117263.40845  24267132.260                    24267138.5584
       143.0004        156.0004
  -8100738.81948  -6261415.55146  23739552.148    23739550.6624   23739556.3914
       187.0004        187.0004
 -11572592.36648  -9001309.11346  21913355.776    21913355.9424   21913361.9384
       177.0004        178.0004
 -15498217.60848 -12063552.25947  21554230.315    21554230.8494   21554236.7634
       192.0004        191.0004
 -19206366.78249 -14917685.90148  20839079.448    20839080.4274   20839087.1384
       213.0004        214.0004
 -11400284.60248  -8868979.88546  22567927.581    22567929.0214   22567937.2814
       169.0004        171.0004
 21  2  6  0 40  0.0000000  0  8G07G08G30G27G21G04G09G01
 -13066546.66448 -10168217.16446  22321449.198    22321448.6064   22321454.2614
       186.0004        187.0004
 -20055679.68549 -15601938.73747  21003813.462    21003814.0964   21003822.0284
       200.0004        200.0004
  -1550281.05747  -1182827.25445  24251119.326    24251119.1514   24251126.8204
       151.0004        155.0004
  -7994257.75648  -6178443.30146  23759813.285    23759812.7284   23759819.4764
       187.0004        186.0004
 -11597476.95148  -9020699.70546  21908621.229    21908620.9884   21908626.9894
       178.0004        178.0004
 -15418082.00748 -12001108.95247  21569480.139    21569480.4754   21569486.0514
       192.0004        192.0004
 -19186966.54849 -14902568.84148  20842771.737    20842772.3484   20842779.3114
       213.0004        214.0004
 -11476900.59248  -8928680.66546  22553349.160    22553349.6074   22553356.6314
       169.0004        170.0004
 21  2  6  0 40 30.0000000  0  8G07G08G30G27G21G04G09G01
 -13141757.78248 -10226823.20747  22307137.067    22307137.3324   22307141.9064
       187.0004        188.0004
 -19988243.20849 -15549390.83147  21016646.145    21016646.6784   21016654.4654
       199.0004        200.0004
  -1634528.69647  -1248474.74245  24235087.332    24235086.4134   24235093.7484
       151.0004        154.0004
  -7887671.93048  -6095389.42246  23780093.668    23780094.6434   23780101.6144
       184.0004        184.0004
 -11621989.25848  -9039800.17646  21903956.185    21903956.9324   21903961.7414
       178.0004        178.0004
 -15337623.61048 -11938414.10847  21584790.436    21584790.6534   21584796.7664
       192.0004        191.0004
 -19167031.14749 -14887034.76448  20846565.943    20846566.2884   20846572.9844
       214.0004        214.0004
 -11553435.56048  -8988318.30446  22538785.035    22538785.4704   22538793.0714
       169.0004        170.0004
 21  2  6  0 41  0.0000000  0  8G07G08G30G27G21G04G09G01
 -13216931.99948 -10285400.51646  22292832.156    22292832.3684   22292836.6144
       187.0004        187.0004
 -19920413.05949 -15496536.16447  21029554.840    21029554.9354   21029561.9694
       199.0004        200.0004
  -1718880.98847  -1314203.77945  24219034.179    24219034.6144   24219041.7044
       151.0004        154.0004
  -7780982.81248  -6012255.05946  23800396.154    23800396.5834   23800403.5124
       183.0004        183.0004
 -11646125.64848  -9058607.74946  21899363.664    21899363.7724   21899368.2654
       178.0004        179.0004
 -15256843.95348 -11875468.92447  21600162.023    21600162.3444   21600168.2854
       191.0004        190.0004
 -19146560.58749 -14871083.67548  20850461.288    20850461.5444   20850468.2524
       214.0004        214.0004
 -11629884.98748  -9047889.26846  22524236.406    22524237.2124   22524245.9394
       169.0004        171.0004
 21  2  6  0 41 30.0000000  0  8G07G08G30G27G21G04G09G01
 -13292065.79748 -10343946.33246  22278533.998    22278534.6154   22278538.9494
       187.0004        187.0004
 -19852191.37549 -15443376.42147  21042536.763    21042537.1844   21042544.3674
       199.0004        199.0004
  -1803335.51447  -1380012.45445  24202963.688    24202963.5594   24202971.2204
       153.0004        156.0004
  -7674192.16348  -5929041.56046  23820717.363    23820718.5074   23820724.2034
       181.0004        181.0004
 -11669883.06248  -9077120.02746  21894843.360    21894842.6954   21894847.3284
       179.0004        179.0004
 -15175744.99248 -11812274.93747  21615594.281    21615595.0404   21615601.1524
       191.0004        189.0004
 -19125555.09449 -14854715.77348  20854458.377    20854458.6434   20854465.4504
       213.0004        213.0004
 -11706244.68548  -9107390.32146  22509706.091    22509706.4044   22509715.0414
       169.0004        171.0004
 21  2  6  0 42  0.0000000  0  8G07G08G30G27G21G04G09G01
 -13367157.59848 -10402459.42646  22264245.309    22264245.5964   22264249.1044
       187.0004        187.0004
 -19783580.80649 -15389913.64847  21055592.262    21055592.8844   21055600.5064
       199.0004        199.0004
  -1887891.29747  -1445900.05745  24186872.042    24186872.7904   24186880.9334
       154.0004        158.0004
  -7567303.04148  -5845751.38046  23841058.157    23841058.8664   23841065.9144
       181.0004        181.0004
 -11693259.58348  -9095335.48446  21890393.743    21890394.2504   21890398.8464
       178.0004        179.0004
 -15094329.59648 -11748834.38847  21631087.939    21631088.0554   21631093.6614
       191.0004        190.0004
 -19104016.38649 -14837932.37248  20858556.981    20858557.2804   20858564.3094
       213.0004        213.0004
 -11782511.74148  -9166819.18646  22495193.235    22495193.1764   22495202.3334
       170.0004        170.0004
 21  2  6  0 42 30.0000000  0  8G07G08G30G27G21G04G09G01
 -13442204.38248 -10460937.42646  22249964.618    22249964.5244   22249968.6704
       187.0004        187.0004
 -19714583.63449 -15336149.59947  21068722.093    21068722.5274   21068730.5724
       199.0004        199.0004
  -1972546.19647  -1511864.88545  24170763.340    24170764.1364   24170771.9384
       156.0004        158.0004
  -7460317.61248  -5762386.03646  23861417.399    23861417.9084   23861423.7154
       181.0004        181.0004
 -11716252.49648  -9113252.02246  21886019.633    21886018.0044   21886023.6894
       178.0004        179.0004
 -15012600.08248 -11685149.03747  21646640.588    21646640.8874   21646646.8434
       191.0004        189.0004
 -19081945.07649 -14820733.94148  20862756.865    20862757.3844   20862763.7874
       213.0004        213.0004
 -11858682.25548  -9226172.81046  22480697.639    22480698.7864   22480707.4714
       170.0004        172.0004
 21  2  6  0 43  0.0000000  0  8G07G08G30G27G21G04G09G01
 -13517204.74348 -10519379.25646  22235691.172    22235691.7964   22235696.4314
       186.0004        186.0004
 -19645203.82849 -15282087.40647  21081924.349    21081924.8074   21081932.7954
       198.0004        198.0004
  -2057299.97447  -1577906.74945  24154636.126    24154636.2164   24154643.3704
       156.0004        159.0004
  -7353239.64348  -5678948.69146  23881793.652    23881794.5414   23881800.0964
       181.0004        183.0004
 -11738860.55748  -9130868.68346  21881717.010    21881716.1554   21881722.0544
       178.0004        179.0004
 -14930560.43348 -11621222.04247  21662252.257    21662252.5694   21662258.5964
       191.0004        190.0004
 -19059343.68849 -14803122.47648  20867058.183    20867058.3544   20867064.9974
       213.0004        214.0004
 -11934754.07348  -9285449.55446  22466222.355    22466222.6674   22466231.0754
       171.0004        172.0004
 21  2  6  0 43 30.0000000  0  8G07G08G30G27G21G04G09G01
 -13592157.48448 -10577783.97947  22221428.253    22221428.8954   22221433.1284
       187.0004        188.0004
 -19575445.15149 -15227730.01847  21095199.105    21095199.4384   21095207.7524
       198.0004        198.0004
  -2142152.13247  -1644025.28045  24138489.284    24138489.0294   24138496.8254
       157.0004        159.0004
  -7246072.94048  -5595442.18546  23902186.160    23902186.4094   23902194.7974
       182.0004        182.0004
 -11761082.75348  -9148184.67546  21877488.464    21877488.1444   21877493.1354
       178.0004        179.0004
 -14848214.48448 -11557056.39447  21677922.035    21677922.6354   21677928.4784
       191.0004        190.0004
 -19036214.55749 -14785099.79148  20871459.212    20871459.7014   20871466.2634
       213.0004        213.0004
 -12010724.95248  -9344647.65546  22451764.160    22451765.8094   22451772.9484
       170.0004        170.0004
 21  2  6  0 44  0.0000000  0  8G07G08G30G27G21G04G09G01
 -13667059.03048 -10636148.79647  22207174.676    22207175.9394   22207179.8564
       188.0004        189.0004
 -19505309.34449 -15173078.71247  21108545.763    21108545.8234   21108554.1624
       197.0004        198.0004
  -2227100.03847  -1710218.43245  24122324.055    24122324.1734   24122331.2374
       156.0004        158.0004
  -7138819.00448  -5511867.68346  23922595.654    23922595.8444   23922603.3284
       180.0004        179.0004
 -11782915.47348  -9165197.16146  21873334.198    21873332.7514   21873338.3144
       179.0004        180.0004
 -14765563.93748 -11492653.36247  21693649.184    21693650.1794   21693655.9044
       191.0004        190.0004
 -19012557.93949 -14766666.05448  20875960.775    20875961.1694   20875968.1624
       213.0004        213.0004
 -12086590.45348  -9403763.61846  22437328.139    22437328.9194   22437336.5784
       169.0004        170.0004
 21  2  6  0 44 30.0000000  0  8G07G08G30G27G21G04G09G01
 -13741907.52148 -10694472.29847  22192931.870    22192932.5194   22192937.1034
       189.0004        190.0004
 -19434799.46549 -15118135.94847  21121963.484    21121963.5634   21121971.6214
       197.0004        198.0004
  -2312142.84547  -1776485.51945  24106140.415    24106140.9164   24106148.4234
       156.0004        158.0004
  -7031481.04348  -5428227.72246  23943020.184    23943020.7824   23943029.6544
       177.0004        176.0004
 -11804357.73548  -9181905.40046  21869253.309    21869252.0864   21869257.7674
       179.0004        179.0004
 -14682612.09048 -11428015.55847  21709435.114    21709435.3054   21709441.6484
       191.0004        189.0004
 -18988375.75049 -14747822.79348  20880562.807    20880563.0344   20880569.8184
       213.0004        213.0004
 -12162347.82048  -9462795.33246  22422912.964    22422913.5194   22422920.8754
       170.0004        173.0004
 21  2  6  0 45  0.0000000  0  8G07G08G30G27G21G04G09G01
 -13816700.36248 -10752752.42647  22178700.024    22178700.3084   22178704.3414
       189.0004        189.0004
 -19363917.89449 -15062903.55647  21135451.714    21135451.9544   21135459.7254
       197.0004        198.0004
  -2397278.71247  -1842825.12645  24089940.755    24089941.0274   24089946.8774
       156.0004        158.0004
  -6924061.53948  -5344524.21646  23963464.548    23963463.9484   23963471.0704
       178.0004        180.0004
 -11825407.26848  -9198307.62146  21865246.864    21865246.3464   21865252.2974
       178.0004        178.0004
 -14599361.48548 -11363144.98047  21725276.763    21725277.3844   21725283.6814
       190.0004        189.0004
 -18963669.15349 -14728570.91248  20885264.335    20885264.5624   20885271.2754
       213.0004        213.0004
 -12237993.45148  -9521739.96146  22408516.937    22408517.7264   22408526.0074
       171.0004        172.0004
 21  2  6  0 45 30.0000000  0  8G07G08G30G27G21G04G09G01
 -13891436.39548 -10810988.30547  22164478.706    22164478.8234   22164482.1104
       189.0004        189.0004
 -19292668.85949 -15007384.83147  21149010.523    21149010.2864   21149017.9214
       197.0004        197.0004
  -2482507.32947  -1909237.01345  24073721.705    24073722.1114   24073728.2414
       157.0004        159.0004
  -6816564.23148  -5260760.11546  23983919.069    23983919.0284   23983926.1194
       175.0004        175.0004
 -11846062.89648  -9214402.89446  21861315.884    21861316.4234   21861321.7254
       177.0004        177.0004
 -14515816.23448 -11298044.78247  21741175.763    21741175.5704   21741181.5484
       190.0004        189.0004
 -18938440.75749 -14708912.41848  20890065.358    20890065.5304   20890071.9084
       213.0004        213.0004
 -12313525.24348  -9580595.88846  22394144.040    22394144.2134   22394152.6744
       171.0004        171.0004
 21  2  6  0 46  0.0000000  0  8G07G08G30G27G21G04G09G01
 -13966112.13348 -10869177.17347  22150267.225    22150268.0064   22150271.8284
       188.0004        189.0004
 -19221053.71249 -14951580.81647  21162638.069    21162638.2334   21162646.4674
       196.0004        197.0004
  -2567826.18247  -1975719.18645  24057485.610    24057485.7464   24057492.9004
       156.0004        158.0004
  -6708990.79648  -5176936.68746  24004390.145    24004390.0034   24004396.0474
       174.0004        174.0004
 -11866321.29048  -9230188.64746  21857461.393    21857460.7634   21857466.5244
       177.0004        178.0004
 -14431978.08748 -11232716.37147  21757129.394    21757129.3214   21757135.3674
       189.0004        188.0004
 -18912690.99349 -14688847.67448  20894965.444    20894965.6914   20894972.4644
       213.0004        213.0004
 -12388938.86348  -9639359.74146  22379793.349    22379793.1324   22379801.8224
       170.0004        172.0004
 21  2  6  0 46 30.0000000  0  8G07G08G30G27G21G04G09G01
 -14040725.03548 -10927317.06947  22136068.904    22136069.3684   22136073.7694
       189.0004        190.0004
 -19149075.34449 -14895493.76947  21176334.286    21176335.2174   21176343.1964
       196.0004        197.0004
  -2653233.44347  -2042270.25445  24041231.757    24041232.8334   24041240.6194
       157.0004        159.0004
  -6601343.61848  -5093055.76846  24024874.928    24024874.1484   24024881.4584
       172.0004        173.0004
 -11886180.40548  -9245663.26346  21853682.156    21853682.3144   21853686.7754
       178.0004        179.0004
 -14347849.68348 -11167161.78147  21773138.358    21773138.3764   21773144.9174
       189.0004        188.0004
 -18886421.15549 -14668377.67048  20899963.657    20899964.3714   20899971.1684
       213.0004        213.0004
 -12464230.71248  -9698028.71146  22365465.602    22365465.9454   22365474.7254
       172.0004        173.0004
 21  2  6  0 47  0.0000000  0  8G07G08G30G27G21G04G09G01
 -14115273.75348 -10985406.98547  22121882.894    22121883.7224   22121887.7094
       191.0004        192.0004
 -19076738.05249 -14839127.05347  21190100.394    21190100.6974   21190108.1784
       197.0004        198.0004
  -2738728.90847  -2108890.07345  24024963.156    24024964.4454   24024972.0854
       159.0004        162.0004
  -6493626.72448  -5009120.55946  24045372.183    24045371.8844   24045378.5634
       173.0004        173.0004
 -11905639.53148  -9260826.21846  21849979.764    21849979.5714   21849984.3434
       178.0004        178.0004
 -14263435.15048 -11101384.24146  21789201.581    21789202.2344   21789207.9414
       188.0004        186.0004
 -18859634.03849 -14647504.60248  20905061.173    20905061.8704   20905068.7764
       212.0004        213.0004
 -12539398.84148  -9756601.27946  22351162.423    22351163.1704   22351170.8414
       173.0004        174.0004
 21  2  6  0 47 30.0000000  0  8G07G08G30G27G21G04G09G01
 -14189755.33848 -11043444.57047  22107710.495    22107710.1934   22107713.9394
       191.0004        191.0004
 -19004043.65849 -14782482.06247  21203933.498    21203933.9334   21203941.2244
       197.0004        197.0004
  -2824310.50247  -2175577.00445  24008679.078    24008678.8664   24008685.0894
       160.0004        161.0004
  -6385842.14948  -4925132.58846  24065881.345    24065882.2494   24065889.7824
       171.0004        172.0004
 -11924695.94048  -9275675.35746  21846354.222    21846353.7434   21846357.9564
       179.0004        179.0004
 -14178736.84948 -11035385.55546  21805318.653    21805319.7404   21805325.9254
       188.0004        187.0004
 -18832330.67549 -14626229.26047  20910256.462    20910256.9394   20910264.2814
       212.0004        212.0004
 -12614439.40848  -9815074.44046  22336883.484    22336883.3344   22336890.8964
       174.0004        175.0004
 21  2  6  0 48  0.0000000  0  8G07G08G30G27G21G04G09G01
 -14264167.99848 -11101428.45447  22093550.049    22093549.7754   22093553.9664
       191.0004        190.0004
 -18930995.30749 -14725561.26147  21217834.052    21217834.2584   21217842.3654
       196.0004        195.0004
  -2909977.21147  -2242330.25545  23992376.748    23992376.9354   23992383.7684
       157.0004        158.0004
  -6277993.13548  -4841094.40146  24086404.830    24086405.7884   24086412.3114
       173.0004        174.0004
 -11943348.30148  -9290209.63546  21842803.898    21842803.7374   21842808.4774
       180.0004        181.0004
 -14093758.17548 -10969168.42046  21821490.183    21821490.6044   21821496.8184
       188.0004        187.0004
 -18804513.12749 -14604553.25347  20915550.136    20915550.8614   20915557.8604
       211.0004        212.0004
 -12689349.56148  -9873445.97046  22322627.625    22322627.9114   22322636.2724
       174.0004        174.0004
 21  2  6  0 48 30.0000000  0  8G07G08G30G27G21G04G09G01
 -14338508.99748 -11159356.50747  22079402.848    22079403.3864   22079407.3674
       191.0004        191.0004
 -18857596.25449 -14668367.19847  21231800.864    21231801.4894   21231810.3604
       195.0004        195.0004
  -2995727.35147  -2309148.53745  23976059.913    23976058.7574   23976066.0274
       154.0004        156.0004
  -6170082.15148  -4757007.92546  24106939.991    24106941.0524   24106948.2424
       174.0004        175.0004
 -11961594.61448  -9304427.53546  21839331.252    21839331.2044   21839336.9974
       180.0004        180.0004
 -14008501.87248 -10902734.95346  21837714.129    21837714.4714   21837720.3274
       187.0004        186.0004
 -18776182.90949 -14582477.76847  20920942.037    20920942.2284   20920948.6404
       212.0004        212.0004
 -12764125.93348  -9931713.25646  22308397.405    22308397.6564   22308406.4774
       174.0004        175.0004
 21  2  6  0 49  0.0000000  0  8G07G08G30G27G21G04G09G01
 -14412776.72248 -11217227.45647  22065269.972    22065271.0194   22065274.5014
       191.0004        191.0004
 -18783849.70049 -14610902.35147  21245835.669    21245835.7554   21245843.4444
       195.0004        196.0004
  -3081559.89047  -2376031.01745  23959726.179    23959726.1904   23959733.4804
       155.0004        158.0004
  -6062112.35148  -4672875.61246  24127486.115    24127486.8944   24127493.0564
       174.0004        175.0004
 -11979433.37448  -9318327.85346  21835936.766    21835936.0544   21835941.5654
       180.0004        180.0004
 -13922971.39648 -10836087.83446  21853989.042    21853989.7244   21853996.4084
       187.0004        186.0004
 -18747342.15849 -14560004.45647  20926429.940    20926430.2764   20926437.0444
       212.0004        212.0004
 -12838765.67348  -9989874.10146  22294193.826    22294194.9644   22294203.2564
       174.0004        175.0004
 21  2  6  0 49 30.0000000  0  8G07G08G30G27G21G04G09G01
 -14486967.14548 -11275038.17247  22051152.096    22051153.0274   22051157.0734
       192.0004        193.0004
 -18709757.03049 -14553167.79347  21259934.042    21259934.6964   21259942.2884
       195.0004        195.0004
  -3167471.76747  -2442975.31345  23943376.584    23943376.9094   23943384.9084
       156.0004        159.0004
  -5954084.90248  -4588698.37046  24148044.006    24148044.2924   24148051.2194
       175.0004        176.0004
 -11996861.34048  -9331908.07246  21832620.619    21832619.9234   21832625.2864
       179.0004        179.0004
 -13837168.15748 -10769228.18346  21870317.505    21870317.6004   21870324.0204
       186.0004        186.0004
 -18717991.02949 -14537133.44747  20932015.661    20932015.5414   20932022.3974
       212.0004        212.0004
 -12913264.05148 -10047924.78546  22280017.908    22280018.2574   22280026.5834
       173.0004        173.0004
 21  2  6  0 50  0.0000000  0  8G07G08G30G27G21G04G09G01
 -14561078.47448 -11332787.25247  22037050.097    22037050.1514   22037053.1124
       192.0004        192.0004
 -18635321.78049 -14495166.29547  21274098.640    21274099.3644   21274106.5474
       195.0004        195.0004
  -3253462.20947  -2509980.81045  23927013.047    23927012.8224   23927020.8724
       155.0004        157.0004
  -5846003.27848  -4504478.94946  24168611.871    24168611.7434   24168617.2154
       176.0004        176.0004
 -12013877.09548  -9345167.10146  21829381.513    21829382.1204   21829386.4794
       179.0004        179.0004
 -13751095.82348 -10702158.85046  21886696.470    21886696.6824   21886702.9404
       185.0004        185.0004
 -18688132.01649 -14513866.68747  20937696.392    20937697.2934   20937704.3954
       211.0004        211.0004
 -12987618.52248 -10105863.31646  22265868.362    22265868.8454   22265877.4704
       174.0004        175.0004
 21  2  6  0 50 30.0000000  0  8G07G08G30G27G21G04G09G01
 -14635109.14948 -11390473.47947  22022960.596    22022961.5244   22022966.0144
       191.0004        191.0004
 -18560547.37649 -14436900.50547  21288327.201    21288328.2474   21288335.5804
       195.0004        195.0004
  -3339530.24247  -2577046.76645  23910634.386    23910634.8534   23910641.9834
       155.0004        158.0004
  -5737870.62848  -4420219.74946  24189187.341    24189188.4664   24189194.9514
       176.0004        177.0004
 -12030479.55648  -9358104.08146  21826223.115    21826222.6994   21826227.9534
       179.0004        180.0004
 -13664757.99548 -10634882.61046  21903126.342    21903126.4244   21903132.0314
       185.0004        185.0004
 -18657767.44649 -14490205.98247  20943475.961    20943476.3154   20943482.3694
       211.0004        212.0004
 -13061826.55448 -10163687.72546  22251746.611    22251747.6694   22251755.3614
       175.0004        175.0004
 21  2  6  0 51  0.0000000  0  8G07G08G30G27G21G04G09G01
 -14709055.61348 -11448094.10047  22008889.321    22008890.7754   22008894.3544
       191.0004        192.0004
 -18485435.89148 -14378372.08747  21302621.615    21302621.5754   21302629.3284
       194.0004        194.0004
  -3425673.38547  -2644171.29045  23894243.521    23894243.2764   23894249.6654
       157.0004        160.0004
  -5629688.75748  -4335922.22446  24209774.462    24209775.0154   24209780.3304
       175.0004        177.0004
 -12046665.72048  -9370716.67546  21823143.695    21823143.7784   21823147.1994
       180.0004        180.0004
 -13578156.71548 -10567401.09546  21919605.548    21919606.4384   21919612.7484
       186.0004        185.0004
 -18626898.18749 -14466152.02047  20949349.281    20949349.6604   20949356.8864
       211.0004        211.0004
 -13135883.64648 -10221394.55846  22237653.860    22237655.0044   22237663.5414
       175.0004        175.0004
 21  2  6  0 51 30.0000000  0  8G07G08G30G27G21G04G09G01
 -14782915.59148 -11505647.31647  21994835.324    21994835.1324   21994839.5754
       193.0004        193.0004
 -18409990.49348 -14319583.46647  21316978.638    21316978.6574   21316986.0964
       194.0004        194.0004
  -3511890.27247  -2711353.24945  23877836.911    23877836.3674   23877843.9494
       157.0004        159.0004
  -5521460.51048  -4251588.53946  24230369.514    24230369.9654   24230376.0154
       177.0004        178.0004
 -12062434.53848  -9383004.04746  21820141.744    21820141.9564   21820146.9544
       180.0004        180.0004
 -13491295.08748 -10499716.72646  21936134.496    21936135.3154   21936142.0904
       185.0004        185.0004
 -18595526.17049 -14441706.28647  20955319.386    20955319.8264   20955326.4394
       211.0004        211.0004
 -13209786.85548 -10278981.45746  22223591.703    22223592.1884   22223599.3114
       175.0004        177.0004
 21  2  6  0 52  0.0000000  0  8G07G08G30G27G21G04G09G01
 -14856688.27848 -11563132.53247  21980796.778    21980797.3824   21980800.7704
       193.0004        193.0004
 -18334215.24749 -14260537.81447  21331398.061    21331398.3814   21331405.4704
       195.0004        195.0004
  -3598180.71847  -2778592.52545  23861415.723    23861415.8064   23861422.6814
       156.0004        157.0004
  -5413189.83548  -4167221.77946  24250972.496    24250973.6334   24250979.0694
       178.0004        179.0004
 -12077785.21948  -9394965.61946  21817220.708    21817220.9554   21817226.3444
       180.0004        180.0004
 -13404177.49248 -10431832.89546  21952713.167    21952713.3964   21952719.8654
       185.0004        185.0004
 -18563654.63449 -14416871.32347  20961384.399    20961384.2244   20961391.7504
       211.0004        211.0004
 -13283534.32348 -10336447.02046  22209558.147    22209558.0114   22209566.4194
       176.0004        177.0004
 21  2  6  0 52 30.0000000  0  8G07G08G30G27G21G04G09G01
 -14930368.83648 -11620545.95347  21966775.039    21966775.9054   21966779.5314
       193.0004        192.0004
 -18258111.28949 -14201236.02647  21345879.743    21345880.1884   21345887.8134
       195.0004        196.0004
  -3684541.00547  -2845886.23945  23844980.786    23844981.5834   23844989.3984
       154.0004        155.0004
  -5304877.22948  -4082822.35546  24271584.057    24271584.6164   24271591.6254
       180.0004        182.0004
 -12092713.61648  -9406598.12946  21814379.765    21814380.0994   21814385.3524
       180.0004        180.0004
 -13316804.79348 -10363750.28946  21969339.599    21969340.0284   21969346.1974
       185.0004        185.0004
 -18531283.23949 -14391646.87847  20967544.081    20967544.7434   20967551.7534
       210.0004        211.0004
 -13357120.63648 -10393786.99846  22195554.252    22195554.5834   22195563.9594
       176.0004        176.0004
 21  2  6  0 53  0.0000000  0  8G07G08G30G27G21G04G09G01
 -15003955.86248 -11677886.49347  21952772.754    21952773.3164   21952776.4894
       192.0004        193.0004
 -18181682.45448 -14141681.08647  21360423.584    21360424.1394   21360431.4774
       194.0004        194.0004
  -3770970.53747  -2913233.90145  23828534.845    23828534.6714   23828542.4814
       152.0004        154.0004
  -5196526.39548  -3998393.15446  24292203.091    24292202.5914   24292209.3384
       179.0004        177.0004
 -12107219.16948  -9417901.14446  21811620.524    21811620.5934   21811624.6514
       181.0004        182.0004
 -13229180.96348 -10295471.98646  21986014.097    21986014.7514   21986020.5064
       185.0004        184.0004
 -18498414.89649 -14366035.18047  20973799.223    20973799.5204   20973806.4834
       211.0004        212.0004
 -13430543.44948 -10450999.57946  22181581.244    22181583.2974   22181591.4354
       176.0004        178.0004
 21  2  6  0 53 30.0000000  0  8G07G08G30G27G21G04G09G01
 -15077447.26348 -11735152.51247  21938787.209    21938787.9564   21938791.7484
       192.0004        193.0004
 -18104931.72448 -14081875.32347  21375029.020    21375029.3634   21375036.6814
       194.0004        194.0004
  -3857468.09747  -2980634.57445  23812072.596    23812074.0294   23812082.1154
       152.0004        155.0004
  -5088140.29848  -3913936.42546  24312829.061    24312828.4114   24312833.5764
       176.0004        175.0004
 -12121300.98648  -9428873.97946  21808939.658    21808939.7914   21808944.9264
       180.0004        180.0004
 -13141309.37648 -10227000.62146  22002735.202    22002735.2814   22002741.3834
       184.0004        184.0004
 -18465051.85749 -14340038.01347  20980147.866    20980148.2444   20980154.9174
       211.0004        211.0004
 -13503799.94948 -10508082.55346  22167642.933    22167643.2944   22167650.3644
       177.0004        178.0004
 21  2  6  0 54  0.0000000  0  8G07G08G30G27G21G04G09G01
 -15150839.70948 -11792341.41747  21924821.635    21924821.8124   21924825.7934
       193.0004        194.0004
 -18027861.82448 -14021820.84747  21389694.928    21389695.0194   21389703.1564
       194.0004        194.0004
  -3944031.37547  -3048086.45145  23795602.963    23795602.2724   23795610.4634
       154.0004        158.0004
  -4979720.82348  -3829453.70446  24333460.271    24333459.9474   24333466.5374
       174.0004        174.0004
 -12134956.12048  -9439514.33546  21806342.292    21806341.4914   21806346.7964
       180.0004        180.0004
 -13053192.30848 -10158337.98446  22019503.545    22019503.8424   22019509.5504
       185.0004        185.0004
 -18431195.29249 -14313656.27547  20986590.138    20986590.9654   20986597.7414
       210.0004        210.0004
 -13576886.11548 -10565032.79846  22153733.407    22153735.0024   22153743.4624
       177.0004        178.0004
 21  2  6  0 54 30.0000000  0  8G07G08G30G27G21G04G09G01
 -15224134.97748 -11849454.60847  21910874.739    21910874.6034   21910878.3124
       194.0004        194.0004
 -17950479.10348 -13961522.60947  21404420.476    21404420.8934   21404428.2684
       194.0004        194.0004
  -4030662.56547  -3115591.24645  23779118.204    23779118.0734   23779124.1934
       157.0004        160.0004
  -4871274.44448  -3744950.01746  24354096.728    24354096.7604   24354101.3564
       171.0004        171.0004
 -12148186.83448  -9449823.96346  21803823.955    21803823.8704   21803829.3934
       180.0004        181.0004
 -12964836.59348 -10089489.39146  22036316.628    22036316.9204   22036322.6924
       184.0004        182.0004
 -18396850.98649 -14286894.46847  20993126.004    20993126.9554   20993133.0244
       210.0004        210.0004
 -13649802.54448 -10621850.77246  22139858.094    22139859.1124   22139867.9724
       176.0004        177.0004
 21  2  6  0 55  0.0000000  0  8G07G08G30G27G21G04G09G01
 -15297326.07548 -11906486.62647  21896945.582    21896946.1704   21896950.4744
       194.0004        194.0004
 -17872782.01648 -13900979.42647  21419205.405    21419205.8264   21419213.5014
       194.0004        194.0004
  -4117355.66747  -3183144.33945  23762620.249    23762620.4774   23762627.8274
       159.0004        161.0004
  -4762799.35848  -3660423.93546  24374738.744    24374738.8564   24374744.2484
       172.0004        173.0004
 -12160987.41648  -9459798.42946  21801388.154    21801388.1234   21801393.2344
       180.0004        181.0004
 -12876240.90048 -10020453.79746  22053176.534    22053176.1034   22053182.2584
       184.0004        183.0004
 -18362016.54449 -14259750.77047  20999755.129    20999756.0314   20999761.4434
       210.0004        210.0004
 -13722541.54448 -10678530.52646  22126016.877    22126017.6044   22126026.2804
       177.0004        178.0004
 21  2  6  0 55 30.0000000  0  8G07G08G30G27G21G04G09G01
 -15370410.50048 -11963435.52147  21883037.822    21883038.0094   21883042.9324
       194.0004        194.0004
 -17794773.68748 -13840193.71647  21434050.034    21434050.1314   21434057.9294
       193.0004        193.0004
  -4204109.12847  -3250744.38545  23746111.354    23746111.2584   23746119.2504
       159.0004        161.0004
  -4654298.19148  -3575877.58246  24395384.396    24395385.2634   24395392.1854
       172.0004        173.0004
 -12173356.05148  -9469436.31946  21799035.724    21799035.0854   21799039.7514
       180.0004        181.0004
 -12787408.28148  -9951233.58846  22070079.813    22070080.4564   22070087.3304
       184.0004        183.0004
 -18326693.95449 -14232226.68147  21006475.860    21006476.3934   21006483.2124
       210.0004        210.0004
 -13795099.91848 -10735069.51346  22112209.295    22112210.1884   22112218.4434
       177.0004        178.0004
 21  2  6  0 56  0.0000000  0  8G07G08G30G27G21G04G09G01
 -15443385.17048 -12020298.90247  21869151.335    21869151.8354   21869156.8414
       194.0004        195.0004
 -17716457.29048 -13779167.94947  21448953.111    21448953.7994   21448961.2244
       193.0004        193.0004
  -4290921.00647  -3318389.96745  23729590.892    23729590.7034   23729598.7444
       158.0004        160.0004
  -4545773.29748  -3491312.76246  24416036.113    24416037.0724   24416043.2374
       172.0004        172.0004
 -12185290.93548  -9478736.22446  21796764.444    21796763.5074   21796767.6054
       181.0004        182.0004
 -12698341.41848  -9881830.85646  22087029.092    22087028.7734   22087035.7334
       183.0004        183.0004
 -18290884.94949 -14204323.57047  21013290.535    21013291.1024   21013297.5734
       209.0004        210.0004
 -13867474.06548 -10791464.94846  22098438.415    22098438.2774   22098445.2884
       178.0004        179.0004
 21  2  6  0 56 30.0000000  0  8G07G08G30G27G21G04G09G01
 -15516248.60849 -12077075.59147  21855286.187    21855286.6124   21855290.9104
       195.0004        195.0004
 -17637835.74548 -13717904.41947  21463915.038    21463915.3294   21463922.6034
       193.0004        194.0004
  -4377789.90847  -3386080.01145  23713060.874    23713060.3684   23713067.4554
       157.0004        159.0004
  -4437227.49048  -3406731.58646  24436691.509    24436692.6924   24436698.6494
       170.0004        171.0004
 -12196790.70348  -9487697.06546  21794575.173    21794575.2514   21794580.0174
       182.0004        183.0004
 -12609043.64348  -9812248.17146  22104021.254    22104021.8314   22104028.4714
       184.0004        182.0004
 -18254591.82249 -14176043.21247  21020197.223    21020197.4784   21020204.2954
       210.0004        210.0004
 -13939661.03548 -10847714.50546  22084700.490    22084701.4664   22084709.4184
       178.0004        179.0004
 21  2  6  0 57  0.0000000  0  8G07G08G30G27G21G04G09G01
 -15588997.97149 -12133763.40947  21841442.943    21841443.4024   21841447.1224
       195.0004        196.0004
 -17558911.53448 -13656405.02947  21478933.239    21478933.9574   21478941.0764
       193.0004        193.0004
  -4464714.02947  -3453813.07345  23696519.617    23696519.3424   23696527.6894
       156.0004        158.0004
  -4328663.24848  -3322136.12746  24457350.250    24457351.6374   24457358.6034
       168.0004        169.0004
 -12207853.24548  -9496317.22046  21792469.929    21792469.7044   21792475.8584
       182.0004        182.0004
 -12519517.86448  -9742487.84746  22121057.552    22121058.7504   22121065.2784
       183.0004        183.0004
 -18217816.46049 -14147387.09647  21027195.031    21027195.5464   21027202.2024
       209.0004        209.0004
 -14011657.42648 -10903815.57746  22071000.611    22071001.0214   22071009.9054
       179.0004        180.0004
 21  2  6  0 57 30.0000000  0  8G07G08G30G27G21G04G09G01
 -15661631.83449 -12190361.23647  21827620.813    21827621.4504   21827625.1584
       195.0004        195.0004
 -17479689.78548 -13594673.78347  21494008.349    21494008.7624   21494016.9214
       193.0004        192.0004
  -4551693.05947  -3521588.92045  23679968.820    23679968.3604   23679975.1064
       156.0004        158.0004
  -4220084.47148  -3237529.27746  24478013.085    24478013.7864   24478019.4714
       170.0004        171.0004
 -12218478.91348  -9504596.94646  21790447.779    21790447.7244   21790453.5654
       182.0004        183.0004
 -12429768.36748  -9672553.19546  22138137.683    22138138.1864   22138144.0344
       184.0004        184.0004
 -18180562.26249 -14118357.85247  21034284.825    21034284.9164   21034291.6914
       209.0004        210.0004
 -14083461.25148 -10959766.60446  22057335.921    22057337.0734   22057345.7594
       179.0004        179.0004
 21  2  6  0 58  0.0000000  0  8G07G08G30G27G21G04G09G01
 -15734147.83549 -12246867.21047  21813821.844    21813822.1204   21813826.5684
       195.0004        195.0004
 -17400172.82248 -13532712.51347  21509139.897    21509140.6224   21509147.9404
       191.0004        190.0004
  -4638725.21447  -3589406.17245  23663406.199    23663406.3494   23663413.6204
       157.0004        159.0004
  -4111493.55748  -3152912.98046  24498675.665    24498676.7844   24498684.1054
       170.0004        170.0004
 -12228666.01348  -9512534.94546  21788509.916    21788508.8384   21788514.2694
       181.0004        181.0004
 -12339798.18748  -9602446.55246  22155257.849    22155258.1424   22155264.6024
       184.0004        183.0004
 -18142831.32249 -14088957.12647  21041464.464    21041464.8564   21041471.8054
       210.0004        210.0004
 -14155069.22948 -11015565.01946  22043710.571    22043711.3214   22043717.2514
       178.0004        178.0004
 21  2  6  0 58 30.0000000  0  8G07G08G30G27G21G04G09G01
 -15806542.11249 -12303278.32947  21800045.515    21800046.3804   21800049.9074
       195.0004        195.0004
 -17320362.38248 -13470522.56947  21524328.124    21524328.4694   21524335.3254
       191.0004        192.0004
  -4725807.79247  -3657262.72045  23646835.383    23646835.5664   23646842.8294
       159.0004        161.0004
  -4002892.09248  -3068288.50746  24519342.106    24519343.0254   24519350.0184
       169.0004        170.0004
 -12238411.88448  -9520129.12246  21786655.154    21786654.6474   21786658.1164
       180.0004        180.0004
 -12249609.28348  -9532169.49346  22172419.835    22172420.3204   22172426.9294
       183.0004        182.0004
 -18104624.61949 -14059185.67547  21048734.895    21048735.4254   21048741.9614
       210.0004        210.0004
 -14226477.00548 -11071207.42846  22030120.480    22030121.4254   22030128.9904
       178.0004        178.0004
 21  2  6  0 59  0.0000000  0  8G07G08G30G27G21G04G09G01
 -15878812.40749 -12359592.84447  21786292.792    21786293.5094   21786297.0824
       195.0004        195.0004
 -17240261.55448 -13408106.33047  21539570.416    21539571.3244   21539578.0654
       192.0004        192.0004
  -4812939.04447  -3725157.17345  23630254.335    23630254.4134   23630262.1934
       160.0004        162.0004
  -3894282.56048  -2983657.65546  24540010.226    24540010.9934   24540018.1294
       169.0004        171.0004
 -12247715.16748  -9527378.41346  21784884.283    21784884.4034   21784887.9864
       180.0004        180.0004
 -12159204.65148  -9461724.32746  22189623.844    22189624.6264   22189629.9384
       182.0004        182.0004
 -18065944.24149 -14029045.11347  21056096.038    21056096.2474   21056102.5774
       209.0004        210.0004
 -14297681.29748 -11126691.29346  22016570.858    22016571.7944   22016580.6634
       178.0004        178.0004
 21  2  6  0 59 30.0000000  0  8G07G08G30G27G21G04G09G01
 -15950956.72049 -12415809.18047  21772564.019    21772564.5294   21772568.5404
       195.0004        195.0004
 -17159873.81148 -13345466.52647  21554868.127    21554868.4604   21554875.2854
       192.0004        192.0004
  -4900117.65047  -3793088.51145  23613664.386    23613664.6984   23613672.2274
       158.0004        159.0004
  -3785667.82848  -2899022.83846  24560677.187    24560679.0924   24560686.8544
       167.0004        168.0004
 -12256574.27848  -9534281.61546  21783199.172    21783199.4024   21783202.6384
       180.0004        180.0004
 -12068587.71448  -9391113.71546  22206867.214    22206867.7264   22206874.0154
       182.0004        180.0004
 -18026792.76449 -13998537.47747  21063546.014    21063546.4014   21063552.9744
       209.0004        209.0004
 -14368679.23448 -11182014.35146  22003060.257    22003060.9484   22003069.7424
       178.0004        179.0004
 21  2  6  1  0  0.0000000  0  7G07G08G30G21G04G09G01
 -16022970.16249 -12471923.54147  21758861.246    21758860.9464   21758864.8224
       195.0004        195.0004
 -17079200.42748 -13282604.14547  21570219.684    21570220.2234   21570227.2494
       192.0004        192.0004
  -4987340.14147  -3861054.05045  23597067.400    23597066.7014   23597074.9604
       159.0004        162.0004
 -12264986.39748  -9540836.49346  21781597.702    21781597.2984   21781601.3844
       180.0004        181.0004
 -11977759.74648  -9320338.69546  22224150.890    22224151.2844   22224157.9854
       181.0004        180.0004
 -17987170.56749 -13967663.04647  21071085.542    21071086.2174   21071092.5374
       209.0004        209.0004
 -14439465.73448 -11237172.65346  21989591.183    21989591.8074   21989599.1204
       179.0004        181.0004
 21  2  6  1  0 30.0000000  0  7G07G08G30G21G04G09G01
 -16094849.56049 -12527933.46547  21745182.006    21745182.6194   21745186.8424
       195.0004        195.0004
 -16998243.65449 -13219520.95447  21585625.175    21585625.2264   21585632.1214
       206.0004        208.0004
  -5074603.73747  -3929051.62946  23580462.412    23580462.2094   23580469.4744
       162.0004        163.0004
 -12272949.35948  -9547041.40446  21780082.608    21780082.1454   21780086.6704
       181.0004        182.0004
 -11886722.87148  -9249400.89546  22241474.847    22241475.4864   22241481.7124
       180.0004        179.0004
 -17947078.88849 -13936422.79447  21078714.493    21078715.2004   21078721.9844
       209.0004        209.0004
 -14510036.61648 -11292162.95146  21976162.531    21976162.5814   21976170.0814
       179.0004        179.0004
 21  2  6  1  1  0.0000000  0  9G07G08G14G30G21G04G17G09G01
 -16166599.00749 -12583842.11647  21731528.397    21731529.1064   21731533.4054
       196.0004        196.0004
 -16917012.44949 -13156223.91547  21601083.567    21601083.3724   21601089.5944
       209.0004        208.0004
  -1446259.60556  -1117463.70945  23587272.760                    23587273.6274
       124.0004        142.0004
  -5161913.43547  -3997085.14046  23563847.380    23563847.2534   23563853.5124
       162.0004        163.0004
 -12280467.88848  -9552899.99146  21778651.165    21778651.1374   21778656.8634
       182.0004        182.0004
 -11795486.70348  -9178307.79646  22258836.979    22258837.0194   22258843.1204
       180.0004        179.0004
  -1546356.00254  -1187031.41545  23986567.134
        74.0004        153.0004
 -17906526.54149 -13904823.56647  21086432.452    21086432.2994   21086438.8884
       209.0004        209.0004
 -14580395.25748 -11346987.86146  21962772.358    21962772.9884   21962781.2624
       179.0004        179.0004
 21  2  6  1  1 30.0000000  0  9G07G08G14G30G21G04G17G09G01
 -16238212.33549 -12639644.70347  21717901.361    21717902.0714   21717905.7494
       196.0004        196.0004
 -16835506.66949 -13092712.89948  21616593.608    21616593.6084   21616600.1004
       220.0004        223.0004
  -1473290.96747  -1138527.03145  23582129.060    23582130.0644   23582133.5544
       137.0004        144.0004
  -5249263.72247  -4065150.28246  23547225.627    23547225.0804   23547232.7254
       163.0004        165.0004
 -12287537.21848  -9558408.55046  21777306.516    21777306.4004   21777311.9364
       182.0004        183.0004
 -11704050.57948  -9107058.87846  22276236.317    22276236.4524   22276242.9774
       178.0004        177.0004
  -1640115.89647  -1260091.04245  23968724.721                    23968731.7204
       145.0004        156.0004
 -17865512.09049 -13872864.25547  21094236.186    21094236.8794   21094243.6054
       208.0004        208.0004
 -14650534.68148 -11401641.93746  21949425.320    21949425.9684   21949434.9204
       178.0004        179.0004
 21  2  6  1  2  0.0000000  0  9G07G08G14G30G21G04G17G09G01
 -16309689.13949 -12695340.90647  21704299.578    21704300.2084   21704303.9064
       196.0004        196.0004
 -16753731.18749 -13028991.74448  21632154.699    21632154.7834   21632161.7144
       223.0004        223.0004
  -1500267.97247  -1159548.01845  23576995.497    23576995.4894   23577000.9014
       140.0004        146.0004
  -5336655.17947  -4133247.50246  23530594.156    23530594.4234   23530602.2354
       164.0004        165.0004
 -12294158.27248  -9563567.78846  21776047.533    21776046.6304   21776051.9044
       182.0004        183.0004
 -11612419.86148  -9035658.32246  22293672.555    22293672.8454   22293680.4674
       177.0004        177.0004
  -1733626.88847  -1332956.68545  23950930.265    23950931.1564   23950936.3104
       153.0004        157.0004
 -17824039.99449 -13840548.34147  21102128.463    21102128.7724   21102135.5664
       208.0004        208.0004
 -14720453.82548 -11456124.38846  21936121.407    21936121.9724   21936129.0504
       179.0004        180.0004
 21  2  6  1  2 30.0000000  0  9G07G08G14G30G21G04G17G09G01
 -16381026.26049 -12750928.27947  21690724.826    21690725.3654   21690728.6814
       196.0004        196.0004
 -16671688.38749 -12965062.29148  21647766.278    21647766.6974   21647774.1654
       223.0004        223.0004
  -1527191.06547  -1180527.01345  23571869.532    23571871.9644   23571881.0464
       145.0004        150.0004
  -5424085.23947  -4201374.77646  23513957.142    23513956.9524   23513965.1964
       164.0004        166.0004
 -12300328.82348  -9568376.00646  21774872.381    21774872.1364   21774878.4144
       183.0004        183.0004
 -11520596.83748  -8964107.92846  22311146.383    22311146.4284   22311153.3844
       176.0004        176.0004
  -1826885.93747  -1405626.02545  23933184.035    23933184.5054   23933189.6904
       154.0004        157.0004
 -17782111.80049 -13807877.02947  21110107.646    21110107.8534   21110114.3464
       209.0004        209.0004
 -14790148.75148 -11510432.11846  21922858.236    21922859.2064   21922866.3454
       179.0004        180.0004
 21  2  6  1  3  0.0000000  0  9G07G08G14G30G21G04G17G09G01
 -16452218.92849 -12806403.09447  21677176.999    21677177.5414   21677181.5574
       196.0004        196.0004
 -16589379.38149 -12900925.40848  21663428.763    21663429.4074   21663436.7774
       222.0004        221.0004
  -1554059.45947  -1201463.42645  23566757.001    23566758.8144   23566767.9374
       150.0004        154.0004
  -5511549.97847  -4269529.08446  23497314.082    23497314.1204   23497320.1254
       164.0004        166.0004
 -12306045.33248  -9572830.43546  21773784.207    21773783.9044   21773789.7814
       182.0004        182.0004
 -11428582.39648  -8892408.38546  22328656.996    22328657.4634   22328662.6234
       177.0004        178.0004
  -1919888.85647  -1478095.76745  23915485.926    23915486.3064   23915492.2814
       155.0004        158.0004
 -17739727.61949 -13774850.40147  21118172.713    21118172.7454   21118179.7994
       209.0004        209.0004
 -14859614.02148 -11564560.88446  21909639.544    21909639.9274   21909648.1754
       180.0004        181.0004
 21  2  6  1  3 30.0000000  0  9G07G08G14G30G21G04G17G09G01
 -16523263.80549 -12861762.73947  21663657.505    21663658.4914   21663662.4084
       196.0004        196.0004
 -16506805.88249 -12836582.42448  21679142.697    21679143.1304   21679150.1454
       222.0004        222.0004
  -1580873.65647  -1222357.58345  23561657.798    23561657.8884   23561664.2794
       154.0004        157.0004
  -5599046.75147  -4337708.37946  23480663.799    23480663.7474   23480670.0334
       164.0004        165.0004
 -12311305.88448  -9576929.57146  21772782.992    21772783.0774   21772787.7634
       182.0004        182.0004
 -11336378.79448  -8820561.42746  22346202.090    22346202.2614   22346208.2544
       177.0004        177.0004
  -2012632.63547  -1550363.59945  23897837.343    23897837.8594   23897842.9204
       157.0004        159.0004
 -17696888.99749 -13741469.66547  21126324.609    21126325.0124   21126332.0594
       209.0004        209.0004
 -14928845.62348 -11618507.57646  21896465.772    21896466.2624   21896474.6174
       181.0004        183.0004
 21  2  6  1  4  0.0000000  0  9G07G08G14G30G21G04G17G09G01
 -16594158.74549 -12917005.54747  21650167.121    21650167.3654   21650171.1084
       196.0004        197.0004
 -16423971.70849 -12772036.31748  21694906.477    21694906.4284   21694912.7764
       223.0004        223.0004
  -1607635.56147  -1243211.00145  23556563.858    23556564.6354   23556569.8714
       152.0004        154.0004
  -5686574.51148  -4405911.81246  23464008.063    23464007.3514   23464014.2354
       165.0004        166.0004
 -12316109.85048  -9580672.92546  21771870.016    21771869.1614   21771873.4364
       182.0004        182.0004
 -11243989.69748  -8748569.93246  22363782.356    22363783.1414   22363789.0714
       176.0004        176.0004
  -2105115.97247  -1622428.48645  23880238.456    23880238.8844   23880244.4914
       157.0004        158.0004
 -17653598.83149 -13707737.07047  21134563.361    21134563.3314   21134569.3554
       209.0004        209.0004
 -14997840.86748 -11672270.09646  21883335.520    21883336.4354   21883344.6264
       181.0004        182.0004
 21  2  6  1  4 30.0000000  0  9G07G08G14G30G21G04G17G09G01
 -16664899.99649 -12972128.58347  21636705.046    21636705.1574   21636709.7154
       196.0004        197.0004
 -16340878.69649 -12707288.51948  21710717.741    21710718.0684   21710725.2304
       223.0004        223.0004
  -1634345.15747  -1264023.62845  23551482.123    23551481.9334   23551485.9094
       150.0004        152.0004
  -5774130.00947  -4474136.87046  23447345.705    23447345.8554   23447351.9164
       164.0004        165.0004
 -12320453.84348  -9584057.83546  21771043.955    21771042.5694   21771046.9774
       182.0004        183.0004
 -11151416.80548  -8676435.21046  22381397.791    22381398.9474   22381405.6964
       175.0004        176.0004
  -2197335.63047  -1694287.92345  23862690.414    23862690.5294   23862695.5964
       157.0004        160.0004
 -17609858.09649 -13673653.38247  21142886.072    21142886.3894   21142893.1334
       209.0004        208.0004
 -15066595.19348 -11725844.89146  21870251.828    21870252.5384   21870260.3024
       181.0004        181.0004
 21  2  6  1  5  0.0000000  0  9G07G08G14G30G21G04G17G09G01
 -16735485.95349 -13027130.62547  21623271.996    21623273.3744   21623277.8204
       197.0004        197.0004
 -16257530.40349 -12642341.80348  21726578.321    21726578.5384   21726585.5404
       223.0004        221.0004
  -1661004.79847  -1284797.32045  23546407.260    23546407.9564   23546413.4084
       151.0004        155.0004
  -5861712.44947  -4542382.92546  23430678.745    23430679.8734   23430686.0774
       163.0004        163.0004
 -12324338.79848  -9587085.08946  21770303.506    21770302.7734   21770307.6694
       183.0004        183.0004
 -11058664.19448  -8604160.47946  22399049.169    22399049.5144   22399056.0784
       176.0004        176.0004
  -2289290.53547  -1765941.09245  23845192.067    23845191.7264   23845196.4104
       157.0004        159.0004
 -17565670.22049 -13639221.28547  21151294.059    21151294.8234   21151301.7914
       208.0004        209.0004
 -15135106.35248 -11779230.21546  21857214.931    21857215.3884   21857223.4844
       181.0004        182.0004
 21  2  6  1  5 30.0000000  0  9G07G08G14G30G21G04G17G09G01
 -16805914.25449 -13082009.80347  21609870.587    21609871.3394   21609875.5854
       197.0004        197.0004
 -16173930.50149 -12577199.01448  21742486.943    21742487.1994   21742493.7404
       221.0004        220.0004
  -1687616.03847  -1305533.31645  23541343.555    23541343.9984   23541349.7024
       155.0004        158.0004
  -5949320.28247  -4610648.73846  23414007.141    23414007.5464   23414014.7824
       162.0004        164.0004
 -12327763.41548  -9589753.60746  21769652.158    21769650.9584   21769655.5344
       183.0004        183.0004
 -10965735.14548  -8531748.26146  22416733.342    22416733.8094   22416740.5184
       176.0004        177.0004
  -2380979.13047  -1837386.70845  23827742.990    23827743.4604   23827748.5394
       156.0004        158.0004
 -17521037.77849 -13604442.75547  21159787.776    21159788.5744   21159795.0144
       208.0004        209.0004
 -15203371.35448 -11832423.72446  21844224.665    21844224.9754   21844233.1474
       181.0004        182.0004
 21  2  6  1  6  0.0000000  0  9G07G08G14G30G21G04G17G09G01
 -16876181.35049 -13136763.40247  21596500.491    21596500.2354   21596504.2394
       197.0004        197.0004
 -16090080.66249 -12511861.49248  21758443.114    21758443.3144   21758450.0464
       221.0004        220.0004
  -1714179.22147  -1326231.87045  23536289.278    23536289.9584   23536294.2694
       157.0004        159.0004
  -6036950.77047  -4678932.21746  23397332.214    23397333.1214   23397340.2064
       164.0004        166.0004
 -12330725.72048  -9592061.89346  21769087.733    21769087.3744   21769092.3294
       183.0004        184.0004
 -10872631.83348  -8459200.24646  22434450.938    22434451.1364   22434457.6704
       177.0004        178.0004
  -2472398.42647  -1908622.45045  23810343.985    23810345.9834   23810351.7744
       152.0004        152.0004
 -17475962.25749 -13569318.98547  21168365.536    21168365.8384   21168373.0104
       209.0004        209.0004
 -15271386.03948 -11885422.15846  21831281.792    21831282.6074   21831290.8174
       181.0004        182.0004
 21  2  6  1  6 30.0000000  0  9G07G08G14G30G21G04G17G09G01
 -16946284.94249 -13191389.57847  21583159.639    21583160.0234   21583164.3554
       198.0004        199.0004
 -16005984.67949 -12446332.16548  21774446.215    21774446.7404   21774453.3824
       222.0004        222.0004
  -1740696.06347  -1346894.31845  23531243.907    23531243.6244   23531248.3964
       156.0004        157.0004
  -6124602.34948  -4747232.14246  23380653.542    23380653.5254   23380660.0394
       165.0004        166.0004
 -12333224.54648  -9594009.01946  21768612.922    21768612.5954   21768617.5244
       185.0004        185.0004
 -10779357.63748  -8386519.05146  22452200.015    22452200.8734   22452206.1334
       177.0004        177.0004
  -2563546.58347  -1979646.93745  23793002.316    23793002.3214   23793005.7484
       150.0004        152.0004
 -17430446.40649 -13533852.10047  21177027.083    21177027.6114   21177033.7644
       209.0004        208.0004
 -15339147.47248 -11938223.28046  21818386.600    21818387.4834   21818395.7644
       182.0004        182.0004
 21  2  6  1  7  0.0000000  0  9G07G08G14G30G21G04G17G09G01
 -17016223.34249 -13245887.02647  21569850.826    21569851.1114   21569855.4244
       198.0004        198.0004
 -15921646.13849 -12380613.81748  21790496.125    21790496.1084   21790502.4494
       222.0004        221.0004
  -1767168.60947  -1367522.24345  23526204.709    23526205.6114   23526210.8124
       156.0004        159.0004
  -6212274.00647  -4815547.74446  23363969.168    23363969.9664   23363976.6004
       163.0004        164.0004
 -12335259.64148  -9595594.80046  21768225.528    21768225.4654   21768231.9494
       186.0004        187.0004
 -10685916.42248  -8313707.73346  22469981.420    22469981.4334   22469987.1554
       176.0004        175.0004
  -2654422.35047  -2050459.16545  23775710.608    23775709.8774   23775713.3704
       153.0004        157.0004
 -17384493.47149 -13498044.62647  21185772.000    21185772.1324   21185778.6974
       208.0004        209.0004
 -15406653.25948 -11990825.18746  21805541.556    21805541.7754   21805550.0794
       183.0004        184.0004
 21  2  6  1  7 30.0000000  0  9G07G08G14G30G21G04G17G09G01
 -17085994.09749 -13300253.84947  21556573.670    21556574.4724   21556578.2004
       198.0004        198.0004
 -15837068.07249 -12314708.83948  21806590.218    21806590.2324   21806596.9774
       221.0004        220.0004
  -1793598.32047  -1388116.79246  23521177.018    23521176.9714   23521182.6114
       160.0004        163.0004
  -6299964.04647  -4883877.63446  23347282.988    23347283.6254   23347290.5154
       162.0004        164.0004
 -12336830.08048  -9596818.51347  21767927.029    21767926.0164   21767933.7754
       187.0004        188.0004
 -10592311.36748  -8240768.73546  22487794.536    22487794.5144   22487799.5654
       176.0004        176.0004
  -2745023.99447  -2121057.78745  23758466.994    23758467.8064   23758473.1594
       154.0004        157.0004
 -17338106.02049 -13461898.56147  21194597.848    21194598.7004   21194606.0054
       208.0004        208.0004
 -15473900.36248 -12043225.53146  21792743.628    21792744.4994   21792754.2324
       183.0004        184.0004
 21  2  6  1  8  0.0000000  0  9G07G08G14G30G21G04G17G09G01
 -17155594.39749 -13354487.85747  21543329.248    21543329.5294   21543333.5984
       198.0004        198.0004
 -15752253.54349 -12248619.59348  21822728.735    21822729.4654   21822736.8394
       220.0004        220.0004
  -1819986.36447  -1408678.87646  23516154.849    23516154.9964   23516159.7774
       163.0004        165.0004
  -6387670.39247  -4952220.21546  23330593.975    23330593.7974   23330601.4124
       164.0004        167.0004
 -12337934.52048  -9597679.09946  21767716.143    21767716.1584   21767723.5594
       187.0004        187.0004
 -10498545.35448  -8167704.32046  22505637.401    22505637.3304   22505643.6514
       176.0004        175.0004
  -2835349.87447  -2191441.54045  23741279.238    23741279.8104   23741286.0614
       156.0004        159.0004
 -17291286.34849 -13425415.69647  21203508.431    21203508.8954   21203515.5654
       208.0004        209.0004
 -15540885.30348 -12095421.57546  21779997.733    21779998.4974   21780005.8264
       183.0004        184.0004
 21  2  6  1  8 30.0000000  0  9G07G08G14G30G21G04G17G09G01
 -17225021.43849 -13408586.85047  21530117.195    21530117.6374   21530122.1694
       198.0004        198.0004
 -15667204.87449 -12182347.92348  21838913.192    21838913.6844   21838920.8644
       220.0004        219.0004
  -1846333.80347  -1429209.31946  23511140.855    23511141.8064   23511146.9474
       164.0004        165.0004
  -6475390.89548  -5020573.83446  23313900.204    23313899.5684   23313907.6294
       165.0004        166.0004
 -12338571.75248  -9598175.62546  21767595.019    21767594.7034   21767601.8124
       187.0004        187.0004
 -10404621.20948  -8094516.69546  22523510.212    22523509.8924   22523517.0584
       176.0004        177.0004
  -2925397.50047  -2261608.49545  23724144.395    23724144.6724   23724149.1214
       157.0004        159.0004
 -17244036.66349 -13388597.78147  21212499.816    21212500.2394   21212506.3574
       208.0004        208.0004
 -15607604.63748 -12147410.68246  21767301.349    21767302.0644   21767309.8474
       183.0004        184.0004
 21  2  6  1  9  0.0000000  0  9G07G08G14G30G21G04G17G09G01
 -17294271.78749 -13462548.15547  21516939.586    21516940.2404   21516944.2844
       198.0004        199.0004
 -15581924.59849 -12115895.75848  21855141.797    21855142.0834   21855148.9454
       219.0004        219.0004
  -1872641.16647  -1449708.53446  23506134.545    23506134.9394   23506140.6634
       163.0004        164.0004
  -6563122.98948  -5088936.49546  23297205.685    23297205.5724   23297212.8694
       165.0004        166.0004
 -12338739.97248  -9598306.67546  21767562.299    21767562.6484   21767569.4774
       187.0004        187.0004
 -10310541.23148  -8021207.62646  22541412.277    22541413.1444   22541419.3194
       176.0004        175.0004
  -3015164.03247  -2331556.41945  23707062.320    23707063.2014   23707066.2054
       156.0004        157.0004
 -17196358.75849 -13351446.16147  21221571.827    21221572.3114   21221579.6314
       208.0004        207.0004
 -15674054.39448 -12199189.69846  21754656.196    21754657.2334   21754665.2194
       183.0004        184.0004
 21  2  6  1  9 30.0000000  0  9G07G08G14G30G21G04G17G09G01
 -17363343.14749 -13516370.00247  21503796.509    21503796.7144   21503800.4684
       199.0004        199.0004
 -15496416.06749 -12049265.73748  21871414.459    21871414.2334   21871420.9644
       219.0004        219.0004
  -1898910.08047  -1470177.78846  23501136.687    23501136.8304   23501141.5814
       162.0004        163.0004
  -6650865.04947  -5157306.89046  23280508.589    23280507.8234   23280515.3254
       164.0004        165.0004
 -12338438.43248  -9598071.68946  21767620.483    21767620.0144   21767627.0224
       187.0004        186.0004
 -10216308.81748  -7947779.78246  22559344.824    22559344.9044   22559350.8404
       176.0004        176.0004
  -3104647.89147  -2401284.04445  23690033.125    23690033.7814   23690038.0634
       153.0004        155.0004
 -17148255.44049 -13313963.07047  21230726.277    21230726.7034   21230733.9844
       207.0004        208.0004
 -15740231.68248 -12250756.41746  21742064.098    21742064.6214   21742071.5494
       184.0004        185.0004
 21  2  6  1 10  0.0000000  0  9G07G08G14G30G21G04G17G09G01
 -17432232.61649 -13570050.10947  21490685.904    21490687.2374   21490691.1834
       199.0004        199.0004
 -15410681.72649 -11982459.75348  21887729.064    21887729.3624   21887735.5754
       219.0004        219.0004
  -1925141.78347  -1490618.03945  23496144.517    23496144.5894   23496149.3904
       161.0004        162.0004
  -6738615.07047  -5225683.51146  23263809.557    23263810.0164   23263817.0184
       164.0004        167.0004
 -12337665.94748  -9597469.74546  21767767.452    21767767.0774   21767773.4434
       186.0004        186.0004
 -10121926.89348  -7874235.42746  22577303.924    22577305.2164   22577311.4724
       175.0004        176.0004
  -3193847.37547  -2470790.12745  23673058.904    23673059.4484   23673064.7004
       153.0004        156.0004
 -17099729.12949 -13276150.36247  21239960.554    21239961.0014   21239967.8304
       208.0004        208.0004
 -15806133.21048 -12302108.25146  21729522.020    21729523.0594   21729532.0304
       184.0004        184.0004
 21  2  6  1 10 30.0000000  0  9G07G08G14G30G21G04G17G09G01
 -17500937.40549 -13623586.30247  21477613.584    21477613.1604   21477617.1524
       199.0004        199.0004
 -15324724.61649 -11915480.18748  21904086.060    21904086.3194   21904092.2344
       219.0004        218.0004
  -1951336.99147  -1511029.84346  23491160.128    23491160.0104   23491165.6664
       163.0004        165.0004
  -6826370.50848  -5294064.37146  23247110.907    23247110.7884   23247118.3474
       167.0004        169.0004
 -12336421.28248  -9596499.85646  21768004.156    21768003.5644   21768009.2114
       185.0004        185.0004
 -10027397.94348  -7800576.51946  22595293.025    22595293.8134   22595299.3694
       175.0004        176.0004
  -3282759.64347  -2540072.35845  23656138.585    23656139.4094   23656144.6574
       154.0004        156.0004
 -17050781.80149 -13238009.59047  21249274.803    21249275.1704   21249282.1564
       207.0004        207.0004
 -15871755.13548 -12353242.20346  21717034.662    21717035.2884   21717044.0614
       184.0004        184.0004
 21  2  6  1 11  0.0000000  0  9G07G08G14G30G21G04G17G09G01
 -17569455.09949 -13676976.72847  21464574.164    21464574.6884   21464578.2784
       199.0004        199.0004
 -15238547.86349 -11848329.47148  21920484.162    21920484.8114   21920491.0454
       218.0004        218.0004
  -1977497.48447  -1531414.60346  23486179.796    23486180.8694   23486187.9104
       162.0004        163.0004
  -6914130.01248  -5362448.36946  23230409.827    23230410.7674   23230417.9444
       167.0004        168.0004
 -12334703.73248  -9595161.51046  21768330.963    21768330.6964   21768335.0514
       184.0004        184.0004
  -9932725.51448  -7726805.81046  22613308.528    22613308.8484   22613315.5244
       175.0004        176.0004
  -3371383.48647  -2609129.85645  23639275.806    23639275.8114   23639280.4824
       154.0004        157.0004
 -17001416.51149 -13199543.14447  21258668.757    21258669.0444   21258675.9054
       207.0004        207.0004
 -15937094.82748 -12404156.25846  21704602.202    21704602.6094   21704610.3534
       184.0004        185.0004
 21  2  6  1 11 30.0000000  0  9G07G08G14G30G21G04G17G09G01
 -17637782.89149 -13730219.16747  21451571.442    21451571.9794   21451576.2284
       199.0004        199.0004
 -15152154.40349 -11781009.91148  21936925.030    21936925.2444   21936931.3044
       219.0004        218.0004
  -2003624.53747  -1551773.33746  23481209.683    23481209.5814   23481215.4924
       162.0004        164.0004
  -7001891.58348  -5430834.01046  23213709.981    23213710.0834   23213717.6274
       166.0004        168.0004
 -12332512.21848  -9593453.81846  21768747.953    21768747.1864   21768752.2834
       184.0004        183.0004
  -9837912.64548  -7652925.66646  22631350.728    22631351.0204   22631357.3204
       175.0004        174.0004
  -3459717.00447  -2677961.16745  23622465.818    23622465.6694   23622470.2704
       155.0004        157.0004
 -16951635.80349 -13160752.98947  21268141.440    21268141.9344   21268148.3584
       206.0004        207.0004
 -16002149.00248 -12454847.82446  21692223.053    21692223.8744   21692230.5324
       185.0004        186.0004
 21  2  6  1 12  0.0000000  0  9G07G08G14G30G21G04G17G09G01
 -17705919.07949 -13783312.29847  21438605.147    21438605.8294   21438610.3904
       199.0004        199.0004
 -15065547.98949 -11713524.39248  21953405.766    21953405.7714   21953412.3714
       218.0004        218.0004
  -2029720.13647  -1572107.51846  23476243.942    23476244.2454   23476249.0004
       163.0004        166.0004
  -7089653.95248  -5499220.26146  23197010.681    23197010.3294   23197017.2054
       168.0004        171.0004
 -12329846.72548  -9591376.79246  21769254.781    21769254.7154   21769259.0464
       183.0004        183.0004
  -9742963.04848  -7578938.99046  22649419.674    22649419.5224   22649426.1064
       174.0004        174.0004
  -3547759.35247  -2746565.56945  23605711.640    23605712.4044   23605716.3934
       154.0004        156.0004
 -16901442.93649 -13121641.67547  21277693.208    21277693.4364   21277700.3194
       206.0004        207.0004
 -16066915.18948 -12505314.96646  21679896.791    21679897.6474   21679906.0134
       185.0004        185.0004
 21  2  6  1 12 30.0000000  0  9G07G08G14G30G21G04G17G09G01
 -17773860.50649 -13836253.67247  21425676.963    21425677.4884   21425681.9984
       199.0004        200.0004
 -14978731.38449 -11645875.07948  21969925.570    21969925.9664   21969932.8814
       218.0004        216.0004
  -2055785.08047  -1592417.82346  23471283.635    23471283.8454   23471288.9054
       163.0004        164.0004
  -7177414.65348  -5567605.21246  23180309.885    23180309.7504   23180316.5814
       170.0004        171.0004
 -12326705.74648  -9588929.25846  21769852.801    21769852.4354   21769856.4354
       182.0004        182.0004
  -9647879.26948  -7504847.74846  22667512.682    22667512.9844   22667520.0854
       174.0004        174.0004
  -3635507.86847  -2814940.99345  23589015.029    23589015.7524   23589019.2844
       157.0004        161.0004
 -16850840.03849 -13082210.84147  21287322.225    21287322.7144   21287329.5714
       206.0004        206.0004
 -16131389.70548 -12555554.82646  21667628.169    21667629.3774   21667636.7114
       185.0004        185.0004
 21  2  6  1 13  0.0000000  0  9G07G08G14G30G21G04G17G09G01
 -17841604.20549 -13889040.96647  21412785.864    21412786.3574   21412790.5054
       200.0004        200.0004
 -14891706.78649 -11578063.70948  21986486.392    21986486.3164   21986493.7184
       217.0004        217.0004
  -2081820.39347  -1612705.04146  23466328.979    23466329.7124   23466335.0464
       163.0004        164.0004
  -7265171.54348  -5635987.21246  23163610.309    23163609.8294   23163616.3924
       169.0004        171.0004
 -12323088.43948  -9586110.56346  21770541.711    21770541.0804   21770544.6894
       181.0004        181.0004
  -9552664.18048  -7430654.19846  22685632.650    22685632.3714   22685638.9864
       174.0004        173.0004
  -3722960.62347  -2883085.97445  23572373.491    23572373.2594   23572378.1294
       159.0004        160.0004
 -16799829.52849 -13042462.39547  21297029.569    21297029.9544   21297036.9404
       206.0004        207.0004
 -16195569.16048 -12605564.77846  21655415.646    21655416.1604   21655424.2684
       185.0004        186.0004
 21  2  6  1 13 30.0000000  0  9G07G08G14G30G21G04G17G09G01
 -17909147.76449 -13941672.31447  21399932.773    21399932.9644   21399937.3864
       200.0004        200.0004
 -14804477.60949 -11510092.93548  22003085.594    22003085.6794   22003092.4574
       217.0004        217.0004
  -2107827.64547  -1632970.40346  23461379.932    23461380.5264   23461385.9174
       162.0004        163.0004
  -7352922.79548  -5704364.80346  23146911.565    23146911.8214   23146918.7104
       171.0004        173.0004
 -12318993.97848  -9582920.06846  21771320.497    21771320.6884   21771323.5074
       181.0004        181.0004
  -9457321.01848  -7356360.83246  22703774.788    22703775.2194   22703781.1324
       173.0004        172.0004
  -3810115.95047  -2950999.18945  23555787.383    23555787.4224   23555792.6454
       158.0004        160.0004
 -16748414.20649 -13002398.51847  21306812.926    21306813.9444   21306820.4574
       206.0004        205.0004
 -16259450.57148 -12655342.48646  21643258.480    21643259.2304   21643267.9504
       186.0004        186.0004
 21  2  6  1 14  0.0000000  0  9G07G08G14G30G21G04G17G09G01
 -17976487.34349 -13994144.72047  21387118.121    21387118.8734   21387123.2134
       200.0004        200.0004
 -14717045.80049 -11441964.25448  22019723.665    22019723.4754   22019730.2624
       218.0004        217.0004
  -2133807.04247  -1653214.07745  23456436.126    23456436.3464   23456442.1044
       161.0004        162.0004
  -7440665.39548  -5772735.65146  23130214.088    23130214.5244   23130222.3654
       171.0004        171.0004
 -12314420.73748  -9579356.49546  21772191.559    21772191.0424   21772194.3884
       182.0004        182.0004
  -9361851.75248  -7281969.21346  22721942.379    22721942.5874   22721948.7554
       171.0004        171.0004
  -3896970.99347  -3018678.40345  23539257.897    23539258.1814   23539264.9284
       156.0004        158.0004
 -16696595.70649 -12962020.48747  21316673.689    21316674.3094   21316681.5424
       205.0004        205.0004
 -16323029.75348 -12704884.71646  21631159.234    21631160.3764   21631168.4214
       185.0004        185.0004
 21  2  6  1 14 30.0000000  0  9G07G08G14G30G21G04G17G09G01
 -18043619.51649 -14046455.50747  21374343.835    21374343.9464   21374348.4504
       200.0004        200.0004
 -14629413.55649 -11373679.38548  22036398.632    22036399.1784   22036405.8994
       218.0004        217.0004
  -2159758.87247  -1673436.23045  23451497.483    23451498.1944   23451503.4264
       161.0004        162.0004
  -7528396.43648  -5841097.47246  23113519.702    23113520.1034   23113527.5244
       171.0004        173.0004
 -12309366.69348  -9575418.26146  21773152.511    21773152.1334   21773156.2434
       181.0004        180.0004
  -9266258.38348  -7207480.89246  22740133.493    22740132.8444   22740139.9714
       170.0004        170.0004
  -3983523.12247  -3086121.59945  23522788.032    23522788.7364   23522794.7694
       155.0004        157.0004
 -16644375.67049 -12921329.55547  21326610.728    21326611.2194   21326619.0884
       205.0004        205.0004
 -16386302.50848 -12754188.16546  21619120.571    21619120.8424   21619128.0354
       185.0004        186.0004
 21  2  6  1 15  0.0000000  0  9G07G08G14G30G21G04G17G09G01
 -18110543.32149 -14098603.91647  21361608.423    21361608.5534   21361613.1684
       200.0004        201.0004
 -14541585.46449 -11305241.91848  22053111.864    22053112.3814   22053119.2504
       217.0004        216.0004
  -2185686.09547  -1693639.23145  23446563.258    23446564.7974   23446570.2794
       161.0004        162.0004
  -7616115.51548  -5909449.98346  23096827.646    23096827.2604   23096834.2684
       170.0004        170.0004
 -12303832.83348  -9571106.16346  21774204.892    21774205.0064   21774208.5714
       181.0004        180.0004
  -9170545.70248  -7132899.61846  22758345.983    22758347.1254   22758353.2774
       169.0004        169.0004
  -4069771.97047  -3153328.46245  23506376.488    23506377.3304   23506381.4684
       156.0004        158.0004
 -16591758.44049 -12880329.12947  21336623.793    21336624.4274   21336631.1954
       205.0004        205.0004
 -16449267.36648 -12803251.67346  21607138.668    21607138.8204   21607146.8244
       186.0004        187.0004
 21  2  6  1 15 30.0000000  0  9G07G08G14G30G21G04G17G09G01
 -18177255.40349 -14150587.37147  21348914.045    21348914.5124   21348918.2634
       201.0004        202.0004
 -14453563.38749 -11236653.29248  22069861.815    22069861.9184   22069868.9644
       216.0004        214.0004
  -2211589.44047  -1713823.64245  23441634.564    23441635.0504   23441641.1824
       160.0004        161.0004
  -7703820.15848  -5977791.28246  23080137.788    23080137.2044   23080144.9334
       169.0004        169.0004
 -12297817.89248  -9566419.18446  21775350.190    21775349.2684   21775353.5514
       180.0004        180.0004
  -9074716.23448  -7058227.31646  22776582.742    22776583.4794   22776588.4294
       169.0004        169.0004
  -4155715.42647  -3220297.35745  23490022.543    23490021.9824   23490024.8604
       154.0004        155.0004
 -16538746.17849 -12839020.88247  21346712.500    21346712.4924   21346719.2674
       205.0004        205.0004
 -16511920.63348 -12852072.39146  21595215.952    21595216.2484   21595224.4954
       186.0004        187.0004
 21  2  6  1 16  0.0000000  0  9G07G08G14G30G21G04G17G09G01
 -18243752.97949 -14202403.66347  21336259.780    21336260.0044   21336264.1754
       201.0004        201.0004
 -14365350.56449 -11167916.02648  22086648.538    22086648.7694   22086655.7004
       215.0004        215.0004
  -2237469.95847  -1733990.27245  23436709.451    23436710.3214   23436715.3754
       159.0004        160.0004
  -7791507.98248  -6046119.45746  23063450.841    23063451.1344   23063458.6004
       169.0004        170.0004
 -12291320.64648  -9561356.37946  21776586.635    21776586.1504   21776590.0504
       181.0004        182.0004
  -8978772.66748  -6983466.10646  22794840.060    22794841.3004   22794846.2324
       169.0004        169.0004
  -4241351.67147  -3287026.87345  23473723.747    23473725.1704   23473729.4284
       152.0004        155.0004
 -16485341.32249 -12797406.71947  21356874.527    21356875.1424   21356881.7704
       205.0004        205.0004
 -16574258.91448 -12900647.66947  21583354.300    21583354.6004   21583361.8284
       187.0004        188.0004
 21  2  6  1 16 30.0000000  0  9G07G08G14G30G21G04G17G09G01
 -18310033.17349 -14254050.57347  21323647.008    21323647.4854   21323651.2414
       201.0004        201.0004
 -14276949.76049 -11099032.28748  22103470.328    22103471.2044   22103477.8364
       216.0004        216.0004
  -2263328.86747  -1754140.01445  23431788.965    23431789.2774   23431794.1354
       158.0004        159.0004
  -7879176.95948  -6114432.91646  23046768.878    23046768.4234   23046775.8374
       171.0004        172.0004
 -12284340.50648  -9555917.29746  21777914.266    21777913.6324   21777919.4114
       182.0004        182.0004
  -8882717.97348  -6908618.32646  22813118.283    22813118.8144   22813124.6014
       168.0004        167.0004
  -4326678.44847  -3353515.25245  23457487.792    23457489.2284   23457492.5854
       155.0004        159.0004
 -16431546.50649 -12755488.68547  21367111.394    21367111.9414   21367118.8154
       205.0004        205.0004
 -16636279.00148 -12948975.01547  21571551.804    21571552.0234   21571559.5314
       188.0004        188.0004
 21  2  6  1 17  0.0000000  0  9G07G08G14G30G21G04G17G09G01
 -18376093.88549 -14305526.46247  21311076.160    21311076.6454   21311079.8164
       201.0004        201.0004
 -14188364.30249 -11030004.66248  22120327.498    22120328.1714   22120335.0894
       216.0004        215.0004
  -2289167.84347  -1774274.24345  23426872.267    23426873.0974   23426876.4454
       158.0004        161.0004
  -7966825.52548  -6182730.48246  23030089.911    23030090.0444   23030096.5994
       171.0004        171.0004
 -12276877.26048  -9550101.77346  21779335.043    21779334.7684   21779339.4524
       182.0004        183.0004
  -8786555.70148  -6833686.71346  22831417.387    22831418.3364   22831423.3934
       167.0004        168.0004
  -4411694.84147  -3419761.75545  23441311.046    23441310.8134   23441315.1754
       159.0004        162.0004
 -16377364.98349 -12713269.31847  21377421.158    21377421.7994   21377429.0134
       204.0004        204.0004
 -16697978.29048 -12997052.39646  21559809.055    21559810.3974   21559818.6024
       187.0004        186.0004
 21  2  6  1 17 30.0000000  0  9G07G08G14G30G21G04G17G09G01
 -18441932.07449 -14356828.94947  21298547.289    21298547.5784   21298551.9734
       201.0004        201.0004
 -14099596.95149 -10960835.30448  22137220.047    22137220.0614   22137227.0174
       215.0004        214.0004
  -2314987.95147  -1794393.76345  23421957.612    23421958.1744   23421963.3644
       158.0004        160.0004
  -8054451.32448  -6251010.32946  23013416.004    23013415.8264   23013422.1904
       172.0004        174.0004
 -12268929.98348  -9543909.07146  21780847.558    21780847.1414   21780852.1034
       183.0004        183.0004
  -8690288.57548  -6758673.38046  22849737.155    22849736.7704   22849742.8454
       167.0004        167.0004
  -4496398.73547  -3485764.76345  23425190.733    23425192.1764   23425196.7394
       160.0004        162.0004
 -16322799.19249 -12670750.52847  21387805.278    21387805.3644   21387812.4894
       204.0004        204.0004
 -16759353.33148 -13044877.10846  21548130.985    21548131.3304   21548139.4084
       187.0004        187.0004
 21  2  6  1 18  0.0000000  0  9G07G08G14G30G21G04G17G09G01
 -18507545.56249 -14407956.33847  21286061.422    21286061.6234   21286066.4104
       201.0004        202.0004
 -14010650.64649 -10891526.50547  22154144.946    22154145.3244   22154152.5184
       213.0004        212.0004
  -2340790.83947  -1814499.89145  23417047.265    23417048.4524   23417054.1244
       158.0004        160.0004
  -8142052.70248  -6319271.13846  22996746.265    22996745.2284   22996751.9964
       172.0004        173.0004
 -12260498.47848  -9537339.06046  21782450.658    21782450.7284   21782456.4274
       183.0004        183.0004
  -8593919.95148  -6683580.95446  22868074.450    22868075.2204   22868081.1094
       166.0004        167.0004
  -4580788.94647  -3551523.34246  23409132.803    23409132.9484   23409138.3694
       160.0004        163.0004
 -16267852.23149 -12627934.71447  21398261.895    21398262.0354   21398269.1894
       204.0004        204.0004
 -16820401.38348 -13092447.02746  21536514.503    21536514.8504   21536521.8364
       186.0004        186.0004
 21  2  6  1 18 30.0000000  0  9G07G08G14G30G21G04G17G09G01
 -18572930.07649 -14458905.31247  21273618.566    21273619.2864   21273623.5194
       201.0004        200.0004
 -13921527.28249 -10822079.73747  22171104.811    22171105.2644   22171112.0484
       213.0004        212.0004
  -2366576.07347  -1834592.26245  23412141.638    23412142.3624   23412146.8594
       158.0004        160.0004
  -8229625.97848  -6387510.04846  22980080.261    22980080.3194   22980087.1774
       171.0004        172.0004
 -12251580.64148  -9530390.07946  21784148.196    21784147.9734   21784153.5604
       184.0004        184.0004
  -8497451.31748  -6608410.59046  22886433.358    22886433.5224   22886439.1334
       167.0004        170.0004
  -4664861.97747  -3617034.77246  23393134.252    23393134.6084   23393139.4574
       162.0004        163.0004
 -16212525.27549 -12584822.80747  21408789.966    21408790.4114   21408797.7804
       204.0004        204.0004
 -16881117.75348 -13139758.47646  21524960.266    21524960.3494   21524968.5694
       186.0004        186.0004
 21  2  6  1 19  0.0000000  0  9G07G08G14G30G21G04G17G09G01
 -18638083.49849 -14509674.21047  21261220.591    21261221.1464   21261225.0814
       201.0004        201.0004
 -13832230.43249 -10752497.77847  22188096.741    22188097.7874   22188104.8614
       213.0004        212.0004
  -2392345.71947  -1854672.45745  23407236.853    23407238.1844   23407242.9524
       158.0004        160.0004
  -8317169.78048  -6455725.97846  22963422.046    22963422.3934   22963429.2664
       173.0004        174.0004
 -12242176.49148  -9523062.16046  21785938.485    21785937.8074   21785942.8034
       184.0004        184.0004
  -8400886.41248  -6533165.23246  22904808.934    22904808.8324   22904813.8814
       168.0004        169.0004
  -4748617.14847  -3682298.49346  23377196.335    23377196.2434   23377202.1714
       163.0004        165.0004
 -16156821.87049 -12541417.56747  21419389.965    21419390.2454   21419396.8484
       204.0004        204.0004
 -16941500.02948 -13186809.58846  21513468.784    21513469.2864   21513477.9674
       186.0004        186.0004
 21  2  6  1 19 30.0000000  0  9G07G08G14G30G21G04G17G09G01
 -18703004.74849 -14560262.21247  21248867.476    21248867.2254   21248871.2654
       201.0004        202.0004
 -13742764.10649 -10682783.76048  22205122.627    22205122.6614   22205129.7194
       212.0004        213.0004
  -2418102.60547  -1874742.73945  23402337.073    23402337.3954   23402341.8104
       159.0004        160.0004
  -8404683.67648  -6523918.60246  22946766.957    22946767.0864   22946774.4944
       171.0004        170.0004
 -12232287.30348  -9515356.28046  21787819.283    21787819.4654   21787825.2014
       184.0004        185.0004
  -8304229.81248  -6457848.41946  22923200.316    22923201.4754   22923207.5074
       167.0004        167.0004
  -4832054.32547  -3747314.41846  23361317.237    23361317.7414   23361324.5454
       164.0004        166.0004
 -16100746.33749 -12497722.34847  21430060.553    21430060.9224   21430067.9094
       203.0004        203.0004
 -17001546.78648 -13233599.24347  21502042.339    21502043.0574   21502052.6404
       187.0004        188.0004
 21  2  6  1 20  0.0000000  0  9G07G08G14G30G21G04G17G09G01
 -18767687.91049 -14610664.67647  21236557.729    21236558.3734   21236562.1774
       202.0004        202.0004
 -13653128.27549 -10612937.66347  22222180.937    22222180.5334   22222186.8894
       213.0004        212.0004
  -2443844.60447  -1894801.41145  23397437.492    23397438.1924   23397443.3854
       157.0004        157.0004
  -8492162.14148  -6592083.62946  22930120.783    22930120.5974   22930129.3974
       169.0004        169.0004
 -12221908.94848  -9507269.23946  21789794.953    21789794.6204   21789799.4514
       184.0004        185.0004
  -8207481.15048  -6382459.86246  22941611.683    22941611.4844   22941618.6224
       167.0004        167.0004
  -4915168.37647  -3812078.55046  23345501.751    23345502.2864   23345508.2524
       164.0004        165.0004
 -16044298.14449 -12453736.75447  21440801.743    21440802.7384   21440809.4484
       203.0004        203.0004
 -17061251.49748 -13280122.39747  21490682.679    21490683.5474   21490690.8164
       189.0004        191.0004
 21  2  6  1 20 30.0000000  0  9G07G08G14G30G21G04G17G09G01
 -18832132.69849 -14660881.39347  21224295.220    21224295.6864   21224298.9424
       202.0004        202.0004
 -13563328.11949 -10542963.52147  22239268.393    22239268.4054   22239275.6404
       212.0004        212.0004
  -2469575.18447  -1914851.17445  23392541.538    23392540.7784   23392547.9314
       155.0004        156.0004
  -8579605.35148  -6660221.17046  22913479.557    22913480.0494   22913488.1944
       168.0004        169.0004
 -12211042.92248  -9498802.19746  21791862.145    21791862.5674   21791867.8054
       185.0004        185.0004
  -8110645.64448  -6307003.64046  22960039.396    22960039.7464   22960045.8344
       167.0004        168.0004
  -4997959.74848  -3876591.28646  23329748.692    23329748.7274   23329754.5234
       167.0004        170.0004
 -15987482.31749 -12409464.69247  21451614.420    21451614.6854   21451621.6644
       203.0004        203.0004
 -17120613.28148 -13326378.33947  21479387.725    21479387.7694   21479394.2324
       192.0004        193.0004
 21  2  6  1 21  0.0000000  0  9G07G08G14G30G21G04G17G09G01
 -18896334.97949 -14710909.14847  21212077.657    21212078.2684   21212081.7304
       203.0004        203.0004
 -13473365.32949 -10472862.66247  22256386.589    22256387.0904   22256394.6414
       211.0004        211.0004
  -2495294.52947  -1934892.20745  23387646.641    23387646.8754   23387651.3294
       152.0004        154.0004
  -8667009.98148  -6728328.68046  22896847.504    22896848.1344   22896855.2254
       168.0004        170.0004
 -12199687.81948  -9489954.06646  21794023.275    21794023.3114   21794028.3514
       185.0004        185.0004
  -8013725.21748  -6231481.22646  22978482.416    22978483.2804   22978488.3854
       168.0004        168.0004
  -5080426.00848  -3940850.67346  23314053.836    23314054.6544   23314061.0104
       167.0004        168.0004
 -15930300.58149 -12364907.49947  21462495.426    21462495.7094   21462502.7734
       203.0004        203.0004
 -17179628.04148 -13372363.86547  21468155.227    21468156.3854   21468163.5204
       191.0004        190.0004
 21  2  6  1 21 30.0000000  0  9G07G08G14G30G21G04G17G09G01
 -18960291.66049 -14760745.52047  21199906.039    21199906.7114   21199911.3554
       202.0004        202.0004
 -13383242.19849 -10402636.83947  22273537.405    22273537.3524   22273544.5504
       211.0004        211.0004
  -2521003.09847  -1954924.85745  23382755.050    23382755.7764   23382760.6804
       153.0004        155.0004
  -8754373.32748  -6796403.99246  22880222.211    22880222.4724   22880231.8154
       169.0004        171.0004
 -12187842.66448  -9480724.04746  21796277.916    21796277.5584   21796282.3004
       186.0004        186.0004
  -7916722.10548  -6155894.40046  22996942.248    22996942.0594   22996947.3364
       167.0004        168.0004
  -5162564.65148  -4004854.78446  23298424.176    23298425.3364   23298430.8254
       166.0004        167.0004
 -15872754.99849 -12320066.79347  21473445.756    21473446.0274   21473453.3504
       202.0004        202.0004
 -17238291.97848 -13418075.99446  21456990.873    21456991.6394   21457000.2054
       189.0004        187.0004
 21  2  6  1 22  0.0000000  0  9G07G08G14G30G21G04G17G09G01
 -19024002.00549 -14810389.95147  21187782.877    21187783.4474   21187787.5394
       202.0004        202.0004
 -13292963.54249 -10332289.86147  22290717.466    22290717.4234   22290724.0664
       211.0004        211.0004
  -2546704.35047  -1974951.81345  23377864.843    23377864.6884   23377869.0934
       154.0004        157.0004
  -8841695.39048  -6864447.15446  22863606.780    22863607.4864   22863614.0444
       170.0004        172.0004
 -12175509.18348  -9471113.54946  21798624.765    21798624.2364   21798629.2564
       186.0004        186.0004
  -7819641.53348  -6080247.22046  23015415.287    23015415.9374   23015422.1644
       168.0004        169.0004
  -5244376.78747  -4068604.45646  23282856.628    23282856.6524   23282862.1974
       164.0004        165.0004
 -15814850.65749 -12274946.55347  21484463.705    21484464.5724   21484472.6184
       201.0004        202.0004
 -17296604.28948 -13463514.13546  21445893.473    21445894.4614   21445904.6414
       187.0004        187.0004
 21  2  6  1 22 30.0000000  0  9G07G08G14G30G21G04G17G09G01
 -19087462.60949 -14859839.77247  21175707.811    21175708.0254   21175711.3024
       203.0004        203.0004
 -13202531.89049 -10261823.63447  22307924.349    22307925.3714   22307932.7024
       210.0004        209.0004
  -2572399.12847  -1994973.71045  23372974.656    23372974.4574   23372979.2174
       154.0004        155.0004
  -8928973.70748  -6932456.20946  22846999.191    22846998.8944   22847006.2484
       171.0004        173.0004
 -12162686.32948  -9461121.68946  21801064.121    21801063.6924   21801069.4314
       185.0004        184.0004
  -7722486.08148  -6004541.67446  23033902.637    23033903.6354   23033910.3524
       167.0004        167.0004
  -5325859.83348  -4132097.74146  23267350.950    23267351.1544   23267355.4414
       165.0004        166.0004
 -15756590.06249 -12229548.68847  21495551.196    21495551.5124   21495558.4624
       201.0004        202.0004
 -17354561.45448 -13508675.53947  21434866.378    21434867.1694   21434874.5844
       187.0004        188.0004
 21  2  6  1 23  0.0000000  0  9G07G08G14G30G21G04G17G09G01
 -19150668.79249 -14909091.35447  21163679.068    21163679.4854   21163683.3964
       203.0004        203.0004
 -13111948.19949 -10191238.94847  22325162.056    22325162.2084   22325170.2074
       209.0004        208.0004
  -2598086.33647  -2014989.68645  23368085.188    23368086.6314   23368092.3544
       153.0004        154.0004
  -9016203.65248  -7000427.60346  22830400.044    22830399.7644   22830406.0804
       172.0004        172.0004
 -12149371.30648  -9450746.34646  21803597.626    21803597.7244   21803603.7264
       185.0004        185.0004
  -7625256.38848  -5928778.30046  23052404.882    23052405.6844   23052412.7834
       166.0004        168.0004
  -5407010.06347  -4195331.66546  23251908.487    23251908.2854   23251911.9024
       164.0004        165.0004
 -15697973.65049 -12183873.57747  21506706.093    21506706.2684   21506712.8244
       201.0004        201.0004
 -17412158.12648 -13553556.07147  21423906.697    21423907.1554   21423914.5454
       189.0004        191.0004
 21  2  6  1 23 30.0000000  0 10G07G08G14G30G21G04G17G28G09G01
 -19213618.94549 -14958143.40747  21151699.697    21151700.5324   21151704.8834
       202.0004        203.0004
 -13021215.89249 -10120538.44947  22342427.170    22342428.2124   22342435.7124
       208.0004        208.0004
  -2623768.10547  -2035001.41345  23363198.788    23363199.8144   23363206.0864
       154.0004        157.0004
  -9103384.14448  -7068360.43646  22813809.387    22813809.8474   22813816.3924
       171.0004        173.0004
 -12135564.79748  -9439988.01846  21806225.592    21806225.0144   21806230.2524
       185.0004        185.0004
  -7527956.41748  -5852960.15446  23070920.865    23070922.0984   23070928.0174
       167.0004        168.0004
  -5487827.20747  -4258306.03545  23236528.398    23236528.7144   23236532.5404
       161.0004        160.0004
  -1393392.89154  -1066480.513 5                                  23693723.613
        74.0004        138.000
 -15639005.27349 -12137924.20647  21517926.968    21517927.1204   21517933.9784
       201.0004        201.0004
 -17469392.22748 -13598154.07447  21413015.954    21413016.2114   21413023.2154
       191.0004        192.0004
 21  2  6  1 24  0.0000000  0 10G07G08G14G30G21G04G17G28G09G01
 -19276309.99149 -15006993.56747  21139770.961    21139771.1534   21139774.9024
       203.0004        204.0004
 -12930337.65649 -10049724.23247  22359721.691    22359722.4014   22359729.0934
       209.0004        208.0004
  -2649445.29247  -2055009.57145  23358314.106    23358314.1544   23358318.8804
       157.0004        160.0004
  -9190512.55148  -7136252.69846  22797230.437    22797229.4364   22797237.2364
       175.0004        178.0004
 -12121266.43348  -9428846.41946  21808946.041    21808946.0154   21808951.3094
       185.0004        184.0004
  -7430588.63448  -5777089.15246  23089450.483    23089450.5624   23089456.1914
       167.0004        167.0004
  -5568308.98347  -4321019.06745  23221212.496    23221213.9004   23221216.0854
       159.0004        159.0004
  -1417129.51946  -1084976.58845  23689200.861    23689200.4384   23689205.2924
       131.0004        142.0004
 -15579687.44849 -12091702.52147  21529214.768    21529214.8994   21529222.2014
       201.0004        201.0004
 -17526260.37548 -13642466.88747  21402194.445    21402194.6904   21402201.7954
       192.0004        192.0004
 21  2  6  1 24 30.0000000  0 10G07G08G14G30G21G04G17G28G09G01
 -19338743.12549 -15055642.76747  21127889.675    21127890.2044   21127894.6814
       203.0004        203.0004
 -12839319.92849  -9978801.34447  22377042.859    22377042.5454   22377049.5164
       209.0004        208.0004
  -2675123.13247  -2075018.25345  23353427.000    23353426.8224   23353431.9494
       158.0004        160.0004
  -9277590.75948  -7204105.83046  22780659.293    22780659.2784   22780666.2084
       176.0004        178.0004
 -12106479.64648  -9417324.24446  21811761.181    21811760.2024   21811765.0364
       185.0004        185.0004
  -7333160.13648  -5701170.86646  23107989.278    23107990.3454   23107996.3944
       165.0004        165.0004
  -5648458.01347  -4383472.85545  23205961.649    23205961.7834   23205964.3864
       157.0004        158.0004
  -1432099.88047  -1096641.78145  23686351.854    23686351.1784   23686356.2584
       136.0004        142.0004
 -15520027.04249 -12045213.90547  21540567.691    21540568.3914   21540575.0154
       201.0004        201.0004
 -17582763.52848 -13686495.32847  21391442.350    21391442.7244   21391449.1984
       192.0004        192.0004
 21  2  6  1 25  0.0000000  0 10G07G08G14G30G21G04G17G28G09G01
 -19400913.09749 -15104086.90747  21116058.724    21116059.7334   21116063.5824
       203.0004        204.0004
 -12748163.50749  -9907770.36447  22394388.533    22394388.9544   22394396.6564
       208.0004        208.0004
  -2700800.24047  -2095026.36645  23348540.914    23348540.6674   23348545.1874
       158.0004        160.0004
  -9364613.96348  -7271916.13346  22764099.359    22764099.1354   22764105.7724
       177.0004        176.0004
 -12091201.46048  -9405419.16046  21814667.622    21814667.0954   21814672.8754
       185.0004        185.0004
  -7235671.25947  -5625205.52646  23126541.487    23126542.0344   23126547.9824
       163.0004        164.0004
  -5728270.12147  -4445664.10245  23190773.483    23190774.5304   23190777.6414
       157.0004        159.0004
  -1447054.39847  -1108294.61145  23683504.697    23683505.1244   23683509.8084
       138.0004        142.0004
 -15460024.39849 -11998458.60847  21551986.133    21551986.3554   21551993.4884
       201.0004        202.0004
 -17638896.17048 -13730235.03247  21380759.491    21380760.3164   21380767.6234
       192.0004        192.0004
 21  2  6  1 25 30.0000000  0 10G07G08G14G30G21G04G17G28G09G01
 -19462815.88449 -15152322.84047  21104280.261    21104280.0024   21104283.8034
       203.0004        203.0004
 -12656869.84549  -9836632.45147  22411760.170    22411760.9764   22411768.6574
       207.0004        206.0004
  -2726476.28047  -2115033.64045  23343654.888    23343655.2164   23343660.2474
       158.0004        159.0004
  -9451578.51348  -7339680.69546  22747550.422    22747550.8664   22747557.1284
       177.0004        179.0004
 -12075430.14648  -9393129.81246  21817668.288    21817668.3384   21817673.9284
       185.0004        184.0004
  -7138123.44947  -5549194.26946  23145105.177    23145104.7784   23145110.4434
       163.0004        164.0004
  -5807742.12147  -4507590.32246  23175650.663    23175651.9284   23175656.4374
       160.0004        163.0004
  -1461992.89947  -1119934.96245  23680662.621    23680662.9264   23680668.3534
       139.0004        144.0004
 -15399680.90049 -11951437.71547  21563469.402    21563469.6474   21563476.2724
       203.0004        203.0004
 -17694653.77348 -13773682.50347  21370149.796    21370149.6774   21370157.4644
       191.0004        190.0004
 21  2  6  1 26  0.0000000  0 10G07G08G14G30G21G04G17G28G09G01
 -19524446.72749 -15200346.88347  21092551.396    21092552.1864   21092555.8434
       203.0004        204.0004
 -12565439.80749  -9765388.28847  22429159.427    22429159.7664   22429167.0544
       206.0004        206.0004
  -2752150.72247  -2135039.69145  23338769.072    23338769.1814   23338773.8854
       157.0004        159.0004
  -9538480.38248  -7407396.44046  22731013.851    22731013.6214   22731020.6284
       179.0004        180.0004
 -12059163.71648  -9380454.66846  21820763.397    21820763.7154   21820769.0714
       184.0004        185.0004
  -7040517.93147  -5473138.04546  23163677.356    23163678.1004   23163685.3044
       162.0004        164.0004
  -5886871.06147  -4569249.21046  23160592.505    23160593.3594   23160598.8664
       163.0004        165.0004
  -1476915.27547  -1131562.74445  23677824.356    23677824.2774   23677828.8424
       140.0004        145.0004
 -15338997.72849 -11904152.12947  21575017.023    21575017.4034   21575023.8504
       202.0004        203.0004
 -17750031.59348 -13816834.04347  21359611.070    21359611.5154   21359619.4274
       190.0004        190.0004
 21  2  6  1 26 30.0000000  0 10G07G08G14G30G21G04G17G28G09G01
 -19585803.98649 -15248157.71747  21080875.045    21080875.8544   21080880.2424
       203.0004        203.0004
 -12473876.71149  -9694040.40547  22446583.931    22446583.5694   22446591.2894
       207.0004        207.0004
  -2777825.48147  -2155045.96945  23333883.032    23333883.8474   23333888.2214
       158.0004        160.0004
  -9625318.14248  -7475062.21146  22714489.233    22714489.5664   22714495.9284
       180.0004        182.0004
 -12042402.80948  -9367394.20446  21823953.649    21823953.0104   21823958.2364
       184.0004        184.0004
  -6942858.36447  -5397039.68446  23182261.698    23182262.1034   23182269.4334
       162.0004        164.0004
  -5965656.39648  -4630640.35146  23145601.092    23145601.1984   23145607.2214
       166.0004        168.0004
  -1491823.90447  -1143179.83645  23674986.105    23674986.2434   23674991.5004
       141.0004        146.0004
 -15277978.56749 -11856604.73247  21586629.111    21586629.2114   21586635.9764
       203.0004        204.0004
 -17805027.44448 -13859687.92247  21349145.507    21349145.9144   21349154.6024
       189.0004        190.0004
 21  2  6  1 27  0.0000000  0 10G07G08G14G30G21G04G17G28G09G01
 -19646885.60249 -15295753.79747  21069252.345    21069252.7754   21069256.4084
       203.0004        203.0004
 -12382184.84949  -9622592.20747  22464030.609    22464031.5344   22464040.1264
       207.0004        207.0004
  -2803502.65947  -2175054.14745  23328997.705    23328997.4874   23329001.5884
       159.0004        160.0004
  -9712090.44148  -7542676.99446  22697976.522    22697976.0634   22697983.4254
       179.0004        179.0004
 -12025147.84048  -9353948.75746  21827236.649    21827236.9494   21827242.0294
       184.0004        185.0004
  -6845148.58147  -5320902.22346  23200855.993    23200855.6224   23200862.6094
       162.0004        163.0004
  -6044097.51648  -4691763.28246  23130673.453    23130673.9514   23130681.2354
       168.0004        169.0004
  -1506721.40147  -1154788.24945  23672151.783    23672151.7414   23672156.5674
       142.0004        146.0004
 -15216627.20449 -11808798.48447  21598302.976    21598303.4874   21598310.5534
       203.0004        203.0004
 -17859639.22848 -13902242.54347  21338752.240    21338752.9884   21338762.4224
       189.0004        189.0004
 21  2  6  1 27 30.0000000  0 10G07G08G14G30G21G04G17G28G09G01
 -19707687.84849 -15343132.17547  21057682.392    21057682.7324   21057686.1774
       203.0004        204.0004
 -12290365.51649  -9551044.68647  22481505.015    22481504.8734   22481512.1434
       206.0004        206.0004
  -2829182.46847  -2195064.37845  23324109.648    23324110.1234   23324115.0764
       159.0004        160.0004
  -9798794.12148  -7610238.30146  22681477.678    22681477.4264   22681484.2664
       178.0004        177.0004
 -12007398.11148  -9340117.79746  21830615.085    21830614.6454   21830619.3274
       185.0004        185.0004
  -6747390.54647  -5244727.16645  23219456.707    23219458.0474   23219464.5474
       161.0004        162.0004
  -6122191.80248  -4752615.92546  23115813.007    23115813.5624   23115820.5174
       169.0004        170.0004
  -1521608.15447  -1166388.29145  23669319.053    23669318.8564   23669323.4214
       143.0004        147.0004
 -15154945.62249 -11760734.92247  21610040.720    21610041.1444   21610048.2184
       203.0004        203.0004
 -17913863.08248 -13944494.86847  21328434.088    21328434.9894   21328443.5614
       189.0004        190.0004
 21  2  6  1 28  0.0000000  0 10G07G08G14G30G21G04G17G28G09G01
 -19768208.78449 -15390291.34347  21046165.074    21046165.6984   21046169.4654
       203.0004        203.0004
 -12198422.02049  -9479400.41447  22499001.142    22499001.3414   22499008.3644
       206.0004        206.0004
  -2854866.55547  -2215077.93345  23319223.353    23319223.6154   23319228.0694
       159.0004        161.0004
  -9885427.39848  -7677744.76346  22664991.686    22664991.1384   22664996.8214
       177.0004        178.0004
 -11989153.44048  -9325901.16846  21834086.543    21834086.3544   21834091.5314
       184.0004        184.0004
  -6649587.66647  -5168517.14846  23238069.784    23238070.3424   23238076.0144
       161.0004        163.0004
  -6199938.51548  -4813197.74346  23101018.159    23101018.8094   23101025.1824
       168.0004        169.0004
  -1536486.71447  -1177981.92345  23666487.951    23666486.7204   23666491.6154
       146.0004        150.0004
 -15092937.25949 -11712416.71747  21621840.733    21621841.0264   21621847.8154
       203.0004        202.0004
 -17967696.45048 -13986442.93747  21318191.227    21318191.5174   21318198.8644
       190.0004        191.0004
 21  2  6  1 28 30.0000000  0 10G07G08G14G30G21G04G17G28G09G01
 -19828446.36549 -15437229.72947  21034702.925    21034703.2924   21034706.6644
       203.0004        204.0004
 -12106358.83749  -9407662.87547  22516519.484    22516520.0654   22516527.3114
       205.0004        205.0004
  -2880556.96547  -2235096.40745  23314334.043    23314334.7514   23314338.4474
       158.0004        159.0004
  -9971988.88048  -7745195.27646  22648519.619    22648519.6144   22648527.1494
       180.0004        182.0004
 -11970414.61848  -9311299.47346  21837652.758    21837652.1674   21837657.7634
       184.0004        185.0004
  -6551743.73347  -5092275.13246  23256689.114    23256689.7674   23256695.1994
       161.0004        163.0004
  -6277336.84648  -4873508.08146  23086290.421    23086290.5584   23086295.7364
       170.0004        170.0004
  -1551359.17747  -1189570.82645  23663656.839    23663657.2144   23663662.6054
       148.0004        151.0004
 -15030605.94349 -11663846.86647  21633701.703    21633702.0654   21633708.6594
       201.0004        201.0004
 -18021137.35648 -14028085.18947  21308021.294    21308021.8594   21308029.1664
       191.0004        191.0004
 21  2  6  1 29  0.0000000  0 10G07G08G14G30G21G04G17G28G09G01
 -19888397.36849 -15483944.79447  21023294.280    21023294.6974   21023298.2214
       204.0004        204.0004
 -12014177.37849  -9335833.16647  22534060.090    22534061.0334   22534068.5724
       204.0004        203.0004
  -2906254.22947  -2255120.22045  23309444.776    23309444.3434   23309449.1014
       158.0004        159.0004
 -10058475.65948  -7812587.55346  22632062.097    22632062.5584   22632068.6784
       182.0004        183.0004
 -11951181.13148  -9296312.32846  21841311.343    21841312.3704   21841317.6604
       184.0004        184.0004
  -6453861.00347  -5016002.88045  23275314.620    23275314.7564   23275321.2004
       161.0004        161.0004
  -6354385.14548  -4933545.67946  23071628.168    23071628.4534   23071633.0974
       168.0004        169.0004
  -1566226.48447  -1201155.70945  23660827.150    23660827.1024   23660832.3224
       148.0004        151.0004
 -14967953.94749 -11615027.13647  21645623.348    21645624.0474   21645631.3324
       200.0004        200.0004
 -18074182.22448 -14069418.83447  21297926.873    21297927.2504   21297935.2524
       191.0004        192.0004
 21  2  6  1 29 30.0000000  0 10G07G08G14G30G21G04G17G28G09G01
 -19948058.34249 -15530433.86647  21011940.906    21011941.3614   21011945.5034
       204.0004        204.0004
 -11921879.36149  -9263912.64647  22551624.845    22551624.9724   22551632.8354
       204.0004        204.0004
  -2931958.76347  -2275149.71745  23304552.815    23304553.1094   23304556.6584
       158.0004        159.0004
 -10144884.78748  -7879919.34646  22615619.087    22615618.7294   22615625.3444
       181.0004        182.0004
 -11931452.22148  -9280939.14546  21845066.656    21845066.7314   21845071.5984
       184.0004        184.0004
  -6355941.69147  -4939702.14645  23293947.450    23293948.0964   23293955.4064
       160.0004        162.0004
  -6431081.03748  -4993308.69046  23057034.228    23057033.9984   23057038.5914
       168.0004        168.0004
  -1581089.72647  -1212737.43245  23657999.802    23657999.5454   23658003.9974
       148.0004        152.0004
 -14904983.60049 -11565959.34547  21657606.901    21657607.2934   21657614.2374
       200.0004        200.0004
 -18126827.44348 -14110441.06347  21287908.511    21287909.4354   21287917.8794
       192.0004        193.0004
 21  2  6  1 30  0.0000000  0 10G07G08G14G30G21G04G17G28G09G01
 -20007426.71249 -15576694.92947  21000643.567    21000644.0654   21000647.7554
       204.0004        204.0004
 -11829468.63849  -9191904.28547  22569210.122    22569210.0154   22569217.8384
       204.0004        204.0004
  -2957671.80147  -2295185.84045  23299659.549    23299660.7734   23299665.0494
       158.0004        159.0004
 -10231214.06248  -7947188.89746  22599190.999    22599190.2974   22599197.6784
       181.0004        181.0004
 -11911227.74448  -9265179.80346  21848915.550    21848915.8084   21848919.9084
       184.0004        184.0004
  -6257988.76047  -4863375.20146  23312587.843    23312588.4244   23312595.1744
       161.0004        163.0004
  -6507423.38448  -5052796.19346  23042504.662    23042505.7634   23042510.9164
       166.0004        167.0004
  -1595950.36147  -1224317.14845  23655172.396    23655171.9574   23655175.8314
       149.0004        153.0004
 -14841697.92049 -11516645.83047  21669650.196    21669650.2454   21669657.5604
       200.0004        200.0004
 -18179070.17848 -14151149.67547  21277968.553    21277968.9844   21277976.3334
       193.0004        194.0004
 21  2  6  1 30 30.0000000  0 10G07G08G14G30G21G04G17G28G09G01
 -20066500.34949 -15622726.33547  20989402.422    20989402.2794   20989406.4374
       204.0004        204.0004
 -11736947.64649  -9119810.01847  22586814.879    22586815.9934   22586824.1564
       204.0004        204.0004
  -2983394.89147  -2315229.79645  23294764.812    23294764.9674   23294769.9314
       157.0004        158.0004
 -10317461.55148  -8014394.73946  22582778.628    22582777.9074   22582785.5504
       180.0004        180.0004
 -11890508.05148  -9249034.58346  21852858.574    21852857.9344   21852862.8644
       185.0004        185.0004
  -6160005.50347  -4787024.62746  23331233.574    23331233.3994   23331240.3354
       162.0004        163.0004
  -6583411.10848  -5112007.37746  23028045.991    23028046.2384   23028051.2424
       168.0004        170.0004
  -1610810.43047  -1235896.38745  23652343.576    23652343.8444   23652347.3614
       150.0004        152.0004
 -14778100.23049 -11467089.19947  21681750.977    21681751.7004   21681759.7154
       199.0004        199.0004
 -18230907.95348 -14191542.74447  21268104.290    21268104.3144   21268111.3574
       193.0004        193.0004
 21  2  6  1 31  0.0000000  0 10G07G08G14G30G21G04G17G28G09G01
 -20125276.71449 -15668526.09547  20978216.996    20978217.6474   20978221.7764
       204.0004        204.0004
 -11644319.67049  -9047632.37047  22604441.348    22604441.9834   22604451.0584
       203.0004        202.0004
  -3009129.37947  -2335282.62345  23289868.099    23289868.5164   23289872.4054
       158.0004        160.0004
 -10403625.22548  -8081535.25846  22566382.593    22566382.6044   22566388.5314
       180.0004        180.0004
 -11869293.28648  -9232503.58046  21856894.630    21856894.7344   21856900.0864
       184.0004        185.0004
  -6061995.00647  -4710652.82245  23349883.825    23349884.8834   23349891.1704
       161.0004        162.0004
  -6659043.19848  -5170941.44046  23013653.396    23013653.1994   23013658.1964
       168.0004        169.0004
  -1625671.81347  -1247476.66545  23649515.844    23649515.4514   23649520.7144
       151.0004        154.0004
 -14714193.83049 -11417292.01747  21693912.595    21693913.1364   21693919.6664
       198.0004        199.0004
 -18282338.15948 -14231618.22147  21258317.597    21258317.6774   21258324.2684
       194.0004        194.0004
 21  2  6  1 31 30.0000000  0 10G07G08G14G30G21G04G17G28G09G01
 -20183752.04449 -15714091.27847  20967090.214    20967090.2664   20967094.2724
       204.0004        204.0004
 -11551586.99449  -8975373.15847  22622088.997    22622089.2734   22622097.2454
       202.0004        202.0004
  -3034875.77547  -2355344.70945  23284967.871    23284967.6044   23284972.6114
       158.0004        160.0004
 -10489702.12548  -8148608.15446  22550001.399    22550001.7274   22550008.0354
       178.0004        178.0004
 -11847582.92548  -9215586.39746  21861027.025    21861026.6514   21861031.3964
       185.0004        185.0004
  -5963959.48647  -4634261.51345  23368539.785    23368541.0734   23368547.5064
       160.0004        161.0004
  -6734317.76448  -5229596.88846  22999329.125    22999329.6934   22999333.0454
       168.0004        169.0004
  -1640535.35147  -1259058.64345  23646688.116    23646688.0154   23646691.2054
       151.0004        154.0004
 -14649981.01949 -11367256.06847  21706132.887    21706132.9724   21706139.3434
       199.0004        199.0004
 -18333357.21048 -14271373.30947  21248608.034    21248608.6074   21248616.1344
       194.0004        194.0004
 21  2  6  1 32  0.0000000  0 10G07G08G14G30G21G04G17G28G09G01
 -20241923.59149 -15759419.75447  20956020.473    20956020.6774   20956024.8764
       204.0004        204.0004
 -11458751.98949  -8903034.19247  22639754.459    22639754.7984   22639762.9544
       202.0004        201.0004
  -3060635.00547  -2375416.82045  23280066.018    23280065.9834   23280070.6244
       159.0004        161.0004
 -10575689.79248  -8215611.51546  22533638.856    22533638.7834   22533646.3014
       178.0004        178.0004
 -11825376.81448  -9198282.92146  21865252.288    21865251.6084   21865256.7544
       184.0004        184.0004
  -5865901.72247  -4557852.87845  23387200.091    23387200.8454   23387206.3514
       160.0004        162.0004
  -6809233.23948  -5287972.56946  22985073.522    22985073.8324   22985076.8534
       168.0004        169.0004
  -1655402.51347  -1270643.41945  23643858.565    23643857.7424   23643862.3614
       150.0004        152.0004
 -14585464.66649 -11316983.58347  21718408.367    21718409.3054   21718416.4294
       199.0004        199.0004
 -18383962.20248 -14310805.75747  21238977.494    21238977.9974   21238986.4784
       193.0004        193.0004
 21  2  6  1 32 30.0000000  0 10G07G08G14G30G21G04G17G28G09G01
 -20299789.24849 -15804509.88847  20945008.620    20945009.2884   20945012.9924
       204.0004        204.0004
 -11365817.73049  -8830617.89547  22657438.920    22657439.8014   22657447.8184
       202.0004        202.0004
  -3086408.41247  -2395499.98045  23275161.452    23275161.7044   23275167.2664
       160.0004        162.0004
 -10661586.03848  -8282543.66346  22517293.901    22517293.8794   22517299.7994
       177.0004        177.0004
 -11802675.04948  -9180593.23146  21869571.790    21869572.0634   21869577.0954
       184.0004        184.0004
  -5767824.72147  -4481429.25045  23405864.906    23405864.3024   23405869.1904
       160.0004        160.0004
  -6883788.53948  -5346067.59046  22970886.431    22970886.5994   22970890.7824
       169.0004        170.0004
  -1670275.10147  -1282232.41445  23641028.669    23641028.4304   23641033.0744
       152.0004        155.0004
 -14520647.91149 -11266477.05047  21730743.738    21730743.9764   21730751.2294
       199.0004        199.0004
 -18434150.39748 -14349913.44947  21229427.696    21229428.0344   21229435.8954
       193.0004        193.0004
 21  2  6  1 33  0.0000000  0 10G07G08G14G30G21G04G17G28G09G01
 -20357346.53549 -15849359.72147  20934055.401    20934056.2164   20934060.5254
       204.0004        204.0004
 -11272787.35349  -8758126.70047  22675143.810    22675142.7894   22675150.8024
       201.0004        201.0004
  -3112197.45847  -2415595.29545  23270254.495    23270254.3724   23270259.9904
       161.0004        162.0004
 -10747388.91648  -8349403.04446  22500965.639    22500965.4334   22500972.7004
       178.0004        179.0004
 -11779478.14948  -9162517.72346  21873986.035    21873985.6494   21873991.4004
       184.0004        184.0004
  -5669731.66847  -4404993.12045  23424530.851    23424530.7414   23424536.4834
       158.0004        159.0004
  -6957982.59548  -5403881.13246  22956767.603    22956767.4634   22956772.3054
       170.0004        172.0004
  -1685154.76047  -1293826.92145  23638196.495    23638196.1364   23638200.3564
       151.0004        153.0004
 -14455534.14849 -11215739.05447  21743133.659    21743134.1404   21743141.9064
       199.0004        198.0004
 -18483919.36348 -14388694.44847  21219956.958    21219957.3764   21219965.0294
       193.0004        192.0004
 21  2  6  1 33 30.0000000  0 10G07G08G14G30G21G04G17G28G09G01
 -20414592.64549 -15893967.08247  20923162.471    20923162.6794   20923167.0474
       204.0004        205.0004
 -11179663.20449  -8685562.43947  22692863.530    22692863.9994   22692872.6094
       201.0004        201.0004
  -3138003.28547  -2435703.69245  23265342.346    23265343.7004   23265348.5724
       160.0004        161.0004
 -10833096.12748  -8416187.87546  22484655.493    22484655.6094   22484663.4144
       178.0004        179.0004
 -11755786.18948  -9144056.44246  21878495.033    21878495.2354   21878499.5294
       184.0004        185.0004
  -5571625.54147  -4328546.78445  23443198.663    23443199.1864   23443205.2874
       157.0004        159.0004
  -7031814.37548  -5461412.35346  22942717.060    22942717.5934   22942721.8374
       171.0004        172.0004
  -1700043.21447  -1305428.28645  23635362.779    23635363.1134   23635367.7944
       149.0004        152.0004
 -14390126.46049 -11164772.02247  21755581.176    21755581.8864   21755588.6194
       199.0004        200.0004
 -18533266.37448 -14427146.64747  21210565.714    21210566.0644   21210574.4464
       192.0004        192.0004
 21  2  6  1 34  0.0000000  0 10G07G08G14G30G21G04G17G28G09G01
 -20471523.58549 -15938328.85047  20912328.835    20912329.2134   20912333.0744
       205.0004        205.0004
 -11086446.55949  -8612926.10747  22710601.646    22710601.7114   22710610.9974
       199.0004        199.0004
  -3163825.48947  -2455824.89945  23260429.571    23260430.1974   23260434.4104
       158.0004        158.0004
 -10918703.88348  -8482895.21846  22468365.290    22468365.5504   22468374.0994
       179.0004        180.0004
 -11731597.85948  -9125208.38946  21883098.443    21883097.9184   21883102.6214
       184.0004        184.0004
  -5473507.58047  -4252091.25045  23461871.297    23461870.9254   23461876.3784
       157.0004        158.0004
  -7105281.30048  -5518659.26246  22928737.913    22928738.2984   22928741.7394
       170.0004        172.0004
  -1714940.63547  -1317036.66045  23632528.580    23632527.9754   23632532.9044
       149.0004        151.0004
 -14324426.33649 -11113577.13047  21768082.606    21768083.2044   21768090.6224
       199.0004        198.0004
 -18582187.11048 -14465266.70647  21201256.197    21201257.4114   21201265.2354
       192.0004        192.0004
 21  2  6  1 34 30.0000000  0 10G07G08G14G30G21G04G17G28G09G01
 -20528137.05149 -15982443.24247  20901555.855    20901556.3124   20901560.2124
       205.0004        205.0004
 -10993140.95749  -8540220.45447  22728356.159    22728357.3184   22728366.2884
       199.0004        200.0004
  -3189665.54847  -2475960.00045  23255511.842    23255512.7924   23255517.8104
       158.0004        161.0004
 -11004210.19848  -8549523.49046  22452093.950    22452093.9934   22452101.4364
       178.0004        179.0004
 -11706913.89648  -9105974.13146  21887795.283    21887795.4354   21887799.5874
       184.0004        184.0004
  -5375381.08947  -4175629.05445  23480542.851    23480543.8284   23480549.8274
       156.0004        157.0004
  -7178382.32648  -5575621.08146  22914826.414    22914826.9994   22914831.2644
       170.0004        172.0004
  -1729848.81247  -1328653.40245  23629691.283    23629691.4654   23629695.8674
       149.0004        152.0004
 -14258437.19349 -11062157.02547  21780640.608    21780640.6984   21780647.6684
       197.0004        197.0004
 -18630679.15848 -14503052.70247  21192029.118    21192029.8514   21192037.3764
       193.0004        193.0004
 21  2  6  1 35  0.0000000  0 10G07G08G14G30G21G04G17G28G09G01
 -20584429.43149 -16026307.43547  20890843.889    20890844.2444   20890848.1874
       205.0004        206.0004
 -10899747.99549  -8467446.71947  22746128.617    22746129.3524   22746138.2074
       200.0004        200.0004
  -3215523.69947  -2496109.20746  23250591.853    23250591.9624   23250597.0294
       161.0004        164.0004
 -11089611.84548  -8616070.20546  22435842.527    22435842.7754   22435849.7444
       179.0004        181.0004
 -11681733.29448  -9086352.86346  21892586.545    21892586.1454   21892591.4174
       184.0004        184.0004
  -5277248.01447  -4099161.72845  23499217.124    23499218.3324   23499222.2304
       154.0004        155.0004
  -7251115.16648  -5632295.98346  22900985.192    22900985.9004   22900991.9084
       173.0004        175.0004
  -1744768.58647  -1340279.21145  23626852.320    23626853.0684   23626856.7424
       150.0004        152.0004
 -14192161.21049 -11010513.40747  21793252.911    21793253.2674   21793259.8564
       197.0004        198.0004
 -18678738.89048 -14540501.83247  21182883.310    21182884.1324   21182891.8784
       193.0004        193.0004
 21  2  6  1 35 30.0000000  0 10G07G08G14G30G21G04G17G28G09G01
 -20640399.31049 -16069920.33247  20880192.813    20880193.0814   20880197.6114
       205.0004        205.0004
 -10806271.22949  -8394607.66947  22763916.151    22763917.2354   22763925.6664
       199.0004        199.0004
  -3241401.98847  -2516274.08646  23245666.436    23245667.7594   23245672.9814
       163.0004        164.0004
 -11174907.37248  -8682534.25846  22419611.250    22419611.5114   22419618.5764
       180.0004        180.0004
 -11656057.29548  -9066345.58846  21897471.831    21897472.4314   21897477.1384
       184.0004        184.0004
  -5179112.10347  -4022692.21145  23517892.546    23517891.9644   23517897.8894
       153.0004        155.0004
  -7323479.98548  -5688684.12746  22887215.786    22887216.0344   22887221.0454
       175.0004        177.0004
  -1759702.28447  -1351915.83245  23624011.334    23624010.8204   23624014.6354
       150.0004        153.0004
 -14125602.38549 -10958649.38247  21805918.646    21805918.7494   21805924.9284
       197.0004        197.0004
 -18726364.55948 -14577612.73147  21173820.925    21173821.5964   21173829.6594
       194.0004        195.0004
 21  2  6  1 36  0.0000000  0 10G07G08G14G30G21G04G17G28G09G01
 -20696043.88349 -16113279.74747  20869603.835    20869604.5044   20869608.4304
       205.0004        205.0004
 -10712714.01049  -8321705.95147  22781720.870    22781720.9544   22781729.6134
       198.0004        197.0004
  -3267301.77747  -2536455.69446  23240738.951    23240739.0424   23240743.7154
       163.0004        165.0004
 -11260094.74948  -8748914.02846  22403400.394    22403400.9424   22403408.7174
       181.0004        182.0004
 -11629886.65548  -9045952.88246  21902452.983    21902452.2504   21902456.8874
       184.0004        184.0004
  -5080976.55647  -3946222.97645  23536567.082    23536567.2394   23536572.8094
       155.0004        157.0004
  -7395475.90948  -5744784.80846  22873514.682    22873515.1004   22873519.9154
       174.0004        174.0004
  -1774652.07147  -1363564.98145  23621165.756    23621165.6244   23621170.6744
       150.0004        152.0004
 -14058764.06049 -10906567.56947  21818637.320    21818637.5154   21818644.7094
       197.0004        197.0004
 -18773553.70849 -14614383.49147  21164840.950    21164841.7824   21164850.0274
       195.0004        196.0004
 21  2  6  1 36 30.0000000  0 10G07G08G14G30G21G04G17G28G09G01
 -20751360.21349 -16156383.38047  20859077.614    20859078.1654   20859082.2174
       205.0004        206.0004
 -10619077.79649  -8248742.67047  22799538.842    22799539.2484   22799548.4114
       196.0004        196.0004
  -3293223.80548  -2556654.66046  23235806.840    23235807.1054   23235811.2334
       165.0004        166.0004
 -11345171.25448  -8815207.39546  22387212.265    22387212.2364   22387218.2844
       181.0004        182.0004
 -11603221.18748  -9025174.58146  21907526.943    21907526.6624   21907531.6324
       184.0004        184.0004
  -4982843.79647  -3869755.91345  23555241.055    23555241.0024   23555247.0344
       155.0004        157.0004
  -7467101.17548  -5800596.66946  22859884.829    22859884.6304   22859890.2734
       173.0004        174.0004
  -1789618.75547  -1375227.32845  23618317.630    23618317.3214   23618322.2854
       151.0004        155.0004
 -13991648.97849 -10854270.11247  21831408.321    21831408.8784   21831415.8554
       197.0004        197.0004
 -18820303.29349 -14650811.73047  21155945.059    21155945.5034   21155953.7794
       195.0004        196.0004
 21  2  6  1 37  0.0000000  0 10G07G08G14G30G21G04G17G28G09G01
 -20806345.62049 -16199229.14447  20848614.364    20848614.6024   20848618.7724
       205.0004        205.0004
 -10525366.40249  -8175720.82547  22817370.975    22817371.7254   22817380.5094
       195.0004        195.0004
  -3319169.25948  -2576871.90046  23230869.215    23230869.5654   23230874.3084
       166.0004        168.0004
 -11430134.62548  -8881412.61246  22371044.416    22371043.9294   22371050.5104
       182.0004        183.0004
 -11576060.91348  -9004010.72746  21912694.599    21912695.1234   21912700.4474
       184.0004        183.0004
  -4884716.71747  -3793293.26945  23573913.973    23573913.4514   23573919.8804
       154.0004        155.0004
  -7538354.75448  -5856118.90146  22846325.949    22846327.1114   22846331.6794
       175.0004        177.0004
  -1804603.83547  -1386903.99245  23615466.553    23615466.8724   23615471.3884
       152.0004        155.0004
 -13924260.27049 -10801759.43647  21844233.431    21844233.7264   21844239.7774
       197.0004        197.0004
 -18866610.71649 -14686895.42447  21147132.660    21147133.5834   21147141.3224
       196.0004        196.0004
 21  2  6  1 37 30.0000000  0 10G07G08G14G30G21G04G17G28G09G01
 -20860997.56949 -16241815.09047  20838214.641    20838215.1714   20838218.7614
       205.0004        206.0004
 -10431581.65649  -8102641.80147  22835219.462    22835219.6244   22835226.5874
       197.0004        198.0004
  -3345138.71448  -2597107.82946  23225927.217    23225928.0094   23225932.5554
       166.0004        167.0004
 -11514981.98748  -8947527.43946  22354898.216    22354897.7594   22354904.5904
       183.0004        184.0004
 -11548405.66748  -8982461.18546  21917958.025    21917956.9514   21917962.2754
       183.0004        184.0004
  -4786597.63247  -3716836.87645  23592584.808    23592585.6924   23592590.8554
       154.0004        156.0004
  -7609235.34748  -5911350.49846  22832837.334    22832837.6704   22832842.9324
       175.0004        176.0004
  -1819608.64347  -1398596.02245  23612611.034    23612611.1434   23612615.6114
       153.0004        155.0004
 -13856600.55249 -10749037.58747  21857108.476    21857108.9554   21857115.0894
       197.0004        197.0004
 -18912472.83349 -14722632.15247  21138405.876    21138406.3864   21138413.9824
       196.0004        196.0004
 21  2  6  1 38  0.0000000  0 10G07G08G14G30G21G04G17G28G09G01
 -20915312.62749 -16284138.50547  20827878.663    20827878.6744   20827883.4394
       205.0004        206.0004
 -10337725.97049  -8029507.50247  22853079.624    22853079.1474   22853087.0244
       197.0004        197.0004
  -3371132.77948  -2617362.94046  23220981.285    23220981.0034   23220985.6934
       167.0004        169.0004
 -11599710.54348  -9013549.68946  22338773.862    22338774.2604   22338781.5814
       184.0004        185.0004
 -11520255.66348  -8960526.11046  21923314.949    21923314.3264   21923319.9994
       183.0004        183.0004
  -4688488.96947  -3640388.57245  23611254.824    23611254.8614   23611261.9544
       154.0004        156.0004
  -7679741.12948  -5966290.03546  22819421.500    22819421.1584   22819426.4584
       175.0004        175.0004
  -1834634.23047  -1410304.22445  23609751.926    23609751.9574   23609756.3454
       154.0004        157.0004
 -13788672.43849 -10696106.59447  21870034.485    21870034.6444   21870040.8864
       197.0004        196.0004
 -18957886.53049 -14758019.44947  21129763.813    21129764.3084   21129772.3904
       196.0004        197.0004
 21  2  6  1 38 30.0000000  0 10G07G08G14G30G21G04G17G28G09G01
 -20969289.00649 -16326198.00347  20817606.800    20817607.7924   20817611.9014
       206.0004        207.0004
 -10243802.70249  -7956320.54647  22870951.861    22870951.8884   22870959.7654
       196.0004        195.0004
  -3397153.48748  -2637638.81046  23216028.970    23216029.5694   23216033.4254
       166.0004        165.0004
 -11684318.80448  -9079478.20746  22322674.186    22322674.3014   22322680.2984
       185.0004        185.0004
 -11491612.11048  -8938206.44246  21928765.419    21928764.8404   21928770.1264
       183.0004        184.0004
  -4590394.44847  -3563951.31145  23629920.780    23629920.9444   23629928.2694
       153.0004        155.0004
  -7749871.97348  -6020937.42346  22806075.878    22806076.0864   22806080.4244
       174.0004        174.0004
  -1849683.02647  -1422030.53845  23606887.873    23606887.8474   23606892.0984
       154.0004        157.0004
 -13720479.98349 -10642969.61147  21883009.667    21883010.3574   21883017.7174
       195.0004        194.0004
 -19002850.11249 -14793056.00647  21121207.411    21121208.0514   21121216.1324
       197.0004        197.0004
 21  2  6  1 39  0.0000000  0 10G07G08G14G30G21G04G17G28G09G01
 -21022923.29849 -16367990.95647  20807401.425    20807401.5884   20807405.3604
       206.0004        207.0004
 -10149813.18448  -7883081.96647  22888837.453    22888837.6274   22888845.7154
       194.0004        194.0004
  -3423200.89447  -2657935.46745  23211071.746    23211072.2174   23211076.7704
       163.0004        162.0004
 -11768803.37548  -9145310.32246  22306597.137    22306596.8524   22306604.4594
       185.0004        185.0004
 -11462474.15948  -8915501.54646  21934310.200    21934310.4364   21934315.3544
       183.0004        183.0004
  -4492315.84747  -3487526.44945  23648583.501    23648584.8654   23648591.9434
       152.0004        155.0004
  -7819626.04048  -6075291.21946  22792801.002    22792801.9994   22792807.0504
       173.0004        173.0004
  -1864755.38447  -1433775.21045  23604019.716    23604019.4904   23604024.1924
       154.0004        157.0004
 -13652025.22548 -10589628.24147  21896036.142    21896036.2964   21896045.2484
       194.0004        194.0004
 -19047359.95849 -14827738.99647  21112736.318    21112737.8794   21112746.6774
       197.0004        197.0004
 21  2  6  1 39 30.0000000  0 10G07G08G14G30G21G04G17G28G09G01
 -21076211.97749 -16409514.60647  20797260.657    20797261.0614   20797265.0004
       207.0004        207.0004
 -10055759.76048  -7809793.60347  22906734.702    22906735.3004   22906743.3434
       194.0004        194.0004
  -3449275.22547  -2678253.11846  23206109.312    23206110.1124   23206116.6444
       162.0004        164.0004
 -11853161.05748  -9211043.57246  22290543.633    22290543.7994   22290551.2054
       185.0004        185.0004
 -11432841.72648  -8892411.33446  21939949.829    21939949.3984   21939954.3694
       184.0004        183.0004
  -4394255.11947  -3411115.53745  23667245.461    23667245.2554   23667251.8214
       153.0004        156.0004
  -7889001.36148  -6129349.89446  22779600.850    22779600.7894   22779605.7064
       173.0004        175.0004
  -1879852.22547  -1445538.95645  23601148.047    23601147.3284   23601151.3554
       154.0004        157.0004
 -13583310.46548 -10536084.29147  21909112.132    21909112.1174   21909119.9134
       192.0004        191.0004
 -19091412.62749 -14862065.74847  21104355.115    21104355.4704   21104363.3574
       197.0004        198.0004
 21  2  6  1 40  0.0000000  0 10G07G08G14G30G21G04G17G28G09G01
 -21129153.08249 -16450767.43147  20787186.303    20787186.6064   20787190.7214
       206.0004        207.0004
  -9961645.46849  -7736457.80347  22924644.111    22924644.8724   22924653.1964
       195.0004        195.0004
  -3475378.35847  -2698593.20746  23201144.075    23201144.0884   23201148.0594
       164.0004        165.0004
 -11937390.26048  -9276676.72846  22274515.529    22274516.2144   22274522.4104
       185.0004        186.0004
 -11402715.76048  -8868936.55746  21945681.572    21945681.8414   21945686.3864
       184.0004        183.0004
  -4296215.92647  -3334721.38745  23685901.561    23685901.8914   23685907.6234
       153.0004        156.0004
  -7957998.01348  -6183113.48146  22766470.609    22766470.4504   22766475.5764
       173.0004        173.0004
  -1894975.90647  -1457323.60845  23598269.755    23598268.7834   23598272.6764
       154.0004        156.0004
 -13514339.62248 -10482340.82847  21922236.217    21922236.8054   21922244.3474
       190.0004        191.0004
 -19135006.38849 -14896034.91547  21096059.216    21096059.4944   21096067.7694
       198.0004        198.0004
 21  2  6  1 40 30.0000000  0 10G07G08G14G30G21G04G17G28G09G01
 -21181744.08649 -16491747.42847  20777178.284    20777178.8324   20777183.0794
       206.0004        207.0004
  -9867473.21348  -7663076.83247  22942564.459    22942564.4464   22942572.9534
       193.0004        193.0004
  -3501511.14347  -2718956.40146  23196169.498    23196169.3294   23196175.2984
       163.0004        163.0004
 -12021488.38948  -9342207.74346  22258512.492    22258512.8974   22258519.6414
       186.0004        187.0004
 -11372096.55748  -8845077.42846  21951508.365    21951508.5494   21951513.5794
       183.0004        183.0004
  -4198200.84247  -3258346.01745  23704553.089    23704553.7024   23704559.4914
       155.0004        158.0004
  -8026614.76648  -6236581.06646  22753411.343    22753412.6174   22753417.1054
       170.0004        171.0004
  -1910127.67247  -1469130.14145  23595384.698    23595385.2064   23595389.6024
       152.0004        154.0004
 -13445115.69048 -10428400.10747  21935409.939    21935410.6074   21935418.1184
       191.0004        193.0004
 -19178138.50649 -14929644.34647  21087850.950    21087851.8344   21087859.6284
       197.0004        197.0004
 21  2  6  1 41  0.0000000  0 10G07G08G14G30G21G04G17G28G09G01
 -21233981.31949 -16532451.75947  20767237.798    20767238.5614   20767242.7104
       207.0004        208.0004
  -9773244.71548  -7589652.02947  22960497.673    22960496.6834   22960504.3294
       194.0004        194.0004
  -3527673.80947  -2739342.86745  23191190.638    23191191.8524   23191197.3624
       161.0004        162.0004
 -12105452.27248  -9407634.11747  22242534.116    22242534.5434   22242542.1164
       187.0004        188.0004
 -11340983.87248  -8820833.76346  21957428.293    21957428.3294   21957434.3864
       182.0004        182.0004
  -4100211.81547  -3181990.95045  23723198.920    23723199.3984   23723206.8034
       156.0004        158.0004
  -8094849.60848  -6289751.03646  22740428.066    22740428.4404   22740432.2054
       170.0004        171.0004
  -1925308.17047  -1480959.07745  23592496.388    23592496.7244   23592501.4394
       152.0004        155.0004
 -13375640.92848 -10374263.92447  21948631.354    21948631.9984   21948639.1834
       193.0004        195.0004
 -19220805.62249 -14962891.43147  21079731.270    21079732.1014   21079740.3384
       197.0004        196.0004
 21  2  6  1 41 30.0000000  0 10G07G08G14G30G21G04G17G28G09G01
 -21285862.27949 -16572878.48347  20757365.547    20757365.8764   20757369.9394
       207.0004        207.0004
  -9678962.07348  -7516185.04647  22978438.297    22978438.4564   22978445.7574
       193.0004        194.0004
  -3553867.06747  -2759753.21145  23186207.374    23186208.1324   23186212.5914
       160.0004        162.0004
 -12189279.12148  -9472953.75247  22226583.649    22226583.7354   22226589.8644
       188.0004        190.0004
 -11309377.86748  -8796205.70046  21963443.642    21963443.3754   21963448.1544
       182.0004        183.0004
  -4002251.25347  -3105658.06445  23741840.680    23741841.1174   23741848.8574
       155.0004        157.0004
  -8162701.34148  -6342622.47346  22727516.709    22727517.0244   22727521.0834
       171.0004        172.0004
  -1940518.65047  -1492811.39645  23589602.535    23589601.8534   23589605.9554
       153.0004        155.0004
 -13305918.10949 -10319934.45447  21961899.683    21961899.9934   21961906.6164
       195.0004        196.0004
 -19263004.84049 -14995773.93247  21071700.791    21071701.7364   21071710.3334
       196.0004        196.0004
 21  2  6  1 42  0.0000000  0 10G07G08G14G30G21G04G17G28G09G01
 -21337387.08249 -16613027.68147  20747560.073    20747560.6014   20747564.7334
       206.0004        207.0004
  -9584630.67148  -7442680.07347  22996388.427    22996388.2994   22996397.0424
       193.0004        194.0004
  -3580094.97247  -2780190.55445  23181215.353    23181215.9284   23181220.4924
       160.0004        161.0004
 -12272969.51948  -9538167.04247  22210657.353    22210656.9894   22210664.5824
       189.0004        190.0004
 -11277281.84248  -8771195.80246  21969550.679    21969550.3924   21969555.9474
       182.0004        183.0004
  -3904324.99647  -3029351.91645  23760475.370    23760476.6454   23760482.9484
       155.0004        157.0004
  -8230172.32148  -6395197.25246  22714676.601    22714677.6264   22714681.4444
       172.0004        173.0004
  -1955763.67647  -1504690.59845  23586701.153    23586700.4114   23586706.1344
       151.0004        154.0004
 -13235953.39749 -10265416.49747  21975213.977    21975214.2984   21975220.2644
       196.0004        197.0004
 -19304736.71449 -15028292.26447  21063759.708    21063760.4674   21063768.3254
       196.0004        196.0004
 21  2  6  1 42 30.0000000  0 10G07G08G14G30G21G04G17G28G09G01
 -21388549.92849 -16652894.83947  20737825.204    20737825.0214   20737829.2994
       207.0004        207.0004
  -9490250.39548  -7369137.03247  23014348.858    23014348.5164   23014356.3994
       193.0004        194.0004
  -3606355.05047  -2800652.96146  23176219.798    23176218.9964   23176224.1324
       162.0004        164.0004
 -12356517.62448  -9603269.44547  22194758.777    22194758.5184   22194766.3164
       189.0004        188.0004
 -11244693.26748  -8745802.09846  21975751.538    21975751.7924   21975758.7024
       183.0004        182.0004
  -3806432.30947  -2953071.92545  23779103.903    23779105.0224   23779110.4654
       153.0004        155.0004
  -8297257.72448  -6447471.56346  22701910.149    22701910.1254   22701915.9594
       171.0004        171.0004
  -1971041.24447  -1516595.19945  23583793.281    23583793.6884   23583797.8784
       150.0004        151.0004
 -13165746.44649 -10210709.77247  21988574.475    21988574.3044   21988580.2374
       197.0004        198.0004
 -19345995.29949 -15060441.78847  21055909.263    21055909.5814   21055917.3544
       196.0004        196.0004
 21  2  6  1 43  0.0000000  0 10G07G08G14G30G21G04G17G28G09G01
 -21439348.26749 -16692477.96147  20728157.619    20728158.4624   20728162.4694
       207.0004        208.0004
  -9395823.54348  -7295557.66747  23032316.725    23032317.4184   23032325.5254
       194.0004        195.0004
  -3632648.64447  -2821141.44746  23171215.830    23171216.5764   23171221.0304
       164.0004        167.0004
 -12439921.23248  -9668259.27247  22178887.661    22178887.4994   22178893.7824
       188.0004        188.0004
 -11211612.73848  -8720025.06346  21982047.146    21982046.7754   21982052.3794
       183.0004        183.0004
  -3708576.18947  -2876820.41445  23797724.741    23797726.1174   23797731.5564
       153.0004        155.0004
  -8363956.84448  -6499444.86146  22689218.925    22689219.8324   22689223.6454
       172.0004        173.0004
  -1986352.82347  -1528526.29145  23580879.360    23580879.2144   23580884.8094
       146.0004        148.0004
 -13095300.62749 -10155816.92947  22001979.348    22001979.3724   22001985.4014
       197.0004        198.0004
 -19386778.36549 -15092220.78947  21048147.885    21048148.6914   21048156.4384
       196.0004        196.0004
 21  2  6  1 43 30.0000000  0 10G07G08G14G30G21G04G17G28G09G01
 -21489780.17249 -16731775.54347  20718561.480    20718561.7964   20718565.5564
       207.0004        208.0004
  -9301353.23749  -7221944.44947  23050295.183    23050295.2104   23050302.2764
       195.0004        195.0004
  -3658977.32048  -2841657.26246  23166206.627    23166207.1654   23166209.4924
       166.0004        168.0004
 -12523178.51748  -9733135.07746  22163043.878    22163043.8644   22163050.7534
       187.0004        187.0004
 -11178041.64748  -8693865.75846  21988436.132    21988435.3074   21988441.0424
       183.0004        183.0004
  -3610760.01947  -2800600.03545  23816338.604    23816339.2624   23816345.7554
       154.0004        157.0004
  -8430269.38648  -6551116.93546  22676600.112    22676600.8684   22676604.2214
       174.0004        175.0004
  -2001700.54847  -1540485.53445  23577959.126    23577959.8894   23577963.3594
       148.0004        151.0004
 -13024619.74749 -10100740.91047  22015428.348    22015428.4254   22015436.1804
       196.0004        194.0004
 -19427084.09549 -15123627.82947  21040478.462    21040478.9044   21040486.9114
       196.0004        196.0004
 21  2  6  1 44  0.0000000  0 10G07G08G14G30G21G04G17G28G09G01
 -21539843.59549 -16770786.00447  20709034.621    20709035.2334   20709038.9264
       208.0004        209.0004
  -9206842.82449  -7148299.98547  23068279.438    23068279.3774   23068286.8334
       195.0004        195.0004
  -3685342.47848  -2862201.50546  23161189.923    23161190.1184   23161193.3774
       168.0004        169.0004
 -12606287.45548  -9797895.27546  22147228.073    22147228.4984   22147236.0014
       187.0004        187.0004
 -11143981.04248  -8667325.03246  21994917.716    21994917.1524   21994923.2064
       183.0004        183.0004
  -3512986.90947  -2724413.21745  23834945.744    23834945.8644   23834951.7904
       155.0004        157.0004
  -8496195.34948  -6602487.80146  22664052.907    22664053.7104   22664058.8124
       172.0004        172.0004
  -2017086.39647  -1552474.50545  23575030.903    23575031.5044   23575035.3284
       148.0004        150.0004
 -12953707.11048 -10045484.32247  22028922.075    22028922.6794   22028929.8194
       193.0004        192.0004
 -19466910.43249 -15154661.33247  21032898.785    21032899.9214   21032907.5904
       195.0004        195.0004
 21  2  6  1 44 30.0000000  0 10G07G08G14G30G21G04G17G28G09G01
 -21589534.95349 -16809506.55647  20699578.642    20699579.3114   20699583.0674
       208.0004        209.0004
  -9112293.53748  -7074625.23247  23086270.360    23086270.5564   23086279.7004
       194.0004        194.0004
  -3711744.14748  -2882774.23446  23156164.134    23156163.6534   23156169.9164
       167.0004        166.0004
 -12689244.64648  -9862537.24247  22131442.714    22131443.2904   22131449.6914
       187.0004        188.0004
 -11109430.21348  -8640402.31146  22001492.306    22001492.3604   22001496.6804
       183.0004        182.0004
  -3415258.57947  -2648261.31745  23853543.384    23853543.0074   23853549.1224
       155.0004        157.0004
  -8561732.76448  -6653555.89346  22651582.565    22651583.3094   22651587.4474
       172.0004        174.0004
  -2032511.14647  -1564493.78045  23572095.055    23572096.0534   23572100.4314
       144.0004        146.0004
 -12882565.23048  -9990049.11147  22042459.570    22042460.3454   22042467.9944
       192.0004        193.0004
 -19506254.03149 -15185318.67947  21025412.474    21025413.1824   21025420.8914
       195.0004        196.0004
 21  2  6  1 45  0.0000000  0 10G07G08G14G30G21G04G17G28G09G01
 -21638851.40549 -16847934.96147  20690194.294    20690194.8404   20690198.3374
       208.0004        209.0004
  -9017707.64948  -7000921.95847  23104269.415    23104269.5414   23104278.9574
       193.0004        193.0004
  -3738182.86547  -2903375.83446  23151129.448    23151129.7144   23151139.1214
       163.0004        163.0004
 -12772047.13848  -9927058.67447  22115685.985    22115685.6934   22115692.4594
       187.0004        188.0004
 -11074389.62648  -8613097.95746  22008161.396    22008160.3424   22008165.4814
       183.0004        184.0004
  -3317577.32547  -2572146.08645  23872130.643    23872131.0464   23872137.1284
       154.0004        155.0004
  -8626880.45748  -6704320.29946  22639186.323    22639186.1904   22639190.3554
       173.0004        173.0004
  -2047975.38847  -1576543.80345  23569154.436    23569153.4284   23569158.2184
       143.0004        147.0004
 -12811196.66948  -9934437.26047  22056039.713    22056040.8484   22056048.7544
       192.0004        191.0004
 -19545112.01849 -15215597.62947  21018017.136    21018017.8304   21018026.5514
       195.0004        195.0004
 21  2  6  1 45 30.0000000  0 11G07G08G14G30G22G21G04G17G28G09G01
 -21687790.32949 -16886069.19347  20680881.260    20680881.8644   20680885.4474
       208.0004        209.0004
  -8923087.93248  -6927192.32147  23122275.851    23122275.7134   23122284.1424
       192.0004        193.0004
  -3764659.70547  -2924007.16646  23146094.536    23146094.6834   23146099.7144
       162.0004        164.0004
 -12854692.58148  -9991457.71947  22099958.557    22099959.3394   22099966.3094
       188.0004        189.0004
  -3689721.54254  -2824259.54143                                  24578945.4784
        74.0004         74.0004
 -11038860.01548  -8585412.52846  22014921.760    22014920.7834   22014926.2924
       183.0004        184.0004
  -3219945.97247  -2496069.72245  23890709.863    23890709.2714   23890715.9544
       152.0004        154.0004
  -8691637.49348  -6754780.31146  22626862.885    22626864.0324   22626868.2404
       174.0004        176.0004
  -2063480.96547  -1588626.04745  23566202.496    23566203.3414   23566208.3164
       145.0004        150.0004
 -12739604.55948  -9878651.21647  22069664.948    22069665.2154   22069671.9944
       191.0004        192.0004
 -19583482.10449 -15245496.38047  21010716.348    21010717.1474   21010724.7254
       195.0004        196.0004
 21  2  6  1 46  0.0000000  0 11G07G08G14G30G22G21G04G17G28G09G01
 -21736349.77049 -16923907.71547  20671640.683    20671640.9834   20671645.2084
       209.0004        209.0004
  -8828437.41748  -6853438.68847  23140286.473    23140286.7684   23140296.6264
       193.0004        195.0004
  -3791176.07547  -2944669.25746  23141050.776    23141050.4914   23141053.9104
       164.0004        166.0004
 -12937178.93748 -10055732.80347  22084263.714    22084262.9824   22084268.9894
       188.0004        188.0004
  -3689721.54244  -2824259.541 3                                  24578945.478
        74.0004         74.000
 -11002842.34048  -8557346.81246  22021774.760    22021775.3774   22021779.7374
       183.0004        183.0004
  -3122367.55447  -2420034.61245  23909278.093    23909278.2604   23909285.5384
       150.0004        152.0004
  -8756003.47048  -6804935.58446  22614615.497    22614615.3834   22614619.9594
       177.0004        179.0004
  -2079029.56247  -1600741.83745  23563243.829    23563243.8984   23563248.7904
       149.0004        153.0004
 -12667792.56848  -9822693.83347  22083331.451    22083331.6814   22083337.3034
       192.0004        193.0004
 -19621362.35549 -15275013.44747  21003508.209    21003508.7144   21003516.9304
       196.0004        196.0004
 21  2  6  1 46 30.0000000  0 10G07G08G14G30G21G04G17G28G09G01
 -21784526.70449 -16961448.18247  20662472.680    20662473.3064   20662477.4594
       209.0004        210.0004
  -8733757.79048  -6779662.36347  23158301.465    23158303.3144   23158313.2444
       194.0004        194.0004
  -3817732.35248  -2965362.42046  23135995.744    23135995.8964   23136001.6584
       165.0004        166.0004
 -13019503.11448 -10119881.49346  22068596.193    22068596.2374   22068603.7614
       187.0004        187.0004
 -10966337.01848  -8528901.10046  22028722.498    22028722.2754   22028727.1714
       183.0004        183.0004
  -3024844.23147  -2344042.43645  23927835.439    23927836.7434   23927841.7224
       149.0004        152.0004
  -8819977.06248  -6854785.12746  22602440.312    22602440.6294   22602446.4234
       176.0004        176.0004
  -2094622.18047  -1612891.93445  23560276.311    23560276.9734   23560281.9174
       149.0004        152.0004
 -12595763.20448  -9766567.05147  22097038.185    22097038.0254   22097044.4404
       192.0004        193.0004
 -19658749.83549 -15304146.53547  20996393.228    20996394.2424   20996401.9434
       196.0004        197.0004
 21  2  6  1 47  0.0000000  0 10G07G08G14G30G21G04G17G28G09G01
 -21832317.95949 -16998688.13347  20653378.588    20653378.9284   20653382.8864
       209.0004        210.0004
  -8639051.02948  -6705864.89247  23176326.514    23176326.2414   23176334.7454
       193.0004        193.0004
  -3844328.97847  -2986087.08146  23130934.252    23130934.0084   23130938.3944
       164.0004        165.0004
 -13101662.23948 -10183901.58747  22052961.840    22052962.4784   22052969.6754
       187.0004        188.0004
 -10929344.20448  -8500075.52046  22035762.338    22035761.5334   22035766.1134
       183.0004        183.0004
  -2927378.24347  -2268094.92945  23946383.152    23946384.1074   23946389.6044
       149.0004        153.0004
  -8883557.29848  -6904328.16146  22590341.900    22590341.4784   22590347.1054
       177.0004        177.0004
  -2110259.62447  -1625076.92245  23557300.488    23557301.1894   23557305.5454
       148.0004        150.0004
 -12523519.20548  -9710273.03047  22110784.421    22110785.2314   22110791.7904
       192.0004        192.0004
 -19695641.79549 -15332893.52047  20989372.765    20989373.7834   20989381.8504
       196.0004        196.0004
 21  2  6  1 47 30.0000000  0 10G07G08G14G30G21G04G17G28G09G01
 -21879721.74749 -17035626.15347  20644357.560    20644358.1514   20644362.2234
       209.0004        209.0004
  -8544320.45748  -6632048.87847  23194352.250    23194353.2054   23194361.3464
       192.0004        192.0004
  -3870967.57947  -3006844.42946  23125864.078    23125864.6324   23125870.3554
       164.0004        166.0004
 -13183654.43648 -10247791.62047  22037359.557    22037359.9934   22037366.7574
       188.0004        189.0004
 -10891865.40348  -8470871.24846  22042894.457    22042893.7224   22042898.2894
       183.0004        182.0004
  -2829972.86147  -2192194.64045  23964919.186    23964918.7474   23964926.2134
       150.0004        153.0004
  -8946743.86048  -6953564.40846  22578317.614    22578318.1134   22578323.0764
       177.0004        177.0004
  -2125944.03647  -1637298.52745  23554317.669    23554317.4364   23554320.7404
       148.0004        151.0004
 -12451064.33248  -9653814.68947  22124571.162    22124571.9584   22124579.7184
       191.0004        190.0004
 -19732036.61149 -15361253.10947  20982448.590    20982448.7384   20982455.8164
       197.0004        198.0004
 21  2  6  1 48  0.0000000  0 10G07G08G14G30G21G04G17G28G09G01
 -21926735.66149 -17072260.37347  20635411.554    20635412.0074   20635415.8114
       209.0004        210.0004
  -8449568.33748  -6558216.07947  23212383.223    23212383.4374   23212391.9834
       191.0004        191.0004
  -3897649.03848  -3027635.16646  23120786.987    23120787.3154   23120792.5754
       165.0004        166.0004
 -13265477.15448 -10311549.57946  22021788.303    22021788.3164   22021796.2474
       187.0004        187.0004
 -10853901.25848  -8441288.79346  22050117.412    22050117.4694   22050122.3994
       182.0004        182.0004
  -2732630.70447  -2116343.64545  23983441.548    23983442.5754   23983450.8174
       150.0004        152.0004
  -9009535.93248  -7002493.25546  22566367.820    22566369.0854   22566373.4304
       175.0004        176.0004
  -2141676.73347  -1649557.75345  23551321.221    23551322.2364   23551326.6014
       148.0004        150.0004
 -12378401.60748  -9597194.38847  22138398.508    22138399.1084   22138407.2964
       190.0004        191.0004
 -19767931.88049 -15389223.43847  20975616.854    20975617.4984   20975625.5684
       197.0004        198.0004
 21  2  6  1 48 30.0000000  0 10G07G08G14G30G21G04G17G28G09G01
 -21973355.92049 -17108587.85347  20626540.038    20626540.4454   20626544.0104
       209.0004        210.0004
  -8354796.18148  -6484367.68347  23230419.808    23230418.6774   23230426.4224
       191.0004        190.0004
  -3924373.13747  -3048459.12746  23115701.230    23115701.3374   23115707.5454
       163.0004        164.0004
 -13347126.73348 -10375172.62047  22006251.734    22006251.3534   22006258.7654
       187.0004        188.0004
 -10815451.43748  -8411327.89046  22057434.268    22057434.8944   22057438.8954
       182.0004        182.0004
  -2635353.21647  -2040543.06745  24001954.570    24001954.3044   24001960.3414
       148.0004        151.0004
  -9071931.95048  -7051113.51246  22554495.755    22554495.8684   22554500.4904
       177.0004        178.0004
  -2157458.05047  -1661854.89145  23548319.931    23548319.2014   23548324.0824
       148.0004        151.0004
 -12305533.04748  -9540413.71847  22152266.487    22152266.3304   22152273.4714
       190.0004        191.0004
 -19803324.17249 -15416801.84047  20968880.310    20968882.0974   20968890.5994
       197.0004        197.0004
 21  2  6  1 49  0.0000000  0 10G07G08G14G30G21G04G17G28G09G01
 -22019580.91849 -17144607.33647  20617743.227    20617743.9964   20617748.0214
       210.0004        210.0004
  -8260007.46748  -6410506.34847  23248455.639    23248455.8064   23248464.2224
       190.0004        191.0004
  -3951141.55247  -3069317.63445  23110607.444    23110608.5014   23110613.2284
       161.0004        162.0004
 -13428601.50948 -10438659.45347  21990748.060    21990747.3804   21990754.7934
       188.0004        189.0004
 -10776517.60148  -8380989.83946  22064843.370    22064843.4554   22064847.6364
       182.0004        182.0004
  -2538143.92647  -1964795.60745  24020452.452    24020453.2724   24020458.1694
       146.0004        149.0004
  -9133931.85948  -7099425.09746  22542696.953    22542697.1184   22542702.0464
       177.0004        179.0004
  -2173290.34447  -1674191.71345  23545305.789    23545306.3274   23545312.5694
       147.0004        151.0004
 -12232462.66648  -9483475.75947  22166170.330    22166171.3534   22166178.3574
       190.0004        190.0004
 -19838212.09549 -15443987.22547  20962242.636    20962243.4414   20962251.4454
       197.0004        198.0004
 21  2  6  1 49 30.0000000  0 10G07G08G14G30G21G04G17G28G09G01
 -22065407.62749 -17180316.46947  20609022.946    20609023.3204   20609027.6744
       209.0004        210.0004
  -8165203.88748  -6336633.44747  23266496.904    23266496.3554   23266504.3804
       190.0004        191.0004
  -3977954.93147  -3090211.16245  23105504.610    23105505.3234   23105510.7444
       160.0004        162.0004
 -13509898.64448 -10502007.86147  21975276.739    21975277.5024   21975284.4434
       189.0004        190.0004
 -10737100.12448  -8350274.91246  22072344.746    22072344.0584   22072348.8864
       182.0004        182.0004
  -2441005.07947  -1889103.00545  24038935.150    24038937.1064   24038942.2964
       145.0004        147.0004
  -9195534.23048  -7147426.92046  22530972.871    22530973.4254   22530979.4544
       178.0004        178.0004
  -2189174.24447  -1686568.75445  23542283.289    23542283.6224   23542289.0014
       148.0004        151.0004
 -12159193.19548  -9426382.67847  22180114.362    22180114.4634   22180121.4574
       190.0004        191.0004
 -19872593.06149 -15470777.57847  20955700.949    20955701.3264   20955708.8784
       198.0004        198.0004
 21  2  6  1 50  0.0000000  0 11G07G08G14G30G19G21G04G17G28G09G01
 -22110832.72649 -17215712.65447  20600379.698    20600379.7374   20600383.0734
       210.0004        210.0004
  -8070386.60948  -6262749.85947  23284536.544    23284538.3744   23284547.7394
       189.0004        189.0004
  -4004812.88047  -3111139.43346  23100393.826    23100394.9924   23100399.9394
       161.0004        164.0004
 -13591014.39448 -10565214.94347  21959842.491    21959841.9524   21959848.4094
       189.0004        190.0004
  -1320661.49654   -999814.47745  24790611.391                    24790616.5784
        74.0004        145.0004
 -10697198.92748  -8319183.06346  22079937.364    22079937.4104   22079942.2834
       182.0004        181.0004
  -2343938.17247  -1813466.48245  24057409.295    24057408.4094   24057414.6944
       143.0004        147.0004
  -9256737.68548  -7195117.89446  22519328.318    22519328.7934   22519333.5874
       179.0004        181.0004
  -2205110.12047  -1698986.30045  23539252.055    23539251.9074   23539255.2054
       150.0004        153.0004
 -12085726.65348  -9369136.01847  22194093.792    22194094.2394   22194101.3544
       190.0004        189.0004
 -19906463.73549 -15497170.30247  20949255.600    20949256.2284   20949263.8414
       198.0004        199.0004
 21  2  6  1 50 30.0000000  0 11G07G08G14G30G19G21G04G17G28G09G01
 -22155854.13649 -17250794.27047  20591811.390    20591811.9154   20591816.3694
       209.0004        210.0004
  -7975558.83148  -6188858.09047  23302583.313    23302583.7334   23302593.0154
       188.0004        189.0004
  -4031716.86947  -3132103.56846  23095274.710    23095275.0434   23095280.6524
       164.0004        167.0004
 -13671946.77048 -10628279.12747  21944441.367    21944441.4874   21944448.0594
       190.0004        191.0004
  -1411513.84647  -1070608.37845  24773322.034    24773321.5744   24773329.3124
       135.0004        145.0004
 -10656815.45648  -8287715.41546  22087622.380    22087621.3554   22087626.0214
       181.0004        181.0004
  -2246946.20747  -1737888.34345  24075865.463    24075865.3104   24075872.0324
       144.0004        147.0004
  -9317541.82948  -7242497.71546  22507757.014    22507757.4624   22507762.1524
       181.0004        182.0004
  -2221099.93847  -1711445.88645  23536209.197    23536209.9524   23536213.6264
       152.0004        156.0004
 -12012066.58448  -9311738.55947  22208111.321    22208111.4424   22208118.9004
       190.0004        191.0004
 -19939822.34549 -15523164.02047  20942907.463    20942907.7974   20942915.9124
       199.0004        199.0004
 21  2  6  1 51  0.0000000  0 11G07G08G14G30G19G21G04G17G28G09G01
 -22200471.42649 -17285561.00847  20583321.074    20583321.5824   20583325.6304
       209.0004        210.0004
  -7880725.66548  -6114962.12846  23320628.307    23320629.7204   23320639.1794
       187.0004        187.0004
  -4058669.95548  -3153105.99046  23090146.941    23090147.1884   23090151.6734
       166.0004        168.0004
 -13752695.44448 -10691200.17647  21929075.342    21929075.0274   21929082.1734
       191.0004        192.0004
  -1502157.46747  -1141239.73545  24756075.714    24756073.5504   24756079.6564
       138.0004        143.0004
 -10615952.54448  -8255874.17646  22095398.073    22095398.0934   22095402.6644
       181.0004        181.0004
  -2150034.08347  -1662372.46245  24094307.838    24094307.9414   24094312.9864
       144.0004        148.0004
  -9377948.69948  -7289567.98246  22496261.742    22496262.6504   22496267.2754
       181.0004        182.0004
  -2237147.21447  -1723950.25745  23533155.523    23533155.1694   23533158.8224
       150.0004        152.0004
 -11938218.43448  -9254194.56547  22222162.900    22222163.5484   22222171.0674
       190.0004        190.0004
 -19972668.99849 -15548758.80547  20936657.200    20936657.7994   20936665.2704
       199.0004        199.0004
 21  2  6  1 51 30.0000000  0 11G07G08G14G30G19G21G04G17G28G09G01
 -22244680.49649 -17320009.64647  20574907.853    20574908.5634   20574913.1314
       209.0004        210.0004
  -7785886.87948  -6041061.79446  23338676.990    23338677.4864   23338686.1964
       186.0004        186.0004
  -4085671.37647  -3174146.02746  23085006.967    23085007.3224   23085012.8404
       164.0004        164.0004
 -13833256.20048 -10753974.79047  21913744.125    21913744.2744   21913751.6864
       191.0004        191.0004
  -1592589.09947  -1211705.89545  24738866.305    24738865.9604   24738869.9244
       141.0004        145.0004
 -10574609.21248  -8223658.59946  22103265.050    22103264.6704   22103269.5104
       181.0004        181.0004
  -2053202.62047  -1586919.40545  24112731.940    24112733.9604   24112740.2514
       146.0004        150.0004
  -9437955.69448  -7336326.65346  22484844.119    22484844.3004   22484848.5474
       182.0004        184.0004
  -2253251.62247  -1736499.14045  23530091.648    23530089.9304   23530094.8074
       148.0004        150.0004
 -11864183.57848  -9196505.06647  22236251.608    22236251.8534   22236259.3544
       189.0004        189.0004
 -20004999.84849 -15573951.66247  20930504.816    20930505.1834   20930513.1054
       199.0004        200.0004
 21  2  6  1 52  0.0000000  0 11G07G08G14G30G19G21G04G17G28G09G01
 -22288480.04049 -17354139.17347  20566574.077    20566574.5744   20566578.0694
       209.0004        210.0004
  -7691046.08448  -5967159.88647  23356727.110    23356726.4304   23356734.8324
       187.0004        188.0004
  -4112722.62647  -3195224.92646  23079860.986    23079860.6034   23079864.8184
       163.0004        164.0004
 -13913627.23448 -10816601.57547  21898450.578    21898450.8094   21898457.2324
       191.0004        193.0004
  -1682808.02247  -1282006.26845  24721699.149    24721698.7474   24721700.8204
       140.0004        144.0004
 -10532787.62648  -8191070.32746  22111224.012    22111223.6494   22111227.8074
       180.0004        180.0004
  -1956455.15147  -1511531.79445  24131144.525    24131144.5144   24131150.7414
       147.0004        151.0004
  -9497562.87948  -7382773.77046  22473499.325    22473500.8004   22473505.1934
       182.0004        182.0004
  -2269415.26547  -1749094.18145  23527014.597    23527014.9174   23527017.7254
       146.0004        150.0004
 -11789965.91548  -9138673.13747  22250374.953    22250375.6144   22250382.0734
       189.0004        189.0004
 -20036813.47049 -15598741.48947  20924450.512    20924451.2314   20924458.7074
       199.0004        199.0004
 21  2  6  1 52 30.0000000  0 11G07G08G14G30G19G21G04G17G28G09G01
 -22331865.91749 -17387946.38447  20558317.514    20558317.7274   20558322.0684
       209.0004        210.0004
  -7596204.65548  -5893257.50347  23374777.043    23374775.1514   23374782.6594
       188.0004        189.0004
  -4139823.21148  -3216342.27546  23074703.860    23074704.3764   23074708.2364
       165.0004        167.0004
 -13993804.59448 -10879077.44447  21883193.368    21883193.0344   21883200.4484
       193.0004        195.0004
  -1772811.53447  -1352138.82645  24704572.406    24704572.3424   24704574.2354
       141.0004        146.0004
 -10490487.02648  -8158108.82046  22119273.632    22119273.4164   22119277.9064
       180.0004        180.0004
  -1859792.86047  -1436210.58445  24149538.788    24149538.3624   24149545.2014
       148.0004        151.0004
  -9556768.35448  -7428907.89146  22462233.814    22462234.2814   22462238.7694
       182.0004        182.0004
  -2285638.12647  -1761735.33545  23523929.078    23523928.3784   23523931.8644
       148.0004        152.0004
 -11715567.15448  -9080700.08547  22264533.349    22264533.2954   22264540.6384
       188.0004        188.0004
 -20068106.40649 -15623125.59647  20918496.031    20918496.1984   20918503.5544
       199.0004        199.0004
 21  2  6  1 53  0.0000000  0 11G07G08G14G30G19G21G04G17G28G09G01
 -22374835.77849 -17421429.39647  20550140.386    20550141.1724   20550145.3204
       209.0004        210.0004
  -7501364.01748  -5819355.73847  23392824.807    23392823.8094   23392829.0324
       189.0004        189.0004
  -4166973.81048  -3237498.57146  23069535.836    23069536.1264   23069541.9854
       165.0004        166.0004
 -14073785.58248 -10941400.28247  21867972.803    21867973.3604   21867981.0254
       194.0004        195.0004
  -1862597.74847  -1422102.04145  24687486.353    24687485.4194   24687488.3464
       141.0004        145.0004
 -10447708.41948  -8124774.83046  22127413.525    22127413.1194   22127418.1384
       179.0004        179.0004
  -1763218.11647  -1360957.57445  24167915.614    24167915.6154   24167922.4794
       147.0004        151.0004
  -9615571.58148  -7474728.55346  22451044.788    22451045.3004   22451049.2924
       182.0004        183.0004
  -2301921.30347  -1774423.49345  23520829.437    23520829.7864   23520833.5074
       148.0004        152.0004
 -11640990.28748  -9022588.24046  22278724.631    22278724.8394   22278731.7234
       188.0004        187.0004
 -20098876.41849 -15647102.23647  20912640.816    20912641.3894   20912648.6684
       200.0004        200.0004
 21  2  6  1 53 30.0000000  0 11G07G08G14G30G19G21G04G17G28G09G01
 -22417386.40949 -17454585.73547  20542043.996    20542044.1914   20542047.9734
       210.0004        211.0004
  -7406526.31548  -5745456.22546  23410867.145    23410868.4674   23410875.2554
       188.0004        187.0004
  -4194174.70548  -3258694.05046  23064360.290    23064360.6234   23064366.0974
       165.0004        167.0004
 -14153567.10648 -11003567.69247  21852791.666    21852791.5994   21852798.9094
       194.0004        194.0004
  -1952164.96947  -1491894.61845  24670442.754    24670440.9604   24670443.1874
       140.0004        145.0004
 -10404452.25148  -8091068.71546  22135645.383    22135644.9634   22135649.8294
       179.0004        180.0004
  -1666732.94647  -1285774.35645  24186277.185    24186276.3414   24186282.5804
       147.0004        150.0004
  -9673971.15148  -7520234.69446  22439931.262    22439931.5684   22439936.4494
       182.0004        182.0004
  -2318265.47447  -1787159.21945  23517718.497    23517718.4114   23517722.3074
       148.0004        151.0004
 -11566237.88848  -8964339.63846  22292948.315    22292949.0984   22292956.1914
       186.0004        186.0004
 -20129120.86049 -15670669.33247  20906885.447    20906886.0694   20906893.1904
       200.0004        200.0004
 21  2  6  1 54  0.0000000  0 11G07G08G14G30G19G21G04G17G28G09G01
 -22459513.68549 -17487412.17147  20534027.438    20534027.7524   20534031.5374
       210.0004        211.0004
  -7311692.22648  -5671559.55147  23428914.687    23428914.7404   23428923.2304
       187.0004        188.0004
  -4221424.87347  -3279927.93546  23059174.405    23059175.0264   23059180.0944
       164.0004        166.0004
 -14233144.75648 -11065576.25947  21837648.516    21837648.1824   21837655.2454
       194.0004        194.0004
  -2041509.53947  -1561513.67245  24653439.210    24653439.3894   24653444.2294
       140.0004        145.0004
 -10360717.64748  -8056989.80646  22143967.249    22143967.3324   22143971.7844
       180.0004        180.0004
  -1570338.09247  -1210661.53445  24204619.530    24204620.1914   24204625.3304
       146.0004        149.0004
  -9731964.73848  -7565424.48646  22428895.121    22428895.4934   22428899.9894
       181.0004        181.0004
  -2334670.24147  -1799942.14845  23514597.460    23514598.0404   23514601.6874
       148.0004        153.0004
 -11491311.25448  -8905955.25846  22307206.690    22307207.0854   22307213.9764
       185.0004        185.0004
 -20158835.86349 -15693823.87347  20901231.024    20901231.3134   20901238.8734
       200.0004        200.0004
 21  2  6  1 54 30.0000000  0 11G07G08G14G30G19G21G04G17G28G09G01
 -22501216.79649 -17519908.10847  20526091.581    20526091.5384   20526095.6554
       210.0004        211.0004
  -7216865.20048  -5597668.38946  23446960.132    23446960.1754   23446966.8284
       186.0004        185.0004
  -4248726.59048  -3301201.98746  23053979.234    23053980.0284   23053983.9674
       165.0004        167.0004
 -14312517.46648 -11127425.12847  21822544.581    21822544.6334   21822550.9554
       194.0004        194.0004
  -2130631.50147  -1630959.33645  24636479.299    24636478.7644   24636480.8424
       137.0004        139.0004
 -10316507.24048  -8022540.12946  22152380.247    22152380.3544   22152384.8494
       179.0004        179.0004
  -1474037.44847  -1135622.10645  24222945.807    24222946.1634   24222950.5594
       146.0004        150.0004
  -9789553.33248  -7610298.70146  22417936.389    22417936.6044   22417940.6994
       181.0004        181.0004
  -2351138.28947  -1812774.38445  23511463.270    23511463.6044   23511468.2064
       150.0004        152.0004
 -11416214.99848  -8847438.70046  22321497.457    22321498.2064   22321504.6934
       185.0004        186.0004
 -20188020.90449 -15716565.45647  20895677.127    20895677.5064   20895685.2654
       200.0004        201.0004
 21  2  6  1 55  0.0000000  0 11G07G08G14G30G19G21G04G17G28G09G01
 -22542493.15749 -17552071.52747  20518236.768    20518237.1724   20518241.0074
       210.0004        211.0004
  -7122047.72348  -5523784.64546  23465002.162    23465002.3974   23465010.8684
       185.0004        186.0004
  -4276080.51148  -3322516.72546  23048774.050    23048774.3144   23048780.4004
       166.0004        167.0004
 -14391682.49148 -11189112.16247  21807480.049    21807480.2454   21807486.2814
       194.0004        195.0004
  -2219529.54047  -1700230.51445  24619563.884    24619561.6134   24619565.0474
       136.0004        141.0004
 -10271821.82348  -7987720.31146  22160884.627    22160883.5614   22160887.7054
       179.0004        178.0004
  -1377833.43047  -1060657.98245  24241251.965    24241252.5414   24241258.7694
       147.0004        151.0004
  -9846736.83648  -7654857.26146  22407054.696    22407055.8234   22407058.4054
       181.0004        181.0004
  -2367670.75547  -1825656.83445  23508315.532    23508316.5294   23508320.6484
       147.0004        148.0004
 -11340952.04948  -8788792.25846  22335819.401    22335819.9074   22335827.3144
       186.0004        186.0004
 -20216673.77349 -15738892.36447  20890223.739    20890224.9404   20890233.0554
       200.0004        200.0004
 21  2  6  1 55 30.0000000  0 11G07G08G14G30G19G21G04G17G28G09G01
 -22583340.33649 -17583900.51047  20510464.093    20510464.3294   20510468.1454
       210.0004        211.0004
  -7027242.24948  -5449910.27146  23483041.603    23483042.4424   23483051.6004
       184.0004        185.0004
  -4303487.57048  -3343872.85246  23043558.789    23043558.4144   23043564.5294
       167.0004        168.0004
 -14470637.41449 -11250635.48247  21792455.250    21792455.0634   21792461.6664
       195.0004        195.0004
  -2308202.30147  -1769326.09545  24602688.208    24602687.9744   24602693.2114
       135.0004        140.0004
 -10226662.82048  -7952531.46446  22169477.697    22169476.6024   22169481.5224
       179.0004        179.0004
  -1281728.68447   -985771.19245  24259539.348    24259539.6454   24259546.6644
       147.0004        150.0004
  -9903514.53348  -7699099.60546  22396249.678    22396250.5954   22396253.9674
       181.0004        181.0004
  -2384269.28147  -1838590.74845  23505158.415    23505158.4574   23505164.4844
       147.0004        152.0004
 -11265525.64248  -8730018.45346  22350173.180    22350173.2874   22350179.8464
       186.0004        186.0004
 -20244792.67849 -15760803.19247  20884873.228    20884874.1624   20884882.0134
       200.0004        200.0004
 21  2  6  1 56  0.0000000  0 11G07G08G14G30G19G21G04G17G28G09G01
 -22623755.80049 -17615393.08147  20502772.775    20502773.3844   20502777.3534
       210.0004        211.0004
  -6932450.59048  -5376046.63547  23501080.871    23501081.8124   23501090.0844
       186.0004        188.0004
  -4330948.20448  -3365270.74546  23038333.135    23038333.5334   23038338.6734
       167.0004        167.0004
 -14549379.30149 -11311992.79947  21777470.955    21777470.6574   21777477.5544
       195.0004        195.0004
  -2396647.93047  -1838244.72445  24585859.315    24585858.5334   24585862.4084
       137.0004        144.0004
 -10181030.53048  -7916973.82246  22178160.698    22178160.8284   22178165.5774
       179.0004        179.0004
  -1185725.42547   -910963.48745  24277807.883    24277808.5984   24277815.9474
       148.0004        151.0004
  -9959885.62648  -7743025.11346  22385523.636    22385523.6234   22385527.7714
       181.0004        182.0004
  -2400934.62647  -1851576.71245  23501987.800    23501988.2764   23501992.0514
       149.0004        153.0004
 -11189938.62748  -8671119.48246  22364556.918    22364557.3104   22364564.2064
       186.0004        186.0004
 -20272375.34649 -15782296.16547  20879625.143    20879625.0634   20879633.2224
       200.0004        199.0004
 21  2  6  1 56 30.0000000  0 11G07G08G14G30G19G21G04G17G28G09G01
 -22663738.01349 -17646548.06347  20495164.664    20495165.0554   20495169.0014
       211.0004        212.0004
  -6837675.77848  -5302196.15046  23519116.089    23519116.9354   23519125.1554
       186.0004        187.0004
  -4358463.98548  -3386711.61546  23033098.172    23033098.1214   23033102.4944
       166.0004        168.0004
 -14627906.40748 -11373182.75247  21762527.819    21762527.7344   21762534.1514
       194.0004        195.0004
  -2484865.70547  -1906985.78345  24569073.187    24569072.1174   24569074.8524
       142.0004        148.0004
 -10134927.43948  -7881049.32446  22186934.000    22186934.1504   22186938.3254
       179.0004        180.0004
  -1089826.76947   -836237.30345  24296058.258    24296057.5784   24296064.8294
       147.0004        150.0004
 -10015850.45648  -7786634.04746  22374873.586    22374874.4594   22374877.7954
       181.0004        181.0004
  -2417668.76047  -1864616.29245  23498802.874    23498801.3804   23498807.5384
       148.0004        150.0004
 -11114194.86648  -8612098.37846  22378970.901    22378971.0064   22378977.9634
       186.0004        187.0004
 -20299420.57349 -15803370.35447  20874477.077    20874477.8534   20874486.7314
       199.0004        199.0004
 21  2  6  1 57  0.0000000  0 11G07G08G14G30G19G21G04G17G28G09G01
 -22703284.27049 -17677363.34147  20487639.058    20487639.6114   20487643.6564
       211.0004        212.0004
  -6742919.96148  -5228360.48447  23537148.749    23537149.4904   23537156.3404
       188.0004        188.0004
  -4386035.26348  -3408195.69546  23027848.701    23027849.5414   23027856.0314
       166.0004        167.0004
 -14706215.69749 -11434202.98747  21747626.575    21747625.6554   21747632.4984
       195.0004        195.0004
  -2572854.15647  -1975548.15845  24552328.522    24552327.6764   24552332.5314
       146.0004        150.0004
 -10088354.12848  -7844758.42746  22195796.125    22195796.2914   22195801.1354
       178.0004        179.0004
   -994034.85247   -761594.30045  24314283.460    24314285.7434   24314292.8474
       146.0004        148.0004
 -10071408.16448  -7829925.76146  22364301.485    22364301.5204   22364306.1544
       181.0004        182.0004
  -2434472.68547  -1877710.26345  23495605.539    23495605.3064   23495609.7164
       149.0004        153.0004
 -11038297.02848  -8552957.23046  22393413.399    22393413.3334   22393420.9524
       186.0004        185.0004
 -20325926.08549 -15824024.00447  20869433.889    20869434.8604   20869442.5054
       198.0004        199.0004
 21  2  6  1 57 30.0000000  0 11G07G08G14G30G19G21G04G17G28G09G01
 -22742391.91349 -17707836.84147  20480197.043    20480197.5954   20480201.7264
       211.0004        212.0004
  -6648184.80548  -5154540.88247  23555176.209    23555177.0124   23555184.6634
       187.0004        188.0004
  -4413662.44748  -3429723.37846  23022592.768    23022593.8274   23022599.0084
       167.0004        168.0004
 -14784304.30149 -11495051.25847  21732765.947    21732766.1334   21732773.4544
       195.0004        196.0004
  -2660611.18947  -2043930.22245  24535628.689    24535627.7804   24535632.8594
       148.0004        152.0004
 -10041311.16348  -7808101.55546  22204748.020    22204747.7984   22204753.0994
       178.0004        179.0004
   -898351.93147   -687036.22045  24332492.055    24332494.1824   24332500.6824
       144.0004        147.0004
 -10126558.19348  -7872899.80146  22353805.901    22353806.8694   22353811.4064
       181.0004        181.0004
  -2451347.16447  -1890859.21145  23492394.579    23492394.4504   23492399.6794
       153.0004        157.0004
 -10962247.97748  -8493698.24946  22407884.702    22407885.0334   22407891.9584
       184.0004        183.0004
 -20351889.68849 -15844255.37247  20864493.289    20864494.0194   20864502.0294
       199.0004        199.0004
 21  2  6  1 58  0.0000000  0 11G07G08G14G30G19G21G04G17G28G09G01
 -22781059.16949 -17737967.17747  20472838.710    20472839.3134   20472844.0364
       211.0004        212.0004
  -6553473.08148  -5080739.57047  23573200.256    23573200.1614   23573208.1414
       188.0004        188.0004
  -4441346.89248  -3451295.69046  23017325.174    23017325.8554   23017329.8374
       167.0004        167.0004
 -14862170.19249 -11555725.96647  21717948.517    21717948.8374   21717956.2204
       195.0004        197.0004
  -2748136.14347  -2112131.42145  24518973.845    24518973.5584   24518977.3334
       149.0004        153.0004
  -9993800.43248  -7771080.19846  22213789.965    22213789.3934   22213794.0064
       178.0004        178.0004
   -802780.79947   -612565.25845  24350680.592    24350681.4254   24350686.5404
       143.0004        147.0004
 -10181300.28848  -7915555.95746  22343389.217    22343389.8314   22343394.4824
       182.0004        183.0004
  -2468294.19447  -1904064.69645  23489170.147    23489170.0904   23489172.9994
       156.0004        158.0004
 -10886051.34548  -8434324.25446  22422383.942    22422384.2764   22422391.1054
       183.0004        182.0004
 -20377310.10649 -15864063.48247  20859656.481    20859656.9184   20859664.1634
       199.0004        199.0004
 21  2  6  1 58 30.0000000  0 11G07G08G14G30G19G21G04G17G28G09G01
 -22819284.06849 -17767752.82647  20465565.443    20465565.7034   20465569.9054
       212.0004        212.0004
  -6458787.30348  -5006958.45646  23591217.609    23591217.9554   23591224.4554
       187.0004        186.0004
  -4469089.54548  -3472913.31246  23012044.642    23012044.5644   23012050.9754
       166.0004        167.0004
 -14939811.03049 -11616225.31647  21703174.852    21703174.0824   21703181.0614
       196.0004        196.0004
  -2835427.81847  -2180150.86845  24502361.155    24502360.7414   24502365.9674
       149.0004        152.0004
  -9945823.66748  -7733695.70146  22222919.262    22222919.3744   22222923.8724
       179.0004        180.0004
   -707324.28947   -538183.60345  24368845.811    24368846.6754   24368851.6664
       142.0004        146.0004
 -10235635.06748  -7957894.70946  22333050.319    22333049.8274   22333054.8564
       182.0004        182.0004
  -2485315.21547  -1917327.79145  23485931.165    23485931.0284   23485934.6394
       156.0004        158.0004
 -10809710.50048  -8374837.89246  22436911.265    22436912.0124   22436918.7364
       183.0004        183.0004
 -20402185.68949 -15883447.05047  20854922.217    20854922.9434   20854931.0884
       199.0004        199.0004
 21  2  6  1 59  0.0000000  0 11G07G08G14G30G19G21G04G17G28G09G01
 -22857062.84949 -17797190.85147  20458375.780    20458376.4514   20458380.5284
       211.0004        212.0004
  -6364128.16248  -4933198.10246  23609230.197    23609230.2234   23609238.5414
       185.0004        185.0004
  -4496889.62448  -3494575.70146  23006755.999    23006756.7514   23006760.2644
       165.0004        166.0004
 -15017222.62749 -11676546.04547  21688443.202    21688443.5814   21688450.3764
       196.0004        197.0004
  -2922483.47547  -2247986.39345  24485795.076    24485794.0164   24485799.5304
       150.0004        153.0004
  -9897380.25348  -7695947.55346  22232137.335    22232137.1724   22232141.7914
       179.0004        179.0004
   -611983.24447   -463891.91845  24386987.527    24386987.8144   24386996.4454
       141.0004        145.0004
 -10289560.15848  -7999914.27046  22322787.840    22322787.8714   22322793.0434
       181.0004        182.0004
  -2502409.73447  -1930648.18645  23482677.537    23482677.4744   23482681.8724
       156.0004        158.0004
 -10733226.92648  -8315240.30746  22451467.241    22451467.1394   22451473.6094
       184.0004        185.0004
 -20426513.07949 -15902403.44447  20850293.531    20850293.7614   20850302.0474
       199.0004        200.0004
 21  2  6  1 59 30.0000000  0 11G07G08G14G30G19G21G04G17G28G09G01
 -22894393.30749 -17826279.53148  20451272.612    20451273.1094   20451277.1684
       212.0004        213.0004
  -6269498.23548  -4859460.49946  23627236.126    23627236.5014   23627246.3794
       183.0004        183.0004
  -4524748.03848  -3516283.55646  23001454.854    23001454.4974   23001458.9084
       165.0004        166.0004
 -15094402.66149 -11736686.33247  21673756.709    21673756.9634   21673763.5084
       197.0004        197.0004
  -3009301.71247  -2315636.91645  24469274.240    24469273.5274   24469278.0604
       149.0004        151.0004
  -9848471.92248  -7657837.16946  22241444.759    22241444.3554   22241448.5324
       178.0004        177.0004
   -516760.40747   -389692.33945  24405107.155    24405107.9964   24405114.9224
       139.0004        143.0004
 -10343075.55048  -8041614.55446  22312603.879    22312604.4564   22312609.5294
       182.0004        182.0004
  -2519579.38047  -1944027.09345  23479412.580    23479412.4354   23479415.5814
       157.0004        160.0004
 -10656604.05348  -8255534.18446  22466046.716    22466046.7894   22466053.8174
       183.0004        184.0004
 -20450290.68349 -15920931.44247  20845768.427    20845769.0194   20845776.9484
       199.0004        199.0004
 21  2  6  2  0  0.0000000  0 11G07G08G14G30G19G21G04G17G28G09G01
 -22931272.49549 -17855016.57248  20444254.260    20444254.8784   20444259.2794
       212.0004        213.0004
  -6174898.63248  -4785746.52246  23645236.991    23645238.8114   23645246.8494
       184.0004        184.0004
  -4552664.63848  -3538036.75146  22996141.571    22996141.9764   22996146.8174
       165.0004        167.0004
 -15171347.69549 -11796643.50547  21659114.171    21659114.5664   21659121.1944
       196.0004        196.0004
  -3095880.66847  -2383100.99745  24452799.314    24452798.5654   24452802.9864
       147.0004        150.0004
  -9799099.04648  -7619364.79946  22250839.521    22250839.2994   22250844.9284
       178.0004        179.0004
   -421657.22647   -315586.01145  24423202.363    24423204.4564   24423213.8484
       137.0004        141.0004
 -10396180.19948  -8082994.79346  22302499.091    22302499.4644   22302503.8754
       182.0004        184.0004
  -2536824.46247  -1957464.81045  23476129.423    23476129.5434   23476131.5574
       154.0004        154.0004
 -10579844.05148  -8195721.21246  22480654.323    22480654.4934   22480661.1604
       183.0004        183.0004
 -20473516.02849 -15939029.10847  20841348.407    20841349.1494   20841356.9704
       199.0004        199.0004
 21  2  6  2  0 30.0000000  0 11G07G08G14G30G19G21G04G17G28G09G01
 -22967698.96249 -17883400.84147  20437322.206    20437322.8244   20437327.2004
       211.0004        212.0004
  -6080332.75448  -4712058.82246  23663235.011    23663234.3584   23663243.6794
       182.0004        182.0004
  -4580641.14748  -3559836.61046  22990818.205    22990818.6944   22990823.0904
       166.0004        169.0004
 -15248056.11249 -11856416.28447  21644516.827    21644516.2364   21644524.6214
       196.0004        196.0004
  -3182219.70247  -2450378.11445  24436369.154    24436369.0484   24436374.2464
       149.0004        152.0004
  -9749263.25348  -7580531.70746  22260322.805    22260322.7654   22260327.8924
       179.0004        179.0004
   -326677.11347   -241575.60445  24441280.354    24441280.7404   24441288.2324
       137.0004        141.0004
 -10448874.78448  -8124055.49346  22292471.431    22292471.4784   22292476.4514
       183.0004        184.0004
  -2554147.10547  -1970962.97845  23472831.104    23472830.4024   23472836.8084
       150.0004        150.0004
 -10502951.03448  -8135804.59446  22495286.912    22495286.7654   22495293.7744
       183.0004        184.0004
 -20496188.27849 -15956695.79347  20837033.911    20837034.6544   20837042.3234
       198.0004        198.0004
 21  2  6  2  1  0.0000000  0 11G07G08G14G30G19G21G04G17G28G09G01
 -23003669.79549 -17911430.07148  20430477.729    20430478.3584   20430482.1374
       211.0004        213.0004
  -5985801.91148  -4638398.43046  23681223.562    23681223.4854   23681231.7934
       182.0004        184.0004
  -4608677.40248  -3581683.01946  22985483.500    22985483.3594   22985488.5454
       168.0004        169.0004
 -15324524.48649 -11916002.01847  21629966.152    21629966.0084   21629972.4434
       196.0004        198.0004
  -3268316.69447  -2517466.62745  24419986.279    24419985.7534   24419989.1344
       150.0004        154.0004
  -9698965.74748  -7541338.83346  22269894.139    22269893.2814   22269899.8834
       178.0004        178.0004
   -231821.71347   -167662.35745  24459331.025    24459331.3654   24459337.7254
       137.0004        141.0004
 -10501158.14648  -8164795.73946  22282521.531    22282521.9184   22282526.9784
       183.0004        183.0004
  -2571547.62047  -1984521.85445  23469517.894    23469517.9904   23469525.6954
       148.0004        150.0004
 -10425927.25248  -8075786.07946  22509943.425    22509943.7014   22509950.6224
       183.0004        183.0004
 -20518304.91749 -15973929.52647  20832825.510    20832826.4444   20832833.9544
       198.0004        198.0004
 21  2  6  2  1 30.0000000  0 11G07G08G14G30G19G21G04G17G28G09G01
 -23039184.14449 -17939103.60747  20423719.384    20423719.9944   20423724.1884
       212.0004        212.0004
  -5891309.75248  -4564768.20746  23699206.072    23699204.4194   23699213.2954
       182.0004        182.0004
  -4636775.47948  -3603577.63146  22980136.784    22980136.9764   22980140.7334
       167.0004        168.0004
 -15400751.61449 -11975399.79947  21615460.869    21615460.7414   21615466.8134
       197.0004        197.0004
  -3354171.85447  -2584366.73545  24403648.099    24403647.1574   24403650.9094
       150.0004        152.0004
  -9648208.85048  -7501787.99846  22279552.702    22279552.9084   22279559.0204
       178.0004        179.0004
   -137094.84647    -93849.26845  24477358.048    24477358.1444   24477365.3674
       137.0004        142.0004
 -10553031.51548  -8205216.55546  22272651.612    22272651.2854   22272656.0544
       184.0004        184.0004
  -2589028.81247  -1998143.56545  23466195.686    23466195.6904   23466199.7634
       150.0004        155.0004
 -10348777.26348  -8015669.21046  22524623.998    22524624.3794   22524631.3414
       183.0004        183.0004
 -20539865.70149 -15990730.13747  20828722.895    20828723.1324   20828731.1564
       198.0004        199.0004
 21  2  6  2  2  0.0000000  0 11G07G08G14G30G19G21G04G17G28G09G01
 -23074239.93149 -17966419.81148  20417048.797    20417049.2104   20417053.0784
       212.0004        213.0004
  -5796858.33248  -4491169.72446  23717175.515    23717176.9004   23717186.1894
       181.0004        181.0004
  -4664935.99248  -3625520.88746  22974777.160    22974778.4024   22974782.6234
       168.0004        170.0004
 -15476734.78749 -12034607.45347  21601001.449    21601000.7904   21601007.8054
       196.0004        195.0004
  -3439783.50247  -2651077.06845  24387356.692    24387356.4984   24387359.6004
       149.0004        152.0004
  -9596993.87048  -7461880.20446  22289299.348    22289298.4354   22289303.7454
       178.0004        179.0004
    -42498.57047    -20137.94445  24495357.395    24495358.3744   24495365.6814
       137.0004        141.0004
 -10604494.47448  -8245317.53446  22262857.219    22262858.3634   22262862.7304
       184.0004        184.0004
  -2606591.65747  -2011828.86145  23462854.382    23462854.3164   23462856.6604
       153.0004        156.0004
 -10271503.93948  -7955456.24446  22539329.354    22539329.4244   22539336.6224
       183.0004        184.0004
 -20560868.77249 -16007096.15647  20824725.283    20824726.2874   20824734.3894
       198.0004        199.0004
 21  2  6  2  2 30.0000000  0 11G07G08G14G30G19G21G04G17G28G09G01
 -23108832.89249 -17993375.37947  20410465.763    20410466.3044   20410470.0924
       212.0004        212.0004
  -5702447.90648  -4417603.16446  23735139.543    23735141.6084   23735151.8214
       179.0004        179.0004
  -4693157.64948  -3647511.78946  22969406.819    22969407.0914   22969412.8024
       170.0004        172.0004
 -15552469.50749 -12093621.51347  21586588.589    21586589.0404   21586596.2504
       196.0004        196.0004
  -3525148.67247  -2717595.30345  24371112.072    24371111.5794   24371116.0254
       152.0004        156.0004
  -9545320.45948  -7421615.20846  22299131.265    22299131.8144   22299137.0804
       178.0004        177.0004
     51966.46547     53471.09445  24513334.540    24513334.7534   24513341.5364
       137.0004        143.0004
 -10655544.98948  -8285097.14546  22253143.225    22253144.0784   22253148.5234
       185.0004        186.0004
  -2624235.26347  -2025577.13445  23459495.241    23459494.9544   23459499.3684
       154.0004        156.0004
 -10194108.55848  -7895148.15946  22554057.429    22554057.5784   22554065.2494
       184.0004        184.0004
 -20581310.60749 -16023024.86347  20820835.568    20820836.4804   20820844.1434
       198.0004        198.0004
 21  2  6  2  3  0.0000000  0 11G07G08G14G30G19G21G04G17G28G09G01
 -23142960.59349 -18019968.40048  20403971.637    20403972.4134   20403976.1984
       212.0004        213.0004
  -5608080.28448  -4344069.94946  23753098.438    23753099.9334   23753109.0984
       179.0004        179.0004
  -4721440.97648  -3669550.74846  22964025.298    22964025.7764   22964029.4954
       170.0004        170.0004
 -15627953.01149 -12152439.83347  21572225.184    21572225.3524   21572231.7654
       197.0004        197.0004
  -3610266.04847  -2783920.47545  24354914.834    24354913.5864   24354918.6954
       152.0004        155.0004
  -9493189.97248  -7380994.04646  22309052.461    22309052.1424   22309057.7184
       178.0004        178.0004
    146298.05947    126976.18845  24531283.147    24531284.4064   24531290.0014
       137.0004        141.0004
 -10706182.89448  -8324555.23546  22243507.543    22243507.9874   22243512.1584
       186.0004        187.0004
  -2641960.78947  -2039389.22345  23456119.410    23456118.4904   23456125.3914
       152.0004        153.0004
 -10116594.00848  -7834747.23246  22568808.394    22568808.6904   22568814.9864
       183.0004        183.0004
 -20601189.50749 -16038514.90347  20817052.434    20817053.5494   20817061.1784
       198.0004        198.0004
 21  2  6  2  3 30.0000000  0 11G07G08G14G30G19G21G04G17G28G09G01
 -23176621.19149 -18046197.44948  20397566.526    20397566.8824   20397570.7764
       212.0004        213.0004
  -5513758.29648  -4270572.33546  23771050.595    23771049.4814   23771058.3384
       179.0004        180.0004
  -4749786.94948  -3691638.50346  22958631.452    22958631.9724   22958636.3694
       170.0004        171.0004
 -15703183.01149 -12211060.60947  21557909.829    21557909.6144   21557916.1514
       197.0004        197.0004
  -3695134.57547  -2850051.76045  24338765.100    24338764.5884   24338768.6664
       151.0004        155.0004
  -9440603.68048  -7340017.70546  22319059.387    22319059.2044   22319064.3814
       178.0004        178.0004
    240493.66347    200375.27445  24549208.945    24549210.4104   24549217.5764
       137.0004        143.0004
 -10756408.12948  -8363691.76146  22233948.782    22233949.4204   22233954.6404
       185.0004        185.0004
  -2659769.84947  -2053266.41845  23452731.666    23452731.9034   23452735.9754
       149.0004        152.0004
 -10038963.67748  -7774256.07046  22583578.705    22583579.5384   22583587.1484
       181.0004        180.0004
 -20620504.15249 -16053565.26547  20813377.399    20813378.0094   20813386.0184
       198.0004        198.0004
 21  2  6  2  4  0.0000000  0 11G07G08G14G30G19G21G04G17G28G09G01
 -23209813.02349 -18072061.22448  20391249.848    20391250.3414   20391254.4024
       212.0004        213.0004
  -5419484.21048  -4197112.03646  23788988.631    23788989.3744   23788997.0414
       177.0004        178.0004
  -4778196.67648  -3713775.95246  22953224.597    22953224.2194   22953229.4554
       169.0004        168.0004
 -15778157.43349 -12269482.24347  21543642.094    21543642.5094   21543649.2464
       198.0004        199.0004
  -3779753.39947  -2915988.46145  24322662.383    24322661.5584   24322665.7014
       152.0004        155.0004
  -9387563.93348  -7298688.03546  22329152.878    22329151.7604   22329156.7464
       177.0004        177.0004
    334550.37847    273666.11345  24567107.431    24567109.1364   24567115.6144
       137.0004        142.0004
 -10806221.21048  -8402507.13646  22224470.298    22224470.4024   22224475.9134
       185.0004        185.0004
  -2677664.28447  -2067210.12545  23449328.398    23449328.5284   23449331.1514
       150.0004        154.0004
  -9961221.14648  -7713677.49846  22598374.075    22598374.4944   22598381.6124
       180.0004        181.0004
 -20639253.51449 -16068175.16047  20809808.665    20809810.1074   20809817.6464
       198.0004        199.0004
 21  2  6  2  4 30.0000000  0 11G07G08G14G30G19G21G04G17G28G09G01
 -23242535.06749 -18097558.92948  20385023.552    20385024.0294   20385027.6134
       212.0004        213.0004
  -5325260.41348  -4123690.89746  23806917.726    23806918.8364   23806929.7104
       178.0004        179.0004
  -4806671.30548  -3735963.98446  22947806.211    22947806.6894   22947810.4014
       169.0004        169.0004
 -15852874.19849 -12327703.08747  21529424.617    21529424.2324   21529431.6204
       198.0004        199.0004
  -3864121.61247  -2981729.85845  24306606.581    24306605.7304   24306612.3994
       153.0004        155.0004
  -9334072.05548  -7257006.04746  22339331.370    22339331.6824   22339336.2434
       178.0004        179.0004
    428465.34947    346846.55945  24584978.362    24584979.5704   24584987.0604
       138.0004        144.0004
 -10855621.72248  -8441001.02146  22215069.973    22215070.2714   22215074.2214
       184.0004        184.0004
  -2695644.98747  -2081221.05445  23445906.206    23445907.2954   23445910.6264
       153.0004        156.0004
  -9883370.02048  -7653014.29746  22613189.158    22613189.7784   22613196.0714
       182.0004        184.0004
 -20657436.58549 -16082343.78047  20806349.487    20806350.2224   20806358.3894
       199.0004        200.0004
 21  2  6  2  5  0.0000000  0 11G07G08G14G30G19G21G04G17G28G09G01
 -23274783.27749 -18122687.42948  20378886.745    20378887.2534   20378891.0614
       212.0004        213.0004
  -5231088.22548  -4050309.99546  23824838.754    23824840.3504   23824849.1084
       178.0004        178.0004
  -4835210.20648  -3758202.11046  22942375.584    22942375.8624   22942380.6284
       169.0004        169.0004
 -15927329.41049 -12385720.14747  21515255.942    21515256.1504   21515262.6544
       199.0004        199.0004
  -3948237.04747  -3047274.30945  24290600.379    24290599.9404   24290603.8554
       152.0004        154.0004
  -9280128.64248  -7214972.20646  22349596.438    22349596.5134   22349602.0924
       177.0004        177.0004
    522237.54147    419915.73745  24602824.975    24602825.2274   24602830.2934
       139.0004        143.0004
 -10904609.60548  -8479173.37546  22205747.906    22205748.1024   22205753.0064
       185.0004        187.0004
  -2713712.30747  -2095299.47445  23442468.136    23442467.3184   23442472.9514
       154.0004        157.0004
  -9805412.08348  -7592267.87546  22628023.680    22628024.2864   22628030.7804
       183.0004        183.0004
 -20675050.62549 -16096068.99847  20802997.883    20802998.2554   20803006.1584
       199.0004        199.0004
 21  2  6  2  5 30.0000000  0 11G07G08G14G30G19G21G04G17G28G09G01
 -23306556.05349 -18147445.44048  20372840.732    20372841.0664   20372845.2504
       212.0004        213.0004
  -5136970.09748  -3976971.23046  23842750.540    23842750.5444   23842758.5444
       176.0004        175.0004
  -4863814.29448  -3780490.97346  22936932.840    22936933.7904   22936937.3844
       170.0004        171.0004
 -16001520.76349 -12443531.58547  21501137.778    21501137.7844   21501144.7594
       199.0004        200.0004
  -4032098.51147  -3112620.84845  24274642.703    24274641.8034   24274645.6354
       150.0004        152.0004
  -9225735.56148  -7172587.97346  22359947.507    22359946.5264   22359952.2684
       177.0004        177.0004
    615864.33747    492871.62845  24620641.557    24620642.2734   24620648.0404
       139.0004        143.0004
 -10953184.60248  -8517024.00846  22196503.768    22196504.1304   22196509.0964
       186.0004        186.0004
  -2731867.41047  -2109446.30545  23439013.441    23439012.6214   23439017.3244
       155.0004        157.0004
  -9727350.71148  -7531440.82646  22642877.864    22642878.4674   22642884.6484
       181.0004        181.0004
 -20692094.43049 -16109349.87447  20799754.381    20799755.0354   20799762.8104
       199.0004        199.0004
 21  2  6  2  6  0.0000000  0 11G07G08G14G30G19G21G04G17G28G09G01
 -23337851.78149 -18171831.73548  20366884.927    20366885.6944   20366889.6364
       212.0004        213.0004
  -5042907.98948  -3903676.11146  23860651.412    23860651.4134   23860658.5204
       177.0004        178.0004
  -4892484.42348  -3802831.34246  22931475.885    22931477.6744   22931482.3764
       170.0004        171.0004
 -16075445.96749 -12501135.64147  21487070.233    21487070.4784   21487077.3634
       200.0004        200.0004
  -4115705.25047  -3177768.90345  24258732.820    24258732.3324   24258736.8724
       149.0004        152.0004
  -9170894.68048  -7129854.81546  22370382.489    22370382.0114   22370388.1884
       177.0004        176.0004
    709343.12847    565712.14945  24638429.201    24638430.0674   24638436.0774
       137.0004        142.0004
 -11001346.93048  -8554553.09146  22187340.156    22187340.1014   22187344.6634
       186.0004        187.0004
  -2750111.85847  -2123662.75445  23435542.496    23435541.5254   23435544.3864
       155.0004        157.0004
  -9649189.25648  -7470535.81346  22657752.848    22657752.5824   22657759.6894
       181.0004        182.0004
 -20708566.83249 -16122185.50847  20796619.273    20796620.3504   20796628.4934
       198.0004        198.0004
 21  2  6  2  6 30.0000000  0 11G07G08G14G30G19G21G04G17G28G09G01
 -23368667.67549 -18195844.12248  20361020.719    20361021.2064   20361025.4584
       212.0004        213.0004
  -4948903.42748  -3830425.82046  23878538.542    23878539.1014   23878547.1674
       176.0004        177.0004
  -4921220.50548  -3825223.08646  22926008.336    22926008.1044   22926012.5614
       170.0004        170.0004
 -16149101.71149 -12558529.71647  21473053.948    21473054.0674   21473060.8154
       200.0004        200.0004
  -4199055.50747  -3242717.10645  24242871.131    24242870.5824   24242874.4034
       147.0004        149.0004
  -9115606.21548  -7086772.88246  22380902.679    22380902.8924   22380908.8714
       176.0004        175.0004
    802672.35347    638436.13945  24656189.291    24656190.2874   24656195.5354
       137.0004        142.0004
 -11049095.68748  -8591759.90346  22178252.718    22178253.4334   22178258.0114
       186.0004        186.0004
  -2768446.09047  -2137949.16845  23432051.952    23432052.6254   23432057.0954
       155.0004        157.0004
  -9570930.07148  -7409554.63546  22672643.244    22672643.5614   22672651.2064
       182.0004        183.0004
 -20724465.70849 -16134574.22947  20793594.823    20793595.3584   20793603.1904
       199.0004        199.0004
 21  2  6  2  7  0.0000000  0 11G07G08G14G30G19G21G04G17G28G09G01
 -23399000.91949 -18219480.45948  20355248.972    20355249.4944   20355253.4354
       212.0004        214.0004
  -4854957.74448  -3757221.44746  23896417.076    23896416.6914   23896423.4224
       178.0004        179.0004
  -4950022.37648  -3847666.10546  22920527.096    22920528.1194   22920532.5694
       168.0004        168.0004
 -16222484.60449 -12615711.20447  21459090.387    21459090.2664   21459096.5774
       200.0004        201.0004
  -4282147.19147  -3307463.81445  24227059.765    24227059.5674   24227062.6734
       147.0004        151.0004
  -9059871.58448  -7043343.29746  22391510.670    22391509.8914   22391515.4924
       176.0004        178.0004
    895850.52747    711042.45445  24673921.321    24673920.4274   24673926.3034
       137.0004        141.0004
 -11096430.12948  -8628643.87446  22169244.974    22169245.6344   22169250.3524
       186.0004        187.0004
  -2786870.63147  -2152305.94545  23428546.639    23428545.9324   23428550.8004
       156.0004        158.0004
  -9492575.43048  -7348499.07746  22687553.844    22687554.6274   22687562.3444
       182.0004        183.0004
 -20739789.10649 -16146514.54047  20790678.262    20790679.1914   20790686.8844
       199.0004        199.0004
 21  2  6  2  7 30.0000000  0 11G07G08G14G30G19G21G04G17G28G09G01
 -23428850.42249 -18242739.82048  20349568.760    20349569.0844   20349573.1514
       213.0004        214.0004
  -4761073.89448  -3684065.19346  23914280.161    23914281.6954   23914290.4164
       180.0004        181.0004
  -4978891.49148  -3870161.52046  22915033.123    22915032.8234   22915038.1104
       167.0004        168.0004
 -16295593.03849 -12672678.81347  21445177.694    21445177.9394   21445184.9124
       201.0004        202.0004
  -4364979.70947  -3372008.60745  24211297.313    24211296.2904   24211300.4584
       149.0004        153.0004
  -9003692.79148  -6999567.60446  22402200.724    22402200.1344   22402204.1374
       176.0004        176.0004
    988874.36447    783528.49345  24691621.497    24691621.2844   24691629.0074
       137.0004        143.0004
 -11143351.18248  -8665205.72447  22160316.855    22160317.5514   22160322.0524
       187.0004        188.0004
  -2805387.21847  -2166734.46845  23425024.000    23425023.5284   23425026.4104
       156.0004        158.0004
  -9414129.33048  -7287372.26246  22702482.567    22702482.7824   22702489.9624
       181.0004        181.0004
 -20754536.22949 -16158005.80347  20787872.337    20787872.6544   20787880.5304
       199.0004        200.0004
 21  2  6  2  8  0.0000000  0 11G07G08G14G30G19G21G04G17G28G09G01
 -23458213.12149 -18265619.85948  20343981.084    20343981.4484   20343985.4834
       213.0004        213.0004
  -4667252.68048  -3610957.79046  23932133.499    23932134.4814   23932142.1624
       177.0004        176.0004
  -5007827.27448  -3892708.89046  22909528.037    22909528.1254   22909532.6164
       168.0004        170.0004
 -16368423.17749 -12729429.57147  21431318.703    21431318.3374   21431325.7304
       201.0004        201.0004
  -4447550.94247  -3436349.79145  24195584.228    24195583.5234   24195587.6004
       153.0004        156.0004
  -8947071.31148  -6955446.96046  22412974.674    22412974.7974   22412980.4434
       175.0004        176.0004
   1081742.84947    855893.44345  24709295.410    24709294.6704   24709300.7724
       139.0004        144.0004
 -11189857.72348  -8701444.57147  22151466.854    22151467.5374   22151471.8774
       188.0004        189.0004
  -2823995.78047  -2181234.63045  23421481.653    23421481.3864   23421484.8114
       156.0004        157.0004
  -9335593.64448  -7226175.64346  22717427.706    22717427.8044   22717434.3784
       180.0004        180.0004
 -20768704.75749 -16169046.19947  20785175.929    20785176.7454   20785184.6784
       199.0004        199.0004
 21  2  6  2  8 30.0000000  0 11G07G08G14G30G19G21G04G17G28G09G01
 -23487087.10349 -18288119.06848  20338486.762    20338487.1934   20338491.2084
       213.0004        214.0004
  -4573496.50348  -3537901.01546  23949976.481    23949976.4454   23949984.5084
       178.0004        179.0004
  -5036830.57048  -3915308.83646  22904007.237    22904008.2654   22904014.3524
       170.0004        169.0004
 -16440972.76649 -12785961.70847  21417511.922    21417512.4424   21417519.3674
       201.0004        200.0004
  -4529860.03447  -3500486.67445  24179921.280    24179920.0844   24179923.8514
       154.0004        156.0004
  -8890007.76748  -6910981.86246  22423834.037    22423834.1404   22423838.7974
       175.0004        176.0004
   1174453.46647    928135.39345  24726936.485    24726936.6764   24726942.4674
       137.0004        142.0004
 -11235949.92048  -8737360.54747  22142695.985    22142695.7574   22142700.5774
       188.0004        188.0004
  -2842697.73647  -2195807.55745  23417923.592    23417923.0734   23417928.3224
       155.0004        158.0004
  -9256971.72948  -7164911.80246  22732388.189    22732388.9714   22732395.9714
       179.0004        179.0004
 -20782293.65449 -16179634.94347  20782589.924    20782590.4394   20782598.4184
       199.0004        199.0004
 21  2  6  2  9  0.0000000  0 10G07G08G14G30G19G21G17G28G09G01
 -23515469.29549 -18310235.07248  20333085.594    20333086.1834   20333090.2424
       213.0004        214.0004
  -4479806.07648  -3464895.52246  23967803.521    23967805.1774   23967812.8144
       178.0004        179.0004
  -5065900.77148  -3937960.93946  22898476.264    22898476.6084   22898481.5174
       168.0004        168.0004
 -16513237.98849 -12842272.28247  21403761.330    21403761.4644   21403768.1574
       201.0004        201.0004
  -4611904.75147  -3564417.55345  24164307.126    24164307.1924   24164312.2974
       153.0004        155.0004
  -8832502.77448  -6866172.75646  22434777.537    22434776.5154   22434781.1864
       175.0004        174.0004
 -11281626.52148  -8772952.70647  22134004.015    22134003.8724   22134008.6654
       188.0004        188.0004
  -2861492.96047  -2210453.18445  23414347.013    23414346.2044   23414349.9724
       156.0004        159.0004
  -9178265.40948  -7103582.20946  22747364.575    22747365.8044   22747372.9124
       178.0004        178.0004
 -20795300.47849 -16189770.12047  20780115.001    20780115.6484   20780123.2934
       199.0004        199.0004
 21  2  6  2  9 30.0000000  0 10G07G08G14G30G19G21G17G28G09G01
 -23543358.22349 -18331966.70448  20327778.636    20327779.3414   20327783.1324
       213.0004        215.0004
  -4386183.99448  -3391943.25946  23985620.376    23985620.5254   23985628.7644
       176.0004        176.0004
  -5095038.80548  -3960665.92246  22892931.377    22892932.1254   22892936.6694
       168.0004        169.0004
 -16585216.70949 -12898359.60247  21390063.928    21390063.6344   21390071.2964
       201.0004        201.0004
  -4693684.42247  -3628141.94545  24148746.381    24148744.8234   24148750.8614
       153.0004        156.0004
  -8774558.78948  -6821021.59646  22445803.264    22445802.3494   22445806.6134
       174.0004        174.0004
 -11326888.53748  -8808221.80547  22125390.574    22125391.0584   22125394.8384
       187.0004        188.0004
  -2880382.80647  -2225172.54945  23410752.481    23410751.2994   23410756.1694
       157.0004        158.0004
  -9099478.15348  -7042189.56646  22762357.881    22762358.2204   22762365.5174
       177.0004        177.0004
 -20807724.42349 -16199451.11247  20777750.607    20777751.0414   20777759.3584
       199.0004        199.0004
 21  2  6  2 10  0.0000000  0 10G07G08G14G30G19G21G17G28G09G01
 -23570752.84449 -18353313.17248  20322565.005    20322565.8934   20322570.1214
       213.0004        215.0004
  -4292633.13948  -3319046.53446  24003426.291    24003424.7824   24003430.8714
       176.0004        177.0004
  -5124246.10748  -3983424.86746  22887373.648    22887373.9684   22887378.0814
       168.0004        169.0004
 -16656907.24749 -12954222.36447  21376421.484    21376421.6104   21376428.8524
       201.0004        201.0004
  -4775198.60647  -3691659.46745  24133233.359    24133233.6234   24133238.7494
       151.0004        152.0004
  -8716178.25848  -6775530.27446  22456912.217    22456912.3564   22456916.5794
       174.0004        175.0004
 -11371736.80748  -8843168.49247  22116857.383    22116857.4914   22116861.1794
       188.0004        188.0004
  -2899369.35747  -2239967.24845  23407138.914    23407137.3444   23407143.1224
       156.0004        158.0004
  -9020613.92048  -6980736.92746  22777365.683    22777366.6644   22777373.0254
       177.0004        179.0004
 -20819565.15649 -16208677.64947  20775497.853    20775498.2644   20775505.6494
       199.0004        199.0004
 21  2  6  2 10 30.0000000  0 10G07G08G14G30G19G21G17G28G09G01
 -23597653.01149 -18374274.35148  20317446.583    20317446.9314   20317451.2374
       213.0004        215.0004
  -4199156.91048  -3246207.91646  24021211.270    24021211.0444   24021218.6404
       176.0004        175.0004
  -5153524.74748  -4006239.38246  22881802.152    22881802.0774   22881806.7384
       169.0004        170.0004
 -16728308.59749 -13009859.77847  21362834.816    21362834.5974   21362841.4854
       201.0004        202.0004
  -4856447.56147  -3754970.29545  24117775.063    24117774.0444   24117777.5974
       154.0004        158.0004
  -8657364.22148  -6729701.13646  22468105.499    22468104.8914   22468109.4304
       174.0004        175.0004
 -11416172.90048  -8877794.01147  22108400.300    22108400.8234   22108405.7894
       188.0004        189.0004
  -2918455.02047  -2254839.18245  23403506.276    23403506.3474   23403510.4934
       156.0004        158.0004
  -8941677.22248  -6919227.81946  22792386.417    22792387.1354   22792394.2034
       177.0004        178.0004
 -20830823.02149 -16217450.01047  20773354.971    20773355.6864   20773363.7704
       199.0004        199.0004
 21  2  6  2 11  0.0000000  0 10G07G08G14G30G19G21G17G28G09G01
 -23624054.22249 -18394846.73348  20312422.830    20312423.3384   20312427.1974
       214.0004        215.0004
  -4105754.53248  -3173426.83946  24038984.393    24038984.6934   24038993.3694
       174.0004        175.0004
  -5182872.96448  -4029108.13146  22876216.484    22876217.3674   22876222.2304
       169.0004        169.0004
 -16799415.82549 -13065268.00847  21349302.923    21349303.0334   21349310.0054
       201.0004        201.0004
  -4937428.24947  -3818072.09645  24102363.480    24102362.8514   24102367.0264
       154.0004        156.0004
  -8598116.17748  -6683533.82146  22479379.040    22479379.3904   22479383.1804
       174.0004        174.0004
 -11460194.51048  -8912096.55846  22100022.875    22100023.8444   22100028.0764
       188.0004        187.0004
  -2937638.72247  -2269787.52345  23399856.111    23399855.6834   23399860.5944
       155.0004        157.0004
  -8862668.87048  -6857662.88446  22807422.512    22807422.0464   22807429.2564
       178.0004        179.0004
 -20841494.57949 -16225765.50047  20771324.483    20771325.3734   20771333.4584
       200.0004        201.0004
 21  2  6  2 11 30.0000000  0 10G07G08G14G30G19G21G17G28G09G01
 -23649953.92049 -18415028.31548  20307494.377    20307494.5584   20307498.8944
       214.0004        215.0004
  -4012428.20048  -3100705.03046  24056741.359    24056742.8294   24056753.0434
       176.0004        177.0004
  -5212290.54648  -4052030.93446  22870619.927    22870619.9124   22870624.9624
       169.0004        171.0004
 -16870225.66149 -13120444.50247  21335828.307    21335828.4054   21335835.3044
       201.0004        202.0004
  -5018139.01947  -3880963.51345  24087003.410    24087003.3614   24087008.1234
       153.0004        155.0004
  -8538434.71248  -6637028.76246  22490736.298    22490735.7294   22490739.9264
       174.0004        175.0004
 -11503801.57148  -8946076.06847  22091725.466    22091725.7494   22091729.9774
       188.0004        188.0004
  -2956920.85247  -2284812.53945  23396187.290    23396186.1294   23396190.5584
       155.0004        158.0004
  -8783591.16348  -6796043.88946  22822468.766    22822469.2554   22822477.4274
       177.0004        176.0004
 -20851578.01449 -16233622.69347  20769406.658    20769406.6624   20769414.4484
       200.0004        200.0004
 21  2  6  2 12  0.0000000  0 10G07G08G14G30G19G21G17G28G09G01
 -23675350.60249 -18434817.96048  20302661.057    20302661.7684   20302665.7014
       214.0004        215.0004
  -3919179.27748  -3028043.57346  24074484.673    24074487.0384   24074496.8764
       173.0004        173.0004
  -5241778.03148  -4075008.20946  22865007.553    22865008.2534   22865012.5194
       170.0004        169.0004
 -16940735.58949 -13175387.31047  21322410.907    21322411.1174   21322418.0654
       202.0004        203.0004
  -5098578.66947  -3943643.72445  24071697.551    24071697.5264   24071702.2224
       155.0004        158.0004
  -8478322.01048  -6590187.70946  22502175.319    22502174.5824   22502178.7514
       173.0004        174.0004
 -11546994.19748  -8979732.65747  22083506.215    22083506.5454   22083511.1214
       188.0004        189.0004
  -2976302.33547  -2299914.99045  23392498.642    23392498.7444   23392503.1714
       157.0004        160.0004
  -8704447.23748  -6734373.30846  22837530.646    22837530.8854   22837537.4274
       176.0004        177.0004
 -20861072.26849 -16241020.81447  20767599.225    20767599.6214   20767607.6614
       200.0004        200.0004
 21  2  6  2 12 30.0000000  0 10G07G08G14G30G19G21G17G28G09G01
 -23700241.94249 -18454213.81748  20297924.457    20297925.1144   20297929.1994
       214.0004        215.0004
  -3826009.94248  -2955444.09246  24092217.272    24092217.4524   24092226.5414
       173.0004        173.0004
  -5271335.55948  -4098040.03246  22859383.339    22859383.1574   22859387.9474
       168.0004        169.0004
 -17010942.66849 -13230094.12747  21309051.629    21309051.1884   21309057.2994
       202.0004        201.0004
  -5178745.80447  -4006111.57645  24056442.421    24056441.8224   24056446.0724
       157.0004        159.0004
  -8417779.77648  -6543011.93346  22513696.766    22513696.4314   22513699.4134
       174.0004        174.0004
 -11589772.12448  -9013066.09347  22075365.069    22075365.3194   22075370.0984
       188.0004        188.0004
  -2995783.90047  -2315095.44445  23388791.271    23388791.1104   23388795.9504
       156.0004        156.0004
  -8625239.64348  -6672653.11746  22852602.990    22852603.2104   22852609.8464
       175.0004        175.0004
 -20869975.94549 -16247958.73747  20765905.146    20765905.5094   20765913.2894
       200.0004        200.0004
 21  2  6  2 13  0.0000000  0 10G07G08G14G30G19G21G17G28G09G01
 -23724627.18549 -18473215.31648  20293284.261    20293284.5704   20293289.1004
       214.0004        216.0004
  -3732922.58348  -2882908.50346  24109932.172    24109931.2044   24109941.0234
       173.0004        174.0004
  -5300964.75948  -4121127.73346  22853745.506    22853746.0834   22853750.9594
       168.0004        170.0004
 -17080845.47249 -13284563.85747  21295748.807    21295749.0944   21295755.9384
       202.0004        202.0004
  -5258640.40847  -4068367.09945  24041239.292    24041238.2964   24041240.5254
       154.0004        155.0004
  -8356810.49748  -6495503.38346  22525298.357    22525298.2664   22525301.4584
       174.0004        174.0004
 -11632136.73748  -9046077.47147  22067303.963    22067303.8684   22067308.3224
       188.0004        189.0004
  -3015367.63947  -2330355.46245  23385064.125    23385064.3404   23385068.3164
       153.0004        156.0004
  -8545972.61348  -6610886.60746  22867686.199    22867686.4244   22867694.0044
       175.0004        175.0004
 -20878289.11049 -16254436.51847  20764323.136    20764323.7424   20764330.6644
       200.0004        199.0004
 21  2  6  2 13 30.0000000  0 10G07G08G14G30G19G21G17G28G09G01
 -23748504.50349 -18491821.02848  20288740.954    20288741.4164   20288745.1744
       214.0004        215.0004
  -3639918.89948  -2810438.13946  24127631.830    24127630.9054   24127638.6764
       174.0004        177.0004
  -5330665.74648  -4144271.33146  22848092.204    22848092.9374   22848098.9054
       169.0004        169.0004
 -17150441.12849 -13338794.23247  21282505.782    21282505.0024   21282512.5724
       202.0004        203.0004
  -5338261.23047  -4130409.26645  24026087.882    24026086.8464   24026089.0394
       154.0004        156.0004
  -8295415.43248  -6447663.06446  22536981.191    22536981.0134   22536983.9084
       173.0004        174.0004
 -11674087.65448  -9078766.48647  22059320.757    22059320.7494   22059325.6844
       189.0004        190.0004
  -3035054.16147  -2345695.62145  23381317.890    23381318.3574   23381324.1254
       156.0004        159.0004
  -8466648.78448  -6549075.83746  22882781.459    22882781.1824   22882789.5434
       174.0004        175.0004
 -20886010.41549 -16260453.10647  20762853.652    20762854.0474   20762861.5034
       199.0004        199.0004
 21  2  6  2 14  0.0000000  0 10G07G08G14G30G19G21G17G28G09G01
 -23771871.88849 -18510029.38748  20284294.090    20284294.2744   20284298.6874
       214.0004        215.0004
  -3547000.73548  -2738034.41546  24145313.306    24145312.9924   24145320.6534
       175.0004        176.0004
  -5360438.96748  -4167471.24346  22842427.497    22842428.2254   22842432.3584
       169.0004        169.0004
 -17219727.01749 -13392783.24147  21269320.851    21269321.0144   21269327.5804
       202.0004        203.0004
  -5417607.04447  -4192237.11245  24010988.430    24010987.8214   24010989.8234
       153.0004        155.0004
  -8233596.67748  -6399492.59446  22548745.105    22548744.2294   22548748.6474
       173.0004        173.0004
 -11715625.45148  -9111133.58947  22051416.355    22051416.6324   22051421.2184
       189.0004        189.0004
  -3054844.38247  -2361116.58545  23377552.487    23377551.9254   23377556.7614
       156.0004        157.0004
  -8387271.10848  -6487223.12146  22897886.517    22897886.9784   22897895.1674
       174.0004        175.0004
 -20893138.89149 -16266007.76147  20761497.161    20761497.9044   20761505.2364
       199.0004        199.0004
 21  2  6  2 14 30.0000000  0 10G07G08G14G30G19G21G17G28G09G01
 -23794726.81449 -18527838.45248  20279944.602    20279945.2194   20279949.7534
       214.0004        216.0004
  -3454169.68348  -2665698.57246  24162976.360    24162977.6714   24162985.4624
       175.0004        176.0004
  -5390284.26348  -4190727.34146  22836749.039    22836748.6854   22836752.3444
       169.0004        169.0004
 -17288700.01649 -13446528.44147  21256195.413    21256195.9264   21256202.8754
       203.0004        203.0004
  -5496676.44947  -4253849.59045  23995940.159    23995939.4864   23995942.5304
       152.0004        154.0004
  -8171355.19448  -6350992.72746  22560589.670    22560589.4414   22560593.1534
       174.0004        175.0004
 -11756749.87148  -9143178.59247  22043591.504    22043591.7504   22043595.4674
       190.0004        190.0004
  -3074739.02747  -2376618.88645  23373766.380    23373765.9874   23373771.0614
       155.0004        158.0004
  -8307842.01348  -6425330.34446  22913002.389    22913002.6194   22913009.8254
       175.0004        176.0004
 -20899672.94049 -16271099.21747  20760253.799    20760254.0994   20760262.1704
       199.0004        200.0004
 21  2  6  2 15  0.0000000  0 10G07G08G14G30G19G21G17G28G09G01
 -23817067.21749 -18545246.55748  20275693.739    20275694.1444   20275698.3244
       214.0004        216.0004
  -3361426.86248  -2593431.47146  24180624.723    24180625.0964   24180634.8184
       175.0004        176.0004
  -5420201.40048  -4214039.37746  22831054.434    22831055.2814   22831060.0814
       168.0004        168.0004
 -17357356.83249 -13500027.24947  21243130.634    21243130.5584   21243137.8264
       202.0004        202.0004
  -5575467.73147  -4315245.38945  23980947.574    23980947.7394   23980950.5394
       154.0004        158.0004
  -8108692.47148  -6302164.62746  22572513.820    22572513.6934   22572517.2784
       175.0004        175.0004
 -11797460.33448  -9174901.00947  22035843.439    22035843.7474   22035848.9464
       190.0004        190.0004
  -3094738.04047  -2392202.55445  23369960.270    23369961.4754   23369964.6124
       155.0004        157.0004
  -8228363.76248  -6363399.22746  22928125.542    22928125.6504   22928133.6034
       174.0004        174.0004
 -20905610.97849 -16275726.23947  20759122.689    20759123.7794   20759131.6744
       199.0004        199.0004
 21  2  6  2 15 30.0000000  0 10G07G08G14G30G19G21G17G28G09G01
 -23838891.15649 -18562252.24248  20271540.769    20271541.1764   20271545.1754
       214.0004        216.0004
  -3268773.78148  -2521234.28846  24198256.811    24198256.7604   24198265.2814
       173.0004        173.0004
  -5450190.57548  -4237407.58546  22825349.049    22825350.0484   22825353.8664
       169.0004        171.0004
 -17425694.79349 -13553277.61947  21230125.788    21230125.8854   21230133.2484
       202.0004        203.0004
  -5653979.67147  -4376423.45945  23966008.328    23966006.4524   23966011.2844
       156.0004        158.0004
  -8045609.95548  -6253009.40646  22584518.266    22584517.3964   22584522.4394
       175.0004        175.0004
 -11837757.13548  -9206301.13747  22028175.539    22028176.0904   22028180.0404
       189.0004        190.0004
  -3114842.17447  -2407868.12045  23366135.698    23366135.8504   23366140.9964
       155.0004        159.0004
  -8148839.19148  -6301432.04146  22943258.552    22943259.4624   22943266.0054
       173.0004        173.0004
 -20910951.93349 -16279888.02747  20758106.905    20758107.6944   20758115.4714
       199.0004        199.0004
 21  2  6  2 16  0.0000000  0 10G07G08G14G30G19G21G17G28G09G01
 -23860197.76549 -18578854.79348  20267486.103    20267486.4524   20267490.5994
       215.0004        216.0004
  -3176213.60148  -2449109.51146  24215870.247    24215870.6394   24215879.3624
       173.0004        174.0004
  -5480253.23448  -4260833.02046  22819629.043    22819628.3734   22819633.0904
       170.0004        170.0004
 -17493712.28249 -13606278.26047  21217182.416    21217182.8204   21217190.1074
       203.0004        203.0004
  -5732212.24547  -4437383.85845  23951121.332    23951120.3434   23951122.6354
       155.0004        157.0004
  -7982110.05048  -6203528.96746  22596601.007    22596601.6374   22596605.0764
       175.0004        177.0004
 -11877641.46748  -9237379.82047  22020586.240    22020586.6184   22020590.6994
       190.0004        191.0004
  -3135053.53247  -2423617.23145  23362288.672    23362288.5784   23362292.8354
       155.0004        157.0004
  -8069272.26148  -6239431.82746  22958400.692    22958400.8154   22958407.1714
       175.0004        176.0004
 -20915695.93149 -16283584.64447  20757204.229    20757204.9004   20757212.9564
       199.0004        199.0004
 21  2  6  2 16 30.0000000  0 10G07G08G14G30G19G21G17G28G09G01
 -23880984.58649 -18595052.32048  20263530.321    20263530.9354   20263534.9114
       214.0004        216.0004
  -3083747.14948  -2377057.76946  24233465.829    24233466.4774   24233475.4214
       175.0004        176.0004
  -5510389.08048  -4284315.49046  22813891.390    22813892.6954   22813898.8274
       169.0004        168.0004
 -17561405.99449 -13659026.61147  21204302.184    21204301.6654   21204308.5364
       204.0004        204.0004
  -5810164.01147  -4498125.46445  23936286.040    23936284.9714   23936290.2264
       154.0004        156.0004
  -7918194.20048  -6153724.40046  22608764.312    22608764.3584   22608768.7144
       177.0004        178.0004
 -11917112.81348  -9268136.68847  22013074.724    22013075.2874   22013079.5354
       191.0004        190.0004
  -3155372.16647  -2439449.92745  23358422.903    23358422.6964   23358425.9214
       155.0004        158.0004
  -7989665.16748  -6177400.32846  22973549.569    22973549.9184   22973556.8884
       176.0004        177.0004
 -20919841.37549 -16286814.84747  20756415.947    20756416.2034   20756424.2234
       199.0004        200.0004
 21  2  6  2 17  0.0000000  0 10G07G08G14G30G19G21G17G28G09G01
 -23901249.85649 -18610843.44948  20259673.902    20259674.6364   20259678.6674
       215.0004        216.0004
  -2991375.96648  -2305080.24746  24251044.483    24251044.7064   24251052.5064
       174.0004        174.0004
  -5540598.06248  -4307854.95546  22808144.342    22808144.5504   22808149.1664
       168.0004        169.0004
 -17628773.09249 -13711520.45247  21191481.671    21191481.8894   21191488.6404
       203.0004        203.0004
  -5887833.39747  -4558647.03245  23921507.201    23921506.7924   23921510.0644
       156.0004        159.0004
  -7853864.05748  -6103596.99946  22621006.257    22621005.1404   22621010.4904
       176.0004        177.0004
 -11956171.62948  -9298572.11447  22005642.207    22005642.5064   22005646.6514
       190.0004        190.0004
  -3175798.41147  -2455366.47345  23354535.517    23354535.6234   23354539.0814
       155.0004        157.0004
  -7910020.54648  -6115339.59346  22988704.716    22988705.4564   22988712.5214
       176.0004        176.0004
 -20923387.12349 -16289577.75547  20755741.705    20755741.7994   20755749.4934
       200.0004        200.0004
 21  2  6  2 17 30.0000000  0 10G07G08G14G30G19G21G17G28G09G01
 -23920992.33549 -18626227.19648  20255917.651    20255917.7844   20255922.0484
       215.0004        216.0004
  -2899101.94148  -2233178.46246  24268604.520    24268603.9934   24268611.8714
       174.0004        175.0004
  -5570881.04948  -4331452.05046  22802380.341    22802380.5544   22802387.8854
       168.0004        169.0004
 -17695811.36649 -13763758.08747  21178724.461    21178725.0974   21178731.8884
       204.0004        204.0004
  -5965219.75947  -4618948.02445  23906780.471    23906780.5324   23906785.1844
       159.0004        162.0004
  -7789121.67448  -6053148.39146  22633325.201    22633325.1904   22633330.7374
       176.0004        177.0004
 -11994818.37848  -9328686.46547  21998288.461    21998288.6284   21998292.4384
       190.0004        190.0004
  -3196334.15347  -2471368.36045  23350628.997    23350627.7204   23350632.0694
       154.0004        157.0004
  -7830341.73948  -6053252.21146  23003867.089    23003867.2294   23003874.6494
       176.0004        177.0004
 -20926332.76349 -16291873.05547  20755179.352    20755180.9014   20755188.7824
       199.0004        200.0004
 21  2  6  2 18  0.0000000  0 10G07G08G14G30G19G21G17G28G09G01
 -23940209.60549 -18641201.70148  20252260.610    20252260.8274   20252265.3124
       215.0004        217.0004
  -2806926.45448  -2161353.44946  24286142.049    24286143.1934   24286152.3774
       172.0004        173.0004
  -5601237.48848  -4355106.39746  22796605.601    22796606.1024   22796610.3514
       169.0004        170.0004
 -17762517.53849 -13815736.91247  21166031.252    21166031.0464   21166038.1504
       204.0004        205.0004
  -6042321.48247  -4679027.26845  23892108.541    23892108.3214   23892111.4484
       159.0004        161.0004
  -7723968.44348  -6002379.63946  22645723.749    22645723.3454   22645729.3114
       177.0004        177.0004
 -12033052.83748  -9358479.53247  21991011.748    21991012.1464   21991017.3314
       190.0004        191.0004
  -3216979.15447  -2487455.37545  23346699.657    23346699.2974   23346703.2674
       154.0004        156.0004
  -7750630.89748  -5991139.86546  23019035.174    23019035.4764   23019043.7084
       175.0004        175.0004
 -20928676.75749 -16293699.52547  20754734.288    20754734.9674   20754742.9474
       200.0004        201.0004
 21  2  6  2 18 30.0000000  0 10G07G08G14G30G19G21G17G28G09G01
 -23958899.43449 -18655765.22648  20248703.946    20248704.4044   20248708.4954
       215.0004        217.0004
  -2714850.97148  -2089606.34046  24303664.452    24303665.3944   24303673.8084
       173.0004        173.0004
  -5631667.29248  -4378817.92846  22790814.410    22790814.9334   22790818.8484
       169.0004        170.0004
 -17828888.48749 -13867454.54947  21153401.148    21153401.1444   21153408.1854
       205.0004        205.0004
  -6119137.30047  -4738883.71346  23877492.435    23877491.6624   23877495.8104
       162.0004        164.0004
  -7658405.62048  -5951291.73646  22658199.178    22658198.9214   22658205.6694
       177.0004        177.0004
 -12070874.69048  -9387951.11747  21983814.869    21983814.7244   21983819.5334
       190.0004        189.0004
  -3237733.65147  -2503627.67945  23342748.459    23342748.7264   23342754.7654
       154.0004        156.0004
  -7670890.42048  -5929004.43346  23034210.774    23034210.6904   23034217.4364
       174.0004        174.0004
 -20930417.85349 -16295056.20947  20754402.473    20754403.3584   20754411.1874
       200.0004        200.0004
 21  2  6  2 19  0.0000000  0 10G07G08G14G30G19G21G17G28G09G01
 -23977061.29849 -18669917.33848  20245247.762    20245248.1844   20245252.5744
       215.0004        217.0004
  -2622877.44948  -2017938.68546  24321167.001    24321167.0154   24321175.9374
       171.0004        170.0004
  -5662171.53548  -4402587.47846  22785009.132    22785010.1534   22785014.4574
       168.0004        168.0004
 -17894922.46249 -13918909.59647  21140835.366    21140835.1204   21140842.0484
       205.0004        204.0004
  -6195666.90747  -4798517.12145  23862927.958    23862927.0404   23862931.6084
       161.0004        162.0004
  -7592435.53048  -5899886.46846  22670753.661    22670752.7774   22670758.7064
       176.0004        176.0004
 -12108285.52848  -9417102.40047  21976695.084    21976695.4514   21976700.6184
       189.0004        189.0004
  -3258599.74547  -2519886.98945  23338779.455    23338778.5914   23338783.6584
       154.0004        158.0004
  -7591123.95748  -5866848.75246  23049389.441    23049389.4584   23049395.8254
       173.0004        173.0004
 -20931556.08949 -16295943.12747  20754186.459    20754186.8274   20754194.4194
       200.0004        200.0004
 21  2  6  2 19 30.0000000  0 10G07G08G14G30G19G21G17G28G09G01
 -23994693.34449 -18683656.60648  20241892.698    20241893.1644   20241897.1444
       216.0004        217.0004
  -2531008.08148  -1946352.20146  24338649.819    24338649.6394   24338657.5084
       169.0004        170.0004
  -5692750.67348  -4426415.37846  22779190.386    22779191.6124   22779195.0024
       168.0004        169.0004
 -17960617.03649 -13970100.17147  21128333.396    21128333.9284   21128340.9564
       205.0004        205.0004
  -6271909.44947  -4857926.83746  23848419.799    23848419.1114   23848423.5124
       162.0004        164.0004
  -7526060.51848  -5848165.67446  22683384.445    22683384.3334   22683390.3444
       176.0004        177.0004
 -12145285.60748  -9445933.61647  21969654.977    21969655.5654   21969660.1274
       190.0004        191.0004
  -3279578.17447  -2536233.79845  23334787.327    23334786.5614   23334791.5944
       154.0004        156.0004
  -7511334.58548  -5804675.21146  23064571.933    23064571.7414   23064579.5594
       171.0004        171.0004
 -20932090.95549 -16296359.89047  20754084.084    20754084.8194   20754092.9364
       200.0004        200.0004
 21  2  6  2 20  0.0000000  0 10G07G08G14G30G19G21G17G28G09G01
 -24011794.11949 -18696981.90148  20238638.146    20238638.8544   20238643.0134
       216.0004        217.0004
  -2439244.21248  -1874847.92746  24356111.298    24356111.9804   24356120.0644
       171.0004        172.0004
  -5723404.86148  -4450301.75746  22773358.158    22773357.8344   22773361.7254
       168.0004        168.0004
 -18025969.42949 -14021024.11647  21115898.099    21115898.1384   21115904.9754
       205.0004        206.0004
  -6347863.93647  -4917112.14146  23833966.316    23833965.4304   23833970.5434
       163.0004        164.0004
  -7459282.37848  -5796130.76946  22696090.773    22696090.8924   22696097.5034
       176.0004        176.0004
 -12181875.17048  -9474444.95547  21962692.100    21962692.7844   21962696.4614
       191.0004        191.0004
  -3300669.20547  -2552668.35645  23330773.019    23330773.1594   23330776.8254
       153.0004        156.0004
  -7431524.97748  -5742485.91246  23079758.985    23079759.4714   23079766.4454
       171.0004        172.0004
 -20932021.54149 -16296305.78647  20754097.965    20754098.1884   20754106.2424
       200.0004        200.0004
 21  2  6  2 20 30.0000000  0 10G07G08G14G30G19G21G17G28G09G01
 -24028360.57249 -18709890.83448  20235485.551    20235486.2024   20235490.4094
       216.0004        217.0004
  -2347586.43248  -1803426.34946  24373552.954    24373554.0974   24373561.4944
       171.0004        172.0004
  -5754132.82048  -4474245.61946  22767510.686    22767510.5794   22767515.5334
       168.0004        169.0004
 -18090975.67949 -14071678.34747  21103527.996    21103527.7964   21103534.6404
       206.0004        207.0004
  -6423528.11247  -4976071.20245  23819567.331    23819567.2794   23819571.0154
       161.0004        162.0004
  -7392101.66148  -5743782.17146  22708875.454    22708875.8754   22708881.2114
       176.0004        177.0004
 -12218053.34848  -9502635.72847  21955806.338    21955807.1904   21955812.5014
       190.0004        190.0004
  -3321872.36247  -2569190.30645  23326737.915    23326738.6614   23326743.3034
       154.0004        157.0004
  -7351696.59648  -5680281.98946  23094949.845    23094950.7344   23094957.4634
       171.0004        173.0004
 -20931345.79349 -16295779.21747  20754226.810    20754227.1614   20754234.8824
       200.0004        200.0004
