     2.11           OBSERVATION DATA    G (GPS)             RINEX VERSION / TYPE
teqc  2018Jun8                          20210202 03:10:47UTCPGM / RUN BY / DATE
Linux2.6.32-573.12.1.el6.x86_64|x86_64|gcc|Win64-MinGW64|=+ COMMENT
BIT 2 OF LLI FLAGS DATA COLLECTED UNDER A/S CONDITION       COMMENT
-Unknown-                                                   MARKER NAME
CRNO                                                        MARKER NUMBER
-Unknown-           -Unknown-                               OBSERVER / AGENCY
-Unknown-           ASHTECH             -Unknown-           REC # / TYPE / VERS
-Unknown-           -Unknown-                               ANT # / TYPE
   408078.5218 -6158373.2056  1605162.7451                  APPROX POSITION XYZ
        0.0000        0.0000        0.0000                  ANTENNA: DELTA H/E/N
     1     1                                                WAVELENGTH FACT L1/2
     7    L1    L2    C1    P1    P2    S1    S2            # / TYPES OF OBSERV
    30.0000                                                 INTERVAL
Forced Modulo Decimation to 30 seconds                      COMMENT
 SNR is mapped to RINEX snr flag value [1-9]                COMMENT
  L1: 1 -> 1;  90 -> 5; 210 -> 9                            COMMENT
  L2: 1 -> 1; 150 -> 5; 250 -> 9                            COMMENT
pseudorange smoothing corrections not applied               COMMENT
  2021     2     1     0     0   30.0000000     GPS         TIME OF FIRST OBS
                                                            END OF HEADER
 21  2  1  0  0 30.0000000  0  9G30G08G09G17G04G07G01G14G21
  -5268351.54248  -4075722.15246  23456973.189    23456972.1014   23456979.7474
       166.0004        167.0004
 -15610702.37749 -12150231.94347  21704776.297    21704776.2204   21704782.4124
       206.0004        210.0004
 -17133190.35749 -13320351.68347  21176071.924    21176072.3374   21176079.6414
       210.0004        209.0004
  -3987198.17647  -3085204.60145  23703487.553    23703487.4824   23703492.4654
       157.0004        159.0004
  -9712428.58348  -7507115.40546  22472070.233    22472070.5574   22472076.4964
       176.0004        177.0004
 -19049734.24549 -14818230.88247  21445518.178    21445519.3944   21445524.5154
       198.0004        198.0004
 -17288005.68048 -13462228.27746  21839693.055    21839694.1614   21839701.8754
       183.0004        183.0004
  -1125135.48147   -866742.86945  23563729.966    23563730.5874   23563735.2584
       154.0004        156.0004
 -12601261.57148  -9613555.64946  21742888.994    21742888.3664   21742892.4854
       184.0004        184.0004
 21  2  1  0  1  0.0000000  0  9G30G08G09G17G04G07G01G14G21
  -5356298.78448  -4144252.47546  23440236.701    23440236.5334   23440243.8084
       165.0004        166.0004
 -15527422.60949 -12085338.61447  21720624.441    21720624.1644   21720629.8764
       211.0004        209.0004
 -17086600.29649 -13284047.74747  21184938.368    21184938.1404   21184945.0164
       209.0004        209.0004
  -4077584.64847  -3155635.50345  23686286.539    23686287.2374   23686293.4514
       158.0004        160.0004
  -9618652.26648  -7434042.96246  22489913.272    22489914.3854   22489921.5214
       176.0004        175.0004
 -19119354.63349 -14872480.53747  21432271.367    21432271.8574   21432275.8414
       199.0004        199.0004
 -17356088.60448 -13515279.87746  21826737.402    21826737.6024   21826746.3624
       182.0004        183.0004
  -1151995.05047   -887672.36945  23558618.655    23558619.2814   23558624.2844
       156.0004        159.0004
 -12604701.21548  -9616235.87446  21742233.344    21742233.6874   21742237.9484
       184.0004        185.0004
 21  2  1  0  1 30.0000000  0  9G30G08G09G17G04G07G01G14G21
  -5444269.57747  -4212801.11846  23423494.381    23423494.8074   23423503.2164
       163.0004        164.0004
 -15443892.96349 -12020250.56448  21736517.944    21736518.4094   21736525.0584
       218.0004        222.0004
 -17039576.14449 -13247405.55447  21193886.348    21193886.9704   21193893.7204
       209.0004        210.0004
  -4167689.95647  -3225847.35245  23669141.297    23669141.4114   23669147.2344
       158.0004        161.0004
  -9524713.06148  -7360843.59046  22507790.757    22507790.9464   22507797.9214
       176.0004        177.0004
 -19188805.85249 -14926598.36947  21419054.906    21419055.1694   21419059.4394
       198.0004        198.0004
 -17423917.46348 -13568133.50546  21813829.646    21813830.8984   21813839.0304
       183.0004        185.0004
  -1178809.02447   -908566.33845  23553517.087    23553517.5284   23553522.3464
       157.0004        159.0004
 -12607676.18548  -9618554.02046  21741667.048    21741667.6494   21741672.3304
       184.0004        184.0004
 21  2  1  0  2  0.0000000  0  9G30G08G09G17G04G07G01G14G21
  -5532261.99447  -4281366.60246  23406750.804    23406751.7804   23406759.3984
       164.0004        167.0004
 -15360116.06749 -11954969.85948  21752459.552    21752460.1344   21752467.7354
       221.0004        222.0004
 -16992120.33449 -13210426.98547  21202916.825    21202917.1694   21202924.3244
       209.0004        209.0004
  -4257512.20647  -3295838.64345  23652048.815    23652049.3514   23652055.7724
       159.0004        161.0004
  -9430613.96148  -7287519.60446  22525697.017    22525698.1354   22525704.7154
       177.0004        177.0004
 -19258085.30849 -14980582.33847  21405870.519    21405871.7254   21405876.2334
       198.0004        198.0004
 -17491488.94548 -13620786.58146  21800971.988    21800972.6734   21800981.2504
       184.0004        185.0004
  -1205578.68347   -929425.78245  23548422.136    23548422.4884   23548428.0454
       154.0004        155.0004
 -12610185.37648  -9620509.20546  21741191.299    21741190.3514   21741195.2814
       185.0004        186.0004
 21  2  1  0  2 30.0000000  0  9G30G08G09G17G04G07G01G14G21
  -5620275.66248  -4349948.65946  23390002.360    23390003.3484   23390010.4714
       165.0004        166.0004
 -15276096.41049 -11889500.00748  21768448.308    21768448.6634   21768456.1104
       222.0004        222.0004
 -16944236.78849 -13173115.13647  21212028.952    21212029.3574   21212036.1074
       209.0004        209.0004
  -4347050.70847  -3365608.85145  23635010.675    23635010.8594   23635015.7244
       160.0004        162.0004
  -9336359.44148  -7214074.55146  22543633.238    22543633.7764   22543639.8194
       177.0004        176.0004
 -19327191.60849 -15034431.40347  21392721.571    21392721.8414   21392725.5964
       198.0004        199.0004
 -17558801.32148 -13673237.74746  21788161.987    21788162.7804   21788172.0204
       185.0004        185.0004
  -1232306.78247   -950252.84645  23543334.713    23543335.9274   23543341.7914
       155.0004        158.0004
 -12612229.01048  -9622101.63946  21740802.426    21740801.6864   21740807.0934
       186.0004        187.0004
 21  2  1  0  3  0.0000000  0  9G30G08G09G17G04G07G01G14G21
  -5708307.04947  -4418544.54746  23373251.448    23373251.7084   23373257.7714
       164.0004        164.0004
 -15191835.66449 -11823842.27248  21784483.086    21784483.2374   21784489.9174
       222.0004        221.0004
 -16895926.33949 -13135470.63047  21221221.780    21221222.0094   21221229.6464
       208.0004        208.0004
  -4436302.05047  -3435155.27445  23618025.056    23618025.0754   23618031.6684
       160.0004        162.0004
  -9241950.92848  -7140509.47946  22561599.333    22561599.2974   22561604.9194
       176.0004        176.0004
 -19396120.68649 -15088142.36447  21379605.170    21379605.1514   21379608.4614
       199.0004        199.0004
 -17625849.67848 -13725483.19446  21775403.356    21775404.0654   21775413.1234
       185.0004        186.0004
  -1258992.92547   -971047.20845  23538257.530    23538258.4484   23538264.2134
       159.0004        162.0004
 -12613804.38148  -9623329.16746  21740501.890    21740501.7844   21740507.9494
       187.0004        187.0004
 21  2  1  0  3 30.0000000  0  9G30G08G09G17G04G07G01G14G21
  -5796354.78147  -4487153.17245  23356495.854    23356496.3794   23356503.5834
       161.0004        162.0004
 -15107337.06749 -11757999.20348  21800563.560    21800563.4724   21800569.6444
       222.0004        221.0004
 -16847192.03049 -13097495.84047  21230495.730    21230496.0664   21230503.6204
       209.0004        209.0004
  -4525264.65447  -3504476.70446  23601095.059    23601096.2214   23601102.1574
       160.0004        163.0004
  -9147391.90948  -7066827.11946  22579591.640    22579592.8564   22579599.9144
       176.0004        176.0004
 -19464870.65549 -15141713.76547  21366522.002    21366522.4174   21366526.2404
       199.0004        200.0004
 -17692631.26748 -13777520.77446  21762695.273    21762695.8384   21762704.2824
       184.0004        184.0004
  -1285638.89647   -991810.29046  23533186.279    23533187.5904   23533193.3724
       163.0004        165.0004
 -12614910.63948  -9624191.16747  21740291.382    21740291.3714   21740297.4614
       187.0004        188.0004
 21  2  1  0  4  0.0000000  0  9G30G08G09G17G04G07G01G14G21
  -5884416.46547  -4555772.62446  23339738.742    23339739.3534   23339747.6404
       163.0004        166.0004
 -15022602.97549 -11691972.64248  21816687.807    21816687.5944   21816693.8224
       221.0004        220.0004
 -16798035.90349 -13059192.37247  21239849.808    21239849.9614   21239857.1394
       208.0004        208.0004
  -4613936.42147  -3573571.51545  23584223.668    23584223.3684   23584228.0364
       159.0004        160.0004
  -9052684.97348  -6993029.53446  22597614.696    22597614.7264   22597621.8754
       176.0004        177.0004
 -19533437.99549 -15195142.85747  21353473.609    21353474.0894   21353477.7904
       199.0004        199.0004
 -17759142.43848 -13829347.63746  21750038.230    21750039.8104   21750047.8054
       184.0004        186.0004
  -1312245.55248  -1012542.71046  23528124.835    23528125.4054   23528130.5644
       166.0004        168.0004
 -12615546.41248  -9624686.54647  21740170.004    21740170.5974   21740177.1684
       188.0004        189.0004
 21  2  1  0  4 30.0000000  0  9G30G08G09G17G04G07G01G14G21
  -5972491.58848  -4624402.55146  23322978.723    23322978.6084   23322986.1694
       165.0004        166.0004
 -14937637.75649 -11625765.97148  21832855.363    21832855.4534   21832862.2644
       221.0004        220.0004
 -16748461.86549 -13020563.25547  21249283.346    21249283.7064   21249290.5574
       207.0004        207.0004
  -4702316.47747  -3642439.03145  23567403.687    23567404.0694   23567409.0314
       157.0004        158.0004
  -8957834.54148  -6919120.10746  22615664.162    22615664.7554   22615671.6204
       176.0004        177.0004
 -19601821.58949 -15248428.76447  21340459.902    21340460.6434   21340464.7884
       199.0004        199.0004
 -17825381.23848 -13880962.26446  21737435.612    21737435.6414   21737442.7164
       186.0004        187.0004
  -1338815.55848  -1033246.57446  23523068.328    23523068.6234   23523073.9124
       166.0004        167.0004
 -12615712.08848  -9624815.60147  21740139.211    21740138.8304   21740145.7444
       189.0004        190.0004
 21  2  1  0  5  0.0000000  0  9G30G08G09G17G04G07G01G14G21
  -6060578.03348  -4693041.30446  23306216.008    23306216.2374   23306224.9464
       165.0004        167.0004
 -14852444.54149 -11559381.63048  21849067.047    21849067.3804   21849074.3654
       221.0004        220.0004
 -16698472.25649 -12981610.29847  21258795.883    21258796.0854   21258803.8474
       207.0004        208.0004
  -4790402.90547  -3711077.74445  23550641.454    23550642.2844   23550646.6144
       158.0004        161.0004
  -8862843.42248  -6845101.05846  22633740.103    22633740.2754   22633747.0524
       175.0004        175.0004
 -19670018.66049 -15301569.32347  21327483.669    21327483.6804   21327487.8914
       199.0004        200.0004
 -17891344.28048 -13932362.00246  21724881.418    21724882.2464   21724890.6174
       186.0004        186.0004
  -1365349.96048  -1053922.71046  23518018.786    23518019.4354   23518024.6914
       165.0004        165.0004
 -12615406.36548  -9624577.33347  21740197.201    21740196.1464   21740204.2114
       189.0004        189.0004
 21  2  1  0  5 30.0000000  0  9G30G08G09G17G04G07G01G14G21
  -6148672.14048  -4761686.03046  23289451.955    23289451.8454   23289459.9744
       166.0004        167.0004
 -14767024.23549 -11492820.36148  21865322.258    21865322.5154   21865329.5734
       221.0004        221.0004
 -16648067.93849 -12942334.21747  21268387.963    21268387.7464   21268395.7584
       207.0004        208.0004
  -4878192.10747  -3779484.89646  23533936.416    23533936.8574   23533941.4284
       160.0004        163.0004
  -8767712.96048  -6770973.44846  22651842.993    22651843.8734   22651850.2384
       174.0004        173.0004
 -19738024.71349 -15354561.04947  21314542.365    21314542.2024   21314546.8794
       199.0004        200.0004
 -17957026.64748 -13983543.04246  21712382.450    21712383.3504   21712391.6114
       186.0004        186.0004
  -1391848.37847  -1074570.80446  23512975.972    23512976.3734   23512982.3514
       163.0004        164.0004
 -12614626.57948  -9623969.68547  21740344.754    21740344.3184   21740352.4214
       189.0004        188.0004
 21  2  1  0  6  0.0000000  0  9G30G08G09G17G04G07G01G14G21
  -6236773.19048  -4830336.16046  23272687.370    23272687.5674   23272695.0884
       165.0004        167.0004
 -14681381.04549 -11426085.40848  21881619.469    21881619.6484   21881626.5984
       221.0004        220.0004
 -16597252.63949 -12902737.89247  21278057.183    21278057.3584   21278065.4344
       207.0004        207.0004
  -4965683.32047  -3847659.80845  23517286.657    23517287.2494   23517291.9684
       160.0004        161.0004
  -8672447.26948  -6696740.45146  22669971.817    22669971.7944   22669978.9894
       174.0004        175.0004
 -19805838.31949 -15407402.81247  21301636.942    21301637.7014   21301642.4764
       200.0004        200.0004
 -18022426.24448 -14034503.75446  21699937.635    21699938.3614   21699946.4584
       186.0004        187.0004
  -1418313.19148  -1095192.70946  23507941.060    23507941.1524   23507947.2444
       165.0004        167.0004
 -12613372.89848  -9622992.77047  21740583.779    21740583.1294   21740590.4824
       188.0004        188.0004
 21  2  1  0  6 30.0000000  0  9G30G08G09G17G04G07G01G14G21
  -6324878.92948  -4898989.95746  23255922.092    23255921.8624   23255928.8994
       167.0004        170.0004
 -14595517.98049 -11359179.10048  21897958.055    21897958.4894   21897965.7864
       219.0004        218.0004
 -16546028.79249 -12862823.20047  21287804.996    21287805.3734   21287812.6744
       207.0004        206.0004
  -5052874.75147  -3915601.13845  23500695.491    23500695.3924   23500700.5234
       159.0004        160.0004
  -8577049.26748  -6622404.35246  22688125.598    22688125.2374   22688132.3294
       173.0004        171.0004
 -19873456.39549 -15460092.20847  21288769.854    21288770.6044   21288775.0314
       200.0004        200.0004
 -18087539.70948 -14085241.48646  21687546.691    21687547.4004   21687555.9624
       186.0004        187.0004
  -1444745.51748  -1115789.27046  23502909.266    23502910.5744   23502916.1184
       166.0004        167.0004
 -12611644.18348  -9621645.69146  21740912.321    21740912.1144   21740919.1334
       187.0004        186.0004
 21  2  1  0  7  0.0000000  0  9G30G08G09G17G04G07G01G14G21
  -6412987.44448  -4967645.90646  23239153.347    23239153.8964   23239162.9194
       169.0004        170.0004
 -14509437.62349 -11292103.50448  21914338.763    21914338.9504   21914346.0064
       219.0004        218.0004
 -16494398.91149 -12822592.13847  21297629.495    21297630.2274   21297637.0404
       206.0004        207.0004
  -5139764.53047  -3983307.41345  23484160.517    23484160.7174   23484165.8754
       156.0004        158.0004
  -8481521.86448  -6547967.43346  22706303.687    22706304.1664   22706309.4744
       171.0004        171.0004
 -19940876.70849 -15512627.52147  21275940.628    21275941.2944   21275945.0124
       200.0004        200.0004
 -18152363.71648 -14135753.69446  21675211.013    21675211.3994   21675219.5254
       186.0004        187.0004
  -1471146.55348  -1136361.49646  23497886.502    23497886.3494   23497892.4474
       166.0004        166.0004
 -12609438.97648  -9619927.33846  21741332.482    21741331.9414   21741337.8674
       186.0004        186.0004
 21  2  1  0  7 30.0000000  0  9G30G08G09G17G04G07G01G14G21
  -6501095.97748  -5036301.88046  23222386.714    23222387.1394   23222394.9694
       167.0004        167.0004
 -14423142.32249 -11224860.41548  21930760.841    21930760.8154   21930767.7504
       219.0004        219.0004
 -16442364.86349 -12782046.13447  21307531.724    21307532.0374   21307539.1114
       206.0004        207.0004
  -5226349.95047  -4050776.50545  23467683.008    23467683.7104   23467690.7434
       157.0004        161.0004
  -8385867.34548  -6473431.45446  22724505.748    22724506.4214   22724512.6094
       170.0004        171.0004
 -20008095.48249 -15565005.78247  21263149.111    21263149.6194   21263153.8834
       200.0004        200.0004
 -18216894.34248 -14186037.28946  21662931.871    21662932.5014   21662939.9254
       186.0004        186.0004
  -1497516.86348  -1156909.73946  23492867.900    23492869.0564   23492874.0344
       165.0004        167.0004
 -12606756.20048  -9617836.85446  21741843.095    21741842.4424   21741847.8534
       185.0004        185.0004
 21  2  1  0  8  0.0000000  0  9G30G08G09G17G04G07G01G14G21
  -6589202.71948  -5104956.46646  23205621.769    23205621.9284   23205629.7194
       167.0004        169.0004
 -14336635.21449 -11157452.26848  21947223.143    21947222.8954   21947229.0294
       219.0004        218.0004
 -16389929.46249 -12741187.38547  21317509.207    21317509.5884   21317517.6874
       206.0004        207.0004
  -5312629.22847  -4118007.03845  23451265.129    23451265.5514   23451272.6084
       160.0004        162.0004
  -8290088.83248  -6398798.86246  22742732.507    22742732.9084   22742738.9514
       170.0004        171.0004
 -20075110.22949 -15617225.05047  21250396.537    21250397.0464   21250401.4714
       200.0004        200.0004
 -18281128.50648 -14236089.85346  21650708.230    21650708.8094   21650716.7354
       186.0004        187.0004
  -1523857.80048  -1177435.11346  23487855.528    23487856.3714   23487861.7064
       166.0004        167.0004
 -12603594.93448  -9615373.50546  21742444.030    21742443.7854   21742448.8914
       185.0004        184.0004
 21  2  1  0  8 30.0000000  0  9G30G08G09G17G04G07G01G14G21
  -6677306.24348  -5173608.52846  23188856.323    23188856.4344   23188864.5834
       169.0004        171.0004
 -14249919.87849 -11089881.86848  21963723.962    21963723.9834   21963731.0624
       219.0004        218.0004
 -16337095.92049 -12700018.39147  21327563.178    21327563.7704   21327572.1154
       207.0004        207.0004
  -5398601.25047  -4184998.17045  23434904.403    23434904.4244   23434910.7594
       159.0004        159.0004
  -8194189.95248  -6324072.49346  22760981.457    22760981.8864   22760987.0814
       171.0004        171.0004
 -20141918.94649 -15669283.79047  21237683.189    21237684.1154   21237688.3794
       200.0004        201.0004
 -18345063.60048 -14285909.38846  21638541.516    21638542.0814   21638550.5614
       187.0004        187.0004
  -1550171.21448  -1197939.05546  23482848.180    23482848.5844   23482855.4544
       165.0004        166.0004
 -12599954.72448  -9612536.96146  21743136.847    21743136.8254   21743141.0184
       183.0004        183.0004
 21  2  1  0  9  0.0000000  0  9G30G08G09G17G04G07G01G14G21
  -6765403.81048  -5242255.96746  23172092.957    23172092.5174   23172099.1784
       170.0004        171.0004
 -14162998.14349 -11022150.63648  21980264.234    21980264.3454   21980271.9744
       218.0004        218.0004
 -16283866.20649 -12658540.69347  21337692.731    21337693.3634   21337700.8724
       207.0004        207.0004
  -5484263.60047  -4251748.00046  23418604.656    23418604.9494   23418609.4644
       159.0004        163.0004
  -8098173.02848  -6249254.11246  22779253.169    22779252.7024   22779258.6484
       171.0004        171.0004
 -20208518.18749 -15721179.28947  21225010.532    21225010.3334   21225014.6874
       201.0004        201.0004
 -18408695.74348 -14335492.85746  21626431.892    21626432.4754   21626441.3464
       187.0004        187.0004
  -1576457.71947  -1218422.00146  23477846.250    23477846.6994   23477851.9894
       164.0004        164.0004
 -12595834.28548  -9609326.21646  21743921.751    21743921.1384   21743925.6204
       183.0004        184.0004
 21  2  1  0  9 30.0000000  0  9G30G08G09G17G04G07G01G14G21
  -6853493.93448  -5310897.62046  23155329.860    23155329.3194   23155336.0454
       171.0004        172.0004
 -14075874.38149 -10954261.98348  21996842.921    21996843.3154   21996850.5854
       218.0004        217.0004
 -16230243.44949 -12616756.71547  21347897.319    21347897.5054   21347904.6904
       206.0004        206.0004
  -5569614.70647  -4318255.31545  23402362.032    23402362.5104   23402366.8934
       160.0004        162.0004
  -8002041.49248  -6174346.43446  22797544.916    22797546.2484   22797551.6394
       169.0004        169.0004
 -20274905.66349 -15772909.77047  21212376.785    21212377.8014   21212381.5644
       201.0004        202.0004
 -18472022.20248 -14384838.11946  21614381.653    21614382.6414   21614390.8004
       187.0004        187.0004
  -1602718.97247  -1238885.30646  23472848.845    23472849.2894   23472855.0454
       164.0004        165.0004
 -12591233.13948  -9605740.88046  21744798.299    21744797.2434   21744801.3424
       184.0004        184.0004
 21  2  1  0 10  0.0000000  0  9G30G08G09G17G04G07G01G14G21
  -6941573.66048  -5379531.13446  23138568.171    23138568.1114   23138575.5524
       171.0004        173.0004
 -13988549.75549 -10886216.81648  22013459.948    22013460.6714   22013467.6394
       218.0004        217.0004
 -16176229.41649 -12574667.87147  21358175.297    21358175.9444   21358183.1644
       206.0004        206.0004
  -5654652.11147  -4384518.16446  23386180.786    23386181.2444   23386185.4324
       162.0004        166.0004
  -7905797.43948  -6099351.09046  22815859.917    22815860.2554   22815867.7664
       167.0004        168.0004
 -20341077.78649 -15824472.46847  21199785.271    21199785.8134   21199788.9264
       202.0004        202.0004
 -18535038.87448 -14433942.01046  21602390.245    21602390.9724   21602399.3404
       187.0004        187.0004
  -1628955.38047  -1259329.22346  23467855.642    23467856.4114   23467861.9534
       164.0004        165.0004
 -12586149.44448  -9601779.55346  21745763.934    21745764.0704   21745766.9414
       183.0004        183.0004
 21  2  1  0 10 30.0000000  0  9G30G08G09G17G04G07G01G14G21
  -7029641.17848  -5448155.16446  23121809.406    23121810.1524   23121817.1514
       171.0004        172.0004
 -13901027.52049 -10818017.67848  22030115.087    22030115.5664   22030122.7684
       217.0004        217.0004
 -16121826.99949 -12532276.38647  21368528.362    21368528.5044   21368535.5384
       206.0004        206.0004
  -5739373.93447  -4450535.11546  23370057.888    23370058.2954   23370063.5494
       164.0004        165.0004
  -7809444.07248  -6024270.55446  22834195.005    22834195.9244   22834203.0734
       168.0004        170.0004
 -20407031.90449 -15875865.29647  21187234.279    21187234.8584   21187238.4434
       201.0004        201.0004
 -18597742.78648 -14482802.19947  21590458.341    21590459.3314   21590467.7634
       188.0004        189.0004
  -1655168.33347  -1279754.86546  23462868.541    23462868.6764   23462874.1934
       164.0004        166.0004
 -12580582.93648  -9597442.01846  21746822.803    21746822.5504   21746826.7154
       182.0004        182.0004
 21  2  1  0 11  0.0000000  0  9G30G08G09G17G04G07G01G14G21
  -7117694.43648  -5516768.05546  23105053.725    23105053.5514   23105059.9904
       171.0004        172.0004
 -13813310.99949 -10749667.11948  22046807.912    22046807.7954   22046814.6294
       217.0004        216.0004
 -16067038.89949 -12489584.35347  21378954.620    21378954.7504   21378961.4834
       205.0004        205.0004
  -5823778.79447  -4516305.07146  23353996.124    23353996.7344   23354001.4054
       163.0004        165.0004
  -7712984.35948  -5949107.14546  22852552.794    22852552.9224   22852558.8254
       169.0004        169.0004
 -20472765.65449 -15927086.37147  21174725.009    21174725.4444   21174730.3824
       201.0004        202.0004
 -18660130.74548 -14531416.16347  21578587.173    21578587.6274   21578595.6854
       189.0004        190.0004
  -1681359.05347  -1300163.20446  23457884.490    23457885.1834   23457889.5174
       163.0004        163.0004
 -12574532.67348  -9592727.49546  21747975.246    21747974.9114   21747978.4974
       182.0004        183.0004
 21  2  1  0 11 30.0000000  0  9G30G08G09G17G04G07G01G14G21
  -7205732.10148  -5585368.81546  23088300.174    23088300.4304   23088306.5604
       170.0004        170.0004
 -13725403.17649 -10681167.50648  22063535.540    22063535.8154   22063543.2294
       216.0004        216.0004
 -16011868.58049 -12446594.49447  21389452.977    21389453.0774   21389459.8084
       205.0004        205.0004
  -5907865.59147  -4581827.21146  23337996.764    23337996.3904   23338000.7224
       164.0004        167.0004
  -7616422.05648  -5873863.78846  22870927.182    22870927.2094   22870933.5964
       169.0004        170.0004
 -20538277.09749 -15978134.23247  21162258.226    21162259.2764   21162263.7504
       202.0004        202.0004
 -18722200.29948 -14579782.01947  21566775.976    21566776.0524   21566783.3544
       189.0004        189.0004
  -1707529.57547  -1320555.79245  23452902.960    23452904.2794   23452910.7224
       162.0004        162.0004
 -12567998.76648  -9587636.12046  21749218.573    21749217.9534   21749222.5004
       183.0004        183.0004
 21  2  1  0 12  0.0000000  0  9G30G08G09G17G04G07G01G14G21
  -7293752.10248  -5653955.85146  23071550.369    23071550.8704   23071558.1894
       169.0004        172.0004
 -13637307.29349 -10612521.37748  22080299.334    22080299.9464   22080307.0664
       216.0004        215.0004
 -15956318.75949 -12403308.93047  21400023.361    21400023.7994   21400030.7234
       204.0004        205.0004
  -5991632.62748  -4647100.19646  23322055.069    23322055.5054   23322061.4104
       165.0004        167.0004
  -7519760.09748  -5798542.82046  22889320.766    22889320.8034   22889328.3064
       169.0004        170.0004
 -20603563.23349 -16029006.55847  21149836.199    21149836.1274   21149839.8004
       202.0004        202.0004
 -18783948.31048 -14627897.35647  21555024.023    21555024.8994   21555033.2784
       188.0004        188.0004
  -1733681.12947  -1340933.59445  23447927.289    23447927.0114   23447933.7794
       160.0004        161.0004
 -12560980.17948  -9582167.09746  21750552.920    21750552.9994   21750558.2384
       183.0004        183.0004
 21  2  1  0 12 30.0000000  0  9G30G08G09G17G04G07G01G14G21
  -7381750.58048  -5722526.07246  23054805.068    23054805.1154   23054813.6074
       171.0004        173.0004
 -13549024.59549 -10543729.66548  22097099.603    22097099.3634   22097106.6854
       216.0004        215.0004
 -15900390.36549 -12359728.37947  21410666.006    21410666.6964   21410673.5904
       204.0004        204.0004
  -6075076.55848  -4712121.37746  23306176.277    23306176.2324   23306181.7664
       165.0004        166.0004
  -7422999.69748  -5723145.12746  22907733.787    22907734.0524   22907741.1144
       169.0004        170.0004
 -20668619.73149 -16079699.93147  21137455.637    21137456.4334   21137460.0024
       202.0004        202.0004
 -18845369.80848 -14675758.24347  21543336.843    21543336.9444   21543345.4294
       188.0004        188.0004
  -1759813.11847  -1361296.12645  23442952.962    23442954.6354   23442961.0734
       159.0004        161.0004
 -12553474.59748  -9576318.58046  21751982.280    21751981.7064   21751986.3294
       183.0004        184.0004
 21  2  1  0 13  0.0000000  0  9G30G08G09G17G04G07G01G14G21
  -7469726.74748  -5791078.90146  23038064.197    23038063.8614   23038071.5244
       172.0004        174.0004
 -13460559.23149 -10474795.60648  22113934.134    22113933.8784   22113940.7144
       215.0004        214.0004
 -15844087.49549 -12315856.01747  21421380.942    21421380.4444   21421387.5484
       204.0004        204.0004
  -6158196.55148  -4776890.16346  23290358.306    23290358.3584   23290364.3414
       165.0004        167.0004
  -7326145.14748  -5647674.06346  22926163.616    22926164.4274   22926171.2824
       169.0004        169.0004
 -20733445.05249 -16130213.16447  21125120.078    21125120.6624   21125124.5144
       202.0004        203.0004
 -18906463.00948 -14723363.31747  21531711.568    21531711.6884   21531719.2054
       188.0004        188.0004
  -1785928.06947  -1381645.43445  23437983.526    23437984.7984   23437990.6554
       159.0004        160.0004
 -12545482.31348  -9570090.81146  21753501.991    21753502.1614   21753506.5864
       184.0004        184.0004
 21  2  1  0 13 30.0000000  0  9G30G08G09G17G04G07G01G14G21
  -7557677.79348  -5859612.15946  23021327.731    23021327.4094   23021335.0844
       172.0004        173.0004
 -13371913.18749 -10405720.76348  22130802.624    22130802.5484   22130809.1714
       214.0004        213.0004
 -15787412.14849 -12271693.41147  21432164.491    21432165.2074   21432173.3034
       204.0004        204.0004
  -6240990.56648  -4841404.89346  23274603.394    23274603.7744   23274609.5444
       166.0004        169.0004
  -7229198.62848  -5572131.34046  22944612.986    22944612.8574   22944619.0864
       169.0004        169.0004
 -20798036.05449 -16180543.80447  21112828.668    21112829.1374   21112833.2054
       203.0004        203.0004
 -18967223.92748 -14770709.47947  21520149.633    21520149.5544   21520157.2244
       188.0004        189.0004
  -1812026.51347  -1401981.83345  23433018.265    23433019.2904   23433023.5594
       159.0004        161.0004
 -12537002.44048  -9563483.10246  21755116.307    21755115.9084   21755121.0614
       184.0004        185.0004
 21  2  1  0 14  0.0000000  0  9G30G08G09G17G04G07G01G14G21
  -7645602.76448  -5928125.11446  23004595.722    23004596.1064   23004603.3354
       172.0004        174.0004
 -13283091.12749 -10336508.75747  22147704.450    22147703.9954   22147711.6834
       213.0004        212.0004
 -15730368.25049 -12227243.62147  21443020.393    21443020.5904   21443028.4644
       204.0004        204.0004
  -6323458.20548  -4905665.32546  23258911.274    23258911.5064   23258916.9824
       168.0004        169.0004
  -7132164.33348  -5496520.19446  22963077.952    22963078.7954   22963084.4194
       169.0004        170.0004
 -20862390.98949 -16230690.49747  21100582.509    21100583.1244   21100586.4644
       203.0004        203.0004
 -19027650.66748 -14817795.21947  21508649.613    21508649.5164   21508657.9984
       188.0004        188.0004
  -1838110.80847  -1422307.21645  23428055.029    23428055.7034   23428061.3134
       160.0004        162.0004
 -12528035.49548  -9556495.84546  21756822.461    21756822.0254   21756828.4494
       185.0004        186.0004
 21  2  1  0 14 30.0000000  0  9G30G08G09G17G04G07G01G14G21
  -7733499.05148  -5996615.73546  22987870.074    22987870.2924   22987876.3294
       172.0004        173.0004
 -13194094.76949 -10267160.95147  22164638.174    22164639.0344   22164647.0614
       212.0004        211.0004
 -15672958.11949 -12182508.46647  21453944.059    21453944.6604   21453952.3654
       203.0004        202.0004
  -6405596.92648  -4969669.48246  23243278.936    23243279.0084   23243287.4704
       167.0004        167.0004
  -7035044.71448  -5420842.58646  22981559.335    22981559.7424   22981565.9054
       169.0004        169.0004
 -20926506.53849 -16280650.66347  21088381.339    21088381.6294   21088386.1254
       203.0004        203.0004
 -19087739.63348 -14864617.77047  21497214.089    21497214.4834   21497223.4994
       188.0004        188.0004
  -1864181.69447  -1442622.13445  23423093.246    23423093.8704   23423099.7424
       161.0004        162.0004
 -12518580.24248  -9549128.11746  21758622.964    21758621.5294   21758627.3414
       185.0004        185.0004
 21  2  1  0 15  0.0000000  0  9G30G08G09G17G04G07G01G14G21
  -7821364.01848  -6065081.92146  22971150.190    22971150.3024   22971157.3724
       172.0004        175.0004
 -13104926.39749 -10197679.10847  22181607.528    22181607.8114   22181615.2594
       212.0004        212.0004
 -15615184.01849 -12137489.69147  21464939.578    21464939.5724   21464946.4004
       203.0004        203.0004
  -6487404.84148  -5033415.86046  23227712.135    23227712.1904   23227718.2174
       166.0004        168.0004
  -6937842.19948  -5345100.38046  23000055.066    23000055.4344   23000062.6584
       168.0004        168.0004
 -20990379.40249 -16330421.71347  21076226.499    21076227.0254   21076231.6454
       203.0004        203.0004
 -19147487.03948 -14911174.17647  21485846.475    21485847.1144   21485854.8424
       190.0004        193.0004
  -1890239.79647  -1462927.11445  23418135.916    23418135.5224   23418140.4174
       161.0004        162.0004
 -12508635.34848  -9541378.82746  21760514.430    21760514.0834   21760519.8444
       186.0004        186.0004
 21  2  1  0 15 30.0000000  0  9G30G08G09G17G04G07G01G14G21
  -7909195.80448  -6133522.26346  22954436.490    22954436.3754   22954442.7234
       173.0004        173.0004
 -13015590.12549 -10128066.42647  22198608.670    22198608.3394   22198615.7344
       212.0004        212.0004
 -15557048.97249 -12092189.67547  21476002.232    21476002.1594   21476009.6214
       203.0004        203.0004
  -6568880.66048  -5096903.48746  23212207.664    23212208.7824   23212213.3874
       166.0004        167.0004
  -6840559.96248  -5269296.06346  23018568.443    23018568.4284   23018575.2354
       168.0004        169.0004
 -21054007.29949 -16380001.88747  21064118.601    21064119.1874   21064123.3114
       203.0004        203.0004
 -19206890.13448 -14957462.30747  21474544.155    21474544.2204   21474550.5004
       194.0004        195.0004
  -1916286.62347  -1483223.32745  23413179.131    23413179.4314   23413184.5274
       161.0004        162.0004
 -12498200.55948  -9533247.79746  21762499.924    21762499.8574   21762505.3894
       186.0004        186.0004
 21  2  1  0 16  0.0000000  0  9G30G08G09G17G04G07G01G14G21
  -7996991.84348  -6201934.72746  22937727.395    22937728.8124   22937736.9624
       171.0004        171.0004
 -12926087.46849 -10058324.08347  22215639.245    22215639.5934   22215647.8384
       212.0004        212.0004
 -15498555.43249 -12046610.29147  21487132.532    21487132.8524   21487140.1204
       202.0004        203.0004
  -6650021.99447  -5160130.45646  23196767.431    23196767.5694   23196772.8524
       164.0004        164.0004
  -6743200.54948  -5193431.60746  23037094.617    23037095.1864   23037102.0764
       168.0004        168.0004
 -21117387.14049 -16429388.77247  21052058.142    21052058.4164   21052062.1094
       203.0004        203.0004
 -19265945.35248 -15003479.36247  21463304.886    21463305.5514   21463311.9774
       194.0004        193.0004
  -1942322.99647  -1503511.36945  23408223.958    23408223.8444   23408229.9424
       159.0004        159.0004
 -12487274.99248  -9524734.34646  21764578.760    21764578.1504   21764584.4994
       186.0004        187.0004
 21  2  1  0 16 30.0000000  0  9G30G08G09G17G04G07G01G14G21
  -8084750.26648  -6270317.89746  22921028.116    22921028.4474   22921036.3544
       170.0004        171.0004
 -12836421.71649  -9988454.67647  22232702.686    22232702.7514   22232710.4194
       211.0004        210.0004
 -15439706.51249 -12000754.00447  21498331.075    21498331.5704   21498338.7634
       202.0004        203.0004
  -6730827.54347  -5223095.77246  23181391.170    23181391.9704   23181394.1954
       163.0004        165.0004
  -6645767.25848  -5117509.57846  23055636.571    23055636.4664   23055642.2224
       168.0004        168.0004
 -21180516.33249 -16478580.34147  21040044.234    21040045.2604   21040049.5794
       203.0004        204.0004
 -19324649.96948 -15049223.20747  21452131.521    21452131.7914   21452140.5764
       191.0004        188.0004
  -1968350.38547  -1523792.44345  23403271.151    23403271.9534   23403276.8594
       157.0004        159.0004
 -12475858.62948  -9515838.47946  21766751.035    21766750.8794   21766757.5234
       187.0004        187.0004
 21  2  1  0 17  0.0000000  0  9G30G08G09G17G04G07G01G14G21
  -8172468.75448  -6338669.94946  22904335.526    22904336.2934   22904343.2344
       169.0004        170.0004
 -12746595.79349  -9918460.44947  22249796.188    22249796.0454   22249803.4374
       210.0004        210.0004
 -15380504.86949 -11954622.85447  21509597.259    21509597.4034   21509604.6224
       202.0004        203.0004
  -6811295.96347  -5285798.42946  23166078.736    23166078.2244   23166081.6124
       163.0004        163.0004
  -6548262.81248  -5041532.10546  23074191.018    23074191.0764   23074197.4154
       167.0004        168.0004
 -21243392.13549 -16527574.46247  21028080.019    21028080.4654   21028084.8224
       203.0004        203.0004
 -19383000.71048 -15094691.27946  21441026.577    21441027.8224   21441037.1094
       188.0004        187.0004
  -1994369.81047  -1544067.31045  23398319.395    23398320.7254   23398325.8344
       157.0004        159.0004
 -12463950.67348  -9506559.52546  21769017.568    21769017.5514   21769023.1454
       187.0004        187.0004
 21  2  1  0 17 30.0000000  0  9G30G08G09G17G04G07G01G14G21
  -8260144.96848  -6406989.06646  22887650.951    22887651.4264   22887659.9524
       170.0004        172.0004
 -12656612.42049  -9848343.52947  22266919.189    22266919.2264   22266927.0104
       210.0004        210.0004
 -15320953.14249 -11908218.91847  21520928.912    21520929.4974   21520937.2254
       202.0004        203.0004
  -6891425.23647  -5348236.79645  23150829.507    23150829.2184   23150831.7794
       159.0004        159.0004
  -6450689.99248  -4965501.37146  23092758.205    23092757.6694   23092764.3734
       165.0004        167.0004
 -21306011.63149 -16576368.87547  21016163.852    21016164.3914   21016168.4744
       204.0004        204.0004
 -19440994.21348 -15139880.99847  21429991.441    21429992.6414   21430001.5124
       188.0004        189.0004
  -2020382.31647  -1564336.78145  23393370.927    23393370.9694   23393375.7064
       157.0004        159.0004
 -12451550.67248  -9496897.15747  21771378.134    21771377.5974   21771382.3684
       187.0004        188.0004
 21  2  1  0 18  0.0000000  0  9G30G08G09G17G04G07G01G14G21
  -8347776.96548  -6475273.70146  22870975.186    22870975.5604   22870983.3144
       171.0004        173.0004
 -12566474.74449  -9778106.37247  22284070.043    22284071.1984   22284079.5264
       210.0004        210.0004
 -15261054.44449 -11861544.61247  21532328.110    21532328.2074   21532335.3844
       203.0004        203.0004
  -6971213.98047  -5410409.82245  23135646.477    23135647.2854   23135649.6804
       159.0004        161.0004
  -6353051.89347  -4889419.76746  23111337.403    23111338.2584   23111343.9034
       164.0004        164.0004
 -21368372.28349 -16624961.58547  21004296.875    21004297.2514   21004301.6484
       204.0004        204.0004
 -19498627.72348 -15184790.21047  21419025.275    21419026.2204   21419034.1374
       190.0004        192.0004
  -2046389.27347  -1584601.90645  23388421.360    23388421.3024   23388426.6964
       156.0004        157.0004
 -12438658.40048  -9486851.21746  21773830.880    21773830.3074   21773835.7904
       187.0004        187.0004
 21  2  1  0 18 30.0000000  0  9G30G08G09G17G04G07G01G14G21
  -8435361.11848  -6543521.06546  22854308.380    22854308.7414   22854317.0804
       171.0004        172.0004
 -12476183.89849  -9707749.86047  22301253.777    22301253.7334   22301261.1594
       210.0004        209.0004
 -15200810.24749 -11814601.07747  21543792.157    21543792.0454   21543798.8994
       203.0004        203.0004
  -7050659.41547  -5472315.32445  23120527.594    23120528.0444   23120532.7344
       159.0004        160.0004
  -6255350.08447  -4813288.49646  23129929.360    23129930.0544   23129936.7174
       162.0004        164.0004
 -21430469.86549 -16673349.30347  20992480.616    20992480.6774   20992484.7404
       204.0004        204.0004
 -19555896.75848 -15229415.42147  21408128.601    21408129.1484   21408136.3354
       192.0004        193.0004
  -2072390.49347  -1604862.59845  23383471.663    23383473.2174   23383478.9154
       154.0004        156.0004
 -12425271.83948  -9476420.10747  21776378.376    21776377.7834   21776382.7854
       187.0004        188.0004
 21  2  1  0 19  0.0000000  0  9G30G08G09G17G04G07G01G14G21
  -8522896.25448  -6611730.22146  22837652.065    22837651.9274   22837659.2904
       172.0004        174.0004
 -12385743.88249  -9637277.11647  22318464.153    22318463.8624   22318471.3554
       209.0004        208.0004
 -15140224.37049 -11767391.30847  21555321.247    21555321.6974   21555328.3174
       203.0004        203.0004
  -7129761.26747  -5533953.05546  23105475.453    23105475.6464   23105481.0144
       161.0004        165.0004
  -6157588.44147  -4737110.62246  23148532.725    23148533.8884   23148540.9124
       162.0004        163.0004
 -21492302.80349 -16721530.81047  20980713.329    20980714.0684   20980718.3834
       204.0004        204.0004
 -19612799.20848 -15273754.97447  21397301.040    21397301.2064   21397308.0344
       193.0004        194.0004
  -2098388.17647  -1625120.49845  23378526.204    23378527.0414   23378530.7504
       154.0004        156.0004
 -12411391.56648  -9465604.28647  21779019.343    21779019.1524   21779024.3924
       187.0004        188.0004
 21  2  1  0 19 30.0000000  0  9G30G08G09G17G04G07G01G14G21
  -8610380.88748  -6679900.05746  22821003.025    22821003.3464   22821010.4014
       171.0004        171.0004
 -12295158.14149  -9566690.82147  22335701.420    22335701.5254   22335709.0764
       208.0004        207.0004
 -15079300.45549 -11719918.12447  21566914.825    21566914.9494   21566922.0194
       203.0004        204.0004
  -7208518.33948  -5595322.13546  23090489.769    23090489.4744   23090495.4954
       165.0004        168.0004
  -6059770.64047  -4660888.99846  23167147.146    23167148.1464   23167154.1844
       162.0004        163.0004
 -21553869.37049 -16769504.75147  20968998.096    20968998.2444   20969003.0544
       204.0004        204.0004
 -19669332.80748 -15317807.11247  21386542.395    21386542.5004   21386550.1344
       193.0004        194.0004
  -2124384.17947  -1645377.10445  23373578.457    23373578.5634   23373583.4974
       155.0004        158.0004
 -12397018.07148  -9454404.14246  21781754.659    21781754.6904   21781759.5454
       187.0004        187.0004
 21  2  1  0 20  0.0000000  0  9G30G08G09G17G04G07G01G14G21
  -8697812.74848  -6748028.78346  22804367.069    22804367.4544   22804374.0294
       174.0004        177.0004
 -12204429.72049  -9495993.35247  22352967.362    22352967.0594   22352973.6064
       208.0004        207.0004
 -15018041.30749 -11672183.73547  21578571.856    21578572.1744   21578579.0694
       204.0004        204.0004
  -7286929.21448  -5656421.47346  23075565.829    23075567.0484   23075574.3304
       167.0004        168.0004
  -5961899.51147  -4584625.82446  23185772.390    23185772.2454   23185779.9674
       163.0004        165.0004
 -21615166.10549 -16817268.44647  20957333.339    20957334.2124   20957338.1344
       203.0004        204.0004
 -19725494.47548 -15361569.44247  21375854.015    21375854.8214   21375862.5024
       193.0004        192.0004
  -2150379.59747  -1665633.25545  23368632.543    23368633.3374   23368637.5644
       157.0004        160.0004
 -12382150.78448  -9442819.22046  21784583.837    21784583.2864   21784588.4464
       187.0004        187.0004
 21  2  1  0 20 30.0000000  0  9G30G08G09G17G04G07G01G14G21
  -8785188.93648  -6816114.09546  22787739.319    22787739.6184   22787746.8774
       176.0004        178.0004
 -12113560.70749  -9425186.32547  22370258.781    22370258.6944   22370265.6894
       208.0004        208.0004
 -14956449.15649 -11624189.85447  21590292.693    21590292.7234   21590299.5294
       203.0004        203.0004
  -7364991.82348  -5717249.43946  23060711.289    23060712.3394   23060720.1134
       169.0004        173.0004
  -5863977.30947  -4508322.84446  23204405.984    23204406.6204   23204413.6694
       163.0004        164.0004
 -21676189.78649 -16864819.37847  20945721.557    20945722.1354   20945725.3904
       204.0004        204.0004
 -19781280.49748 -15405039.04847  21365238.270    21365239.0384   21365247.0764
       192.0004        191.0004
  -2176374.93447  -1685889.32945  23363685.065    23363685.5944   23363690.8354
       158.0004        161.0004
 -12366788.82248  -9430848.83147  21787507.679    21787506.4964   21787511.8014
       187.0004        188.0004
 21  2  1  0 21  0.0000000  0  9G30G08G09G17G04G07G01G14G21
  -8872506.77548  -6884153.97046  22771123.361    22771123.9514   22771130.2964
       177.0004        179.0004
 -12022553.48249  -9354271.61847  22387575.557    22387576.0984   22387583.5444
       207.0004        206.0004
 -14894526.46349 -11575938.42847  21602076.413    21602076.5594   21602083.1154
       203.0004        203.0004
  -7442704.04348  -5777804.37046  23045924.441    23045924.4444   23045932.0964
       172.0004        173.0004
  -5766006.45047  -4431981.96346  23223049.969    23223049.6044   23223056.9244
       163.0004        164.0004
 -21736937.40549 -16912155.19647  20934161.041    20934161.4524   20934166.0124
       204.0004        204.0004
 -19836687.35648 -15448213.22947  21354693.906    21354694.7454   21354703.3684
       190.0004        190.0004
  -2202370.88447  -1706145.88745  23358737.843    23358738.6744   23358744.0864
       159.0004        160.0004
 -12350931.51848  -9418492.49046  21790524.452    21790523.6774   21790529.1874
       187.0004        186.0004
 21  2  1  0 21 30.0000000  0 10G30G28G08G09G17G04G07G01G14G21
  -8959764.17148  -6952146.71846  22754518.889    22754519.2814   22754525.9114
       178.0004        179.0004
   -699865.29854   -534752.93845  23671444.663
        74.0004        146.0004
 -11931410.83649  -9283251.37547  22404919.435    22404919.5564   22404928.1144
       206.0004        205.0004
 -14832276.30249 -11527431.81147  21613921.999    21613921.8714   21613929.4584
       203.0004        203.0004
  -7520064.44948  -5838085.14846  23031204.249    23031204.4364   23031210.2934
       174.0004        176.0004
  -5667989.98347  -4355605.51445  23241700.837    23241701.7814   23241708.0394
       162.0004        162.0004
 -21797406.43649 -16959273.91247  20922653.973    20922654.6864   20922659.1384
       204.0004        204.0004
 -19891712.30648 -15491089.78547  21344222.553    21344223.7764   21344232.7064
       190.0004        191.0004
  -2228368.78247  -1726403.96445  23353790.650    23353791.1784   23353796.3034
       158.0004        159.0004
 -12334578.61748  -9405749.94947  21793636.041    21793635.9364   21793640.8924
       187.0004        188.0004
 21  2  1  0 22  0.0000000  0 10G30G28G08G09G17G04G07G01G14G21
  -9046958.66948  -7020090.47046  22737927.068    22737926.7214   22737933.7654
       180.0004        181.0004
   -714803.05647   -546392.74045  23668602.845                    23668607.1434
       135.0004        147.0004
 -11840135.41549  -9212127.67647  22422288.614    22422288.7524   22422297.4934
       205.0004        205.0004
 -14769701.39249 -11478672.13947  21625828.831    21625829.2774   21625837.0844
       202.0004        202.0004
  -7597071.65348  -5898090.68346  23016549.270    23016549.7654   23016555.5014
       173.0004        174.0004
  -5569930.63347  -4279195.64945  23260359.943    23260360.7684   23260367.7384
       160.0004        161.0004
 -21857593.99749 -17006173.31147  20911201.826    20911201.9484   20911205.2064
       204.0004        204.0004
 -19946352.11248 -15533666.22047  21333825.463    21333826.0814   21333835.1414
       190.0004        191.0004
  -2254369.59947  -1746664.30445  23348842.904    23348843.2274   23348848.3084
       158.0004        161.0004
 -12317729.76248  -9392620.94846  21796842.878    21796842.2564   21796847.2754
       187.0004        186.0004
 21  2  1  0 22 30.0000000  0 10G30G28G08G09G17G04G07G01G14G21
  -9134089.98848  -7087984.97846  22721346.849    22721347.1584   22721353.7364
       181.0004        183.0004
   -729733.90047   -558027.10845  23665761.943    23665761.9484   23665766.4574
       145.0004        151.0004
 -11748732.05949  -9140904.29247  22439683.515    22439683.0024   22439690.9064
       206.0004        206.0004
 -14706806.59949 -11429663.21947  21637797.649    21637797.7034   21637805.4804
       201.0004        201.0004
  -7673726.04248  -5957821.29946  23001961.564    23001962.2484   23001968.4964
       172.0004        173.0004
  -5471833.19547  -4202756.12446  23279028.164    23279028.6944   23279035.8514
       160.0004        163.0004
 -21917499.09249 -17052852.61147  20899801.455    20899801.9204   20899806.5564
       204.0004        205.0004
 -20000605.69148 -15575941.71547  21323502.015    21323501.9894   21323511.1264
       190.0004        191.0004
  -2280376.33447  -1766929.26846  23343894.551    23343894.8284   23343900.6544
       161.0004        164.0004
 -12300386.70148  -9379106.84446  21800142.736    21800142.0864   21800147.3934
       186.0004        186.0004
 21  2  1  0 23  0.0000000  0 10G30G28G08G09G17G04G07G01G14G21
  -9221155.71748  -7155828.38846  22704778.614    22704778.4874   22704784.7084
       181.0004        180.0004
   -744659.28647   -569657.26745  23662920.817    23662921.1784   23662926.8854
       150.0004        154.0004
 -11657203.38149  -9069583.23547  22457099.851    22457100.3894   22457107.9624
       206.0004        206.0004
 -14643594.74849 -11380407.23247  21649826.251    21649826.4704   21649833.7274
       200.0004        200.0004
  -7750026.48048  -6017276.18246  22987443.329    22987443.7914   22987448.3834
       172.0004        172.0004
  -5373700.44947  -4126289.09246  23297702.328    23297702.9114   23297709.5664
       162.0004        164.0004
 -21977118.96649 -17099309.64347  20888456.004    20888456.3664   20888461.3464
       204.0004        205.0004
 -20054470.03748 -15617913.91047  21313252.770    21313252.5304   21313260.4284
       191.0004        192.0004
  -2306390.08847  -1787199.71046  23338943.887    23338944.8204   23338949.5864
       162.0004        163.0004
 -12282548.99348  -9365207.31646  21803536.737    21803536.4704   21803541.3734
       186.0004        186.0004
 21  2  1  0 23 30.0000000  0 10G30G28G08G09G17G04G07G01G14G21
  -9308152.94548  -7223618.42146  22688222.861    22688223.5644   22688229.8114
       180.0004        180.0004
   -759580.09947   -581283.83445  23660080.926    23660081.1424   23660085.7424
       149.0004        152.0004
 -11565551.55949  -8998166.23447  22474539.615    22474540.5434   22474549.0424
       206.0004        205.0004
 -14580068.13849 -11330905.97747  21661914.775    21661915.0534   21661922.8984
       200.0004        200.0004
  -7825970.61548  -6076453.37146  22972991.476    22972991.7204   22972997.9764
       173.0004        175.0004
  -5275534.57147  -4049796.23746  23316382.390    23316383.5074   23316390.3604
       162.0004        164.0004
 -22036450.48649 -17145541.99347  20877165.706    20877166.5094   20877170.3944
       204.0004        205.0004
 -20107941.46648 -15659579.93747  21303077.180    21303077.3084   21303084.8854
       192.0004        193.0004
  -2332411.33947  -1807475.97446  23333993.379    23333993.5944   23333998.0164
       163.0004        164.0004
 -12264215.79848  -9350921.68646  21807025.794    21807025.1324   21807030.4014
       185.0004        185.0004
 21  2  1  0 24  0.0000000  0 10G30G28G08G09G17G04G07G01G14G21
  -9395077.07748  -7291351.49646  22671681.222    22671681.3934   22671687.7254
       178.0004        178.0004
   -774495.56247   -592906.22745  23657243.952    23657243.4384   23657249.1484
       150.0004        153.0004
 -11473777.05149  -8926653.62447  22492005.122    22492004.7434   22492012.6594
       205.0004        204.0004
 -14516227.39549 -11281159.94247  21674063.772    21674063.7314   21674070.5984
       200.0004        199.0004
  -7901554.96848  -6135350.23146  22958607.897    22958608.2274   22958612.9394
       174.0004        174.0004
  -5177336.12747  -3973278.00746  23335069.591    23335069.9374   23335076.5464
       162.0004        163.0004
 -22095488.15449 -17191545.36347  20865931.224    20865931.9034   20865935.7934
       204.0004        204.0004
 -20161014.73448 -15700935.71947  21292977.404    21292978.2384   21292986.0594
       193.0004        194.0004
  -2358438.87447  -1827757.13945  23329040.018    23329040.1544   23329045.0854
       161.0004        161.0004
 -12245384.72548  -9336248.10346  21810609.096    21810609.2214   21810614.0214
       186.0004        187.0004
 21  2  1  0 24 30.0000000  0 10G30G28G08G09G17G04G07G01G14G21
  -9481925.48348  -7359025.60846  22655155.503    22655154.9144   22655161.6034
       180.0004        181.0004
   -789407.20247   -604525.67645  23654406.283    23654406.0414   23654410.1614
       151.0004        154.0004
 -11381882.14349  -8855047.22047  22509491.639    22509491.3044   22509499.2084
       204.0004        203.0004
 -14452075.17749 -11231171.21547  21686270.912    21686271.1424   21686278.9154
       199.0004        200.0004
  -7976777.68448  -6193965.30346  22944292.505    22944293.4364   22944297.0384
       172.0004        171.0004
  -5079107.68947  -3896736.41446  23353762.586    23353762.9134   23353768.4634
       162.0004        163.0004
 -22154229.40249 -17237317.77547  20854754.162    20854754.4094   20854758.0264
       205.0004        205.0004
 -20213686.62948 -15741978.75947  21282954.249    21282954.8024   21282963.1694
       194.0004        195.0004
  -2384473.59547  -1848043.92045  23324084.732    23324085.9534   23324091.3714
       158.0004        159.0004
 -12226055.51848  -9321186.36846  21814287.314    21814287.0134   21814292.8684
       186.0004        186.0004
 21  2  1  0 25  0.0000000  0 10G30G28G08G09G17G04G07G01G14G21
  -9568696.08148  -7426639.02646  22638643.242    22638643.6924   22638650.4504
       182.0004        183.0004
   -804316.55647   -616143.32245  23651568.254    23651568.3934   23651572.6794
       151.0004        154.0004
 -11289869.72049  -8783349.22647  22526999.881    22527000.4404   22527009.3414
       202.0004        202.0004
 -14387614.65249 -11180942.24347  21698537.886    21698538.1224   21698545.3264
       199.0004        199.0004
  -8051637.69248  -6252297.74246  22930047.161    22930048.2074   22930052.1394
       169.0004        171.0004
  -4980852.26847  -3820173.77046  23372460.841    23372459.9914   23372466.1504
       162.0004        163.0004
 -22212671.47149 -17282857.04747  20843632.046    20843632.7724   20843636.3754
       205.0004        205.0004
 -20265954.37749 -15782706.85047  21273008.502    21273008.6804   21273016.8754
       195.0004        195.0004
  -2410516.73047  -1868337.25345  23319129.486    23319129.7384   23319134.5004
       157.0004        159.0004
 -12206228.02848  -9305736.35046  21818060.840    21818060.2294   21818064.8784
       186.0004        186.0004
 21  2  1  0 25 30.0000000  0 10G30G28G08G09G17G04G07G01G14G21
  -9655387.18648  -7494190.50846  22622146.636    22622146.0594   22622152.9474
       182.0004        182.0004
   -819225.70547   -627760.80145  23648731.542    23648731.7274   23648736.3964
       152.0004        155.0004
 -11197743.52949  -8711562.58047  22544531.120    22544531.7604   22544540.2534
       202.0004        203.0004
 -14322849.39749 -11130475.79947  21710862.611    21710862.8174   21710869.8764
       199.0004        200.0004
  -8126133.72548  -6310346.55146  22915872.662    22915872.5494   22915876.5114
       171.0004        172.0004
  -4882573.36947  -3743592.82645  23391162.382    23391162.0324   23391168.0994
       161.0004        162.0004
 -22270812.34549 -17328161.61147  20832568.348    20832568.9644   20832572.6074
       204.0004        205.0004
 -20317815.71849 -15823118.26247  21263139.991    21263139.9074   21263147.8224
       195.0004        195.0004
  -2436570.02247  -1888638.50245  23314171.185    23314171.4804   23314176.3204
       156.0004        157.0004
 -12185902.51148  -9289898.25546  21821927.860    21821927.8874   21821933.2684
       186.0004        185.0004
 21  2  1  0 26  0.0000000  0 10G30G28G08G09G17G04G07G01G14G21
  -9741996.74548  -7561678.46346  22605665.452    22605665.3434   22605672.6254
       181.0004        182.0004
   -834135.96847   -639379.16445  23645894.260    23645893.8934   23645898.4894
       153.0004        155.0004
 -11105506.23849  -8639689.36547  22562083.813    22562084.3144   22562092.8854
       203.0004        204.0004
 -14257782.65249 -11079774.44547  21723244.528    21723244.6304   21723252.0574
       200.0004        200.0004
  -8200265.90048  -6368111.84946  22901765.487    22901765.2944   22901769.6894
       173.0004        174.0004
  -4784274.03547  -3666995.97245  23409866.977    23409867.8734   23409873.2514
       160.0004        159.0004
 -22328649.37649 -17373229.42647  20821562.360    20821563.1654   20821566.8974
       205.0004        205.0004
 -20369268.00849 -15863210.95447  21253348.174    21253349.2474   21253356.6564
       195.0004        195.0004
  -2462634.81547  -1908948.71745  23309210.014    23309210.3024   23309218.0474
       155.0004        158.0004
 -12165079.72148  -9273672.68646  21825890.335    21825890.0784   21825895.6244
       186.0004        186.0004
 21  2  1  0 26 30.0000000  0 10G30G28G08G09G17G04G07G01G14G21
  -9828521.64448  -7629100.46246  22589199.974    22589200.2264   22589206.4344
       180.0004        180.0004
   -849048.91147   -650999.59145  23643056.483    23643056.3494   23643060.6724
       152.0004        154.0004
 -11013160.29649  -8567731.50347  22579656.342    22579656.7534   22579666.0254
       203.0004        203.0004
 -14192416.61649 -11028839.89347  21735682.432    21735682.6684   21735690.5174
       199.0004        199.0004
  -8274031.52848  -6425591.52346  22887726.983    22887727.8724   22887732.9094
       172.0004        174.0004
  -4685956.36947  -3590384.83645  23428574.511    23428576.0044   23428582.6944
       158.0004        159.0004
 -22386179.34249 -17418057.97747  20810615.533    20810615.2914   20810619.5414
       205.0004        206.0004
 -20420307.60749 -15902982.06647  21243636.130    21243636.2614   21243643.9394
       195.0004        196.0004
  -2488711.41947  -1929268.13045  23304250.034    23304250.3184   23304254.2984
       155.0004        158.0004
 -12143758.44848  -9257058.69246  21829948.416    21829947.4084   21829952.9214
       185.0004        185.0004
 21  2  1  0 27  0.0000000  0 10G30G28G08G09G17G04G07G01G14G21
  -9914959.85048  -7696454.88046  22572750.542    22572750.7234   22572758.1524
       181.0004        182.0004
   -863966.03047   -662623.25445  23640217.668    23640217.4574   23640222.5034
       153.0004        157.0004
 -10920708.61549  -8495691.21847  22597247.747    22597248.9484   22597258.0494
       202.0004        201.0004
 -14126754.59449 -10977674.69247  21748178.067    21748178.2544   21748185.1224
       199.0004        199.0004
  -8347429.20648  -6482784.48446  22873760.987    22873761.8394   22873764.9204
       172.0004        173.0004
  -4587623.43447  -3513761.80045  23447288.625    23447287.8574   23447295.5354
       157.0004        158.0004
 -22443399.65949 -17462645.23147  20799725.802    20799726.7114   20799730.8824
       205.0004        206.0004
 -20470931.88449 -15942429.54047  21234001.974    21234002.7854   21234011.0694
       195.0004        195.0004
  -2514801.26747  -1949597.86145  23299284.471    23299284.3724   23299289.7274
       158.0004        160.0004
 -12121939.13348  -9240056.59646  21834100.598    21834099.5894   21834105.1114
       186.0004        186.0004
 21  2  1  0 27 30.0000000  0 10G30G28G08G09G17G04G07G01G14G21
 -10001309.45148  -7763740.28246  22556319.176    22556319.9944   22556326.5794
       180.0004        180.0004
   -878889.29047   -674251.72445  23637378.420    23637378.2924   23637382.2504
       153.0004        155.0004
 -10828154.04849  -8423570.79147  22614860.423    22614861.3184   22614871.0234
       200.0004        200.0004
 -14060800.01249 -10926281.52447  21760728.254    21760728.7164   21760735.7474
       199.0004        199.0004
  -8420458.56548  -6539690.44346  22859864.285    22859864.0434   22859868.8724
       173.0004        174.0004
  -4489278.52847  -3437129.48245  23466003.275    23466003.2974   23466008.6714
       157.0004        160.0004
 -22500307.91349 -17506989.33647  20788897.130    20788897.3304   20788901.6204
       206.0004        206.0004
 -20521138.48349 -15981551.55347  21224449.002    21224448.9854   21224456.9794
       195.0004        195.0004
  -2540905.91147  -1969939.14345  23294317.005    23294317.3214   23294322.9434
       159.0004        162.0004
 -12099622.11348  -9222666.69246  21838346.668    21838346.6474   21838352.2434
       186.0004        186.0004
 21  2  1  0 28  0.0000000  0 10G30G28G08G09G17G04G07G01G14G21
 -10087568.08848  -7830954.77446  22539904.784    22539905.3474   22539912.6304
       179.0004        180.0004
   -893820.15147   -685886.11245  23634535.046    23634535.1104   23634541.5004
       150.0004        151.0004
 -10735499.31249  -8351372.30147  22632493.832    22632493.7364   22632503.0544
       200.0004        200.0004
 -13994555.79149 -10874662.64647  21773335.074    21773334.9024   21773341.9684
       198.0004        199.0004
  -8493117.84148  -6596308.01346  22846036.401    22846037.0984   22846042.7604
       175.0004        175.0004
  -4390924.40247  -3360489.94045  23484719.084    23484719.5024   23484724.9144
       155.0004        156.0004
 -22556901.34149 -17551088.10147  20778127.831    20778128.0694   20778132.1224
       206.0004        206.0004
 -20570924.44849 -16020345.78747  21214974.105    21214974.7464   21214982.9584
       195.0004        195.0004
  -2567026.34547  -1990292.71245  23289345.457    23289346.7574   23289351.9854
       161.0004        162.0004
 -12076807.20548  -9204888.81946  21842688.002    21842687.7974   21842692.7524
       186.0004        186.0004
 21  2  1  0 28 30.0000000  0 10G30G28G08G09G17G04G07G01G14G21
 -10173733.19848  -7898096.38746  22523508.117    22523507.7324   22523515.4894
       179.0004        179.0004
   -908760.11347   -697527.61145  23631693.181    23631693.1644   23631697.2634
       149.0004        152.0004
 -10642746.85049  -8279097.64647  22650144.829    22650144.6954   22650153.5344
       201.0004        202.0004
 -13928024.84249 -10822820.35047  21785995.405    21785995.4894   21786002.7964
       199.0004        199.0004
  -8565406.28648  -6652636.65546  22832279.972    22832280.8864   22832286.8544
       174.0004        175.0004
  -4292563.74147  -3283845.28245  23503435.755    23503435.8934   23503443.2504
       153.0004        154.0004
 -22613177.39549 -17594939.56647  20767418.363    20767419.0924   20767423.2674
       206.0004        207.0004
 -20620286.84748 -16058809.97247  21205580.288    21205580.4744   21205589.1414
       194.0004        194.0004
  -2593163.56847  -2010659.33946  23284373.229    23284373.4244   23284379.0144
       162.0004        163.0004
 -12053494.91648  -9186723.36946  21847124.792    21847123.8374   21847128.9104
       185.0004        185.0004
 21  2  1  0 29  0.0000000  0 10G30G28G08G09G17G04G07G01G14G21
 -10259802.77148  -7965163.59246  22507130.133    22507130.1414   22507136.5014
       178.0004        180.0004
   -923711.08147   -709177.69745  23628847.788    23628847.7514   23628853.4554
       150.0004        154.0004
 -10549899.97649  -8206749.43847  22667813.421    22667812.6684   22667820.8704
       201.0004        201.0004
 -13861210.46949 -10770757.20547  21798709.155    21798709.7034   21798716.3774
       198.0004        198.0004
  -8637322.98648  -6708675.60546  22818596.417    22818596.6994   22818601.2974
       175.0004        178.0004
  -4194199.57047  -3207197.90645  23522154.724    23522154.6194   23522161.8254
       153.0004        156.0004
 -22669133.72649 -17638541.90847  20756770.194    20756770.6104   20756775.0754
       206.0004        206.0004
 -20669223.12348 -16096942.13447  21196267.576    21196268.3294   21196276.5444
       193.0004        194.0004
  -2619318.85147  -2031040.05846  23279394.894    23279396.3084   23279401.5234
       162.0004        163.0004
 -12029685.14048  -9168170.28746  21851655.419    21851655.3424   21851659.9324
       186.0004        186.0004
 21  2  1  0 29 30.0000000  0 10G30G28G08G09G17G04G07G01G14G21
 -10345774.78548  -8032154.77746  22490769.974    22490770.2094   22490776.4404
       179.0004        180.0004
   -938674.76347   -720837.71845  23626000.567    23626000.4134   23626005.1804
       151.0004        154.0004
 -10456961.61149  -8134329.95347  22685496.621    22685497.0144   22685505.9964
       200.0004        199.0004
 -13794116.03849 -10718475.84247  21811478.068    21811477.7014   21811484.1594
       198.0004        198.0004
  -8708867.18848  -6764424.31446  22804980.994    22804981.3054   22804987.0524
       177.0004        178.0004
  -4095835.12047  -3130550.35745  23540873.026    23540873.0744   23540880.2014
       154.0004        157.0004
 -22724767.99249 -17681893.29347  20746182.979    20746183.5014   20746188.1404
       206.0004        206.0004
 -20717730.90448 -16134740.39947  21187037.683    21187038.2504   21187046.1354
       194.0004        195.0004
  -2645493.71847  -2051436.06445  23274414.397    23274414.8644   23274419.6514
       161.0004        162.0004
 -12005378.92748  -9149230.37446  21856280.701    21856280.4254   21856285.6284
       185.0004        186.0004
 21  2  1  0 30  0.0000000  0 10G30G28G08G09G17G04G07G01G14G21
 -10431646.05948  -8099067.44446  22474428.687    22474428.4314   22474435.7704
       180.0004        181.0004
   -953651.53447   -732507.90645  23623151.312    23623151.6104   23623155.5314
       151.0004        153.0004
 -10363933.69949  -8061840.67347  22703198.900    22703199.7414   22703209.2014
       198.0004        198.0004
 -13726743.78049 -10665977.98247  21824297.751    21824298.2494   21824305.5104
       198.0004        198.0004
  -8780036.20348  -6819880.66246  22791437.299    22791437.8214   22791443.8014
       176.0004        176.0004
  -3997472.37347  -3053904.10545  23559591.012    23559591.2254   23559599.1034
       155.0004        157.0004
 -22780076.48449 -17724990.81447  20735657.929    20735658.7924   20735663.1094
       206.0004        206.0004
 -20765806.51349 -16172201.89047  21177889.184    21177889.6594   21177897.4644
       195.0004        195.0004
  -2671688.36647  -2071847.47646  23269430.882    23269431.1594   23269435.1524
       162.0004        165.0004
 -11980575.05448  -9129902.65346  21861001.729    21861000.9894   21861005.4124
       186.0004        186.0004
 21  2  1  0 30 30.0000000  0 10G30G28G08G09G17G04G07G01G14G21
 -10517414.33848  -8165899.83946  22458107.092    22458107.0674   22458114.4144
       179.0004        179.0004
   -968643.57047   -744189.98645  23620298.758    23620297.3154   23620302.7874
       150.0004        153.0004
 -10270819.05849  -7989283.81047  22720920.283    22720919.2944   22720928.6644
       198.0004        198.0004
 -13659096.83049 -10613266.07147  21837170.004    21837170.1094   21837177.8914
       197.0004        196.0004
  -8850829.51548  -6875044.24446  22777966.793    22777967.0884   22777972.5444
       175.0004        175.0004
  -3899114.18547  -2977261.39145  23578307.274    23578307.4154   23578315.0504
       156.0004        157.0004
 -22835056.79249 -17767832.61047  20725196.409    20725196.6994   20725201.0504
       206.0004        207.0004
 -20813447.34349 -16209324.59347  21168823.114    21168823.8684   21168832.3364
       195.0004        196.0004
  -2697903.98947  -2092275.23446  23264441.316    23264442.0784   23264447.2494
       164.0004        167.0004
 -11955273.85048  -9110187.41046  21865815.830    21865814.9444   21865820.4424
       186.0004        186.0004
 21  2  1  0 31  0.0000000  0 10G30G28G08G09G17G04G07G01G14G21
 -10603077.02148  -8232649.97646  22441806.979    22441806.7974   22441813.6604
       179.0004        180.0004
   -983652.13747   -755884.98145  23617441.335    23617441.4954   23617446.4924
       152.0004        155.0004
 -10177620.39049  -7916661.47647  22738653.494    22738654.2744   22738664.3744
       199.0004        200.0004
 -13591178.03049 -10560342.32847  21850094.523    21850094.5534   21850102.2714
       195.0004        194.0004
  -8921245.88548  -6929914.12446  22764566.232    22764566.8704   22764571.6144
       174.0004        175.0004
  -3800763.15647  -2900624.27745  23597023.249    23597023.2694   23597030.3974
       154.0004        155.0004
 -22889706.05449 -17810416.44947  20714796.538    20714797.0724   20714801.1514
       206.0004        207.0004
 -20860650.43349 -16246106.20347  21159841.246    21159841.8334   21159849.7524
       196.0004        196.0004
  -2724141.43348  -2112719.97646  23259448.590    23259449.4544   23259453.6004
       165.0004        166.0004
 -11929475.44748  -9090084.74546  21870725.010    21870724.4834   21870728.8714
       185.0004        185.0004
 21  2  1  0 31 30.0000000  0 10G30G28G08G09G17G04G07G01G14G21
 -10688630.36648  -8299314.90946  22425526.383    22425526.3054   22425532.8614
       179.0004        180.0004
   -998677.42647   -767592.97845  23614582.633    23614583.2824   23614587.7974
       153.0004        156.0004
 -10084338.71349  -7843974.45447  22756404.661    22756405.2224   22756414.8594
       199.0004        199.0004
 -13522989.08648 -10507208.10047  21863070.241    21863070.4694   21863078.9454
       194.0004        194.0004
  -8991282.73448  -6984488.27146  22751239.614    22751239.9174   22751244.2754
       175.0004        177.0004
  -3702420.71147  -2823993.86745  23615737.451    23615737.4754   23615743.3484
       153.0004        155.0004
 -22944020.02949 -17852739.03047  20704461.016    20704461.5364   20704465.7494
       206.0004        207.0004
 -20907411.68249 -16282543.53247  21150942.854    21150943.2904   21150951.7074
       197.0004        197.0004
  -2750400.41348  -2133181.48446  23254452.219    23254452.6314   23254457.0794
       166.0004        168.0004
 -11903178.73848  -9069593.79446  21875729.010    21875727.9184   21875733.1284
       185.0004        185.0004
 21  2  1  0 32  0.0000000  0 10G30G28G08G09G17G04G07G01G14G21
 -10774073.29948  -8365893.81346  22409267.230    22409267.4724   22409273.8764
       180.0004        182.0004
  -1013721.91547   -779315.93445  23611720.371    23611719.6624   23611724.2814
       154.0004        157.0004
  -9990977.85349  -7771225.72747  22774171.314    22774171.1434   22774180.6694
       198.0004        198.0004
 -13454534.33848 -10453866.74947  21876095.107    21876096.0274   21876104.8624
       193.0004        192.0004
  -9060940.32248  -7038766.89146  22737983.887    22737984.4024   22737988.7794
       176.0004        177.0004
  -3604090.91147  -2747373.29545  23634447.529    23634448.8784   23634455.0954
       153.0004        156.0004
 -22997997.89249 -17894799.69947  20694189.604    20694190.1374   20694194.3354
       207.0004        208.0004
 -20953729.73649 -16318635.50747  21142128.360    21142129.1224   21142137.1004
       197.0004        197.0004
  -2776683.30348  -2153661.64546  23249450.349    23249451.0204   23249456.5744
       166.0004        168.0004
 -11876385.49648  -9048715.93046  21880827.017    21880826.6514   21880831.4804
       185.0004        185.0004
 21  2  1  0 32 30.0000000  0 10G30G28G08G09G17G04G07G01G14G21
 -10859403.08448  -8432384.55346  22393030.232    22393029.5454   22393036.0654
       181.0004        181.0004
  -1028786.73947   -791054.73545  23608853.974    23608853.7224   23608857.8884
       155.0004        158.0004
  -9897540.19049  -7698417.16247  22791951.694    22791951.8314   22791961.4864
       196.0004        195.0004
 -13385816.52748 -10400320.42947  21889172.582    21889172.6804   21889180.7434
       192.0004        192.0004
  -9130216.93748  -7092748.64246  22724800.994    22724801.8224   22724806.1534
       177.0004        177.0004
  -3505776.17547  -2670764.46745  23653158.393    23653158.3084   23653164.1754
       154.0004        157.0004
 -23051636.22049 -17936595.80847  20683982.414    20683983.0554   20683986.9284
       207.0004        207.0004
 -20999601.50949 -16354379.72847  21133398.740    21133399.9924   21133408.1614
       197.0004        198.0004
  -2802990.76548  -2174160.96246  23244444.654    23244444.8384   23244450.3094
       168.0004        169.0004
 -11849095.10148  -9027450.68346  21886020.603    21886019.8214   21886024.8934
       185.0004        185.0004
 21  2  1  0 33  0.0000000  0 10G30G28G08G09G17G04G07G01G14G21
 -10944617.84848  -8498785.66246  22376814.058    22376813.6394   22376820.4754
       181.0004        182.0004
  -1043874.13147   -802811.13845  23605981.838    23605981.7694   23605987.1254
       155.0004        159.0004
  -9804029.03849  -7625551.34247  22809747.602    22809746.9384   22809755.4834
       195.0004        195.0004
 -13316839.22448 -10346571.91147  21902298.647    21902299.2004   21902307.3324
       192.0004        193.0004
  -9199111.88148  -7146432.98946  22711691.782    22711691.6224   22711695.9404
       176.0004        177.0004
  -3407479.82947  -2594169.96145  23671861.855    23671862.7934   23671869.8044
       154.0004        156.0004
 -23104932.73549 -17978125.56647  20673840.628    20673841.0324   20673845.3334
       207.0004        208.0004
 -21045024.83449 -16389774.52647  21124755.976    21124756.6534   21124764.3194
       198.0004        198.0004
  -2829324.37548  -2194680.63946  23239432.918    23239433.8344   23239437.8364
       168.0004        168.0004
 -11821308.54948  -9005798.81846  21891308.195    21891307.6414   21891312.3284
       185.0004        185.0004
 21  2  1  0 33 30.0000000  0 10G30G28G08G09G17G04G07G01G14G21
 -11029714.12348  -8565094.44146  22360620.876    22360620.9704   22360627.5204
       183.0004        185.0004
  -1058984.34147   -814585.32645  23603106.772    23603106.5544   23603112.6984
       154.0004        155.0004
  -9710446.14849  -7552629.61347  22827555.196    22827555.0624   22827563.4314
       195.0004        195.0004
 -13247604.53148 -10292622.81247  21915475.345    21915475.3444   21915482.5454
       194.0004        195.0004
  -9267623.54248  -7199818.67246  22698652.527    22698653.0494   22698658.5994
       174.0004        174.0004
  -3309203.59447  -2517591.13845  23690562.978    23690564.1074   23690571.5504
       154.0004        156.0004
 -23157883.69449 -18019386.04947  20663764.333    20663764.8614   20663769.0764
       207.0004        208.0004
 -21089996.07049 -16424817.03647  21116198.355    21116198.5124   21116206.6884
       198.0004        198.0004
  -2855684.14348  -2215220.70646  23234417.704    23234417.4374   23234422.4994
       168.0004        169.0004
 -11793024.87248  -8983759.57346  21896689.619    21896689.4644   21896694.8924
       184.0004        185.0004
 21  2  1  0 34  0.0000000  0 10G30G28G08G09G17G04G07G01G14G21
 -11114689.04148  -8631308.64346  22344450.807    22344451.0064   22344456.7944
       185.0004        186.0004
  -1074118.68047   -826378.29345  23600226.847    23600227.0494   23600231.6024
       153.0004        157.0004
  -9616793.47049  -7479653.47547  22845376.044    22845376.2784   22845384.4864
       195.0004        195.0004
 -13178114.99549 -10238475.10447  21928698.799    21928699.1454   21928705.7874
       196.0004        197.0004
  -9335750.23748  -7252904.39246  22685689.212    22685689.3094   22685694.1374
       174.0004        175.0004
  -3210949.71547  -2441029.72045  23709259.226    23709261.4374   23709268.7784
       154.0004        157.0004
 -23210486.53149 -18060375.25847  20653755.224    20653755.1624   20653759.0684
       207.0004        208.0004
 -21134512.07549 -16459504.80947  21107726.614    21107727.5184   21107735.2104
       198.0004        198.0004
  -2882070.62248  -2235781.58746  23229396.305    23229396.4554   23229400.7354
       168.0004        166.0004
 -11764244.04848  -8961332.92146  21902166.810    21902166.4074   21902171.9364
       184.0004        185.0004
 21  2  1  0 34 30.0000000  0 10G30G28G08G09G17G04G07G01G14G21
 -11199539.85448  -8697426.15446  22328303.809    22328303.8624   22328310.1434
       186.0004        186.0004
  -1089277.99047   -838190.70945  23597343.101    23597342.5814   23597346.9314
       154.0004        156.0004
  -9523073.60649  -7406625.01447  22863209.967    22863210.9014   22863219.7914
       195.0004        196.0004
 -13108373.40249 -10184131.01847  21941970.223    21941970.4074   21941976.7894
       197.0004        197.0004
  -9403490.78648  -7305689.20546  22672798.424    22672798.6624   22672803.5564
       174.0004        175.0004
  -3112720.61647  -2364487.64545  23727953.275    23727953.7354   23727961.6324
       155.0004        157.0004
 -23262737.97349 -18101090.66947  20643810.814    20643811.4894   20643816.0374
       207.0004        208.0004
 -21178569.89949 -16493835.57347  21099343.007    21099343.6464   21099351.5654
       198.0004        198.0004
  -2908484.53248  -2256363.83446  23224368.520    23224368.8674   23224374.1714
       165.0004        164.0004
 -11734966.46748  -8938519.22046  21907738.046    21907738.3224   21907742.9744
       184.0004        184.0004
 21  2  1  0 35  0.0000000  0 10G30G28G08G09G17G04G07G01G14G21
 -11284265.20448  -8763445.90946  22312181.306    22312181.6674   22312187.9464
       186.0004        187.0004
  -1104465.01147   -850024.73845  23594451.578    23594451.7954   23594456.4924
       154.0004        155.0004
  -9429289.70548  -7333546.66547  22881056.424    22881056.7454   22881066.0204
       194.0004        193.0004
 -13038383.81849 -10129593.68247  21955289.402    21955289.6124   21955295.2194
       197.0004        198.0004
  -9470845.15948  -7358173.11246  22659980.318    22659980.8594   22659986.4844
       173.0004        174.0004
  -3014520.00447  -2287967.76045  23746640.035    23746640.4944   23746647.6224
       155.0004        157.0004
 -23314636.45549 -18141531.05447  20633935.356    20633935.7994   20633939.8124
       207.0004        208.0004
 -21222167.94849 -16527808.06247  21091046.742    21091047.0384   21091054.9444
       198.0004        198.0004
  -2934927.88047  -2276969.02846  23219336.279    23219337.8574   23219342.1054
       163.0004        165.0004
 -11705193.30548  -8915319.32846  21913404.026    21913403.4714   21913408.9784
       184.0004        185.0004
 21  2  1  0 35 30.0000000  0 10G30G28G08G09G17G04G07G01G14G21
 -11368862.52848  -8829365.89646  22296082.396    22296082.8954   22296089.7504
       186.0004        187.0004
  -1119681.07747   -861881.40145  23591556.857    23591555.3374   23591561.3044
       154.0004        157.0004
  -9335444.59648  -7260420.63047  22898916.512    22898916.0014   22898923.8324
       193.0004        193.0004
 -12968149.32149 -10074865.50847  21968654.771    21968654.4014   21968661.3404
       198.0004        198.0004
  -9537812.37448  -7410355.34046  22647237.019    22647237.8234   22647242.7354
       175.0004        176.0004
  -2916350.62547  -2211472.21645  23765320.290    23765321.8344   23765329.0464
       155.0004        157.0004
 -23366179.24049 -18181694.26947  20624126.694    20624127.2354   20624131.8554
       207.0004        208.0004
 -21265303.54949 -16561420.22047  21082837.649    21082838.6944   21082846.8614
       198.0004        198.0004
  -2961401.66747  -2297597.92046  23214300.649    23214300.1404   23214304.5484
       164.0004        166.0004
 -11674924.86048  -8891733.51746  21919164.342    21919163.0474   21919168.6104
       185.0004        185.0004
 21  2  1  0 36  0.0000000  0 10G30G28G08G09G17G04G07G01G14G21
 -11453329.25748  -8895184.11646  22280009.459    22280009.1594   22280015.7544
       187.0004        187.0004
  -1134927.53947   -873761.76045  23588655.207    23588655.3314   23588659.8024
       154.0004        156.0004
  -9241540.66748  -7187248.73247  22916784.366    22916784.1104   22916793.5594
       193.0004        193.0004
 -12897672.79049 -10019948.73347  21982064.721    21982065.1574   21982071.8404
       196.0004        195.0004
  -9604391.45548  -7462235.13146  22634567.929    22634568.6204   22634573.5324
       174.0004        177.0004
  -2818215.00247  -2135002.95645  23783995.360    23783995.9214   23784003.6614
       155.0004        156.0004
 -23417363.78549 -18221578.33247  20614387.475    20614387.4834   20614391.3944
       208.0004        208.0004
 -21307974.00549 -16594669.90447  21074717.865    21074718.8214   21074726.7124
       198.0004        199.0004
  -2987906.67848  -2318251.15346  23209254.803    23209255.5764   23209261.2564
       165.0004        166.0004
 -11644161.59048  -8867762.11646  21925016.935    21925017.2594   21925022.4464
       184.0004        184.0004
 21  2  1  0 36 30.0000000  0 10G30G28G08G09G17G04G07G01G14G21
 -11537661.91148  -8960897.87347  22263961.960    22263961.7214   22263967.5784
       187.0004        188.0004
  -1150204.57547   -885665.91845  23585747.814    23585747.2414   23585752.7754
       153.0004        154.0004
  -9147579.65148  -7114032.34647  22934663.590    22934663.8884   22934673.3234
       192.0004        193.0004
 -12826956.36649  -9964845.02147  21995520.478    21995521.2014   21995529.3264
       195.0004        195.0004
  -9670580.16848  -7513810.71046  22621973.575    22621973.4594   22621977.9844
       176.0004        178.0004
  -2720114.84247  -2058561.34645  23802663.753    23802663.8284   23802672.4024
       154.0004        157.0004
 -23468186.26149 -18261180.25247  20604715.457    20604716.0974   20604720.5814
       208.0004        208.0004
 -21350175.74949 -16627554.35447  21066686.736    21066687.4214   21066696.2554
       198.0004        198.0004
  -3014442.94347  -2338928.71946  23204205.340    23204205.6104   23204211.9174
       164.0004        166.0004
 -11612902.82648  -8843404.60746  21930965.057    21930965.5364   21930970.8454
       184.0004        184.0004
 21  2  1  0 37  0.0000000  0 10G30G28G08G09G17G04G07G01G14G21
 -11621859.24448  -9026506.18047  22247938.481    22247938.7944   22247946.2064
       187.0004        188.0004
  -1165515.11547   -897596.22145  23582834.167    23582834.6354   23582838.6234
       151.0004        153.0004
  -9053565.06048  -7040774.22047  22952554.611    22952554.6994   22952564.6304
       193.0004        194.0004
 -12756004.23948  -9909557.65847  22009021.908    22009022.8934   22009030.8404
       194.0004        193.0004
  -9736379.07948  -7565082.55546  22609452.336    22609452.9364   22609456.3944
       178.0004        179.0004
  -2622053.97947  -1982150.35845  23821324.478    23821324.6074   23821332.3464
       154.0004        157.0004
 -23518645.41549 -18300499.07047  20595113.845    20595114.1414   20595118.4204
       208.0004        209.0004
 -21391907.36049 -16660072.47647  21058745.882    21058746.8344   21058754.4774
       198.0004        197.0004
  -3041012.61147  -2359632.35145  23199150.098    23199150.6994   23199155.7904
       163.0004        162.0004
 -11581150.22348  -8818662.28846  21937008.519    21937007.9944   21937012.8284
       184.0004        185.0004
 21  2  1  0 37 30.0000000  0 10G30G28G08G09G17G04G07G01G14G21
 -11705918.36348  -9092006.77747  22231942.785    22231942.8014   22231950.2174
       188.0004        189.0004
  -1180859.90647   -909553.19945  23579914.772    23579913.4754   23579917.3544
       149.0004        151.0004
  -8959499.09348  -6967476.06947  22970455.285    22970454.5714   22970465.0924
       192.0004        192.0004
 -12684819.12048  -9854088.75947  22022569.229    22022569.7554   22022576.4864
       193.0004        193.0004
  -9801786.55948  -7616049.39846  22597005.795    22597005.8914   22597010.5284
       178.0004        179.0004
  -2524034.71247  -1905771.77545  23839978.265    23839977.8094   23839984.2894
       155.0004        158.0004
 -23568738.13849 -18339532.36747  20585580.543    20585581.6374   20585585.9284
       208.0004        209.0004
 -21433165.94049 -16692222.00147  21050895.064    21050895.2324   21050903.3464
       197.0004        197.0004
  -3067616.21347  -2380362.43246  23194087.838    23194088.3214   23194092.3104
       162.0004        163.0004
 -11548904.10148  -8793535.43246  21943144.791    21943144.5184   21943149.5464
       184.0004        184.0004
 21  2  1  0 38  0.0000000  0 10G30G28G08G09G17G04G07G01G14G21
 -11789837.69448  -9157398.47147  22215974.279    22215974.4114   22215981.4694
       190.0004        192.0004
  -1196241.67947   -921538.95745  23576987.104    23576986.9754   23576991.7664
       149.0004        152.0004
  -8865385.57948  -6894140.88047  22988365.741    22988365.2374   22988374.0124
       193.0004        193.0004
 -12613405.05248  -9798441.43447  22036159.014    22036158.9624   22036166.7354
       193.0004        193.0004
  -9866802.55748  -7666711.21346  22584632.895    22584633.1634   22584637.7334
       179.0004        179.0004
  -2426060.67647  -1829428.43845  23858621.991    23858621.5814   23858628.7444
       154.0004        156.0004
 -23618462.88349 -18378278.92547  20576119.018    20576119.4584   20576123.8254
       208.0004        209.0004
 -21473949.87549 -16724001.68147  21043133.770    21043134.0634   21043142.7064
       197.0004        196.0004
  -3094255.71047  -2401120.46446  23189016.850    23189017.5414   23189023.7744
       162.0004        164.0004
 -11516165.50248  -8768024.80946  21949374.685    21949374.2104   21949378.9064
       184.0004        183.0004
 21  2  1  0 38 30.0000000  0 10G30G28G08G09G17G04G07G01G14G21
 -11873613.82948  -9222678.57347  22200031.313    22200031.5904   22200039.1274
       191.0004        191.0004
  -1211660.76347   -933553.82945  23574052.999    23574052.9354   23574057.6324
       148.0004        150.0004
  -8771225.80348  -6820769.64447  23006282.690    23006282.7114   23006292.2414
       193.0004        193.0004
 -12541764.17048  -9742617.38647  22049791.703    22049792.1904   22049798.3724
       193.0004        193.0004
  -9931425.53448  -7717066.74746  22572336.121    22572336.7724   22572340.3424
       179.0004        179.0004
  -2328133.55347  -1753121.67645  23877257.946    23877257.1074   23877263.3974
       153.0004        155.0004
 -23667815.98849 -18416735.89647  20566727.046    20566727.5934   20566732.0894
       208.0004        209.0004
 -21514255.74149 -16755408.83547  21035462.995    21035464.4294   21035472.6234
       196.0004        196.0004
  -3120931.09048  -2421906.45546  23183941.711    23183942.2984   23183947.3274
       165.0004        168.0004
 -11482934.18348  -8742130.26546  21955697.755    21955697.4944   21955702.5644
       183.0004        183.0004
 21  2  1  0 39  0.0000000  0 11G30G28G08G09G17G22G04G07G01G14G21
 -11957243.82148  -9287844.77347  22184117.537    22184117.4654   22184124.2614
       189.0004        189.0004
  -1227117.69647   -945598.16445  23571111.387    23571111.3614   23571114.6184
       144.0004        146.0004
  -8677021.90348  -6747364.00447  23024211.455    23024210.6964   23024218.0104
       193.0004        194.0004
 -12469899.05448  -9686618.59647  22063467.240    22063467.8944   22063475.0684
       193.0004        193.0004
  -9995654.23548  -7767115.05146  22560112.903    22560113.2214   22560118.0584
       178.0004        177.0004
  -2375678.86954  -1818032.36643                                  24581512.3334
        74.0004         74.0004
  -2230255.51547  -1676853.13445  23895881.850    23895882.4724   23895889.0564
       152.0004        154.0004
 -23716794.41549 -18454900.89447  20557407.451    20557407.9534   20557411.6964
       209.0004        210.0004
 -21554080.54649 -16786441.11947  21027884.391    21027885.3574   21027894.1354
       196.0004        197.0004
  -3147642.82248  -2442720.73546  23178860.643    23178861.1794   23178864.1634
       168.0004        171.0004
 -11449210.02848  -8715851.66046  21962115.352    21962115.3314   21962120.4124
       183.0004        184.0004
 21  2  1  0 39 30.0000000  0 11G30G28G08G09G17G22G04G07G01G14G21
 -12040725.07348  -9352895.10647  22168232.484    22168232.0304   22168238.3524
       189.0004        190.0004
  -1242614.26547   -957673.37445  23568164.492    23568163.3934   23568168.3054
       144.0004        148.0004
  -8582776.34748  -6673925.90847  23042144.763    23042144.2434   23042152.0904
       194.0004        194.0004
 -12397812.74048  -9630447.45347  22077184.487    22077184.8244   22077192.9894
       193.0004        193.0004
 -10059487.43248  -7816855.18646  22547966.404    22547966.7854   22547971.9744
       180.0004        182.0004
  -2375678.86944  -1818032.366 4                                  24581512.333
        74.0004        117.000
  -2132429.10647  -1600624.84245  23914498.052    23914498.5224   23914505.0304
       151.0004        153.0004
 -23765395.32649 -18492771.73847  20548158.862    20548159.1604   20548163.2494
       209.0004        210.0004
 -21593421.78649 -16817096.61847  21020398.260    21020399.3384   21020407.7464
       196.0004        197.0004
  -3174391.75548  -2463564.00446  23173769.848    23173770.3824   23173773.9234
       170.0004        171.0004
 -11414993.87648  -8689189.71546  21968626.205    21968626.0264   21968631.4014
       183.0004        183.0004
 21  2  1  0 40  0.0000000  0 10G30G28G08G09G17G04G07G01G14G21
 -12124054.81948  -9417827.37847  22152374.909    22152374.7294   22152381.3774
       190.0004        190.0004
  -1258151.50647   -969780.28945  23565206.303    23565205.3354   23565210.3014
       146.0004        151.0004
  -8488490.85548  -6600456.71047  23060086.499    23060086.3374   23060094.9404
       194.0004        195.0004
 -12325508.04748  -9574106.15047  22090944.115    22090944.5074   22090951.5064
       192.0004        193.0004
 -10122924.20148  -7866286.42846  22535894.671    22535895.4284   22535900.2214
       181.0004        182.0004
  -2034656.75347  -1524438.69445  23933102.479    23933103.3954   23933110.5524
       150.0004        153.0004
 -23813616.12449 -18530346.39847  20538982.355    20538983.2354   20538987.1894
       209.0004        210.0004
 -21632276.73549 -16847373.19747  21013004.163    21013005.2394   21013013.4214
       196.0004        197.0004
  -3201178.53348  -2484436.80746  23168670.791    23168670.5744   23168676.4734
       169.0004        168.0004
 -11380285.99248  -8662144.60446  21975231.088    21975231.4164   21975235.2984
       182.0004        181.0004
 21  2  1  0 40 30.0000000  0 10G30G28G08G09G17G04G07G01G14G21
 -12207229.98748  -9482639.17547  22136545.666    22136546.2234   22136553.7104
       188.0004        188.0004
  -1273730.23847   -981919.54045  23562241.306    23562240.9384   23562246.2994
       149.0004        153.0004
  -8394168.15748  -6526958.49147  23078034.101    23078034.4274   23078042.9944
       193.0004        193.0004
 -12252987.48848  -9517596.62447  22104744.095    22104744.2714   22104751.8284
       193.0004        192.0004
 -10185962.96148  -7915407.49946  22523898.883    22523899.1574   22523904.1434
       182.0004        184.0004
  -1936940.48047  -1448296.22245  23951697.384    23951698.4934   23951705.6464
       149.0004        152.0004
 -23861453.52749 -18567622.29147  20529879.951    20529880.3104   20529884.2174
       210.0004        210.0004
 -21670642.35749 -16877268.46347  21005703.895    21005704.6304   21005713.1804
       196.0004        196.0004
  -3228003.42648  -2505339.32946  23163563.092    23163564.6134   23163573.1304
       165.0004        165.0004
 -11345086.25548  -8634716.21846  21981930.498    21981929.5924   21981933.9954
       183.0004        183.0004
 21  2  1  0 41  0.0000000  0 10G30G28G08G09G17G04G07G01G14G21
 -12290247.16448  -9547327.87347  22120748.618    22120748.7654   22120755.6364
       187.0004        188.0004
  -1289350.92247   -994091.50845  23559268.485    23559268.6484   23559274.5284
       150.0004        153.0004
  -8299809.02748  -6453431.92447  23095989.850    23095990.1784   23095999.0674
       192.0004        192.0004
 -12180253.27848  -9460920.62547  22118585.411    22118585.5934   22118592.2334
       192.0004        192.0004
 -10248602.26048  -7964217.33746  22511979.012    22511979.5874   22511985.3204
       184.0004        186.0004
  -1839282.02647  -1372198.82245  23970282.447    23970283.1504   23970289.0674
       149.0004        152.0004
 -23908904.41449 -18604597.01347  20520849.959    20520850.3794   20520854.4524
       210.0004        210.0004
 -21708515.42749 -16906779.93347  20998497.103    20998497.6264   20998505.8134
       196.0004        196.0004
  -3254866.62348  -2526271.68046  23158454.606    23158455.8254   23158459.9314
       165.0004        167.0004
 -11309394.77048  -8606904.64546  21988721.814    21988721.2384   21988726.4534
       183.0004        183.0004
 21  2  1  0 41 30.0000000  0 10G30G28G08G09G17G04G07G01G14G21
 -12373105.73348  -9611892.99347  22104981.523    22104981.0514   22104988.4054
       187.0004        188.0004
  -1305016.81247  -1006298.65045  23556287.672    23556287.7534   23556292.5154
       149.0004        153.0004
  -8205418.51548  -6379880.87847  23113950.919    23113951.9634   23113961.0914
       192.0004        191.0004
 -12107310.41248  -9404082.04847  22132465.516    22132466.3584   22132473.2734
       192.0004        192.0004
 -10310843.31948  -8012716.85646  22500134.837    22500135.1994   22500140.7034
       184.0004        184.0004
  -1741685.93647  -1296150.00545  23988855.307    23988856.0734   23988860.2444
       148.0004        151.0004
 -23955967.86549 -18641269.83347  20511893.773    20511894.5104   20511898.8414
       210.0004        211.0004
 -21745895.40149 -16935907.17947  20991383.765    20991384.6284   20991392.8154
       196.0004        197.0004
  -3281770.92848  -2547236.02946  23153336.630    23153337.2414   23153340.5624
       166.0004        168.0004
 -11273213.70248  -8578711.59846  21995605.795    21995606.4154   21995610.6854
       183.0004        183.0004
 21  2  1  0 42  0.0000000  0 11G30G28G08G09G19G17G04G07G01G14G21
 -12455803.30248  -9676332.63347  22089245.064    22089244.7984   22089251.4994
       188.0004        189.0004
  -1320729.37147  -1018542.16945  23553298.959    23553297.5744   23553302.2814
       149.0004        152.0004
  -8110999.07848  -6306307.28747  23131920.111    23131919.3944   23131928.8364
       191.0004        191.0004
 -12034162.12848  -9347083.38847  22146385.474    22146385.4394   22146392.8414
       192.0004        192.0004
  -1048452.79754   -791454.68044  24834319.873
        74.0004        114.0004
 -10372685.40248  -8060905.46046  22488366.825    22488367.1174   22488372.1994
       183.0004        183.0004
  -1644154.90647  -1220151.86845  24007412.828    24007413.5114   24007419.5284
       147.0004        149.0004
 -24002641.43549 -18677638.84147  20503012.545    20503013.0134   20503017.2334
       210.0004        211.0004
 -21782780.03649 -16964648.42847  20984365.475    20984365.8684   20984373.4554
       197.0004        198.0004
  -3308717.31548  -2568233.16446  23148208.581    23148208.2864   23148212.7374
       167.0004        168.0004
 -11236543.97448  -8550137.76046  22002585.014    22002584.3674   22002589.3334
       183.0004        184.0004
 21  2  1  0 42 30.0000000  0 11G30G28G08G09G19G17G04G07G01G14G21
 -12538336.32648  -9740644.06747  22073539.293    22073539.0454   22073545.7354
       188.0004        189.0004
  -1336489.07547  -1030822.44445  23550298.449    23550298.8974   23550303.4414
       149.0004        153.0004
  -8016552.47348  -6232712.54047  23149890.881    23149892.0764   23149900.9354
       192.0004        193.0004
 -11960810.49448  -9289926.27647  22160343.507    22160344.0314   22160350.9714
       191.0004        192.0004
  -1140122.62744   -560356.46843  24816875.947
        74.0004         74.0004
 -10434126.74848  -8108781.81446  22476675.058    22476675.4064   22476678.9534
       182.0004        182.0004
  -1546690.54147  -1144205.71245  24025959.338    24025960.2614   24025968.1784
       145.0004        147.0004
 -24048921.71749 -18713701.40547  20494205.478    20494206.1104   20494210.1824
       210.0004        211.0004
 -21819166.00649 -16993001.12747  20977441.988    20977442.1974   20977449.7894
       198.0004        198.0004
  -3335705.64748  -2589262.99846  23143071.356    23143071.7604   23143076.8424
       165.0004        165.0004
 -11199385.23348  -8521182.88246  22009655.770    22009655.2684   22009660.6094
       183.0004        183.0004
 21  2  1  0 43  0.0000000  0 11G30G28G08G09G19G17G04G07G01G14G21
 -12620703.27048  -9804826.07247  22057864.457    22057864.8654   22057872.3814
       188.0004        189.0004
  -1352298.11347  -1043141.14845  23547290.427    23547290.5144   23547295.6754
       149.0004        152.0004
  -7922081.44248  -6159098.73847  23167868.247    23167869.2934   23167878.0684
       192.0004        192.0004
 -11887259.62448  -9232613.90347  22174340.356    22174340.4034   22174348.0394
       192.0004        194.0004
  -1231588.01044   -631627.74545  24799469.110
        74.0004        144.0004
 -10495167.91048  -8156346.30146  22465058.558    22465059.2124   22465064.7344
       182.0004        183.0004
  -1449296.39647  -1068314.25645  24044494.606    24044492.8774   24044501.0844
       144.0004        147.0004
 -24094807.27449 -18749456.36647  20485473.798    20485474.0564   20485478.2814
       210.0004        210.0004
 -21855051.96549 -17020964.18247  20970612.708    20970613.0754   20970620.9604
       198.0004        198.0004
  -3362737.82747  -2610327.02646  23137926.012    23137927.2864   23137932.6594
       164.0004        167.0004
 -11161739.08548  -8491848.18446  22016819.276    22016819.4264   22016824.1054
       183.0004        184.0004
 21  2  1  0 43 30.0000000  0 11G30G28G08G09G19G17G04G07G01G14G21
 -12702901.98148  -9868877.02047  22042222.701    22042223.3604   22042229.7904
       188.0004        189.0004
  -1368158.52947  -1055499.88045  23544272.491    23544271.8924   23544276.6554
       148.0004        153.0004
  -7827589.36148  -6085468.55747  23185849.681    23185850.4274   23185859.5904
       191.0004        191.0004
 -11813512.97048  -9175149.00747  22188373.302    22188373.5514   22188381.1914
       192.0004        191.0004
  -1322847.90544   -702739.38145  24782103.394
        74.0004        148.0004
 -10555808.10948  -8203598.40146  22453519.907    22453520.0604   22453525.8724
       183.0004        183.0004
  -1351975.42747   -992479.85245  24063014.323    24063014.7434   24063020.0594
       144.0004        148.0004
 -24140295.75449 -18784901.95347  20476817.557    20476818.1344   20476822.4034
       210.0004        211.0004
 -21890435.98449 -17048536.15347  20963878.501    20963879.4364   20963887.3574
       198.0004        198.0004
  -3389815.11448  -2631426.20646  23132774.513    23132775.4074   23132780.4314
       166.0004        168.0004
 -11123606.71648  -8462134.65746  22024076.562    22024075.7054   22024080.0784
       183.0004        183.0004
 21  2  1  0 44  0.0000000  0 11G30G28G08G09G19G17G04G07G01G14G21
 -12784928.19948  -9932793.55047  22026615.280    22026614.5814   22026620.6414
       188.0004        188.0004
  -1384069.76847  -1067898.21845  23541244.101    23541244.1014   23541248.9974
       150.0004        153.0004
  -7733076.59648  -6011822.24947  23203835.772    23203835.6864   23203845.8764
       190.0004        191.0004
 -11739571.91648  -9117532.62047  22202443.189    22202443.6354   22202451.5004
       190.0004        190.0004
  -1413899.09847   -773688.39945  24764776.829                    24764779.4364
       135.0004        148.0004
 -10616045.56348  -8250536.65446  22442056.376    22442057.1764   22442062.5184
       182.0004        183.0004
  -1254728.49847   -916703.13745  24081520.120    24081519.2724   24081527.5134
       144.0004        148.0004
 -24185383.09649 -18820034.95447  20468237.312    20468237.8574   20468242.7394
       210.0004        211.0004
 -21925314.03949 -17075713.84947  20957242.177    20957242.5534   20957250.2154
       198.0004        198.0004
  -3416936.64347  -2652559.83046  23127612.818    23127613.8304   23127619.3564
       164.0004        164.0004
 -11084987.68048  -8432041.88346  22031424.694    22031423.9274   22031429.4524
       183.0004        183.0004
 21  2  1  0 44 30.0000000  0 11G30G28G08G09G19G17G04G07G01G14G21
 -12866780.09048  -9996574.23947  22011038.093    22011038.5744   22011045.6984
       188.0004        189.0004
  -1400033.76947  -1080337.68745  23538207.321    23538207.0084   23538210.6454
       151.0004        155.0004
  -7638546.45048  -5938162.42047  23221826.290    23221825.2114   23221833.7454
       190.0004        190.0004
 -11665440.27448  -9059767.69647  22216550.750    22216551.5854   22216557.6774
       190.0004        190.0004
  -1504740.41647   -844473.75945  24747488.937    24747488.3914   24747495.1624
       140.0004        145.0004
 -10675879.35548  -8297160.35146  22430670.570    22430670.9674   22430675.7324
       182.0004        181.0004
  -1157558.91147   -840986.69545  24100010.101    24100009.9184   24100017.3614
       145.0004        149.0004
 -24230067.08249 -18854853.64347  20459734.727    20459735.2504   20459739.4234
       210.0004        211.0004
 -21959684.60549 -17102496.08947  20950701.133    20950701.9924   20950709.9854
       198.0004        199.0004
  -3444104.04147  -2673729.23245  23122442.266    23122443.3614   23122449.2984
       162.0004        162.0004
 -11045883.04248  -8401570.71346  22038866.363    22038865.5984   22038870.8994
       183.0004        183.0004
 21  2  1  0 45  0.0000000  0 11G30G28G08G09G19G17G04G07G01G14G21
 -12948453.81748 -10060216.09247  21995496.051    21995495.8684   21995503.8814
       189.0004        190.0004
  -1416050.64147  -1092818.34545  23535159.334    23535159.5284   23535162.9334
       153.0004        156.0004
  -7544000.02248  -5864489.90447  23239817.462    23239817.0474   23239824.5484
       189.0004        189.0004
 -11591119.90348  -9001855.73647  22230693.695    22230693.8254   22230701.5844
       189.0004        190.0004
  -1595369.34247   -915093.67445  24730243.873    24730242.3454   24730248.5704
       140.0004        145.0004
 -10735308.52448  -8343468.77446  22419360.396    22419361.9834   22419366.8404
       181.0004        182.0004
  -1060467.92347   -765331.48945  24118486.344    24118487.2344   24118493.4694
       146.0004        150.0004
 -24274344.62849 -18889355.63447  20451309.300    20451309.4534   20451313.6224
       210.0004        211.0004
 -21993544.16049 -17128880.15047  20944258.392    20944258.7374   20944266.8694
       199.0004        199.0004
  -3471316.87747  -2694934.03746  23117266.046    23117264.6304   23117270.7544
       161.0004        163.0004
 -11006292.14648  -8370720.66146  22046400.020    22046399.8784   22046404.3264
       183.0004        182.0004
 21  2  1  0 45 30.0000000  0 11G30G28G08G09G19G17G04G07G01G14G21
 -13029947.26748 -10123717.47647  21979989.056    21979988.8844   21979995.5794
       190.0004        191.0004
  -1432122.35947  -1105341.75745  23532101.589    23532100.5174   23532104.9174
       151.0004        153.0004
  -7449440.42348  -5790807.12047  23257812.410    23257811.7044   23257819.2434
       189.0004        189.0004
 -11516614.31948  -8943799.45447  22244871.596    22244871.6934   22244879.1134
       191.0004        192.0004
  -1685784.82247   -985547.29345  24713037.698    24713038.6134   24713042.0754
       143.0004        146.0004
 -10794332.60548  -8389461.55146  22408129.166    22408130.0904   22408134.6564
       182.0004        182.0004
   -963458.54247   -689739.88045  24136945.730    24136947.1014   24136953.7894
       147.0004        150.0004
 -24318213.40249 -18923539.10347  20442960.688    20442961.5204   20442965.8774
       210.0004        211.0004
 -22026890.91349 -17154864.63847  20937912.311    20937913.0614   20937921.4674
       199.0004        200.0004
  -3498576.41347  -2716175.20446  23112077.372    23112077.8224   23112084.0974
       162.0004        163.0004
 -10966216.69848  -8339493.04146  22054025.687    22054025.5024   22054030.6074
       182.0004        182.0004
 21  2  1  0 46  0.0000000  0 11G30G28G08G09G19G17G04G07G01G14G21
 -13111257.48148 -10187076.06547  21964516.268    21964516.2994   21964522.4264
       191.0004        192.0004
  -1448249.58647  -1117908.39845  23529032.166    23529032.4374   23529036.1634
       148.0004        151.0004
  -7354869.30048  -5717115.32947  23275806.257    23275806.2094   23275815.3824
       188.0004        188.0004
 -11441926.21948  -8885600.94547  22259084.109    22259084.2114   22259091.3564
       190.0004        190.0004
  -1775984.82547  -1055832.94845  24695872.976    24695873.2094   24695877.8724
       142.0004        146.0004
 -10852950.85548  -8435138.08146  22396975.261    22396975.5154   22396979.8394
       183.0004        184.0004
   -866532.86447   -614213.49045  24155391.420    24155390.3954   24155398.3824
       146.0004        148.0004
 -24361670.60549 -18957401.85947  20434691.456    20434691.9374   20434695.8804
       210.0004        211.0004
 -22059722.27649 -17180447.49547  20931664.933    20931665.4914   20931673.7074
       200.0004        200.0004
  -3525883.08047  -2737453.10646  23106881.317    23106882.0624   23106887.3414
       164.0004        167.0004
 -10925657.18548  -8307888.18946  22061743.817    22061743.4024   22061748.3764
       182.0004        181.0004
 21  2  1  0 46 30.0000000  0 11G30G28G08G09G19G17G04G07G01G14G21
 -13192381.71648 -10250289.74647  21949078.422    21949078.3224   21949084.8254
       191.0004        191.0004
  -1464433.54447  -1130519.24945  23525951.373    23525951.6454   23525955.6874
       147.0004        149.0004
  -7260289.03148  -5643416.43546  23293804.857    23293804.1844   23293813.0334
       187.0004        187.0004
 -11367058.52748  -8827262.49647  22273330.533    22273330.9094   22273338.5454
       189.0004        188.0004
  -1865967.62047  -1125949.39245  24678752.576    24678751.1474   24678753.8854
       143.0004        148.0004
 -10911162.00448  -8480497.38946  22385897.740    22385898.5104   22385902.9694
       184.0004        186.0004
   -769693.19547   -538754.15245  24173819.204    24173819.3154   24173825.3644
       145.0004        148.0004
 -24404713.34649 -18990941.66447  20426500.849    20426501.2034   20426505.3344
       211.0004        211.0004
 -22092035.87149 -17205626.90747  20925515.631    20925516.3504   20925524.6474
       200.0004        200.0004
  -3553237.55148  -2758768.28146  23101676.752    23101677.1224   23101681.9444
       167.0004        169.0004
 -10884614.29648  -8275906.70846  22069555.236    22069554.0344   22069559.3404
       182.0004        183.0004
 21  2  1  0 47  0.0000000  0 11G30G28G08G09G19G17G04G07G01G14G21
 -13273317.86048 -10313356.86647  21933676.855    21933677.2764   21933683.3614
       191.0004        192.0004
  -1480675.89447  -1143175.57145  23522861.276    23522860.9454   23522865.4604
       148.0004        152.0004
  -7165702.47048  -5569712.61846  23311801.076    23311802.7114   23311812.8254
       187.0004        187.0004
 -11292014.79048  -8768786.86747  22287611.762    22287611.7214   22287618.9734
       189.0004        189.0004
  -1955731.91647  -1195895.55445  24661670.914    24661669.9024   24661672.2874
       142.0004        145.0004
 -10968966.33048  -8525539.69146  22374897.778    22374898.0354   22374903.9984
       185.0004        185.0004
   -672942.61147   -463364.20445  24192229.277    24192230.2604   24192236.8454
       145.0004        149.0004
 -24447340.07449 -19024157.29047  20418389.102    20418389.5424   20418393.7444
       211.0004        211.0004
 -22123830.01849 -17230401.55447  20919465.426    20919466.1274   20919474.4724
       200.0004        201.0004
  -3580641.15248  -2780121.71746  23096460.777    23096461.8264   23096467.3974
       167.0004        167.0004
 -10843089.28748  -8243549.53546  22077457.039    22077456.9524   22077460.2334
       182.0004        182.0004
 21  2  1  0 47 30.0000000  0 11G30G28G08G09G19G17G04G07G01G14G21
 -13354062.22248 -10376274.55747  21918311.721    21918312.1034   21918318.2894
       192.0004        192.0004
  -1496976.87647  -1155877.60245  23519759.713    23519759.4734   23519763.7674
       149.0004        151.0004
  -7071110.20748  -5496004.37546  23329801.720    23329803.2954   23329812.7124
       186.0004        186.0004
 -11216797.00748  -8710175.61446  22301923.468    22301924.3124   22301932.3224
       187.0004        187.0004
  -2045275.26047  -1265669.56045  24644630.910    24644629.6634   24644632.6334
       140.0004        144.0004
 -11026361.89548  -8570263.48946  22363975.131    22363976.0264   22363981.0894
       185.0004        185.0004
   -576282.47347   -388044.73545  24210622.261    24210622.7644   24210631.2064
       146.0004        150.0004
 -24489547.14849 -19057045.93247  20410357.107    20410357.9254   20410361.8404
       211.0004        211.0004
 -22155101.47849 -17254768.92147  20913515.378    20913515.9454   20913522.9914
       200.0004        200.0004
  -3608093.53448  -2801513.14746  23091237.265    23091237.4804   23091242.4074
       165.0004        166.0004
 -10801081.89448  -8210816.49646  22085450.084    22085449.9244   22085454.0064
       181.0004        182.0004
 21  2  1  0 48  0.0000000  0 11G30G28G08G09G19G17G04G07G01G14G21
 -13434612.99748 -10439041.37647  21902983.444    21902983.6554   21902990.4734
       192.0004        193.0004
  -1513338.62547  -1168626.99345  23516644.312    23516645.7554   23516648.9904
       148.0004        151.0004
  -6976516.50348  -5422295.00446  23347804.053    23347805.2634   23347812.9004
       185.0004        186.0004
 -11141408.99948  -8651431.72247  22316271.378    22316271.6224   22316278.0974
       187.0004        188.0004
  -2134597.38547  -1335271.13245  24627630.948    24627631.7354   24627635.4544
       140.0004        145.0004
 -11083349.18848  -8614669.13846  22353131.751    22353131.6574   22353136.9924
       183.0004        182.0004
   -479716.01947   -312798.26945  24228998.901    24229000.2504   24229006.9724
       148.0004        151.0004
 -24531332.67849 -19089606.07947  20402405.616    20402406.2804   20402410.6044
       211.0004        212.0004
 -22185848.85249 -17278727.89147  20907663.864    20907664.6454   20907672.0604
       200.0004        200.0004
  -3635596.22048  -2822943.80246  23086004.861    23086004.3504   23086009.4884
       167.0004        169.0004
 -10758593.87748  -8177708.92346  22093534.721    22093534.9854   22093539.4334
       181.0004        182.0004
 21  2  1  0 48 30.0000000  0 11G30G28G08G09G19G17G04G07G01G14G21
 -13514967.76348 -10501655.47747  21887692.499    21887692.7614   21887699.1884
       193.0004        194.0004
  -1529762.35447  -1181424.70345  23513520.280    23513521.0534   23513524.6124
       149.0004        153.0004
  -6881922.89548  -5348585.71546  23365807.525    23365806.6754   23365814.0684
       186.0004        187.0004
 -11065854.07748  -8592557.77546  22330648.099    22330648.0934   22330655.2124
       187.0004        187.0004
  -2223696.53047  -1404699.02445  24610676.951    24610675.8434   24610679.9284
       139.0004        143.0004
 -11139927.68848  -8658756.27146  22342365.020    22342366.0564   22342369.0754
       181.0004        181.0004
   -383245.91147   -237626.87045  24247357.263    24247357.3614   24247365.1654
       149.0004        152.0004
 -24572694.51849 -19121836.10347  20394534.972    20394535.7184   20394539.6784
       211.0004        212.0004
 -22216070.26649 -17302277.05447  20901913.206    20901913.7894   20901921.1224
       200.0004        200.0004
  -3663150.24048  -2844414.48046  23080759.976    23080760.4844   23080766.2814
       168.0004        168.0004
 -10715626.43948  -8144227.80346  22101712.788    22101711.1724   22101715.7594
       181.0004        182.0004
 21  2  1  0 49  0.0000000  0 11G30G28G08G09G19G17G04G07G01G14G21
 -13595125.28148 -10564115.86247  21872439.339    21872439.4014   21872445.0514
       194.0004        195.0004
  -1546250.94147  -1194272.93445  23510381.840    23510381.8044   23510386.6174
       151.0004        154.0004
  -6787333.36248  -5274879.62246  23383809.232    23383807.4284   23383813.2484
       186.0004        187.0004
 -10990136.64148  -8533557.17546  22345056.971    22345057.7684   22345064.5264
       186.0004        186.0004
  -2312572.58547  -1473953.07145  24593764.997    24593763.2114   24593767.8314
       139.0004        144.0004
 -11196098.30248  -8702525.54446  22331675.756    22331676.3864   22331680.1034
       181.0004        181.0004
   -286875.96047   -162533.51445  24265695.850    24265696.3894   24265703.5304
       148.0004        151.0004
 -24613631.64049 -19153735.14647  20386744.799    20386745.2104   20386749.0764
       211.0004        212.0004
 -22245764.95049 -17325415.74347  20896262.332    20896262.6704   20896270.3494
       200.0004        201.0004
  -3690757.72348  -2865926.76146  23075507.037    23075507.5834   23075512.7784
       166.0004        167.0004
 -10672182.02148  -8110374.98546  22109980.127    22109978.8224   22109983.8714
       181.0004        182.0004
 21  2  1  0 49 30.0000000  0 11G30G28G08G09G19G17G04G07G01G14G21
 -13675082.18248 -10626419.92847  21857222.997    21857223.5794   21857230.5994
       194.0004        193.0004
  -1562805.04547  -1207172.21845  23507230.572    23507230.9804   23507235.4034
       147.0004        150.0004
  -6692749.69848  -5201178.07646  23401806.222    23401805.8394   23401811.7214
       187.0004        187.0004
 -10914259.02448  -8474431.76246  22359495.279    22359495.7364   22359503.2384
       185.0004        185.0004
  -2401223.46147  -1543031.62345  24576893.358    24576893.6504   24576899.2804
       139.0004        144.0004
 -11251859.79448  -8745976.03646  22321065.316    22321065.1434   22321070.1894
       181.0004        182.0004
   -190607.83247    -87519.52245  24284014.351    24284015.2294   24284023.5314
       147.0004        149.0004
 -24654140.94849 -19185300.83948  20379036.454    20379036.8274   20379041.1754
       211.0004        213.0004
 -22274930.10149 -17348141.81047  20890712.584    20890713.0934   20890720.9124
       201.0004        201.0004
  -3718418.66848  -2887480.72446  23070242.906    23070243.2674   23070249.1974
       166.0004        167.0004
 -10628260.84648  -8076150.67246  22118337.808    22118336.6684   22118341.6674
       182.0004        182.0004
 21  2  1  0 50  0.0000000  0 11G30G28G08G09G19G17G04G07G01G14G21
 -13754834.22448 -10688564.38147  21842047.157    21842047.1684   21842053.6694
       193.0004        194.0004
  -1579423.89647  -1220121.96845  23504069.277    23504069.9684   23504074.9844
       148.0004        151.0004
  -6598172.08048  -5127481.25046  23419803.039    23419802.4084   23419809.8184
       186.0004        187.0004
 -10838222.64948  -8415182.65146  22373965.208    22373965.4924   22373971.7834
       185.0004        185.0004
  -2489645.99447  -1611932.22645  24560066.742    24560066.4494   24560072.2774
       142.0004        146.0004
 -11307210.37248  -8789106.34146  22310532.919    22310533.1044   22310536.2094
       182.0004        182.0004
    -94442.36147    -12585.53845  24302313.564    24302314.5524   24302322.3854
       146.0004        148.0004
 -24694218.22349 -19216529.89547  20371409.672    20371410.1844   20371414.3324
       212.0004        212.0004
 -22303562.04449 -17370452.40647  20885263.559    20885264.2164   20885272.2644
       201.0004        200.0004
  -3746132.19148  -2909075.65546  23064969.568    23064969.5014   23064975.3344
       166.0004        167.0004
 -10583862.04048  -8041554.18746  22126786.104    22126785.2784   22126789.9804
       181.0004        180.0004
 21  2  1  0 50 30.0000000  0 11G30G28G08G09G19G17G04G07G01G14G21
 -13834379.31448 -10750547.54747  21826910.386    21826910.1334   21826917.4664
       194.0004        195.0004
  -1596109.48147  -1233123.71745  23500896.046    23500893.9894   23500899.2614
       149.0004        153.0004
  -6503603.54148  -5053791.50946  23437799.181    23437798.6564   23437805.6584
       185.0004        185.0004
 -10762031.09248  -8355812.60946  22388463.363    22388463.4364   22388471.6804
       185.0004        185.0004
  -2577839.43547  -1680654.32345  24543286.012    24543286.1844   24543290.0434
       143.0004        148.0004
 -11362149.83348  -8831916.27546  22300076.976    22300077.6224   22300083.4914
       182.0004        183.0004
      1617.47047     62266.15245  24320593.096    24320595.5954   24320602.3384
       146.0004        150.0004
 -24733861.83849 -19247421.02047  20363865.759    20363866.5524   20363870.3654
       211.0004        212.0004
 -22331659.27549 -17392346.32447  20879916.908    20879917.5944   20879925.5664
       200.0004        200.0004
  -3773899.55548  -2930712.56146  23059685.971    23059686.3264   23059691.2144
       166.0004        167.0004
 -10538987.15648  -8006586.72246  22135324.977    22135324.8184   22135329.0384
       181.0004        181.0004
 21  2  1  0 51  0.0000000  0 11G30G28G08G09G19G17G04G07G01G14G21
 -13913714.70949 -10812367.32547  21811812.473    21811812.8614   21811819.9844
       195.0004        195.0004
  -1612862.81347  -1246178.22845  23497705.661    23497705.3854   23497711.0364
       150.0004        152.0004
  -6409046.52148  -4980110.69746  23455789.857    23455791.2484   23455799.2604
       184.0004        184.0004
 -10685687.30848  -8296323.96746  22402991.429    22402991.5344   22402999.4554
       185.0004        186.0004
  -2665801.70047  -1749196.28745  24526547.501    24526546.6234   24526552.0044
       146.0004        151.0004
 -11416677.61748  -8874405.44946  22289701.320    22289701.0944   22289706.0514
       182.0004        182.0004
     97569.41547    137033.77345  24338854.080    24338855.3214   24338862.3324
       145.0004        149.0004
 -24773069.24949 -19277972.25847  20356404.448    20356405.0664   20356409.3134
       211.0004        212.0004
 -22359219.68149 -17413821.95047  20874672.711    20874672.9284   20874680.1364
       200.0004        200.0004
  -3801721.35348  -2952391.86846  23054389.933    23054391.1394   23054396.9144
       167.0004        168.0004
 -10493637.08548  -7971248.99646  22143954.690    22143954.4464   22143959.5204
       180.0004        180.0004
 21  2  1  0 51 30.0000000  0 11G30G28G08G09G19G17G04G07G01G14G21
 -13992837.41248 -10874021.38247  21796756.130    21796756.4704   21796763.2264
       194.0004        194.0004
  -1629684.68247  -1259286.17845  23494504.837    23494504.9164   23494509.4594
       150.0004        153.0004
  -6314502.63648  -4906440.15946  23473781.535    23473781.4994   23473790.1604
       183.0004        182.0004
 -10609194.00648  -8236718.82946  22417549.353    22417549.0064   22417555.1464
       185.0004        186.0004
  -2753531.12747  -1817556.83945  24509854.169    24509853.2804   24509857.8004
       150.0004        154.0004
 -11470793.07348  -8916573.33646  22279403.830    22279404.1514   22279408.2484
       183.0004        184.0004
    193411.39147    211715.67045  24357092.301    24357093.5794   24357100.3934
       145.0004        148.0004
 -24811837.66149 -19308181.41948  20349027.436    20349027.9684   20349032.1484
       212.0004        213.0004
 -22386240.89249 -17434877.43247  20869529.284    20869530.3264   20869538.4064
       199.0004        199.0004
  -3829597.94248  -2974113.87846  23049085.265    23049086.0244   23049092.4274
       167.0004        166.0004
 -10447812.88348  -7935541.82746  22152674.835    22152674.6474   22152679.4644
       180.0004        181.0004
 21  2  1  0 52  0.0000000  0 11G30G28G08G09G19G17G04G07G01G14G21
 -14071745.18949 -10935507.95747  21781741.758    21781741.4234   21781747.7144
       195.0004        196.0004
  -1646576.64447  -1272448.74545  23491290.714    23491290.0944   23491295.9774
       154.0004        157.0004
  -6219974.73848  -4832782.06046  23491769.265    23491769.8754   23491777.8394
       182.0004        183.0004
 -10532554.64348  -8176999.84746  22432131.050    22432131.8044   22432140.1154
       185.0004        186.0004
  -2841026.94947  -1885735.33545  24493203.976    24493202.7704   24493207.1314
       152.0004        155.0004
 -11524495.99248  -8958419.73546  22269183.715    22269183.8054   22269189.3854
       184.0004        184.0004
    289140.61647    286309.73545  24375309.038    24375310.0794   24375317.5004
       144.0004        148.0004
 -24850165.16449 -19338047.00748  20341734.213    20341734.5594   20341738.5914
       212.0004        213.0004
 -22412721.39049 -17455511.56847  20864490.922    20864491.7544   20864499.6454
       199.0004        200.0004
  -3857530.42748  -2995879.42546  23043771.040    23043771.8534   23043776.6094
       166.0004        168.0004
 -10401515.57848  -7899465.98446  22161485.817    22161485.2514   22161489.6924
       180.0004        181.0004
 21  2  1  0 52 30.0000000  0 11G30G28G08G09G19G17G04G07G01G14G21
 -14150435.40149 -10996824.99447  21766767.177    21766767.2664   21766773.1784
       196.0004        196.0004
  -1663539.74347  -1285666.74045  23488063.755    23488064.4124   23488067.7644
       156.0004        159.0004
  -6125464.72948  -4759137.88646  23509755.347    23509754.5494   23509762.8494
       183.0004        183.0004
 -10455772.24548  -8117169.39846  22446743.082    22446743.3114   22446751.4694
       185.0004        185.0004
  -2928287.45947  -1953730.48545  24476597.071    24476597.3114   24476601.6384
       151.0004        154.0004
 -11577786.10248  -8999944.47846  22259042.581    22259042.8684   22259048.1364
       183.0004        184.0004
    384754.73547    360814.11545  24393503.038    24393504.4804   24393511.6584
       142.0004        144.0004
 -24888049.51549 -19367567.27747  20334524.290    20334524.9064   20334529.1414
       212.0004        212.0004
 -22438659.20449 -17475722.81547  20859554.995    20859555.2994   20859563.5254
       199.0004        199.0004
  -3885519.53748  -3017689.09546  23038445.069    23038445.5434   23038450.5104
       168.0004        170.0004
 -10354746.53848  -7863022.55646  22170384.141    22170384.0324   22170388.9594
       179.0004        179.0004
 21  2  1  0 53  0.0000000  0 11G30G28G08G09G19G17G04G07G01G14G21
 -14228906.31649 -11057971.16147  21751834.265    21751834.5514   21751841.0764
       195.0004        195.0004
  -1680576.42947  -1298942.04545  23484821.857    23484821.7344   23484826.0144
       157.0004        159.0004
  -6030976.01048  -4685510.33946  23527734.273    23527735.5044   23527744.2304
       185.0004        186.0004
 -10378850.75048  -8057230.59946  22461381.223    22461380.9904   22461387.7184
       184.0004        182.0004
  -3015312.28847  -2021541.98245  24460037.270    24460036.3644   24460041.8594
       152.0004        154.0004
 -11630663.76348  -9041147.83546  22248980.478    22248981.8104   22248985.4034
       184.0004        185.0004
    480250.46347    435226.20945  24411676.292    24411676.3344   24411683.7234
       139.0004        142.0004
 -24925489.02949 -19396740.93348  20327400.158    20327400.3724   20327405.0614
       211.0004        213.0004
 -22464053.35049 -17495510.44847  20854723.003    20854723.5794   20854731.6304
       199.0004        200.0004
  -3913566.91348  -3039544.17846  23033107.125    23033107.6034   23033113.1354
       168.0004        169.0004
 -10307508.09048  -7826213.36946  22179375.367    22179373.5594   22179378.4134
       179.0004        180.0004
 21  2  1  0 53 30.0000000  0 11G30G28G08G09G19G17G04G07G01G14G21
 -14307154.28249 -11118943.60847  21736943.986    21736944.3684   21736950.9134
       195.0004        196.0004
  -1697686.69847  -1312274.70845  23481565.616    23481565.8104   23481568.6224
       156.0004        158.0004
  -5936509.27348  -4611899.89946  23545710.401    23545711.7854   23545720.4964
       184.0004        184.0004
 -10301792.23448  -7997185.00546  22476043.925    22476044.3654   22476051.9314
       183.0004        183.0004
  -3102099.01647  -2089167.96045  24443522.237    24443521.8124   24443526.1654
       151.0004        154.0004
 -11683127.79848  -9082028.87746  22238997.180    22238997.9874   22239002.1644
       184.0004        184.0004
    575626.47447    509545.00045  24429825.185    24429825.6834   24429833.3264
       136.0004        141.0004
 -24962480.39849 -19425565.38148  20320361.531    20320361.7664   20320365.6904
       212.0004        213.0004
 -22488900.92949 -17514872.17247  20849994.253    20849994.9404   20850003.2204
       199.0004        200.0004
  -3941672.11348  -3061444.35146  23027761.046    23027760.7094   23027764.2644
       168.0004        169.0004
 -10259799.89648  -7789038.14546  22188453.493    22188452.4764   22188457.0384
       180.0004        181.0004
 21  2  1  0 54  0.0000000  0 11G30G28G08G09G19G17G04G07G01G14G21
 -14385176.49549 -11179740.13747  21722097.618    21722097.3894   21722104.0064
       196.0004        197.0004
  -1714871.53047  -1325665.45145  23478296.475    23478296.0994   23478299.9044
       157.0004        161.0004
  -5842067.20248  -4538308.68646  23563685.885    23563685.2614   23563692.7364
       185.0004        186.0004
 -10224599.56148  -7937034.89746  22490732.564    22490732.7414   22490741.2574
       181.0004        181.0004
  -3188646.08947  -2156607.19645  24427052.957    24427052.4064   24427056.6914
       150.0004        152.0004
 -11735177.79748  -9122587.32746  22229092.615    22229092.8314   22229097.7574
       184.0004        186.0004
    670880.50747    583768.76945  24447950.192    24447952.2844   24447962.2954
       137.0004        142.0004
 -24999021.43549 -19454038.93247  20313407.552    20313408.0454   20313411.9804
       212.0004        212.0004
 -22513199.90849 -17533806.44147  20845370.873    20845371.3684   20845379.8624
       200.0004        200.0004
  -3969835.68648  -3083389.98146  23022399.941    23022400.3014   23022406.3424
       169.0004        171.0004
 -10211623.09648  -7751497.76646  22197620.309    22197619.7734   22197624.9524
       180.0004        180.0004
 21  2  1  0 54 30.0000000  0 11G30G28G08G09G19G17G04G07G01G14G21
 -14462970.23649 -11240358.62047  21707293.248    21707293.9004   21707300.5624
       197.0004        198.0004
  -1732132.39247  -1339115.43745  23475011.683    23475011.0764   23475014.2844
       155.0004        156.0004
  -5747651.33348  -4464737.91046  23581653.245    23581652.3454   23581658.8984
       186.0004        186.0004
 -10147275.67748  -7876782.52546  22505447.646    22505448.2574   22505455.5174
       180.0004        182.0004
  -3274952.02847  -2223858.48645  24410628.324    24410628.1234   24410633.6934
       148.0004        151.0004
 -11786813.55948  -9162822.94346  22219266.670    22219267.4434   22219272.3164
       186.0004        187.0004
    766010.33747    657895.78145  24466054.357    24466055.3784   24466063.8464
       138.0004        144.0004
 -25035109.72649 -19482159.67148  20306539.981    20306540.5814   20306544.7434
       211.0004        213.0004
 -22536948.39549 -17552311.73247  20840850.846    20840851.6964   20840860.1224
       199.0004        199.0004
  -3998058.23348  -3105381.54046  23017029.631    23017030.6024   23017034.2234
       169.0004        168.0004
 -10162978.94448  -7713593.21746  22206877.913    22206877.4934   22206881.0084
       180.0004        180.0004
 21  2  1  0 55  0.0000000  0 11G30G28G08G09G19G17G04G07G01G14G21
 -14540533.25449 -11300797.33947  21692534.085    21692534.1904   21692540.5234
       197.0004        197.0004
  -1749470.37647  -1352625.53945  23471710.299    23471708.5174   23471716.3644
       151.0004        152.0004
  -5653264.56148  -4391189.78846  23599612.190    23599612.7484   23599619.9204
       184.0004        184.0004
 -10069824.06148  -7816430.63046  22520186.705    22520186.3294   22520194.5144
       182.0004        183.0004
  -3361015.71047  -2290921.06845  24394252.572    24394251.8274   24394255.6674
       150.0004        153.0004
 -11838034.82048  -9202735.61146  22209518.915    22209519.5374   22209524.4924
       185.0004        185.0004
    861013.19647    731923.83545  24484134.562    24484134.8784   24484142.5224
       140.0004        146.0004
 -25070743.32649 -19509926.12048  20299758.752    20299759.4924   20299763.9824
       212.0004        213.0004
 -22560144.97049 -17570386.97847  20836437.217    20836438.1404   20836445.8684
       199.0004        200.0004
  -4026340.85148  -3127419.95846  23011648.829    23011648.6174   23011652.4004
       167.0004        168.0004
 -10113868.87048  -7675325.62646  22216222.708    22216222.1414   22216226.3604
       179.0004        179.0004
 21  2  1  0 55 30.0000000  0 11G30G28G08G09G19G17G04G07G01G14G21
 -14617862.87049 -11361054.16847  21677818.079    21677818.2644   21677825.4874
       197.0004        197.0004
  -1766886.52347  -1366196.61645  23468393.345    23468394.0814   23468400.6244
       148.0004        150.0004
  -5558908.78648  -4317665.83446  23617567.537    23617567.0984   23617574.8704
       182.0004        181.0004
  -9992247.65748  -7755981.49846  22534949.949    22534949.9224   22534956.9144
       182.0004        183.0004
  -3446835.89247  -2357793.89845  24377921.521    24377919.9644   24377924.8494
       151.0004        154.0004
 -11888841.32148  -9242325.07346  22199849.994    22199851.1444   22199856.8644
       185.0004        185.0004
    955886.81047    805851.16445  24502187.496    24502187.0624   24502195.7534
       141.0004        146.0004
 -25105919.73249 -19537336.30548  20293065.460    20293065.8224   20293070.0874
       212.0004        213.0004
 -22582787.82449 -17588030.72847  20832127.793    20832128.7074   20832136.6124
       199.0004        199.0004
  -4054684.08948  -3149505.59746  23006253.594    23006253.8654   23006259.2544
       165.0004        167.0004
 -10064294.22648  -7636696.00846  22225657.055    22225655.7854   22225660.5954
       180.0004        181.0004
 21  2  1  0 56  0.0000000  0 11G30G28G08G09G19G17G04G07G01G14G21
 -14694954.39349 -11421125.47647  21663147.663    21663147.9884   21663154.8074
       196.0004        197.0004
  -1784380.00947  -1379827.89545  23465068.481    23465067.9664   23465073.1414
       150.0004        155.0004
  -5464584.19048  -4244166.16946  23635513.455    23635514.9974   23635525.1144
       181.0004        181.0004
  -9914547.53648  -7695435.95946  22549734.934    22549734.0054   22549741.0554
       182.0004        182.0004
  -3532409.09347  -2424474.28845  24361637.361    24361636.4804   24361640.0384
       150.0004        153.0004
 -11939231.05048  -9281589.77846  22190262.550    22190262.3174   22190267.2864
       186.0004        187.0004
   1050630.91547    879677.57945  24520215.265    24520216.6824   24520225.2494
       140.0004        144.0004
 -25140635.07649 -19564387.23048  20286459.372    20286459.7764   20286463.6344
       212.0004        213.0004
 -22604873.13649 -17605240.05047  20827926.087    20827926.6494   20827934.5864
       199.0004        200.0004
  -4083086.60248  -3171637.40046  23000849.085    23000848.8334   23000854.1154
       167.0004        169.0004
 -10014254.07748  -7597703.66846  22235178.758    22235178.1714   22235183.7644
       180.0004        180.0004
 21  2  1  0 56 30.0000000  0 11G30G28G08G09G19G17G04G07G01G14G21
 -14771806.47749 -11481010.22647  21648524.052    21648524.0754   21648531.0004
       197.0004        198.0004
  -1801953.33847  -1393521.37245  23461726.340    23461725.7244   23461728.3124
       153.0004        156.0004
  -5370294.47548  -4170693.65446  23653457.749    23653458.2754   23653467.0934
       180.0004        180.0004
  -9836727.97548  -7634797.37246  22564542.270    22564543.2324   22564550.9004
       182.0004        184.0004
  -3617735.24947  -2490962.14445  24345401.045    24345400.1464   24345403.1314
       151.0004        155.0004
 -11989204.58948  -9320530.18847  22180752.257    22180753.6164   22180758.0254
       187.0004        188.0004
   1145241.93147    953400.23545  24538220.063    24538220.6604   24538229.6434
       139.0004        144.0004
 -25174888.27349 -19591078.04248  20279940.848    20279941.3624   20279945.6854
       212.0004        213.0004
 -22626400.47749 -17622014.59547  20823829.129    20823829.5234   20823837.3854
       199.0004        199.0004
  -4111550.22548  -3193816.84546  22995432.764    22995433.3754   22995438.1414
       168.0004        170.0004
  -9963751.03948  -7558350.65046  22244788.401    22244788.0794   22244793.0844
       179.0004        179.0004
 21  2  1  0 57  0.0000000  0 11G30G28G08G09G19G17G04G07G01G14G21
 -14848416.60649 -11540706.41047  21633944.537    21633944.7544   21633952.3784
       197.0004        197.0004
  -1819608.00147  -1407278.22145  23458365.601    23458364.9694   23458368.2824
       154.0004        157.0004
  -5276041.70648  -4097249.96246  23671395.201    23671394.8914   23671402.8964
       179.0004        180.0004
  -9758792.15948  -7574068.17946  22579373.599    22579373.8554   22579381.7724
       182.0004        182.0004
  -3702813.51647  -2557256.85145  24329209.600    24329208.6004   24329214.8524
       152.0004        155.0004
 -12038762.66748  -9359146.86547  22171322.198    22171322.5034   22171327.4324
       188.0004        188.0004
   1239717.36047   1027017.27145  24556197.298    24556198.4334   24556207.2074
       139.0004        143.0004
 -25208677.14849 -19617407.03448  20273511.605    20273511.9154   20273516.0154
       212.0004        213.0004
 -22647368.28549 -17638353.12747  20819838.581    20819839.7134   20819847.3554
       199.0004        199.0004
  -4140075.83748  -3216044.56646  22990004.422    22990004.8494   22990009.5524
       167.0004        168.0004
  -9912786.73848  -7518638.18346  22254487.123    22254486.4314   22254492.3954
       178.0004        179.0004
 21  2  1  0 57 30.0000000  0 11G30G28G08G09G19G17G04G07G01G14G21
 -14924782.11549 -11600211.98547  21619412.637    21619413.0234   21619420.7234
       196.0004        197.0004
  -1837344.75547  -1421099.05345  23454987.522    23454987.1224   23454994.2084
       152.0004        154.0004
  -5181827.82248  -4023836.54846  23689325.470    23689324.1154   23689331.6464
       180.0004        181.0004
  -9680743.08248  -7513250.71646  22594226.341    22594226.8054   22594233.8074
       181.0004        182.0004
  -3787642.01947  -2623356.90945  24313067.038    24313066.5274   24313070.8084
       152.0004        155.0004
 -12087904.77448  -9397439.39546  22161970.208    22161970.6744   22161976.0324
       186.0004        186.0004
   1334054.97447   1100526.92945  24574149.588    24574150.3144   24574158.6334
       138.0004        142.0004
 -25241999.68849 -19643372.65048  20267170.581    20267171.1534   20267174.9774
       212.0004        214.0004
 -22667774.84249 -17654254.32847  20815956.140    20815957.1294   20815964.1264
       199.0004        199.0004
  -4168663.94348  -3238320.99446  22984564.066    22984564.6264   22984569.1394
       167.0004        169.0004
  -9861362.10448  -7478567.02846  22264272.751    22264272.2994   22264277.2704
       178.0004        178.0004
 21  2  1  0 58  0.0000000  0 11G30G28G08G09G19G17G04G07G01G14G21
 -15000900.60549 -11659525.09647  21604928.033    21604928.4114   21604935.8254
       197.0004        198.0004
  -1855164.84647  -1434984.84145  23451596.013    23451596.3774   23451601.8354
       150.0004        153.0004
  -5087655.76748  -3950455.78246  23707244.287    23707243.8734   23707251.8554
       179.0004        179.0004
  -9602584.06648  -7452347.60746  22609100.053    22609099.6254   22609107.0194
       182.0004        182.0004
  -3872219.73647  -2689261.58645  24296973.438    24296973.4164   24296977.2444
       152.0004        155.0004
 -12136630.56848  -9435407.54646  22152698.297    22152698.6544   22152703.5394
       185.0004        184.0004
   1428252.14447   1173927.14345  24592076.329    24592077.2994   24592083.0034
       137.0004        142.0004
 -25274853.83149 -19668973.29248  20260918.707    20260919.3214   20260922.9744
       213.0004        214.0004
 -22687618.81549 -17669717.14647  20812179.649    20812180.3174   20812188.1354
       199.0004        200.0004
  -4197315.46048  -3260646.83946  22979112.118    22979112.7594   22979116.9454
       170.0004        173.0004
  -9809479.32048  -7438138.87646  22274145.325    22274145.1764   22274150.2384
       178.0004        179.0004
 21  2  1  0 58 30.0000000  0 11G30G28G08G09G19G17G04G07G01G14G21
 -15076768.94649 -11718643.27147  21590491.237    21590491.3864   21590498.4504
       198.0004        198.0004
  -1873069.31947  -1448936.37545  23448191.131    23448191.1394   23448194.6634
       150.0004        154.0004
  -4993526.31148  -3877108.17146  23725154.362    23725154.8994   23725163.9674
       178.0004        179.0004
  -9524317.57848  -7391360.75646  22623993.293    22623993.4424   22624000.0464
       181.0004        182.0004
  -3956544.79547  -2754969.40445  24280926.510    24280925.5064   24280931.3324
       153.0004        156.0004
 -12184939.93848  -9473051.19746  22143505.839    22143506.2504   22143510.7864
       186.0004        187.0004
   1522307.22547   1247216.62345  24609975.070    24609976.0514   24609982.1534
       137.0004        142.0004
 -25307236.93149 -19694206.88148  20254756.169    20254756.5154   20254760.6454
       213.0004        214.0004
 -22706898.03349 -17684739.90547  20808510.844    20808511.5614   20808519.7024
       199.0004        200.0004
  -4226030.43648  -3283022.13046  22973648.183    22973648.4384   22973653.2914
       171.0004        171.0004
  -9757138.58548  -7397353.88146  22284106.392    22284105.9814   22284111.1194
       178.0004        180.0004
 21  2  1  0 59  0.0000000  0 11G30G28G08G09G19G17G04G07G01G14G21
 -15152383.99349 -11777564.07247  21576102.103    21576101.6834   21576109.4764
       198.0004        198.0004
  -1891058.62847  -1462953.99045  23444767.583    23444768.4984   23444772.1134
       152.0004        156.0004
  -4899441.53148  -3803795.37646  23743057.558    23743057.7244   23743068.0254
       176.0004        177.0004
  -9445946.18748  -7330292.15346  22638906.673    22638906.7624   22638913.9064
       182.0004        183.0004
  -4040615.84547  -2820479.26345  24264926.845    24264927.3744   24264932.3924
       152.0004        154.0004
 -12232832.13348  -9510369.78247  22134391.783    22134393.0184   22134396.9424
       188.0004        189.0004
   1616218.34247   1320393.95845  24627845.654    24627847.0824   24627853.8074
       137.0004        143.0004
 -25339146.53849 -19719071.51348  20248684.055    20248684.4214   20248688.7844
       213.0004        214.0004
 -22725610.41749 -17699320.97347  20804949.682    20804950.5084   20804958.3084
       199.0004        200.0004
  -4254809.03248  -3305446.98046  22968171.934    22968172.0384   22968177.4164
       170.0004        171.0004
  -9704340.91148  -7356212.82946  22294152.653    22294152.5334   22294157.9724
       178.0004        179.0004
 21  2  1  0 59 30.0000000  0 11G30G28G08G09G19G17G04G07G01G14G21
 -15227743.49749 -11836285.75647  21561760.733    21561761.3494   21561768.3134
       197.0004        197.0004
  -1909134.05347  -1477038.71545  23441327.743    23441328.2904   23441332.6024
       154.0004        157.0004
  -4805403.81248  -3730519.25846  23760953.484    23760953.5074   23760962.8944
       177.0004        178.0004
  -9367473.32948  -7269144.47546  22653838.549    22653839.3324   22653847.8164
       182.0004        182.0004
  -4124431.88947  -2885790.45145  24248978.578    24248978.1904   24248980.9994
       147.0004        149.0004
 -12280307.50648  -9547363.56247  22125358.064    22125357.8334   22125362.7984
       189.0004        189.0004
   1709982.83347   1393457.04145  24645687.695    24645689.4244   24645697.4254
       139.0004        144.0004
 -25370580.63649 -19743565.61248  20242702.496    20242702.8714   20242707.0064
       213.0004        214.0004
 -22743754.83449 -17713459.45647  20801497.520    20801498.2344   20801505.8534
       200.0004        200.0004
  -4283652.24148  -3327922.18646  22962683.539    22962684.1844   22962687.5384
       170.0004        170.0004
  -9651088.31548  -7314717.27646  22304286.221    22304285.6354   22304291.2864
       177.0004        178.0004
 21  2  1  1  0  0.0000000  0 11G30G28G08G09G19G17G04G07G01G14G21
 -15302844.62849 -11894806.11547  21547469.946    21547470.2564   21547477.6004
       197.0004        198.0004
  -1927296.79847  -1491191.47445  23437871.733    23437871.8074   23437875.9034
       155.0004        158.0004
  -4711414.65248  -3657280.99546  23778836.807    23778838.8634   23778847.8414
       176.0004        177.0004
  -9288901.80448  -7207919.92846  22668791.597    22668791.6784   22668799.3014
       182.0004        183.0004
  -4207991.65347  -2950901.86445  24233077.136    24233077.5274   24233082.3724
       146.0004        149.0004
 -12327365.63448  -9584032.23047  22116402.490    22116403.4034   22116407.7194
       189.0004        189.0004
   1803598.69647   1466404.30745  24663501.418    24663503.4104   24663510.5674
       139.0004        144.0004
 -25401537.22649 -19767687.63448  20236811.369    20236811.7704   20236815.8494
       213.0004        214.0004
 -22761329.54149 -17727154.01547  20798152.777    20798153.1964   20798161.3154
       199.0004        199.0004
  -4312560.42348  -3350448.03446  22957181.795    22957181.6824   22957186.0494
       169.0004        171.0004
  -9597381.99448  -7272868.18846  22314506.601    22314506.1214   22314511.6574
       177.0004        177.0004
 21  2  1  1  0 30.0000000  0 11G30G28G08G09G19G17G04G07G01G14G21
 -15377684.84949 -11953123.16047  21533227.895    21533228.4564   21533236.0094
       198.0004        199.0004
  -1945547.68047  -1505412.92545  23434399.769    23434399.1934   23434402.0224
       155.0004        158.0004
  -4617476.90048  -3584082.73346  23796715.860    23796715.7944   23796724.1494
       177.0004        178.0004
  -9210234.71248  -7146620.90246  22683761.886    22683761.3094   22683768.6644
       182.0004        181.0004
  -4291293.45247  -3015812.35045  24217225.668    24217224.9384   24217229.5374
       147.0004        151.0004
 -12374006.72948  -9620375.91247  22107526.381    22107527.6304   22107532.4504
       188.0004        188.0004
   1897063.62347   1539233.94245  24681288.151    24681288.5744   24681297.5924
       139.0004        143.0004
 -25432013.96949 -19791435.74648  20231011.328    20231012.2824   20231016.4014
       213.0004        214.0004
 -22778333.08449 -17740403.52047  20794917.068    20794917.6524   20794925.7034
       199.0004        199.0004
  -4341534.19248  -3373025.00746  22951668.801    22951668.8294   22951672.9794
       170.0004        171.0004
  -9543223.36848  -7230666.65246  22324812.678    22324811.5774   22324817.7074
       177.0004        177.0004
 21  2  1  1  1  0.0000000  0 11G30G28G08G09G19G17G04G07G01G14G21
 -15452262.04549 -12011235.25147  21519036.703    21519037.3004   21519044.2524
       198.0004        199.0004
  -1963888.49247  -1519704.44745  23430909.164    23430908.0974   23430913.3384
       155.0004        157.0004
  -4523592.65648  -3510926.23546  23814581.603    23814582.0184   23814589.1924
       176.0004        177.0004
  -9131475.62648  -7085250.20946  22698747.730    22698748.6304   22698755.8934
       181.0004        181.0004
  -4374336.63347  -3080521.29645  24201423.935    24201423.3514   24201427.5224
       149.0004        153.0004
 -12420231.13148  -9656394.91547  22098731.248    22098731.8634   22098735.5464
       188.0004        189.0004
   1990374.78547   1611943.72645  24699044.948    24699045.0294   24699053.5274
       138.0004        143.0004
 -25462009.65949 -19814809.01348  20225303.863    20225304.1964   20225308.4344
       213.0004        215.0004
 -22794764.55149 -17753207.24747  20791790.485    20791791.0544   20791798.7514
       199.0004        200.0004
  -4370574.73248  -3395653.96746  22946141.037    22946142.3684   22946146.7254
       170.0004        171.0004
  -9488614.44348  -7188114.22346  22335203.278    22335203.0234   22335209.1004
       176.0004        176.0004
 21  2  1  1  1 30.0000000  0 11G30G28G08G09G19G17G04G07G01G14G21
 -15526573.17349 -12069140.03047  21504896.228    21504896.4654   21504903.2644
       199.0004        200.0004
  -1982319.81547  -1534066.50045  23427401.864    23427401.9964   23427405.2934
       155.0004        158.0004
  -4429764.02948  -3437813.04646  23832437.443    23832436.5774   23832444.8044
       176.0004        177.0004
  -9052627.17248  -7023809.88146  22713751.926    22713752.7974   22713760.3004
       180.0004        180.0004
  -4457119.87347  -3145027.72445  24185670.260    24185669.6314   24185673.3034
       151.0004        154.0004
 -12466038.71248  -9692089.12747  22090014.156    22090013.9124   22090019.7234
       189.0004        190.0004
   2083530.47747   1684532.36745  24716771.053    24716771.2754   24716780.4614
       136.0004        141.0004
 -25491521.65249 -19837805.37948  20219688.048    20219688.6794   20219692.4594
       213.0004        214.0004
 -22810622.11749 -17765563.78647  20788772.941    20788773.5464   20788781.4204
       200.0004        200.0004
  -4399682.19048  -3418335.09946  22940603.934    22940604.0524   22940608.2374
       172.0004        174.0004
  -9433556.62648  -7145212.04746  22345681.297    22345680.2994   22345686.0944
       176.0004        176.0004
 21  2  1  1  2  0.0000000  0 11G30G28G08G09G19G17G04G07G01G14G21
 -15600614.67749 -12126834.68947  21490807.135    21490806.8754   21490813.7314
       200.0004        201.0004
  -2000841.83247  -1548499.22545  23423877.668    23423877.7324   23423880.4814
       156.0004        159.0004
  -4335991.52848  -3364743.60146  23850281.023    23850280.8354   23850288.4304
       173.0004        174.0004
  -8973691.38248  -6962301.49246  22728773.495    22728773.4504   22728781.4074
       179.0004        179.0004
  -4539641.05047  -3209329.90645  24169966.336    24169965.5214   24169970.9534
       153.0004        156.0004
 -12511428.31348  -9727457.62847  22081376.911    22081377.4074   22081382.2784
       189.0004        190.0004
   2176529.36247   1756998.80945  24734471.098    24734470.3494   24734477.9684
       137.0004        143.0004
 -25520546.97849 -19860422.52148  20214164.815    20214165.4164   20214169.0544
       214.0004        215.0004
 -22825903.42049 -17777471.28347  20785864.491    20785865.4134   20785872.9064
       200.0004        200.0004
  -4428856.13348  -3441068.01846  22935050.799    22935051.6324   22935056.8884
       172.0004        172.0004
  -9378050.06448  -7101960.15246  22356243.707    22356242.8314   22356248.2214
       175.0004        176.0004
 21  2  1  1  2 30.0000000  0 10G30G28G08G09G19G17G07G01G14G21
 -15674381.17049 -12184315.07047  21476769.115    21476769.3604   21476776.1944
       200.0004        200.0004
  -2019453.14047  -1563001.52045  23420334.826    23420335.1564   23420338.5784
       156.0004        158.0004
  -4242274.65648  -3291717.47946  23868114.637    23868114.5344   23868122.8534
       173.0004        174.0004
  -8894668.55948  -6900725.27446  22743812.309    22743812.2304   22743818.6164
       179.0004        180.0004
  -4621896.12447  -3273424.70945  24154314.215    24154313.0864   24154318.1894
       155.0004        157.0004
 -12556397.23348  -9762498.33247  22072818.986    22072819.7464   22072825.1724
       189.0004        190.0004
 -25549081.15549 -19882656.94948  20208734.471    20208735.0444   20208739.4954
       214.0004        215.0004
 -22840604.28149 -17788926.48647  20783066.982    20783067.9584   20783075.9854
       200.0004        200.0004
  -4458094.38648  -3463851.06146  22929487.736    22929488.0664   22929492.7294
       171.0004        171.0004
  -9322093.42948  -7058357.58346  22366892.886    22366891.6024   22366896.2604
       176.0004        177.0004
 21  2  1  1  3  0.0000000  0 10G30G28G08G09G19G17G07G01G14G21
 -15747874.47449 -12241582.57447  21462783.808    21462783.8574   21462790.1654
       200.0004        200.0004
  -2038158.71147  -1577577.26145  23416775.076    23416775.1654   23416778.8364
       156.0004        157.0004
  -4148620.09148  -3218739.93946  23885935.803    23885936.6214   23885944.6214
       174.0004        175.0004
  -8815566.12448  -6839087.02846  22758865.005    22758864.7434   22758871.6894
       179.0004        180.0004
  -4703888.40647  -3337314.76745  24138710.919    24138710.9064   24138715.2934
       155.0004        158.0004
 -12600950.11248  -9797214.83447  22064341.499    22064342.0134   22064347.0824
       191.0004        193.0004
 -25577126.72549 -19904510.64248  20203398.371    20203398.8094   20203402.3004
       214.0004        215.0004
 -22854727.81949 -17799931.81747  20780379.866    20780380.0594   20780388.3394
       200.0004        200.0004
  -4487401.90348  -3486688.07446  22923910.833    22923911.7654   22923916.0874
       171.0004        172.0004
  -9265692.82748  -7014409.04946  22377624.896    22377623.9284   22377629.5284
       176.0004        176.0004
 21  2  1  1  3 30.0000000  0 10G30G28G08G09G19G17G07G01G14G21
 -15821090.57849 -12298634.08647  21448850.995    21448851.2824   21448858.4254
       200.0004        201.0004
  -2056958.30547  -1592226.26845  23413198.274    23413198.4664   23413201.4994
       157.0004        159.0004
  -4055028.05648  -3145811.09646  23903746.510    23903747.4324   23903754.4564
       177.0004        179.0004
  -8736385.74548  -6777388.07446  22773930.218    22773931.8244   22773939.6174
       179.0004        180.0004
  -4785615.11947  -3400997.89845  24123158.310    24123157.0664   24123163.1214
       154.0004        155.0004
 -12645085.54748  -9831606.06347  22055942.890    22055943.4304   22055948.3544
       192.0004        192.0004
 -25604679.73249 -19925980.53048  20198155.028    20198155.4044   20198159.1434
       214.0004        215.0004
 -22868271.34149 -17810485.20747  20777801.974    20777802.6864   20777810.8074
       199.0004        200.0004
  -4516777.89148  -3509578.42446  22918320.062    22918320.6784   22918326.0084
       170.0004        170.0004
  -9208848.48448  -6970114.75246  22388441.180    22388440.8024   22388445.6504
       175.0004        175.0004
 21  2  1  1  4  0.0000000  0 10G30G28G08G09G19G17G07G01G14G21
 -15894026.16049 -12355467.00147  21434972.421    21434972.6134   21434979.3944
       201.0004        202.0004
  -2075852.80147  -1606949.23445  23409603.415    23409602.4934   23409606.5554
       158.0004        161.0004
  -3961500.25548  -3072932.33546  23921544.584    23921544.4504   23921553.5134
       177.0004        178.0004
  -8657129.69148  -6715630.11446  22789013.273    22789013.5724   22789021.3154
       178.0004        178.0004
  -4867074.55247  -3464472.73845  24107657.208    24107656.6884   24107663.4534
       153.0004        156.0004
 -12688803.08948  -9865671.65447  22047623.012    22047623.4944   22047628.8684
       192.0004        192.0004
 -25631737.84349 -19947064.76848  20193005.431    20193006.3084   20193010.0884
       214.0004        215.0004
 -22881232.81749 -17820585.04047  20775336.186    20775336.5094   20775344.7214
       200.0004        200.0004
  -4546222.11348  -3532521.95146  22912717.047    22912718.3414   22912722.9434
       170.0004        172.0004
  -9151561.39348  -6925475.44846  22399343.035    22399342.3854   22399347.1804
       175.0004        176.0004
 21  2  1  1  4 30.0000000  0 10G30G28G08G09G19G17G07G01G14G21
 -15966679.71749 -12412080.15447  21421146.925    21421147.1044   21421153.9044
       201.0004        202.0004
  -2094843.60547  -1621747.23945  23405988.789    23405988.0504   23405992.7214
       157.0004        159.0004
  -3868039.61948  -3000105.85046  23939329.202    23939329.2974   23939336.2124
       175.0004        175.0004
  -8577802.04548  -6653816.37046  22804109.111    22804109.1244   22804118.0204
       177.0004        178.0004
  -4948266.83047  -3527739.44245  24092207.979    24092207.5854   24092212.4254
       156.0004        160.0004
 -12732103.83248  -9899412.46547  22039383.544    22039384.1504   22039388.6814
       192.0004        192.0004
 -25658300.43349 -19967762.89348  20187951.352    20187951.8574   20187955.4224
       214.0004        215.0004
 -22893612.10549 -17830231.21547  20772979.638    20772980.4884   20772988.5914
       200.0004        200.0004
  -4575736.22548  -3555519.94746  22907100.364    22907101.0424   22907106.4354
       170.0004        170.0004
  -9093834.32648  -6880493.31246  22410329.501    22410327.9074   22410332.9674
       175.0004        175.0004
 21  2  1  1  5  0.0000000  0 10G30G28G08G09G19G17G07G01G14G21
 -16039048.54949 -12468471.45247  21407375.447    21407375.3044   21407382.5664
       201.0004        202.0004
  -2113931.86947  -1636621.19645  23402354.761    23402355.8194   23402359.8964
       156.0004        158.0004
  -3774647.80848  -2927333.04146  23957102.043    23957101.9124   23957109.5184
       176.0004        177.0004
  -8498405.76748  -6591949.18546  22819218.204    22819218.0714   22819225.7724
       178.0004        179.0004
  -5029190.68447  -3590796.97545  24076808.704    24076807.5884   24076812.1494
       156.0004        158.0004
 -12774987.92648  -9932828.62147  22031223.394    22031223.5974   22031227.8794
       192.0004        191.0004
 -25684365.35049 -19988073.23148  20182991.017    20182991.3774   20182995.8304
       214.0004        215.0004
 -22905407.87549 -17839422.71647  20770735.331    20770736.0184   20770743.7714
       200.0004        200.0004
  -4605320.62448  -3578572.73446  22901470.980    22901471.3894   22901476.1114
       170.0004        171.0004
  -9035668.49648  -6835169.28146  22421396.012    22421396.3864   22421400.7714
       174.0004        174.0004
 21  2  1  1  5 30.0000000  0 10G30G28G08G09G19G17G07G01G14G21
 -16111128.79949 -12524637.86847  21393658.712    21393658.8244   21393665.7224
       201.0004        201.0004
  -2133117.55947  -1651571.09145  23398705.212    23398705.3914   23398709.8784
       156.0004        158.0004
  -3681326.14548  -2854614.88546  23974860.195    23974860.0294   23974867.0824
       175.0004        176.0004
  -8418942.57548  -6530029.82546  22834339.818    22834339.7094   22834345.9254
       177.0004        178.0004
  -5109843.82847  -3653643.51245  24061460.786    24061460.3634   24061465.4564
       156.0004        159.0004
 -12817454.30548  -9965919.28247  22023141.799    22023142.1754   22023146.9654
       191.0004        191.0004
 -25709929.41149 -20007993.27548  20178126.086    20178126.7814   20178131.0434
       214.0004        216.0004
 -22916617.66249 -17848157.59747  20768602.289    20768602.8864   20768611.2454
       200.0004        201.0004
  -4634974.57448  -3601679.69146  22895827.520    22895827.9624   22895832.3014
       170.0004        171.0004
  -8977064.85848  -6789504.09246  22432550.306    22432548.9564   22432551.8044
       174.0004        175.0004
 21  2  1  1  6  0.0000000  0 10G30G28G08G09G19G17G07G01G14G21
 -16182918.77849 -12580578.11747  21379997.772    21379998.2684   21380004.7884
       201.0004        202.0004
  -2152402.36947  -1666598.19445  23395035.182    23395035.3054   23395039.4114
       155.0004        158.0004
  -3588076.88548  -2781953.16046  23992606.019    23992604.5954   23992612.4124
       172.0004        172.0004
  -8339416.40948  -6468061.39146  22849472.220    22849472.3414   22849479.3614
       176.0004        176.0004
  -5190225.78047  -3716278.77045  24046163.881    24046163.4934   24046169.3424
       157.0004        160.0004
 -12859503.77148  -9998685.09747  22015140.470    22015141.1524   22015145.4454
       191.0004        191.0004
 -25734992.04449 -20027522.61148  20173357.648    20173357.9274   20173361.6094
       214.0004        216.0004
 -22927241.22549 -17856435.69547  20766580.662    20766581.7124   20766589.4524
       200.0004        201.0004
  -4664699.48648  -3624841.94846  22890172.160    22890171.9494   22890176.8044
       170.0004        171.0004
  -8918025.32348  -6743499.25646  22443784.511    22443783.8014   22443787.4614
       174.0004        175.0004
 21  2  1  1  6 30.0000000  0 10G30G28G08G09G19G17G07G01G14G21
 -16254415.30249 -12636289.70047  21366392.965    21366392.3924   21366399.4304
       201.0004        201.0004
  -2171786.84347  -1681702.97645  23391346.822    23391346.7404   23391351.6634
       158.0004        161.0004
  -3494901.69848  -2709349.13946  24010337.990    24010337.1344   24010343.1854
       174.0004        176.0004
  -8259829.67748  -6406045.77746  22864616.894    22864617.4774   22864625.1794
       176.0004        177.0004
  -5270334.88147  -3778701.38845  24030920.325    24030919.8414   24030924.1954
       157.0004        158.0004
 -12901136.52548 -10031126.18347  22007218.000    22007218.2784   22007222.6904
       191.0004        191.0004
 -25759550.57049 -20046659.12248  20168683.629    20168684.2444   20168688.4224
       214.0004        215.0004
 -22937276.88249 -17864255.66847  20764671.924    20764671.8994   20764679.6334
       201.0004        201.0004
  -4694495.26648  -3648059.42146  22884500.624    22884500.8124   22884506.3434
       170.0004        170.0004
  -8858551.17748  -6697155.75946  22455100.653    22455100.3764   22455104.9224
       173.0004        173.0004
 21  2  1  1  7  0.0000000  0 10G30G28G08G09G19G17G07G01G14G21
 -16325614.60049 -12691769.65747  21352843.071    21352843.1284   21352850.8254
       201.0004        201.0004
  -2191271.15247  -1696885.55745  23387639.321    23387638.7424   23387642.2704
       156.0004        157.0004
  -3401801.11648  -2636803.23146  24028050.262    24028050.7114   24028058.7604
       171.0004        170.0004
  -8180184.13748  -6343984.32046  22879773.349    22879774.0324   22879782.0054
       176.0004        178.0004
  -5350169.15047  -3840909.90645  24015728.237    24015727.3234   24015731.9774
       156.0004        159.0004
 -12942351.24348 -10063241.52047  21999374.366    21999374.6274   21999379.5214
       190.0004        190.0004
 -25783601.62949 -20065400.21148  20164107.123    20164107.6064   20164111.8434
       215.0004        216.0004
 -22946722.26949 -17871615.68747  20762873.285    20762874.2984   20762882.3084
       201.0004        201.0004
  -4724361.21748  -3671331.58446  22878818.091    22878818.8564   22878823.0584
       169.0004        170.0004
  -8798643.25348  -6650474.24546  22466501.068    22466500.6694   22466505.4264
       173.0004        174.0004
 21  2  1  1  7 30.0000000  0 10G30G28G08G09G19G17G07G01G14G21
 -16396514.70549 -12747016.50747  21339352.313    21339352.3924   21339358.9524
       201.0004        202.0004
  -2210856.10547  -1712146.54945  23383911.313    23383910.8964   23383916.0814
       154.0004        157.0004
  -3308777.85348  -2564317.60046  24045751.077    24045752.6094   24045762.3584
       174.0004        177.0004
  -8100483.44548  -6281879.93346  22894940.260    22894940.5174   22894947.7714
       177.0004        178.0004
  -5429728.03047  -3902903.82145  24000588.894    24000588.0494   24000591.1454
       156.0004        158.0004
 -12983149.15648 -10095032.10747  21991611.582    21991611.9624   21991615.8014
       189.0004        189.0004
 -25807144.57449 -20083745.38748  20159626.760    20159627.4374   20159631.5104
       214.0004        215.0004
 -22955576.94949 -17878515.44647  20761188.486    20761189.4144   20761197.2694
       201.0004        201.0004
  -4754298.35548  -3694659.23446  22873122.154    22873122.3774   22873126.8564
       171.0004        172.0004
  -8738303.50748  -6603456.27246  22477983.618    22477983.2704   22477987.7654
       173.0004        173.0004
 21  2  1  1  8  0.0000000  0 10G30G28G08G09G19G17G07G01G14G21
 -16467112.19949 -12802027.52147  21325917.097    21325917.4704   21325924.6744
       202.0004        202.0004
  -2230541.98447  -1727486.17645  23380166.054    23380165.7784   23380171.2234
       156.0004        160.0004
  -3215833.12948  -2491893.14546  24063435.572    24063437.1834   24063448.3184
       173.0004        173.0004
  -8020729.72848  -6219734.19646  22910117.551    22910116.8844   22910124.4254
       176.0004        176.0004
  -5509009.48347  -3964681.53145  23985501.786    23985501.0094   23985503.7334
       154.0004        155.0004
 -13023529.48248 -10126497.23947  21983927.309    21983927.8804   21983931.6714
       190.0004        191.0004
 -25830176.49349 -20101692.31948  20155244.157    20155244.4824   20155248.7184
       214.0004        216.0004
 -22963839.06149 -17884953.42447  20759616.460    20759616.8814   20759624.8674
       201.0004        201.0004
  -4784306.44748  -3718042.13346  22867411.261    22867412.2174   22867416.3084
       170.0004        170.0004
  -8677532.93048  -6556102.54746  22489548.019    22489547.6374   22489550.6844
       172.0004        173.0004
 21  2  1  1  8 30.0000000  0 10G30G28G08G09G19G17G07G01G14G21
 -16537404.88149 -12856801.05347  21312541.236    21312541.3614   21312548.3384
       202.0004        203.0004
  -2250330.47147  -1742905.77845  23376400.078    23376399.5384   23376405.7914
       157.0004        159.0004
  -3122969.24848  -2419531.71746  24081108.718    24081110.2454   24081119.7144
       172.0004        172.0004
  -7940926.38248  -6157549.78646  22925301.703    22925302.1134   22925309.9574
       174.0004        174.0004
  -5588013.02747  -4026242.70645  23970466.907    23970466.8354   23970469.0284
       152.0004        155.0004
 -13063492.39048 -10157637.15047  21976322.114    21976322.5754   21976327.6074
       191.0004        191.0004
 -25852696.16349 -20119240.13448  20150958.810    20150959.4024   20150963.4274
       215.0004        216.0004
 -22971507.97649 -17890929.19947  20758156.958    20758157.8744   20758165.4634
       200.0004        201.0004
  -4814386.29948  -3741480.97746  22861686.071    22861688.0414   22861692.7014
       169.0004        170.0004
  -8616333.86948  -6508414.96946  22501193.744    22501192.8974   22501197.5844
       173.0004        173.0004
 21  2  1  1  9  0.0000000  0 10G30G28G08G09G19G17G07G01G14G21
 -16607390.09249 -12911334.98447  21299223.491    21299223.6264   21299230.4094
       202.0004        203.0004
  -2270222.35747  -1758405.91445  23372614.920    23372614.7054   23372618.8304
       156.0004        157.0004
  -3030187.81048  -2347234.49646  24098766.236    24098766.8634   24098775.3804
       173.0004        175.0004
  -7861076.25748  -6095328.92446  22940497.208    22940498.0584   22940504.7564
       173.0004        175.0004
  -5666737.59347  -4087586.49045  23955487.275    23955485.6564   23955490.7464
       156.0004        160.0004
 -13103038.71548 -10188452.45447  21968796.818    21968797.2994   21968802.0184
       191.0004        192.0004
 -25874701.73949 -20136387.33748  20146770.994    20146771.8344   20146775.7204
       215.0004        216.0004
 -22978582.63249 -17896441.90247  20756811.138    20756811.6894   20756819.0774
       200.0004        200.0004
  -4844538.26548  -3764976.01346  22855949.206    22855949.9394   22855955.5994
       171.0004        173.0004
  -8554707.88648  -6460394.71746  22512919.584    22512919.8584   22512924.0154
       173.0004        174.0004
 21  2  1  1  9 30.0000000  0 10G30G28G08G09G19G17G07G01G14G21
 -16677065.35249 -12965627.38047  21285964.687    21285964.8674   21285971.9354
       202.0004        203.0004
  -2290218.74647  -1773987.51345  23368809.782    23368809.8724   23368812.4564
       156.0004        159.0004
  -2937490.47448  -2275002.85746  24116406.087    24116406.7684   24116415.2684
       173.0004        174.0004
  -7781182.45248  -6033074.01946  22955702.118    22955701.2824   22955709.2794
       175.0004        176.0004
  -5745182.31847  -4148712.19545  23940558.939    23940559.0124   23940561.6614
       157.0004        159.0004
 -13142169.29248 -10218943.79447  21961350.964    21961350.8484   21961355.5644
       191.0004        191.0004
 -25896191.65549 -20153132.72048  20142681.844    20142682.2844   20142686.6854
       215.0004        217.0004
 -22985062.14649 -17901490.84347  20755577.756    20755578.1944   20755585.7894
       200.0004        200.0004
  -4874762.83948  -3788527.59946  22850197.901    22850199.5244   22850203.3284
       172.0004        173.0004
  -8492656.97648  -6412043.34546  22524729.520    22524728.7444   22524732.5324
       173.0004        175.0004
 21  2  1  1 10  0.0000000  0 10G30G28G08G09G19G17G07G01G14G21
 -16746429.05649 -13019677.03047  21272765.039    21272765.2114   21272772.1864
       202.0004        203.0004
  -2310321.56447  -1789652.03445  23364984.653    23364984.3784   23364988.8584
       157.0004        159.0004
  -2844881.12548  -2202839.75146  24134032.010    24134031.6054   24134038.8004
       176.0004        178.0004
  -7701248.87048  -5970788.13546  22970911.212    22970911.8754   22970920.1914
       174.0004        174.0004
  -5823347.41547  -4209620.05745  23925684.623    23925684.8114   23925688.7414
       159.0004        162.0004
 -13180885.07648 -10249111.94147  21953982.496    21953983.3244   21953987.9784
       190.0004        189.0004
 -25917165.26849 -20169475.81248  20138690.485    20138691.0084   20138695.3674
       215.0004        216.0004
 -22990946.56649 -17906076.10647  20754457.817    20754458.8274   20754466.3334
       200.0004        200.0004
  -4905061.41448  -3812136.89546  22844432.495    22844433.6424   22844437.0804
       172.0004        171.0004
  -8430183.71448  -6363362.87246  22536617.590    22536616.6904   22536620.8924
       173.0004        174.0004
 21  2  1  1 10 30.0000000  0 10G30G28G08G09G19G17G07G01G14G21
 -16815478.03549 -13073481.44247  21259625.416    21259625.6074   21259632.5434
       202.0004        203.0004
  -2330530.99647  -1805399.64845  23361138.329    23361137.6984   23361142.4864
       157.0004        158.0004
  -2752360.35148  -2130745.69446  24151635.190    24151636.1764   24151644.3304
       174.0004        175.0004
  -7621277.85548  -5908473.07946  22986129.070    22986129.4264   22986138.2364
       173.0004        175.0004
  -5901230.87247  -4270308.43045  23910864.331    23910863.7454   23910867.7784
       158.0004        159.0004
 -13219185.75748 -10278956.60847  21946694.882    21946694.9054   21946699.4544
       189.0004        189.0004
 -25937620.19349 -20185414.72948  20134797.944    20134798.6594   20134802.7154
       215.0004        216.0004
 -22996234.36349 -17910196.45647  20753451.910    20753452.2524   20753460.0564
       200.0004        200.0004
  -4935433.85748  -3835803.72746  22838651.628    22838651.5604   22838657.8184
       169.0004        169.0004
  -8367289.35848  -6314354.28546  22548585.223    22548584.9634   22548588.6424
       174.0004        175.0004
 21  2  1  1 11  0.0000000  0 10G30G28G08G09G19G17G07G01G14G21
 -16884207.77449 -13127037.06447  21246546.366    21246546.7514   21246554.1044
       203.0004        203.0004
  -2350846.17147  -1821229.62745  23357272.072    23357272.2884   23357276.4554
       156.0004        158.0004
  -2659927.84048  -2058720.37046  24169224.433    24169225.1364   24169234.5054
       176.0004        177.0004
  -7541270.44348  -5846129.64746  23001354.476    23001354.5804   23001362.9774
       174.0004        175.0004
  -5978829.78947  -4330775.09045  23896098.416    23896096.9054   23896102.0844
       160.0004        162.0004
 -13257069.81648 -10308476.63947  21939485.823    21939486.5314   21939490.1514
       189.0004        189.0004
 -25957552.89449 -20200946.70048  20131005.475    20131005.6344   20131009.8274
       215.0004        216.0004
 -23000922.74949 -17913849.72447  20752559.763    20752560.0944   20752567.8304
       200.0004        200.0004
  -4965878.55248  -3859526.85446  22832859.196    22832859.5454   22832863.8024
       169.0004        172.0004
  -8303973.80448  -6265017.48146  22560633.771    22560633.0404   22560638.2834
       174.0004        175.0004
 21  2  1  1 11 30.0000000  0 10G30G28G08G09G19G17G07G01G14G21
 -16952617.33049 -13180343.21147  21233529.403    21233529.1874   21233535.6834
       203.0004        204.0004
  -2371269.58247  -1837143.94745  23353385.646    23353385.9834   23353389.4064
       155.0004        156.0004
  -2567587.40148  -1986766.81046  24186797.868    24186797.5904   24186805.7754
       174.0004        175.0004
  -7461231.18448  -5783761.42546  23016587.152    23016587.0244   23016592.6774
       173.0004        173.0004
  -6056144.97547  -4391020.63546  23881385.940    23881385.3894   23881389.1744
       161.0004        163.0004
 -13294539.06748 -10337673.43347  21932355.671    21932356.0734   21932359.5184
       190.0004        191.0004
 -25976963.29849 -20216071.68548  20127311.392    20127312.0664   20127316.2944
       215.0004        217.0004
 -23005012.53349 -17917036.54747  20751781.678    20751782.1854   20751789.4784
       200.0004        200.0004
  -4996397.59648  -3883307.93646  22827053.076    22827053.0014   22827056.9344
       171.0004        171.0004
  -8240240.23548  -6215354.96046  22572761.090    22572761.9654   22572766.2664
       174.0004        175.0004
 21  2  1  1 12  0.0000000  0 10G30G28G08G09G19G17G07G01G14G21
 -17020703.50349 -13233397.37547  21220571.984    21220572.2204   21220579.4534
       203.0004        203.0004
  -2391801.47047  -1853142.81945  23349480.212    23349479.8524   23349481.8044
       154.0004        157.0004
  -2475340.02248  -1914885.74346  24204351.888    24204352.1584   24204360.7134
       172.0004        173.0004
  -7381162.37648  -5721370.16046  23031821.746    23031823.1054   23031829.9144
       173.0004        173.0004
  -6133174.96747  -4451043.99845  23866726.724    23866726.7734   23866730.2534
       161.0004        162.0004
 -13331593.71748 -10366547.17847  21925303.833    21925304.4204   21925309.2544
       191.0004        191.0004
 -25995849.26849 -20230788.04148  20123717.809    20123718.2884   20123722.0454
       215.0004        216.0004
 -23008502.22649 -17919755.77847  20751117.103    20751118.1744   20751125.5424
       200.0004        201.0004
  -5026990.74448  -3907146.73946  22821228.729    22821230.6184   22821234.9724
       170.0004        169.0004
  -8176090.54548  -6165368.16846  22584970.178    22584969.7094   22584973.4054
       175.0004        175.0004
 21  2  1  1 12 30.0000000  0 10G30G28G08G09G19G17G07G01G14G21
 -17088463.73549 -13286197.55647  21207677.807    21207678.2394   21207685.2614
       203.0004        204.0004
  -2412442.68147  -1869226.87345  23345551.359    23345550.9184   23345555.0554
       155.0004        158.0004
  -2383188.02548  -1843079.03046  24221887.191    24221887.9864   24221896.4344
       174.0004        176.0004
  -7301066.93048  -5658958.12146  23047064.314    23047064.3124   23047072.3434
       173.0004        174.0004
  -6209918.79247  -4510844.31946  23852124.162    23852122.8504   23852127.4514
       161.0004        163.0004
 -13368234.22048 -10395098.22647  21918331.277    21918332.0404   21918336.5664
       191.0004        192.0004
 -26014209.05949 -20245094.38548  20120223.749    20120224.1594   20120228.7074
       215.0004        217.0004
 -23011391.00649 -17922006.76747  20750567.208    20750568.0494   20750576.0994
       200.0004        201.0004
  -5057658.24748  -3931043.50246  22815394.274    22815394.2334   22815399.0184
       170.0004        171.0004
  -8111526.44148  -6115058.48146  22597255.257    22597254.7274   22597260.3684
       175.0004        176.0004
 21  2  1  1 13  0.0000000  0 10G30G28G08G09G19G17G07G01G14G21
 -17155894.63649 -13338741.12247  21194847.103    21194846.9624   21194853.3124
       204.0004        204.0004
  -2433193.33447  -1885396.17445  23341601.261    23341601.6674   23341606.5434
       155.0004        159.0004
  -2291131.74348  -1771346.90646  24239405.205    24239405.2184   24239414.5624
       174.0004        175.0004
  -7220946.95048  -5596526.99146  23062309.717    23062309.8034   23062318.3704
       173.0004        174.0004
  -6286374.84247  -4570420.42445  23837572.436    23837573.1454   23837578.4154
       160.0004        162.0004
 -13404459.88148 -10423325.98847  21911438.266    21911438.8704   21911443.1304
       191.0004        192.0004
 -26032040.46849 -20258988.98548  20116830.818    20116831.2784   20116835.8514
       216.0004        217.0004
 -23013677.35849 -17923788.32547  20750132.399    20750133.0364   20750140.6854
       200.0004        200.0004
  -5088399.75348  -3954997.90546  22809544.779    22809545.1184   22809550.4984
       171.0004        173.0004
  -8046548.44348  -6064426.26646  22609621.393    22609620.0534   22609624.7274
       176.0004        176.0004
 21  2  1  1 13 30.0000000  0 11G30G28G08G09G19G17G03G07G01G14G21
 -17222993.23849 -13391025.73547  21182078.272    21182078.0754   21182085.0854
       204.0004        204.0004
  -2454053.76647  -1901651.05245  23337632.133    23337631.8764   23337637.2644
       155.0004        158.0004
  -2199172.95148  -1699690.73546  24256904.793    24256904.8654   24256912.7174
       174.0004        175.0004
  -7140804.90248  -5534078.67746  23077560.896    23077560.9284   23077568.2784
       173.0004        173.0004
  -6362541.46847  -4629770.99446  23823079.836    23823079.2774   23823083.6824
       160.0004        163.0004
 -13440271.09948 -10451230.81247  21904623.394    21904623.8664   21904628.4514
       192.0004        192.0004
   2187368.91454   1765445.189 5                                  24736540.717
        74.0004        143.000
 -26049341.22849 -20272470.10448  20113538.793    20113539.0204   20113543.4204
       216.0004        217.0004
 -23015360.09949 -17925099.53047  20749812.028    20749812.6264   20749820.4464
       201.0004        201.0004
  -5119215.14348  -3979009.85546  22803680.430    22803680.9704   22803686.5514
       171.0004        172.0004
  -7981158.47648  -6013473.04046  22622063.004    22622063.0284   22622068.8894
       176.0004        177.0004
 21  2  1  1 14  0.0000000  0 11G30G28G08G09G19G17G03G07G01G14G21
 -17289758.33949 -13443050.49247  21169373.062    21169373.5024   21169380.3254
       204.0004        205.0004
  -2475026.23947  -1917993.23045  23333642.551    23333641.6314   23333646.5324
       155.0004        157.0004
  -2107314.60948  -1628112.81946  24274384.283    24274384.8154   24274393.1094
       173.0004        174.0004
  -7060645.05048  -5471616.48146  23092814.372    23092814.8904   23092822.1744
       171.0004        171.0004
  -6438419.31247  -4688896.55046  23808641.359    23808639.7924   23808644.7874
       161.0004        164.0004
 -13475669.32648 -10478813.83047  21897887.545    21897887.6454   21897891.5974
       191.0004        191.0004
   2187368.91444   1765445.189 5                                  24736540.717
        74.0004        143.000
 -26066111.47649 -20285537.83548  20110346.605    20110347.4194   20110351.9934
       216.0004        217.0004
 -23016439.87949 -17925940.91147  20749606.662    20749607.3144   20749614.9334
       200.0004        201.0004
  -5150106.11348  -4003080.73246  22797802.131    22797802.2914   22797807.3494
       171.0004        170.0004
  -7915359.76648  -5962201.32246  22634584.449    22634583.2944   22634589.7334
       176.0004        177.0004
 21  2  1  1 14 30.0000000  0 10G30G28G08G09G19G17G07G01G14G21
 -17356186.05349 -13494812.33547  21156732.651    21156732.8654   21156739.7344
       205.0004        206.0004
  -2496110.71847  -1934422.67145  23329628.013    23329628.4924   23329633.5244
       154.0004        156.0004
  -2015556.92348  -1556613.35746  24291846.853    24291846.0434   24291854.0564
       172.0004        173.0004
  -6980468.96948  -5409141.62746  23108073.042    23108072.1054   23108080.1404
       171.0004        173.0004
  -6514006.02347  -4747795.25346  23794256.996    23794256.2454   23794260.3014
       161.0004        163.0004
 -13510654.30348 -10506074.82347  21891229.947    21891230.4904   21891235.1234
       191.0004        192.0004
 -26082348.59749 -20298190.13848  20107257.730    20107258.0444   20107262.2064
       216.0004        217.0004
 -23016914.73949 -17926310.90947  20749516.331    20749517.2094   20749524.9634
       201.0004        201.0004
  -5181071.68648  -4027209.73746  22791908.781    22791909.5624   22791914.5814
       170.0004        170.0004
  -7849152.80048  -5910611.45646  22647184.111    22647183.2534   22647188.4334
       176.0004        177.0004
 21  2  1  1 15  0.0000000  0 10G30G28G08G09G19G17G07G01G14G21
 -17422274.53849 -13546309.86647  21144155.492    21144156.1154   21144163.4024
       205.0004        205.0004
  -2517308.06347  -1950940.08045  23325595.513    23325595.0274   23325600.4474
       154.0004        158.0004
  -1923902.59548  -1485194.40346  24309285.865    24309286.2704   24309295.4944
       172.0004        173.0004
  -6900280.22448  -5346656.92246  23123331.380    23123331.7194   23123339.1134
       171.0004        172.0004
  -6589301.48247  -4806466.99046  23779928.096    23779927.6444   23779932.4034
       161.0004        163.0004
 -13545227.09648 -10533014.63847  21884650.305    21884651.4104   21884656.0624
       191.0004        192.0004
 -26098051.39149 -20310426.09548  20104269.317    20104269.7704   20104273.9474
       216.0004        217.0004
 -23016784.67349 -17926209.54947  20749542.124    20749542.1814   20749549.7844
       201.0004        202.0004
  -5212112.78448  -4051397.61446  22786001.997    22786001.8284   22786007.4224
       170.0004        170.0004
  -7782540.43348  -5858705.71746  22659859.595    22659859.3424   22659865.3504
       176.0004        177.0004
 21  2  1  1 15 30.0000000  0 10G30G28G08G09G19G17G07G01G14G21
 -17488020.45449 -13597540.43447  21131645.058    21131645.1124   21131652.0064
       205.0004        206.0004
  -2538618.43247  -1967545.54145  23321539.730    23321538.7014   23321543.9364
       155.0004        158.0004
  -1832352.76548  -1413856.89346  24326708.622    24326708.0234   24326715.7414
       169.0004        169.0004
  -6820080.87348  -5284163.92446  23138593.159    23138593.1814   23138600.6614
       171.0004        171.0004
  -6664304.17847  -4864910.64246  23765655.340    23765654.8824   23765659.0414
       161.0004        163.0004
 -13579386.64548 -10559632.42947  21878150.657    21878150.7924   21878155.9594
       191.0004        191.0004
 -26113217.47549 -20322243.82148  20101383.248    20101383.6064   20101388.1464
       216.0004        217.0004
 -23016048.30349 -17925635.73147  20749681.197    20749682.0994   20749689.7044
       201.0004        201.0004
  -5243228.94048  -4075643.95446  22780081.592    22780081.3154   22780086.2994
       169.0004        171.0004
  -7715523.47448  -5806484.71546  22672611.754    22672611.7054   22672618.2574
       176.0004        176.0004
 21  2  1  1 16  0.0000000  0 10G30G28G08G09G19G17G07G01G14G21
 -17553421.99249 -13648502.67447  21119199.878    21119200.0024   21119206.9964
       206.0004        207.0004
  -2560043.49047  -1984240.40645  23317463.284    23317462.5144   23317467.0934
       154.0004        157.0004
  -1740909.83348  -1342602.69246  24344111.302    24344109.7124   24344117.2964
       169.0004        171.0004
  -6739874.58048  -5221665.52046  23153855.519    23153855.5884   23153862.8184
       170.0004        171.0004
  -6739013.98847  -4923126.01746  23751439.751    23751438.5844   23751442.1324
       163.0004        166.0004
 -13613135.49048 -10585930.21847  21871728.180    21871728.9824   21871733.2824
       191.0004        191.0004
 -26127846.40049 -20333642.98748  20098599.590    20098600.1314   20098604.3274
       216.0004        217.0004
 -23014705.77649 -17924589.59847  20749937.263    20749937.5254   20749945.0374
       201.0004        201.0004
  -5274421.23248  -4099949.62046  22774145.807    22774145.9504   22774150.0314
       169.0004        169.0004
  -7648104.82848  -5753950.70146  22685441.606    22685441.1674   22685447.7794
       176.0004        177.0004
 21  2  1  1 16 30.0000000  0 10G30G28G08G09G19G17G07G01G14G21
 -17618476.35649 -13699194.37747  21106820.596    21106820.5944   21106827.2994
       207.0004        207.0004
  -2581583.78747  -2001025.04845  23313364.843    23313363.9284   23313368.6294
       154.0004        157.0004
  -1649574.76148  -1271432.55746  24361488.790    24361489.5334   24361498.0964
       170.0004        171.0004
  -6659663.85548  -5159163.70746  23169118.089    23169119.0934   23169126.6814
       169.0004        170.0004
  -6813429.81547  -4981112.36246  23737277.889    23737277.7904   23737281.9714
       164.0004        166.0004
 -13646473.74248 -10611908.06647  21865384.481    21865384.9084   21865389.4114
       192.0004        192.0004
 -26141936.58449 -20344622.36548  20095918.202    20095918.8034   20095922.9024
       216.0004        217.0004
 -23012756.24349 -17923070.47147  20750308.175    20750308.3334   20750315.9954
       201.0004        201.0004
  -5305689.62848  -4124314.62046  22768194.805    22768194.5764   22768200.4584
       169.0004        169.0004
  -7580286.09748  -5701104.93846  22698347.469    22698347.1044   22698353.3784
       175.0004        176.0004
 21  2  1  1 17  0.0000000  0 10G30G28G08G09G19G17G07G01G14G21
 -17683179.21149 -13749612.18447  21094508.356    21094507.9804   21094514.5584
       207.0004        207.0004
  -2603238.23747  -2017898.61945  23309242.447    23309242.8904   23309247.3194
       154.0004        156.0004
  -1558347.91648  -1200346.71746  24378848.863    24378849.6964   24378856.9494
       170.0004        170.0004
  -6579449.81748  -5096659.26846  23184383.314    23184382.8264   23184391.4974
       171.0004        172.0004
  -6887548.72647  -5038867.31546  23723173.282    23723173.0084   23723177.2694
       163.0004        165.0004
 -13679399.81148 -10637564.71947  21859118.518    21859119.1784   21859123.6954
       192.0004        192.0004
 -26155484.66049 -20355179.30748  20093339.943    20093340.5284   20093344.8134
       216.0004        217.0004
 -23010197.41349 -17921076.55747  20750794.333    20750795.2674   20750803.0334
       201.0004        201.0004
  -5337032.59448  -4148737.69246  22762230.013    22762231.6074   22762235.0514
       169.0004        170.0004
  -7512067.74148  -5647947.77246  22711328.629    22711327.6634   22711334.2234
       175.0004        175.0004
 21  2  1  1 17 30.0000000  0 10G30G28G08G09G19G17G07G01G14G21
 -17747528.85349 -13799754.76347  21082262.374    21082262.6964   21082269.3854
       207.0004        208.0004
  -2625008.59047  -2034862.53645  23305101.067    23305101.4144   23305105.4374
       156.0004        160.0004
  -1467231.31448  -1129346.78946  24396185.428    24396187.1834   24396196.5044
       168.0004        169.0004
  -6499236.08648  -5034155.08346  23199646.983    23199647.0234   23199654.0754
       170.0004        169.0004
  -6961370.91047  -5096391.05146  23709126.004    23709125.3214   23709129.7284
       164.0004        167.0004
 -13711915.36048 -10662901.49847  21852930.971    21852931.2364   21852935.8414
       191.0004        192.0004
 -26168489.88949 -20365313.26448  20090865.297    20090865.5974   20090870.0604
       216.0004        218.0004
 -23007029.57449 -17918608.10647  20751397.690    20751398.3464   20751405.3534
       201.0004        201.0004
  -5368451.18748  -4173219.71446  22756252.415    22756252.0574   22756257.3834
       170.0004        171.0004
  -7443452.11348  -5594481.06346  22724385.095    22724384.6864   22724391.0694
       174.0004        174.0004
 21  2  1  1 18  0.0000000  0 10G30G28G08G09G19G17G07G01G14G21
 -17811523.24849 -13849620.52747  21070084.640    21070084.9214   21070091.4784
       207.0004        207.0004
  -2646895.92247  -2051917.60445  23300936.913    23300935.6304   23300941.0894
       157.0004        159.0004
  -1376227.54048  -1058434.78446  24413506.992    24413506.6864   24413514.1504
       169.0004        171.0004
  -6419025.96348  -4971653.71746  23214911.127    23214911.2784   23214918.0004
       168.0004        169.0004
  -7034896.08347  -5153683.35646  23695134.570    23695133.5214   23695138.0564
       164.0004        166.0004
 -13744021.61548 -10687919.33247  21846821.676    21846821.8944   21846826.7204
       192.0004        194.0004
 -26180951.67849 -20375023.76048  20088493.814    20088494.3094   20088498.6284
       216.0004        218.0004
 -23003252.77649 -17915665.13847  20752115.546    20752116.7774   20752124.2774
       201.0004        201.0004
  -5399946.18148  -4197761.24346  22750257.358    22750258.3514   22750264.8614
       170.0004        172.0004
  -7374442.34848  -5540707.21546  22737518.193    22737517.4804   22737522.8154
       173.0004        173.0004
 21  2  1  1 18 30.0000000  0 10G30G28G08G09G19G17G07G01G14G21
 -17875160.48849 -13899207.99547  21057975.266    21057975.2454   21057981.4394
       208.0004        208.0004
  -2668901.67847  -2069064.92345  23296745.956    23296746.7274   23296752.6654
       155.0004        157.0004
  -1285338.81248   -987612.39646  24430801.658    24430801.9044   24430811.1104
       170.0004        172.0004
  -6338822.91848  -4909157.88946  23230173.752    23230173.4284   23230180.5744
       167.0004        168.0004
  -7108124.13248  -5210744.14346  23681200.251    23681199.6134   23681203.3674
       165.0004        166.0004
 -13775719.72748 -10712619.14647  21840789.783    21840790.1484   21840794.3634
       194.0004        194.0004
 -26192869.21649 -20384310.16948  20086226.255    20086226.5924   20086230.8284
       216.0004        218.0004
 -22998867.16449 -17912247.76947  20752950.358    20752951.1224   20752958.7364
       200.0004        201.0004
  -5431518.35448  -4222362.94046  22744251.184    22744251.4404   22744256.2844
       171.0004        172.0004
  -7305040.76448  -5486628.05646  22750724.762    22750722.9504   22750729.1404
       172.0004        172.0004
 21  2  1  1 19  0.0000000  0 10G30G28G08G09G19G17G07G01G14G21
 -17938436.37849 -13948513.86547  21045933.821    21045933.5684   21045941.0024
       208.0004        208.0004
  -2691024.83947  -2086303.74945  23292537.878    23292538.2024   23292542.7824
       156.0004        158.0004
  -1194564.96348   -916879.52746  24448076.644    24448075.7794   24448084.1194
       170.0004        171.0004
  -6258628.10448  -4846668.44246  23245433.356    23245433.5444   23245441.7944
       168.0004        169.0004
  -7181052.47147  -5267571.36846  23667322.248    23667321.8814   23667325.6814
       162.0004        164.0004
 -13807008.58548 -10737000.03647  21834835.803    21834836.1034   21834840.3514
       194.0004        194.0004
 -26204239.38449 -20393170.03648  20084062.143    20084062.9604   20084067.1704
       216.0004        218.0004
 -22993870.65649 -17908354.36747  20753901.397    20753902.0964   20753909.6804
       200.0004        201.0004
  -5463166.26548  -4247023.63346  22738228.088    22738228.3364   22738233.7574
       171.0004        172.0004
  -7235247.52648  -5432243.70046  22764004.437    22764005.7544   22764010.5584
       171.0004        172.0004
 21  2  1  1 19 30.0000000  0 10G30G28G08G09G19G17G07G01G14G21
 -18001349.23849 -13997536.88047  21033961.311    21033961.9474   21033968.8894
       207.0004        208.0004
  -2713267.01247  -2103635.28945  23288306.730    23288305.8984   23288311.0974
       156.0004        159.0004
  -1103908.81748   -846238.37846  24465326.693    24465326.8854   24465336.4444
       172.0004        173.0004
  -6178445.05148  -4784188.17346  23260691.678    23260691.3584   23260700.6704
       167.0004        170.0004
  -7253681.00747  -5324165.00746  23653500.782    23653500.5144   23653504.3584
       163.0004        166.0004
 -13837889.68148 -10761063.21247  21828958.963    21828959.5954   21828963.4154
       194.0004        193.0004
 -26215061.83249 -20401603.12148  20082002.890    20082003.2624   20082007.8094
       216.0004        217.0004
 -22988263.68849 -17903985.29547  20754968.698    20754969.4584   20754977.0074
       201.0004        201.0004
  -5494890.90448  -4271744.14246  22732191.877    22732191.8474   22732197.3964
       172.0004        173.0004
  -7165065.64648  -5377556.52746  22777359.805    22777359.7704   22777365.9084
       170.0004        170.0004
 21  2  1  1 20  0.0000000  0 10G30G28G08G09G19G17G07G01G14G21
 -18063895.69149 -14046274.36847  21022059.896    21022059.7584   21022066.2664
       208.0004        208.0004
  -2735627.95447  -2121059.38245  23284050.812    23284051.3424   23284054.8614
       156.0004        158.0004
  -1013370.40248   -775688.97146  24482552.207    24482553.8494   24482565.0854
       170.0004        170.0004
  -6098275.79348  -4721718.64046  23275947.537    23275947.6164   23275956.6744
       168.0004        170.0004
  -7326008.74147  -5380524.21446  23639738.466    23639737.7534   23639742.0004
       164.0004        166.0004
 -13868363.04748 -10784808.66447  21823160.232    21823160.8354   21823164.7754
       192.0004        192.0004
 -26225334.55049 -20409607.83948  20080048.155    20080048.7024   20080052.7104
       216.0004        217.0004
 -22982045.06249 -17899139.59547  20756151.326    20756152.5494   20756160.0674
       201.0004        201.0004
  -5526691.68448  -4296523.94546  22726139.216    22726140.1784   22726145.4824
       171.0004        172.0004
  -7094496.61448  -5322567.65946  22790788.893    22790789.0444   22790794.0754
       169.0004        170.0004
 21  2  1  1 20 30.0000000  0 10G30G28G08G09G19G17G07G01G14G21
 -18126073.04249 -14094724.24947  21010227.934    21010228.1984   21010234.8804
       208.0004        209.0004
  -2758108.19747  -2138576.42045  23279772.458    23279772.6054   23279777.0994
       155.0004        158.0004
   -922951.60148   -705232.76746  24499760.586    24499761.2244   24499769.5574
       167.0004        167.0004
  -6018122.83148  -4659261.78846  23291201.746    23291202.2314   23291208.1434
       169.0004        170.0004
  -7398034.27247  -5436647.96446  23626031.574    23626030.9774   23626035.7984
       163.0004        165.0004
 -13898429.04448 -10808236.68947  21817438.508    21817438.9304   21817443.5674
       193.0004        193.0004
 -26235055.95249 -20417182.95948  20078198.231    20078198.6714   20078202.9534
       216.0004        218.0004
 -22975214.21649 -17893816.84347  20757452.135    20757452.4714   20757460.0424
       201.0004        201.0004
  -5558568.47448  -4321363.00746  22720074.008    22720074.4324   22720079.0974
       170.0004        171.0004
  -7023542.13748  -5267278.42746  22804291.789    22804291.5804   22804296.4064
       170.0004        170.0004
 21  2  1  1 21  0.0000000  0 10G30G28G08G09G19G17G07G01G14G21
 -18187879.92749 -14142885.46247  20998466.497    20998466.5924   20998473.2144
       209.0004        209.0004
  -2780709.78347  -2156188.04745  23275470.269    23275470.6754   23275476.6314
       156.0004        158.0004
   -832655.16348   -634871.92446  24516944.724    24516945.1854   24516953.0004
       167.0004        168.0004
  -5937990.13348  -4596820.73346  23306447.746    23306448.6324   23306456.9894
       167.0004        167.0004
  -7469758.19247  -5492536.70646  23612382.557    23612382.0414   23612387.5574
       164.0004        166.0004
 -13928089.87848 -10831349.01447  21811794.598    21811795.0354   21811799.6404
       193.0004        194.0004
 -26244226.41749 -20424328.79048  20076453.111    20076453.7694   20076457.9614
       216.0004        218.0004
 -22967771.99849 -17888017.71347  20758868.250    20758868.6304   20758876.0344
       200.0004        201.0004
  -5590522.65148  -4346262.34046  22713992.297    22713992.6014   22713998.6694
       169.0004        169.0004
  -6952205.29248  -5211691.27546  22817866.711    22817866.4034   22817870.3444
       169.0004        169.0004
 21  2  1  1 21 30.0000000  0 10G30G28G08G09G19G17G07G01G14G21
 -18249312.01649 -14190754.63747  20986776.756    20986776.5394   20986782.9344
       209.0004        209.0004
  -2803431.51947  -2173893.30945  23271149.303    23271149.0854   23271152.2684
       156.0004        158.0004
   -742480.76447   -564606.22046  24534102.957    24534103.4814   24534111.7244
       164.0004        164.0004
  -5857878.57448  -4534396.19346  23321694.218    23321694.6324   23321701.7004
       166.0004        168.0004
  -7541177.84747  -5548188.37345  23598792.837    23598791.6844   23598794.4704
       163.0004        162.0004
 -13957344.75348 -10854144.99947  21806227.157    21806227.6014   21806232.3194
       194.0004        195.0004
 -26252842.33349 -20431042.50848  20074813.451    20074814.1714   20074818.3664
       217.0004        218.0004
 -22959716.31149 -17881740.54947  20760401.516    20760401.8014   20760409.2364
       201.0004        202.0004
  -5622552.50348  -4371220.68746  22707898.340    22707898.9684   22707903.1084
       169.0004        171.0004
  -6880486.31448  -5155806.36146  22831512.354    22831513.1774   22831517.8994
       167.0004        168.0004
 21  2  1  1 22  0.0000000  0 10G30G28G08G09G19G17G07G01G14G21
 -18310368.33849 -14238330.99047  20975157.927    20975157.9664   20975164.6294
       209.0004        210.0004
  -2826275.20547  -2191693.56145  23266800.936    23266800.9034   23266805.7474
       157.0004        159.0004
   -652431.07147   -494437.64346  24551242.574    24551241.2624   24551248.3684
       164.0004        166.0004
  -5777792.46148  -4471991.45346  23336933.468    23336933.4314   23336941.2064
       166.0004        168.0004
  -7612293.83947  -5603603.37946  23585258.807    23585259.0254   23585263.1504
       162.0004        165.0004
 -13986195.36549 -10876625.97447  21800737.156    21800737.7414   21800742.5704
       195.0004        195.0004
 -26260903.94549 -20437324.28948  20073279.280    20073279.9514   20073284.0384
       216.0004        218.0004
 -22951048.41749 -17874986.33447  20762050.635    20762050.8484   20762058.4194
       201.0004        201.0004
  -5654659.62748  -4396239.23046  22701789.062    22701788.7194   22701793.9694
       171.0004        172.0004
  -6808389.03848  -5099626.65046  22845234.913    22845233.9804   22845237.5724
       167.0004        169.0004
 21  2  1  1 22 30.0000000  0 10G30G28G08G09G19G17G07G01G14G21
 -18371046.33449 -14285612.55147  20963610.968    20963611.3214   20963617.7054
       210.0004        209.0004
  -2849241.48247  -2209589.35745  23262430.378    23262429.2764   23262433.9264
       157.0004        160.0004
   -562508.17248   -424367.92446  24568351.985    24568351.8844   24568360.6584
       165.0004        167.0004
  -5697734.53448  -4409608.66546  23352167.490    23352168.1954   23352175.5044
       166.0004        167.0004
  -7683105.28747  -5658781.08746  23571782.937    23571782.9754   23571787.7414
       163.0004        164.0004
 -14014642.18149 -10898792.31047  21795324.588    21795324.9244   21795329.0774
       195.0004        195.0004
 -26268410.19149 -20443173.32148  20071851.172    20071851.6584   20071855.9964
       216.0004        218.0004
 -22941768.11949 -17867754.92747  20763815.958    20763817.1554   20763824.3314
       201.0004        201.0004
  -5686844.20748  -4421318.09246  22695663.831    22695664.3324   22695669.8974
       172.0004        173.0004
  -6735915.00248  -5043153.35846  22859025.780    22859023.9664   22859028.7184
       167.0004        166.0004
 21  2  1  1 23  0.0000000  0 10G30G28G08G09G19G17G07G01G14G21
 -18431342.52349 -14332596.58747  20952136.702    20952137.0514   20952143.5044
       209.0004        208.0004
  -2872330.21047  -2227580.56745  23258036.987    23258036.6024   23258040.8134
       159.0004        162.0004
   -472712.12047   -354396.99246  24585439.004    24585439.2244   24585448.0154
       164.0004        164.0004
  -5617706.29648  -4347249.03746  23367397.829    23367398.2774   23367404.7954
       166.0004        167.0004
  -7753610.96947  -5713720.53746  23558367.899    23558366.7614   23558370.7744
       163.0004        164.0004
 -14042685.61548 -10920644.30847  21789987.503    21789987.8354   21789992.9624
       194.0004        195.0004
 -26275358.64049 -20448587.70648  20070528.916    20070529.4334   20070533.8974
       217.0004        218.0004
 -22931874.03349 -17860045.22947  20765698.334    20765699.4864   20765707.3424
       200.0004        200.0004
  -5719105.14348  -4446456.48646  22689524.285    22689525.1274   22689529.8584
       171.0004        172.0004
  -6663065.56148  -4986387.55146  22872888.043    22872887.1644   22872891.3934
       166.0004        167.0004
 21  2  1  1 23 30.0000000  0 10G30G28G08G09G19G17G07G01G14G21
 -18491254.44149 -14379281.20147  20940736.404    20940736.3504   20940742.7624
       209.0004        209.0004
  -2895542.08747  -2245667.74845  23253620.196    23253620.0954   23253624.2994
       160.0004        162.0004
   -383044.68947   -284526.29246  24602502.221    24602503.0084   24602512.0474
       163.0004        165.0004
  -5537710.59848  -4284914.74646  23382620.917    23382620.8844   23382627.4034
       167.0004        169.0004
  -7823810.14947  -5768421.16746  23545009.315    23545008.6144   23545012.3224
       164.0004        166.0004
 -14070326.56148 -10942182.68947  21784727.995    21784728.4904   21784732.3194
       194.0004        195.0004
 -26281748.83649 -20453567.08448  20069312.998    20069313.5444   20069317.5974
       216.0004        218.0004
 -22921366.09349 -17851857.22147  20767698.744    20767699.3024   20767706.6014
       200.0004        200.0004
  -5751442.61348  -4471654.54046  22683371.035    22683370.8274   22683375.8254
       170.0004        169.0004
  -6589843.19748  -4929331.16446  22886821.893    22886821.3514   22886824.8484
       165.0004        167.0004
 21  2  1  1 24  0.0000000  0 10G30G28G08G09G19G17G07G01G14G21
 -18550781.04949 -14425665.57447  20929408.652    20929408.7054   20929415.5484
       209.0004        209.0004
  -2918879.35647  -2263852.61745  23249178.116    23249178.5674   23249183.3534
       159.0004        160.0004
   -293508.79257   -214758.08046  24619536.026    24619538.3425   24619549.4294
       162.0004        163.0004
  -5457751.55248  -4222609.03046  23397835.669    23397836.1744   23397843.1394
       167.0004        168.0004
  -7893703.22447  -5822883.27046  23531708.419    23531707.8354   23531712.4884
       163.0004        164.0004
 -14097566.64648 -10963408.70447  21779543.671    21779544.2544   21779549.2544
       194.0004        194.0004
 -26287580.70949 -20458111.41148  20068203.262    20068203.7924   20068207.6724
       216.0004        218.0004
 -22910245.60849 -17843191.89047  20769814.189    20769814.9164   20769822.8434
       200.0004        200.0004
  -5783858.21348  -4496913.41746  22677200.754    22677202.1514   22677207.5894
       170.0004        171.0004
  -6516251.26548  -4871986.78946  22900825.106    22900825.4564   22900830.3704
       166.0004        168.0004
 21  2  1  1 24 30.0000000  0 10G30G28G08G09G19G17G07G01G14G21
 -18609916.88049 -14471745.45247  20918155.165    20918155.3054   20918162.2894
       209.0004        209.0004
  -2942338.78947  -2282132.69646  23244714.969    23244714.8094   23244718.2874
       159.0004        163.0004
   -204102.79257   -145091.13046  24636551.773    24636553.1255   24636562.8454
       162.0004        164.0004
  -5377828.88548  -4160331.63346  23413043.753    23413045.0704   23413051.3084
       178.0004        183.0004
  -7963286.49147  -5877103.96346  23518467.893    23518467.3404   23518470.4084
       161.0004        163.0004
 -14124403.92848 -10984320.86247  21774436.917    21774437.0824   21774441.7504
       194.0004        194.0004
 -26292850.11049 -20462217.44748  20067200.374    20067200.7994   20067205.4934
       216.0004        218.0004
 -22898509.49649 -17834046.85847  20772047.669    20772048.5164   20772055.8544
       200.0004        200.0004
  -5816348.88348  -4522230.83046  22671018.894    22671020.5384   22671024.7424
       170.0004        171.0004
  -6442288.65148  -4814353.58846  22914900.637    22914900.9024   22914904.6194
       166.0004        167.0004
 21  2  1  1 25  0.0000000  0 10G30G28G08G09G19G17G07G01G14G21
 -18668660.86349 -14517519.98147  20906976.829    20906976.7994   20906983.9814
       209.0004        209.0004
  -2965922.95247  -2300509.96546  23240227.388    23240226.8834   23240230.9244
       161.0004        163.0004
   -114829.68547    -75527.67346  24653540.945    24653541.9124   24653550.5214
       164.0004        166.0004
  -5297946.59348  -4098085.69846  23428245.283    23428245.3494   23428253.3104
       181.0004        181.0004
  -8032561.06247  -5931084.10346  23505284.807    23505284.1584   23505287.9884
       161.0004        163.0004
 -14150840.82648 -11004921.03247  21769406.320    21769406.8414   21769410.8094
       194.0004        194.0004
 -26297557.49849 -20465885.55748  20066304.691    20066305.2404   20066309.3924
       217.0004        217.0004
 -22886159.00649 -17824423.10247  20774397.865    20774398.6304   20774406.6234
       200.0004        200.0004
  -5848916.08948  -4547607.87046  22664823.383    22664823.3394   22664827.8094
       172.0004        174.0004
  -6367959.49648  -4756434.75246  22929045.687    22929044.6844   22929049.1964
       166.0004        167.0004
 21  2  1  1 25 30.0000000  0 10G30G28G08G09G19G17G07G01G14G21
 -18727010.54749 -14562987.26547  20895873.157    20895873.1864   20895880.1664
       209.0004        209.0004
  -2989632.60747  -2318985.01245  23235714.978    23235714.6724   23235719.6204
       160.0004        161.0004
    -25690.73648     -6068.81146  24670506.771    24670506.5784   24670512.0624
       165.0004        167.0004
  -5218107.41048  -4035873.37847  23443438.212    23443438.8874   23443446.7504
       191.0004        197.0004
  -8101526.70747  -5984823.53046  23492160.907    23492160.1764   23492165.0094
       163.0004        166.0004
 -14176878.80749 -11025210.34747  21764451.741    21764451.6194   21764456.1864
       195.0004        195.0004
 -26301702.27349 -20469115.25548  20065516.013    20065516.2984   20065520.4964
       216.0004        217.0004
 -22873194.17749 -17814320.62647  20776865.973    20776866.3224   20776873.9054
       200.0004        201.0004
  -5881559.89348  -4573044.60246  22658611.374    22658612.1964   22658616.6144
       176.0004        179.0004
  -6293265.33048  -4698231.49646  22943258.853    22943258.3714   22943263.0224
       166.0004        167.0004
 21  2  1  1 26  0.0000000  0 10G30G28G08G09G19G17G07G01G14G21
 -18784964.13049 -14608145.90247  20884844.874    20884845.3184   20884851.7554
       209.0004        209.0004
  -3013468.76347  -2337558.62945  23231180.008    23231180.2564   23231183.9184
       159.0004        162.0004
     63311.95648     63283.90946  24687443.532    24687443.4904   24687450.2354
       167.0004        169.0004
  -5138314.61049  -3973697.19147  23458622.277    23458622.8264   23458630.5474
       197.0004        199.0004
  -8170182.87347  -6038321.82046  23479096.104    23479095.3584   23479097.9284
       163.0004        163.0004
 -14202518.73349 -11045189.49047  21759571.798    21759572.3594   21759577.0374
       195.0004        195.0004
 -26305283.58349 -20471905.89348  20064834.709    20064835.1924   20064839.1794
       216.0004        218.0004
 -22859615.54249 -17803739.85147  20779449.413    20779449.8404   20779457.4054
       200.0004        200.0004
  -5914280.94448  -4598541.51346  22652384.792    22652384.2674   22652388.3824
       177.0004        176.0004
  -6218209.03548  -4639746.06446  22957542.391    22957541.7444   22957545.7464
       167.0004        169.0004
 21  2  1  1 26 30.0000000  0 10G30G28G08G09G19G17G07G01G14G21
 -18842518.79049 -14652993.70547  20873893.475    20873893.0544   20873899.5554
       209.0004        210.0004
  -3037431.20347  -2356230.65846  23226619.626    23226619.8784   23226623.5654
       160.0004        163.0004
    152177.13648    132529.47446  24704351.383    24704352.1244   24704361.0364
       166.0004        166.0004
  -5058570.46949  -3911558.91747  23473797.363    23473797.5444   23473806.0014
       198.0004        199.0004
  -8238528.29447  -6091577.94946  23466090.433    23466089.5324   23466094.4404
       163.0004        165.0004
 -14227761.04949 -11064858.81747  21754769.143    21754769.3244   21754773.2014
       195.0004        195.0004
 -26308299.97149 -20474256.34148  20064260.024    20064260.7124   20064265.1274
       216.0004        217.0004
 -22845422.74549 -17792680.52747  20782149.641    20782150.4994   20782158.4684
       200.0004        200.0004
  -5947078.87648  -4624098.34346  22646142.353    22646143.2894   22646148.4274
       176.0004        176.0004
  -6142792.81248  -4580980.17746  22971892.834    22971892.8164   22971898.2864
       168.0004        170.0004
 21  2  1  1 27  0.0000000  0 10G30G28G08G09G19G17G07G01G14G21
 -18899670.96649 -14697527.86947  20863016.528    20863016.7194   20863024.3084
       209.0004        209.0004
  -3061519.18247  -2375000.51646  23222036.461    23222035.8844   23222039.9954
       161.0004        163.0004
    240905.22547    201668.22146  24721234.646    24721235.6054   24721243.9354
       164.0004        164.0004
  -4978876.47049  -3849459.70547  23488962.253    23488962.5954   23488970.5264
       198.0004        196.0004
  -8306561.40547  -6144590.72846  23453143.490    23453142.9874   23453147.1724
       164.0004        166.0004
 -14252605.62749 -11084218.21647  21750040.620    21750041.3934   21750046.1314
       195.0004        196.0004
 -26310749.07249 -20476164.73748  20063794.303    20063794.9614   20063798.7654
       216.0004        217.0004
 -22830614.71149 -17781141.79547  20784966.660    20784968.2954   20784975.8764
       200.0004        200.0004
  -5979952.52648  -4649714.16746  22639888.121    22639887.9914   22639891.6394
       176.0004        176.0004
  -6067017.49048  -4521934.48446  22986311.752    22986312.0764   22986317.3794
       168.0004        168.0004
 21  2  1  1 27 30.0000000  0 10G30G28G08G09G19G17G07G01G14G21
 -18956417.87949 -14741746.24247  20852218.089    20852218.5514   20852225.3174
       209.0004        209.0004
  -3085733.52847  -2393868.81345  23217427.469    23217427.6554   23217432.0224
       161.0004        161.0004
    329494.55247    270698.80845  24738095.197    24738094.0674   24738103.3584
       161.0004        162.0004
  -4899234.87849  -3787401.34547  23504117.312    23504117.6654   23504125.4574
       195.0004        193.0004
  -8374281.67248  -6197359.73346  23440257.900    23440256.9834   23440260.5814
       165.0004        167.0004
 -14277053.46449 -11103268.47247  21745388.707    21745389.2744   21745393.7684
       195.0004        196.0004
 -26312630.39749 -20477630.72448  20063436.731    20063437.0594   20063441.0804
       216.0004        217.0004
 -22815191.15049 -17769123.43047  20787902.396    20787903.4964   20787911.1844
       200.0004        200.0004
  -6012901.56148  -4675388.73046  22633617.509    22633617.1524   22633622.4664
       176.0004        176.0004
  -5990884.63648  -4462610.18846  23000800.278    23000799.8914   23000804.8454
       168.0004        169.0004
 21  2  1  1 28  0.0000000  0  9G30G28G09G19G17G07G01G14G21
 -19012757.17949 -14785647.00347  20841497.433    20841497.4604   20841504.2474
       209.0004        209.0004
  -3110074.60847  -2412835.90145  23212796.968    23212796.2114   23212799.4184
       160.0004        161.0004
  -4819648.39248  -3725385.91547  23519263.611    23519263.6794   23519270.3834
       194.0004        194.0004
  -8441688.49047  -6249884.48846  23427429.019    23427429.7314   23427434.1784
       164.0004        166.0004
 -14301105.26149 -11122010.11647  21740812.188    21740812.2744   21740816.4334
       196.0004        196.0004
 -26313942.81049 -20478653.38948  20063186.634    20063187.2164   20063191.4504
       216.0004        217.0004
 -22799152.22049 -17756625.55947  20790955.292    20790955.7874   20790963.3794
       200.0004        200.0004
  -6045925.95148  -4701122.02546  22627333.162    22627333.9664   22627338.5214
       175.0004        175.0004
  -5914396.88848  -4403009.34546  23015354.890    23015354.0214   23015360.7494
       168.0004        168.0004
 21  2  1  1 28 30.0000000  0  9G30G28G09G19G17G07G01G14G21
 -19068686.17649 -14829228.04347  20830854.580    20830854.4244   20830861.5294
       209.0004        209.0004
  -3134542.36547  -2431901.70146  23208139.723    23208139.4594   23208144.8574
       160.0004        163.0004
  -4740119.36549  -3663415.27347  23534396.590    23534397.0004   23534404.6774
       195.0004        195.0004
  -8508780.80847  -6302164.16646  23414663.622    23414662.6734   23414667.0334
       164.0004        165.0004
 -14324761.45349 -11140443.49547  21736309.638    21736310.2884   21736314.9424
       195.0004        195.0004
 -26314685.10349 -20479231.81248  20063045.156    20063045.7564   20063050.5204
       216.0004        217.0004
 -22782497.75749 -17743648.05547  20794124.699    20794125.0724   20794132.4624
       200.0004        200.0004
  -6079025.41448  -4726913.81546  22621034.742    22621034.7684   22621039.3054
       176.0004        177.0004
  -5837555.72648  -4343133.12046  23029976.473    23029976.9314   23029983.1204
       167.0004        167.0004
 21  2  1  1 29  0.0000000  0  9G30G28G09G19G17G07G01G14G21
 -19124204.09349 -14872488.75547  20820290.012    20820290.1604   20820296.5404
       209.0004        210.0004
  -3159139.20747  -2451068.04545  23203458.957    23203458.5104   23203463.7174
       160.0004        160.0004
  -4660651.97049  -3601492.64747  23549518.761    23549519.2074   23549526.8074
       195.0004        195.0004
  -8575559.55147  -6354199.53146  23401955.038    23401954.4174   23401958.8304
       163.0004        164.0004
 -14348024.83549 -11158570.78347  21731882.537    21731883.3784   21731888.6364
       195.0004        196.0004
 -26314857.80649 -20479366.38748  20063012.306    20063012.9444   20063017.3174
       216.0004        217.0004
 -22765229.52249 -17730192.26147  20797409.596    20797410.4884   20797418.6004
       199.0004        200.0004
  -6112201.50948  -4752765.29746  22614721.007    22614721.4564   22614726.8514
       178.0004        179.0004
  -5760365.47348  -4282984.85946  23044666.332    23044665.9394   23044670.7594
       167.0004        168.0004
 21  2  1  1 29 30.0000000  0  9G30G28G09G19G17G07G01G14G21
 -19179308.14949 -14915427.00647  20809804.140    20809804.1164   20809810.6784
       209.0004        209.0004
  -3183865.27747  -2470335.12645  23198753.032    23198753.6844   23198758.3624
       159.0004        161.0004
  -4581248.36748  -3539619.76147  23564628.474    23564628.6174   23564636.5054
       193.0004        192.0004
  -8642023.96047  -6405989.96846  23389307.420    23389307.3304   23389311.6674
       162.0004        164.0004
 -14370896.50549 -11176392.86747  21727531.138    21727531.0374   21727536.1184
       195.0004        197.0004
 -26314459.95849 -20479056.40948  20063087.783    20063088.5644   20063092.7774
       216.0004        217.0004
 -22747347.30749 -17716258.08947  20800813.214    20800813.9004   20800821.6044
       199.0004        200.0004
  -6145453.73848  -4778676.14346  22608393.032    22608394.0554   22608399.3654
       178.0004        179.0004
  -5682827.52348  -4222565.70946  23059422.228    23059421.0114   23059425.3444
       167.0004        169.0004
 21  2  1  1 30  0.0000000  0  9G30G28G09G19G17G07G01G14G21
 -19233996.06849 -14958040.97047  20799396.796    20799397.0064   20799404.0784
       209.0004        209.0004
  -3208720.74247  -2489703.02545  23194023.583    23194023.3704   23194027.4774
       158.0004        159.0004
  -4501911.26248  -3477798.66947  23579726.271    23579726.4064   23579733.3694
       191.0004        191.0004
  -8708173.85748  -6457535.30346  23376721.280    23376719.2224   23376724.1634
       165.0004        167.0004
 -14393377.06349 -11193910.16947  21723253.178    21723253.7424   21723257.6254
       196.0004        196.0004
 -26313490.60649 -20478301.07548  20063272.355    20063273.0144   20063277.4284
       215.0004        217.0004
 -22728851.46549 -17701845.72747  20804332.770    20804333.0404   20804341.5504
       200.0004        200.0004
  -6178782.15548  -4804646.31946  22602051.172    22602052.1354   22602055.8424
       177.0004        176.0004
  -5604944.84948  -4161877.90846  23074242.305    23074241.3374   23074246.9724
       167.0004        169.0004
 21  2  1  1 30 30.0000000  0  9G30G28G09G19G17G07G01G14G21
 -19288265.39349 -15000328.74847  20789070.380    20789069.9984   20789076.8794
       209.0004        209.0004
  -3233706.17247  -2509172.17346  23189269.494    23189269.6714   23189274.1744
       159.0004        163.0004
  -4422643.15448  -3416031.31747  23594810.623    23594810.7034   23594818.1024
       192.0004        192.0004
  -8774008.42047  -6508834.92646  23364191.413    23364190.8514   23364195.5874
       163.0004        163.0004
 -14415467.56249 -11211123.53247  21719048.755    21719049.0744   21719054.7064
       196.0004        195.0004
 -26311949.00449 -20477099.83248  20063566.153    20063566.5264   20063571.0464
       216.0004        217.0004
 -22709742.08349 -17686955.28947  20807968.619    20807969.5234   20807977.4274
       199.0004        199.0004
  -6212186.59748  -4830675.74146  22595694.972    22595694.9264   22595699.3844
       175.0004        175.0004
  -5526719.40648  -4100923.00646  23089127.491    23089126.9244   23089132.2264
       165.0004        166.0004
 21  2  1  1 31  0.0000000  0  9G30G28G09G19G17G07G01G14G21
 -19342112.85649 -15042287.81047  20778823.066    20778823.2154   20778829.8484
       209.0004        210.0004
  -3258821.07947  -2528742.24746  23184491.029    23184490.2124   23184496.0984
       162.0004        164.0004
  -4343445.65748  -3354318.98347  23609880.309    23609881.0244   23609889.6044
       192.0004        192.0004
  -8839526.46847  -6559887.90845  23351723.447    23351722.9314   23351727.2364
       161.0004        162.0004
 -14437168.15749 -11228033.07647  21714919.047    21714919.7904   21714924.7604
       195.0004        195.0004
 -26309833.80549 -20475451.63748  20063968.709    20063969.2054   20063973.4484
       216.0004        217.0004
 -22690018.57849 -17671586.31447  20811721.841    20811723.1534   20811731.2394
       199.0004        199.0004
  -6245666.00748  -4856763.59546  22589324.632    22589324.5664   22589328.5084
       175.0004        176.0004
  -5448152.13048  -4039701.77146  23104080.365    23104078.5794   23104082.2504
       165.0004        166.0004
 21  2  1  1 31 30.0000000  0  9G30G28G09G19G17G07G01G14G21
 -19395536.33049 -15083916.48947  20768656.752    20768656.9434   20768664.1724
       209.0004        210.0004
  -3284066.12147  -2548413.68445  23179684.628    23179685.4534   23179691.5464
       160.0004        162.0004
  -4264321.52648  -3292663.83447  23624939.178    23624938.9104   23624946.6604
       192.0004        192.0004
  -8904727.13747  -6610693.58046  23339317.095    23339315.5054   23339320.0104
       161.0004        163.0004
 -14458480.38749 -11244639.98547  21710864.294    21710864.3884   21710869.3534
       195.0004        197.0004
 -26307144.30349 -20473355.92848  20064480.198    20064480.5454   20064484.9384
       216.0004        217.0004
 -22669681.45349 -17655739.18747  20815592.458    20815593.1844   20815600.8274
       199.0004        200.0004
  -6279220.49648  -4882909.94846  22582938.376    22582938.6904   22582943.0134
       176.0004        177.0004
  -5369245.55848  -3978216.11846  23119094.627    23119094.4554   23119096.7704
       165.0004        166.0004
 21  2  1  1 32  0.0000000  0  9G30G28G09G19G17G07G01G14G21
 -19448534.56949 -15125213.82247  20758571.558    20758571.5274   20758578.6554
       209.0004        210.0004
  -3309442.68447  -2568187.61945  23174857.691    23174857.4654   23174862.3794
       160.0004        162.0004
  -4185274.38648  -3231068.68947  23639979.780    23639979.7684   23639988.3174
       191.0004        190.0004
  -8969611.38447  -6661252.70046  23326968.944    23326968.7674   23326973.6014
       162.0004        164.0004
 -14479406.27349 -11260945.86347  21706882.592    21706882.8154   21706887.3934
       197.0004        198.0004
 -26303880.58849 -20470812.79248  20065101.386    20065102.1474   20065106.1934
       215.0004        217.0004
 -22648732.10849 -17639415.02947  20819579.019    20819579.4864   20819587.3764
       199.0004        199.0004
  -6312851.02548  -4909115.56646  22576538.195    22576539.0854   22576543.8524
       177.0004        177.0004
  -5290003.19747  -3916468.84046  23134173.294    23134172.9434   23134176.9634
       164.0004        165.0004
 21  2  1  1 32 30.0000000  0  9G30G28G09G19G17G07G01G14G21
 -19501103.52749 -15166176.65347  20748567.920    20748568.0444   20748575.4684
       210.0004        210.0004
  -3334949.42047  -2588063.00845  23170002.826    23170002.7794   23170007.6184
       159.0004        161.0004
  -4106305.06748  -3169534.20447  23655006.646    23655007.2914   23655015.3184
       189.0004        189.0004
  -9034177.27347  -6711563.75746  23314683.256    23314682.8934   23314687.2274
       163.0004        165.0004
 -14499945.06349 -11276950.10547  21702974.308    21702974.5414   21702979.1974
       198.0004        198.0004
 -26300040.32049 -20467820.38848  20065832.204    20065832.7134   20065837.0404
       216.0004        217.0004
 -22627169.21049 -17622612.75947  20823682.662    20823682.9184   20823690.3784
       199.0004        199.0004
  -6346555.77948  -4935378.99146  22570124.289    22570125.3594   22570130.2884
       177.0004        177.0004
  -5210425.65647  -3854460.34946  23149317.188    23149316.1894   23149318.9624
       163.0004        164.0004
 21  2  1  1 33  0.0000000  0  9G30G28G09G19G17G07G01G14G21
 -19553240.41649 -15206802.79447  20738646.606    20738646.9604   20738654.1764
       210.0004        210.0004
  -3360586.40147  -2608039.86945  23165124.927    23165123.8804   23165129.3694
       160.0004        162.0004
  -4027415.60748  -3108061.88347  23670020.748    23670020.5024   23670027.8154
       190.0004        191.0004
  -9098423.62847  -6761625.79346  23302457.267    23302456.3104   23302460.7374
       163.0004        164.0004
 -14520097.64649 -11292653.40847  21699138.793    21699139.5394   21699143.9324
       197.0004        197.0004
 -26295622.65749 -20464378.05648  20066673.117    20066673.4544   20066677.5084
       216.0004        217.0004
 -22604992.68649 -17605332.34447  20827902.075    20827902.9984   20827910.8544
       199.0004        199.0004
  -6380334.05948  -4961699.71546  22563696.923    22563698.3844   22563701.8984
       177.0004        177.0004
  -5130514.65247  -3792192.03046  23164522.317    23164522.2164   23164525.4154
       162.0004        164.0004
 21  2  1  1 33 30.0000000  0  9G30G28G09G19G17G07G01G14G21
 -19604944.33849 -15247091.57047  20728808.256    20728808.2714   20728815.2294
       210.0004        212.0004
  -3386355.59947  -2628119.74545  23160220.698    23160221.6934   23160225.8114
       160.0004        162.0004
  -3948609.91648  -3046654.87347  23685017.010    23685016.3414   23685023.9764
       190.0004        190.0004
  -9162351.43647  -6811439.66146  23290292.158    23290291.8644   23290296.6334
       163.0004        165.0004
 -14539866.54949 -11308057.74747  21695376.856    21695377.1374   21695382.2364
       196.0004        196.0004
 -26290628.30849 -20460486.37248  20067623.169    20067623.8534   20067628.1964
       216.0004        217.0004
 -22582204.36949 -17587575.20547  20832239.382    20832239.4424   20832247.7414
       199.0004        199.0004
  -6414187.16648  -4988078.75646  22557254.568    22557255.5734   22557259.6934
       177.0004        178.0004
  -5050274.09347  -3729666.91146  23179792.810    23179792.6764   23179795.8294
       163.0004        166.0004
 21  2  1  1 34  0.0000000  0  9G30G28G09G19G17G07G01G14G21
 -19656212.12049 -15287040.49147  20719052.177    20719052.0614   20719059.1044
       211.0004        212.0004
  -3412256.48647  -2648302.26245  23155292.812    23155291.6764   23155296.3884
       160.0004        161.0004
  -3869889.56448  -2985314.36746  23699995.519    23699995.3674   23700003.9244
       188.0004        187.0004
  -9225959.58447  -6861004.43446  23278188.223    23278187.3724   23278192.0044
       164.0004        167.0004
 -14559251.68549 -11323163.04547  21691687.947    21691688.4434   21691692.9004
       195.0004        195.0004
 -26285055.75849 -20456144.13148  20068683.398    20068684.2764   20068688.8144
       216.0004        217.0004
 -22558803.80549 -17569340.99447  20836691.838    20836692.5514   20836699.8514
       199.0004        199.0004
  -6448113.99848  -5014515.23946  22550799.341    22550799.8834   22550804.3894
       179.0004        180.0004
  -4969705.41447  -3666886.13346  23195125.243    23195124.1384   23195128.4334
       164.0004        166.0004
 21  2  1  1 34 30.0000000  0 10G30G28G09G19G17G22G07G01G14G21
 -19707043.88949 -15326649.67647  20709378.430    20709378.9734   20709386.2384
       211.0004        211.0004
  -3438291.25047  -2668589.11545  23150337.988    23150339.4864   23150342.5184
       159.0004        162.0004
  -3791259.46948  -2924044.18647  23714957.858    23714957.9304   23714967.1414
       187.0004        188.0004
  -9289250.20247  -6910321.74446  23266145.155    23266144.4454   23266147.8634
       164.0004        166.0004
 -14578256.66549 -11337972.11747  21688071.233    21688071.8544   21688076.2434
       195.0004        196.0004
  -6133236.76256  -4770051.67145  24785099.683    24785099.8935   24785103.2824
       133.0004        139.0004
 -26278906.77949 -20451352.73748  20069853.893    20069854.1234   20069858.7384
       216.0004        217.0004
 -22534793.89649 -17550631.97647  20841261.274    20841261.6764   20841268.6074
       199.0004        199.0004
  -6482116.76348  -5041010.90746  22544328.565    22544328.1394   22544333.9014
       180.0004        179.0004
  -4888813.19847  -3603853.24446  23210517.732    23210517.2284   23210521.4014
       164.0004        165.0004
 21  2  1  1 35  0.0000000  0 10G30G28G09G19G17G22G07G01G14G21
 -19757435.35349 -15365915.73647  20699790.366    20699790.2124   20699796.9894
       211.0004        212.0004
  -3464458.47547  -2688979.14246  23145359.488    23145359.7414   23145363.5314
       160.0004        163.0004
  -3712720.16748  -2862844.74447  23729904.668    23729904.3934   23729912.0294
       188.0004        189.0004
  -9352220.14047  -6959389.19946  23254161.360    23254160.8704   23254164.8364
       164.0004        165.0004
 -14596881.02849 -11352484.58447  21684527.304    21684527.8824   21684531.8404
       195.0004        195.0004
  -6155648.64746  -4787515.43945  24780834.525    24780833.9984   24780836.4254
       133.0004        139.0004
 -26272178.57649 -20446109.97948  20071133.942    20071134.6124   20071139.0224
       216.0004        217.0004
 -22510173.11649 -17531446.92947  20845945.507    20845946.9104   20845954.1534
       199.0004        199.0004
  -6516193.28148  -5067563.99646  22537844.385    22537844.6134   22537849.1224
       179.0004        179.0004
  -4807597.60147  -3540568.37146  23225972.157    23225971.6014   23225975.9784
       164.0004        166.0004
 21  2  1  1 35 30.0000000  0 10G30G28G09G19G17G22G07G01G14G21
 -19807382.45049 -15404835.57447  20690285.411    20690285.5594   20690292.2654
       211.0004        212.0004
  -3490756.65947  -2709471.24145  23140354.311    23140354.6714   23140358.4894
       161.0004        162.0004
  -3634272.14548  -2801716.45347  23744832.441    23744832.4474   23744840.8014
       188.0004        188.0004
  -9414867.78748  -7008205.53446  23242239.861    23242238.9014   23242243.3424
       165.0004        166.0004
 -14615123.65749 -11366699.61847  21681056.059    21681056.1184   21681060.4474
       196.0004        196.0004
  -6177962.28047  -4804902.61345  24776587.393    24776587.1304   24776591.3624
       135.0004        142.0004
 -26264868.93149 -20440414.17848  20072525.600    20072525.9434   20072530.1134
       216.0004        217.0004
 -22484940.19649 -17511784.92047  20850747.143    20850747.9804   20850756.1324
       198.0004        199.0004
  -6550341.49948  -5094173.02546  22531346.172    22531346.6084   22531350.5944
       179.0004        178.0004
  -4726059.05347  -3477031.85746  23241488.947    23241488.3854   23241492.9444
       164.0004        165.0004
 21  2  1  1 36  0.0000000  0 10G30G28G09G19G17G22G07G01G14G21
 -19856884.33049 -15443408.47347  20680865.248    20680865.5064   20680872.2704
       212.0004        212.0004
  -3517187.54847  -2730066.72645  23135324.454    23135323.6114   23135328.8814
       160.0004        161.0004
  -3555919.33148  -2740662.31747  23759743.543    23759743.7934   23759749.9594
       187.0004        188.0004
  -9477193.84748  -7056771.30546  23230379.564    23230379.5344   23230383.4034
       166.0004        168.0004
 -14632987.65749 -11380619.61547  21677656.746    21677656.9734   21677661.1474
       196.0004        197.0004
  -6200176.71647  -4822212.52545  24772362.205    24772362.4744   24772364.1434
       136.0004        141.0004
 -26256979.05849 -20434266.23748  20074026.084    20074026.8154   20074031.3444
       216.0004        217.0004
 -22459097.10749 -17491647.45147  20855665.726    20855666.5864   20855673.2644
       199.0004        199.0004
  -6584562.59548  -5120838.81546  22524833.132    22524833.6264   22524840.0704
       178.0004        178.0004
  -4644201.40947  -3413246.69546  23257065.730    23257065.0274   23257069.6054
       164.0004        165.0004
 21  2  1  1 36 30.0000000  0 10G30G28G09G19G17G22G07G01G14G21
 -19905938.09549 -15481632.18547  20671531.104    20671530.7374   20671537.5124
       212.0004        212.0004
  -3543750.99947  -2750765.49345  23130269.412    23130269.1994   23130273.8044
       159.0004        161.0004
  -3477663.47148  -2679683.73646  23774632.671    23774633.1424   23774641.9014
       186.0004        186.0004
  -9539197.96848  -7105086.15746  23218581.251    23218580.4944   23218583.7204
       167.0004        168.0004
 -14650473.61949 -11394245.03647  21674329.833    21674330.0354   21674333.7654
       197.0004        198.0004
  -6222289.02447  -4839442.85845  24768153.192    24768153.3844   24768156.0094
       136.0004        140.0004
 -26248507.55149 -20427665.06748  20075638.683    20075639.1414   20075643.3384
       215.0004        217.0004
 -22432643.75349 -17471034.43347  20860700.012    20860700.0034   20860706.8444
       198.0004        198.0004
  -6618855.61748  -5147560.62446  22518308.104    22518308.5574   22518313.4684
       179.0004        180.0004
  -4562026.60647  -3349214.39246  23272701.457    23272701.4224   23272707.5664
       164.0004        164.0004
 21  2  1  1 37  0.0000000  0 10G30G28G09G19G17G22G07G01G14G21
 -19954541.71949 -15519505.14047  20662281.423    20662281.6274   20662288.8104
       212.0004        212.0004
  -3570447.42147  -2771567.90046  23125190.386    23125190.0454   23125193.8694
       161.0004        163.0004
  -3399507.21848  -2618782.79947  23789506.599    23789506.9814   23789514.7434
       187.0004        188.0004
  -9600879.65448  -7153149.78646  23206841.814    23206841.5564   23206846.1994
       165.0004        166.0004
 -14667582.69649 -11407576.77147  21671073.244    21671073.6764   21671077.9494
       197.0004        197.0004
  -6244297.31147  -4856592.10045  24763966.306    24763965.2674   24763968.6684
       136.0004        142.0004
 -26239454.28649 -20420610.59248  20077361.944    20077362.1174   20077366.1054
       216.0004        217.0004
 -22405580.96749 -17449946.53847  20865849.681    20865850.1734   20865857.2034
       198.0004        199.0004
  -6653220.60148  -5174338.52846  22511768.445    22511769.4324   22511773.7444
       179.0004        180.0004
  -4479536.96147  -3284936.75946  23288399.094    23288398.5774   23288405.9624
       163.0004        163.0004
 21  2  1  1 37 30.0000000  0 10G30G28G09G19G17G22G07G01G14G21
 -20002693.49549 -15557026.00048  20653119.150    20653118.8664   20653125.9594
       212.0004        213.0004
  -3597277.27447  -2792474.25746  23120084.463    23120084.6994   23120089.0214
       161.0004        163.0004
  -3321453.47248  -2557961.73747  23804361.436    23804361.3714   23804367.4834
       190.0004        192.0004
  -9662239.10448  -7200962.31246  23195166.925    23195166.1614   23195170.7564
       167.0004        169.0004
 -14684316.66549 -11420616.21447  21667889.074    21667889.6254   21667893.7584
       196.0004        196.0004
  -6266199.48147  -4873658.61045  24759799.764    24759796.4874   24759800.9364
       136.0004        141.0004
 -26229819.52449 -20413102.98648  20079195.305    20079195.9384   20079199.6024
       216.0004        217.0004
 -22377909.91349 -17428384.66047  20871114.513    20871115.2214   20871122.9264
       198.0004        198.0004
  -6687657.72048  -5201172.62346  22505215.051    22505215.7944   22505220.2074
       179.0004        180.0004
  -4396734.93247  -3220415.70446  23304156.365    23304156.3694   23304161.7504
       162.0004        163.0004
 21  2  1  1 38  0.0000000  0 11G30G28G09G19G17G22G03G07G01G14G21
 -20050391.84849 -15594193.56048  20644041.961    20644042.0364   20644049.2854
       213.0004        213.0004
  -3624241.98747  -2813485.70945  23114953.202    23114953.7354   23114956.4924
       162.0004        162.0004
  -3243505.30148  -2497222.93047  23819193.167    23819193.0434   23819201.2684
       191.0004        191.0004
  -9723276.70448  -7248524.04646  23183552.121    23183551.0434   23183555.2104
       167.0004        168.0004
 -14700677.46149 -11433364.88347  21664775.675    21664776.2104   21664780.6324
       197.0004        197.0004
  -6287994.47947  -4890641.67645  24755651.102    24755649.4364   24755652.4064
       137.0004        142.0004
  -3497764.85958  -2711924.57046  24701628.530    24701629.2125   24701637.2944
       167.0004        170.0004
 -26219603.09249 -20405142.14648  20081139.304    20081139.7024   20081144.1054
       216.0004        217.0004
 -22349631.93549 -17406349.86347  20876495.938    20876496.4524   20876503.7904
       198.0004        198.0004
  -6722167.27748  -5228063.20146  22498648.985    22498648.7944   22498654.0274
       179.0004        179.0004
  -4313624.06947  -3155654.01246  23319972.133    23319971.7774   23319977.0344
       162.0004        164.0004
 21  2  1  1 38 30.0000000  0 11G30G28G09G19G17G22G03G07G01G14G21
 -20097633.15549 -15631004.96948  20635052.191    20635052.4354   20635059.9074
       213.0004        214.0004
  -3651340.04547  -2834601.09945  23109796.261    23109796.1404   23109799.8974
       160.0004        160.0004
  -3165663.63048  -2436567.09147  23834003.806    23834004.6744   23834014.4054
       191.0004        191.0004
  -9783990.64348  -7295833.60146  23171998.486    23171997.5944   23172001.6054
       167.0004        169.0004
 -14716664.62849 -11445822.40847  21661733.327    21661733.9564   21661738.0324
       197.0004        196.0004
  -6309678.28547  -4907538.14545  24751524.529    24751522.9824   24751526.2444
       141.0004        146.0004
  -3535771.52248  -2741540.06846  24694395.825    24694397.3574   24694406.0534
       172.0004        175.0004
 -26208803.34249 -20396726.76548  20083194.408    20083194.9174   20083198.7184
       216.0004        217.0004
 -22320746.22649 -17383841.51447  20881992.807    20881993.4554   20882001.0734
       198.0004        199.0004
  -6756747.62248  -5255008.92246  22492067.190    22492068.3634   22492073.7954
       179.0004        178.0004
  -4230205.11047  -3090652.23246  23335846.213    23335846.3594   23335851.0574
       161.0004        163.0004
 21  2  1  1 39  0.0000000  0 11G30G28G09G19G17G22G03G07G01G14G21
 -20144415.45249 -15667458.71248  20626150.029    20626150.1154   20626157.3584
       213.0004        214.0004
  -3678571.53547  -2855820.42845  23104613.775    23104614.2604   23104617.4024
       158.0004        160.0004
  -3087930.99948  -2375996.24947  23848798.252    23848798.0844   23848805.9304
       191.0004        192.0004
  -9844380.34348  -7342890.45546  23160506.609    23160506.3894   23160509.8964
       168.0004        169.0004
 -14732280.05949 -11457990.25647  21658761.460    21658762.1784   21658766.6834
       196.0004        196.0004
  -6331248.62547  -4924346.16845  24747418.203    24747418.3744   24747422.6294
       140.0004        144.0004
  -3573869.97248  -2771227.10046  24687147.057    24687147.4284   24687156.1444
       175.0004        176.0004
 -26197419.92749 -20387856.58048  20085360.777    20085361.0464   20085365.2944
       215.0004        217.0004
 -22291253.76749 -17360860.36247  20887605.489    20887605.8064   20887612.9694
       198.0004        198.0004
  -6791398.59648  -5282009.66746  22485474.526    22485474.9154   22485478.6404
       178.0004        177.0004
  -4146480.61947  -3025412.37745  23351777.844    23351777.9314   23351783.3254
       160.0004        161.0004
 21  2  1  1 39 30.0000000  0 11G30G28G09G19G17G22G03G07G01G14G21
 -20190736.67849 -15703553.18948  20617335.289    20617335.3354   20617342.2954
       213.0004        214.0004
  -3705936.93747  -2877144.12245  23099406.986    23099407.1974   23099411.4964
       159.0004        162.0004
  -3010309.89948  -2315512.30847  23863568.258    23863568.4354   23863576.5154
       191.0004        191.0004
  -9904445.86848  -7389694.76146  23149076.436    23149075.2944   23149080.7714
       168.0004        170.0004
 -14747524.73949 -11469869.24147  21655861.345    21655861.5594   21655865.9174
       197.0004        197.0004
  -6352703.47947  -4941064.18845  24743335.671    24743335.7584   24743339.1054
       138.0004        142.0004
  -3612058.07448  -2800984.02946  24679879.547    24679880.1994   24679887.8544
       176.0004        176.0004
 -26185452.91549 -20378531.65948  20087637.827    20087638.5494   20087642.2664
       215.0004        217.0004
 -22261155.38049 -17337407.07947  20893331.914    20893332.9604   20893340.4164
       198.0004        198.0004
  -6826120.00648  -5309065.31446  22478865.451    22478866.4474   22478871.9324
       177.0004        177.0004
  -4062452.68947  -2959936.07545  23367766.880    23367768.0614   23367772.0204
       160.0004        162.0004
 21  2  1  1 40  0.0000000  0 11G30G28G09G19G17G22G03G07G01G14G21
 -20236594.60249 -15739286.63548  20608609.205    20608609.3494   20608616.0454
       213.0004        214.0004
  -3733436.47947  -2898572.31045  23094173.488    23094173.5964   23094178.4994
       160.0004        162.0004
  -2932802.58648  -2255117.02247  23878317.488    23878317.6934   23878325.9494
       189.0004        188.0004
  -9964187.30148  -7436246.50146  23137707.223    23137707.2694   23137710.7124
       168.0004        170.0004
 -14762400.35849 -11481460.61547  21653030.732    21653030.7604   21653034.9504
       197.0004        198.0004
  -6374040.42847  -4957690.36345  24739276.509    24739275.9344   24739280.7954
       137.0004        142.0004
  -3650333.43648  -2830808.92546  24672598.359    24672598.3554   24672604.4454
       177.0004        178.0004
 -26172901.86149 -20368751.61748  20090026.744    20090027.0184   20090030.5924
       215.0004        216.0004
 -22230451.82749 -17313482.21947  20899175.558    20899175.8504   20899183.4284
       198.0004        199.0004
  -6860911.39148  -5336175.48246  22472247.147    22472247.4854   22472252.2954
       178.0004        180.0004
  -3978124.16747  -2894225.56845  23383814.582    23383815.3844   23383818.6004
       158.0004        159.0004
 21  2  1  1 40 30.0000000  0 11G30G28G09G19G17G22G03G07G01G14G21
 -20281987.93049 -15774658.05448  20599970.961    20599971.2154   20599978.0024
       214.0004        214.0004
  -3761071.31947  -2920105.92546  23088915.214    23088915.2314   23088919.2394
       161.0004        163.0004
  -2855412.28448  -2194812.89347  23893045.290    23893044.9984   23893052.3614
       188.0004        188.0004
 -10023604.87848  -7482545.87146  23126401.653    23126400.8644   23126404.5474
       171.0004        174.0004
 -14776909.12549 -11492766.13147  21650269.292    21650269.3734   21650274.0694
       197.0004        196.0004
  -6395258.13347  -4974223.62045  24735238.252    24735238.3114   24735241.9434
       139.0004        144.0004
  -3688694.60548  -2860700.70646  24665298.723    24665298.3184   24665305.2654
       176.0004        176.0004
 -26159767.28649 -20358516.88148  20092525.513    20092526.1964   20092530.0304
       215.0004        216.0004
 -22199144.73649 -17289087.06147  20905132.616    20905133.0024   20905140.9634
       198.0004        199.0004
  -6895773.30348  -5363340.58646  22465611.536    22465611.9604   22465617.1844
       178.0004        178.0004
  -3893498.25847  -2828283.28845  23399918.919    23399918.7434   23399923.5534
       157.0004        159.0004
 21  2  1  1 41  0.0000000  0 11G30G28G09G19G17G22G03G07G01G14G21
 -20326914.13849 -15809665.50148  20591422.333    20591422.1454   20591428.7844
       214.0004        214.0004
  -3788841.11147  -2941744.73046  23083631.278    23083631.0114   23083635.7714
       163.0004        165.0004
  -2778140.95248  -2134601.50847  23907750.424    23907750.3414   23907757.0274
       188.0004        189.0004
 -10082698.36848  -7528592.72546  23115156.274    23115155.4174   23115159.2144
       172.0004        174.0004
 -14791051.60849 -11503786.24947  21647577.682    21647578.4264   21647582.4844
       195.0004        194.0004
  -6416353.99847  -4990661.91945  24731226.089    24731225.0504   24731228.4224
       142.0004        148.0004
  -3727139.04048  -2890657.35146  24657977.903    24657979.0884   24657988.8374
       171.0004        171.0004
 -26146048.80449 -20347827.17248  20095136.128    20095136.6914   20095140.9854
       215.0004        216.0004
 -22167234.56549 -17264221.98947  20911205.133    20911205.3554   20911213.2244
       198.0004        198.0004
  -6930704.95448  -5390560.05246  22458965.335    22458965.4424   22458970.6854
       179.0004        179.0004
  -3808576.49247  -2762110.48345  23416079.850    23416078.9684   23416082.3644
       157.0004        159.0004
 21  2  1  1 41 30.0000000  0 11G30G28G09G19G17G22G03G07G01G14G21
 -20371370.45249 -15844306.79948  20582962.947    20582962.5904   20582969.0184
       214.0004        215.0004
  -3816745.65947  -2963488.52045  23078319.583    23078319.7224   23078326.0614
       161.0004        161.0004
  -2700990.15948  -2074484.04947  23922430.121    23922430.5494   23922438.7834
       188.0004        188.0004
 -10141466.54048  -7574386.08946  23103971.630    23103971.4864   23103976.2864
       173.0004        173.0004
 -14804828.77849 -11514521.70747  21644956.350    21644956.9164   21644961.3954
       195.0004        196.0004
  -6437325.28047  -5007003.16245  24727235.506    24727234.1814   24727237.9554
       143.0004        148.0004
  -3765663.62348  -2920676.39846  24650648.236    24650649.2504   24650659.3524
       170.0004        172.0004
 -26131745.24749 -20336681.56448  20097857.981    20097858.4614   20097862.7154
       215.0004        215.0004
 -22134721.50749 -17238887.13947  20917391.683    20917392.6664   20917400.1304
       197.0004        198.0004
  -6965705.31848  -5417833.05846  22452303.916    22452304.8984   22452309.4684
       179.0004        178.0004
  -3723360.72747  -2695708.59245  23432295.538    23432294.7134   23432299.3584
       157.0004        159.0004
 21  2  1  1 42  0.0000000  0 11G30G28G09G19G17G22G03G07G01G14G21
 -20415354.56549 -15878580.15048  20574592.325    20574592.5734   20574599.1784
       215.0004        215.0004
  -3844784.64047  -2985337.06845  23072985.630    23072984.7644   23072988.9924
       160.0004        162.0004
  -2623962.01048  -2014462.12446  23937087.804    23937088.5664   23937095.9034
       187.0004        187.0004
 -10199909.15848  -7619925.79446  23092852.170    23092851.2504   23092854.8944
       172.0004        173.0004
 -14818241.61149 -11524973.24947  21642403.952    21642404.3734   21642408.6214
       197.0004        198.0004
  -6458169.11947  -5023245.07745  24723267.247    24723265.9554   24723271.5444
       143.0004        146.0004
  -3804265.77248  -2950755.96046  24643304.953    24643305.3434   24643313.1664
       173.0004        176.0004
 -26116856.62049 -20325080.05248  20100690.974    20100691.8634   20100695.9044
       214.0004        216.0004
 -22101606.23349 -17213083.03347  20923692.601    20923694.1334   20923702.0114
       197.0004        197.0004
  -7000773.72748  -5445159.10046  22445631.942    22445632.0314   22445636.5804
       179.0004        178.0004
  -3637854.03347  -2629080.01145  23448566.764    23448566.7114   23448571.3844
       158.0004        161.0004
 21  2  1  1 42 30.0000000  0 11G30G28G09G19G17G22G03G07G01G14G21
 -20458865.45749 -15912484.74148  20566312.153    20566312.7064   20566319.1274
       214.0004        215.0004
  -3872959.15847  -3007291.24345  23067624.880    23067624.6014   23067628.5164
       160.0004        162.0004
  -2547059.88148  -1954538.42846  23951722.973    23951722.9274   23951730.7684
       186.0004        185.0004
 -10258027.14448  -7665212.50846  23081792.584    23081792.7744   23081795.1854
       173.0004        174.0004
 -14831292.57949 -11535142.83047  21639920.088    21639920.6174   21639925.1344
       198.0004        199.0004
  -6478884.31147  -5039386.77645  24719323.227    24719323.1484   24719329.2224
       140.0004        142.0004
  -3842944.20248  -2980894.93846  24635943.732    24635944.7834   24635951.6464
       175.0004        177.0004
 -26101383.36349 -20313022.97648  20103635.910    20103636.1104   20103640.5394
       215.0004        216.0004
 -22067890.74549 -17186811.20847  20930109.308    20930109.8824   20930117.7244
       197.0004        198.0004
  -7035910.90248  -5472538.72146  22438944.128    22438944.7824   22438949.7134
       177.0004        177.0004
  -3552058.69147  -2562226.51445  23464892.347    23464892.9184   23464898.9394
       158.0004        161.0004
 21  2  1  1 43  0.0000000  0 11G30G28G09G19G17G22G03G07G01G14G21
 -20501899.73849 -15946017.95348  20558123.518    20558123.4614   20558130.0214
       214.0004        215.0004
  -3901268.24647  -3029350.24845  23062236.158    23062235.9434   23062240.8174
       159.0004        161.0004
  -2470284.71948  -1894713.61946  23966331.503    23966331.7714   23966338.8334
       184.0004        183.0004
 -10315818.56048  -7710244.75946  23070794.143    23070794.1194   23070797.7934
       172.0004        172.0004
 -14843981.57749 -11545030.36047  21637505.886    21637505.8824   21637510.8864
       198.0004        198.0004
  -6499467.27047  -5055425.43145  24715406.821    24715406.4784   24715411.2774
       137.0004        143.0004
  -3881695.31348  -3011090.54846  24628569.119    24628570.1064   24628576.9804
       173.0004        173.0004
 -26085324.22049 -20300509.36748  20106691.240    20106691.7314   20106696.5284
       214.0004        215.0004
 -22033574.68449 -17160071.40547  20936640.182    20936640.3674   20936647.2794
       197.0004        198.0004
  -7071115.10548  -5499970.53846  22432244.950    22432245.9954   22432250.6824
       176.0004        177.0004
  -3465976.19547  -2495149.26445  23481274.479    23481273.4454   23481279.7034
       160.0004        162.0004
 21  2  1  1 43 30.0000000  0 11G30G28G09G19G17G22G03G07G01G14G21
 -20544456.04549 -15979178.70748  20550025.127    20550025.1424   20550031.6614
       214.0004        214.0004
  -3929712.62847  -3051514.69045  23056823.835    23056823.2514   23056827.9764
       159.0004        162.0004
  -2393639.49348  -1834990.11846  23980918.095    23980918.1474   23980924.2624
       184.0004        185.0004
 -10373284.16948  -7755023.11746  23059859.007    23059858.8054   23059862.2094
       170.0004        170.0004
 -14856310.87249 -11554637.57447  21635159.041    21635159.7884   21635163.9744
       197.0004        197.0004
  -6519916.49447  -5071359.87245  24711518.534    24711516.7124   24711520.3874
       139.0004        144.0004
  -3920517.43448  -3041341.50646  24621178.090    24621180.1274   24621189.4694
       168.0004        167.0004
 -26068679.71849 -20287539.63048  20109859.263    20109859.5804   20109863.6514
       214.0004        215.0004
 -21998659.67549 -17132864.88547  20943283.482    20943283.9004   20943291.5604
       197.0004        197.0004
  -7106386.54248  -5527454.76846  22425534.173    22425534.9344   22425538.7914
       177.0004        177.0004
  -3379610.45247  -2427851.28346  23497709.598    23497708.3904   23497714.9264
       161.0004        163.0004
 21  2  1  1 44  0.0000000  0 11G30G28G09G19G17G22G03G07G01G14G21
 -20586532.15349 -16011965.29848  20542018.568    20542018.5644   20542024.9724
       214.0004        215.0004
  -3958292.03047  -3073784.36545  23051386.081    23051384.6454   23051389.8434
       160.0004        162.0004
  -2317126.32048  -1775369.49547  23995479.059    23995478.3434   23995485.8674
       187.0004        188.0004
 -10430423.81048  -7799547.51246  23048985.795    23048985.4464   23048988.3964
       169.0004        171.0004
 -14868282.24549 -11563965.90747  21632881.495    21632882.0924   21632886.0444
       197.0004        197.0004
  -6540229.49447  -5087188.16445  24707651.594    24707651.4814   24707656.6484
       140.0004        145.0004
  -3959407.98347  -3071645.77245  24613779.999    24613779.6104   24613789.0034
       163.0004        162.0004
 -26051449.96749 -20274113.86348  20113137.353    20113137.7884   20113142.5004
       214.0004        215.0004
 -21963146.59149 -17105192.35547  20950041.267    20950042.0544   20950049.6984
       196.0004        197.0004
  -7141724.65348  -5554990.96046  22418808.813    22418809.9034   22418814.3474
       176.0004        176.0004
  -3292961.71747  -2360332.81245  23514197.375    23514196.3474   23514203.8844
       161.0004        162.0004
 21  2  1  1 44 30.0000000  0 11G30G28G09G19G17G22G03G07G01G14G21
 -20628126.52749 -16044376.50948  20534103.092    20534103.2144   20534109.8464
       215.0004        215.0004
  -3987007.23447  -3096159.84045  23045920.337    23045921.0354   23045924.2514
       160.0004        161.0004
  -2240747.79748  -1715853.82946  24010011.911    24010011.9734   24010021.0204
       187.0004        187.0004
 -10487237.68248  -7843818.03346  23038174.787    23038173.9744   23038178.3824
       171.0004        173.0004
 -14879896.77049 -11573016.18147  21630671.131    21630671.4844   21630676.2484
       197.0004        196.0004
  -6560404.45047  -5102908.88745  24703811.982    24703810.8924   24703817.5674
       139.0004        143.0004
  -3998364.91747  -3102001.75145  24606367.760    24606367.5104   24606376.2454
       161.0004        162.0004
 -26033634.59349 -20260231.76848  20116527.014    20116527.9434   20116532.6914
       214.0004        215.0004
 -21927036.90649 -17077054.91847  20956913.695    20956913.9224   20956920.9574
       197.0004        197.0004
  -7177129.39248  -5582579.07646  22412072.166    22412072.0414   22412075.9124
       176.0004        176.0004
  -3206033.81547  -2292596.82645  23530739.219    23530738.3084   23530745.7444
       160.0004        161.0004
 21  2  1  1 45  0.0000000  0 11G30G28G09G19G17G22G03G07G01G14G21
 -20669236.30849 -16076410.11548  20526280.082    20526280.3064   20526286.8204
       214.0004        215.0004
  -4015857.78147  -3118640.77945  23040430.476    23040429.8164   23040435.1744
       159.0004        160.0004
  -2164505.53348  -1656444.30046  24024519.565    24024520.4124   24024529.1264
       186.0004        186.0004
 -10543725.09948  -7887834.17446  23027425.803    23027424.8704   23027429.1084
       173.0004        175.0004
 -14891155.65549 -11581789.33747  21628528.147    21628528.9064   21628533.4134
       196.0004        196.0004
  -6580438.48447  -5118519.78645  24699997.986    24699998.5374   24700004.2644
       137.0004        141.0004
  -4037385.30447  -3132407.17046  24598941.310    24598941.8794   24598950.7694
       162.0004        165.0004
 -26015233.57049 -20245893.32748  20120029.443    20120029.8094   20120034.1454
       214.0004        215.0004
 -21890330.85049 -17048452.78647  20963898.136    20963898.7014   20963906.2104
       197.0004        197.0004
  -7212599.54148  -5610218.15246  22405321.931    22405322.2144   22405326.3174
       175.0004        176.0004
  -3118828.87547  -2224644.93945  23547333.515    23547333.9934   23547338.8794
       160.0004        162.0004
 21  2  1  1 45 30.0000000  0 11G30G28G09G19G17G22G03G07G01G14G21
 -20709859.38749 -16108064.46248  20518549.199    20518549.6294   20518556.7174
       214.0004        215.0004
  -4044842.77547  -3141226.48545  23034915.122    23034914.7354   23034919.4224
       159.0004        161.0004
  -2088401.28048  -1597142.30746  24039002.147    24039002.8344   24039010.8014
       185.0004        185.0004
 -10599885.41048  -7931595.43646  23016738.454    23016737.6564   23016741.2994
       172.0004        172.0004
 -14902059.80849 -11590286.06347  21626453.212    21626453.9024   21626458.6874
       197.0004        198.0004
  -6600328.80947  -5134018.70245  24696216.645    24696214.4624   24696218.8484
       136.0004        143.0004
  -4076466.48548  -3162859.97646  24591505.985    24591506.3854   24591512.7284
       165.0004        168.0004
 -25996246.09149 -20231097.88648  20123642.282    20123642.7814   20123647.4754
       214.0004        215.0004
 -21853029.40749 -17019386.71347  20970995.805    20970996.2384   20971004.3524
       197.0004        197.0004
  -7248134.34448  -5637907.61246  22398561.104    22398560.8844   22398565.3824
       177.0004        177.0004
  -3031349.03947  -2156478.81945  23563980.457    23563979.9894   23563985.5924
       160.0004        161.0004
 21  2  1  1 46  0.0000000  0 11G30G28G09G19G17G22G03G07G01G14G21
 -20749994.93649 -16139338.91448  20510912.482    20510912.1564   20510919.4824
       215.0004        216.0004
  -4073963.98347  -3163918.31745  23029372.480    23029372.6464   23029377.3504
       159.0004        161.0004
  -2012438.65048  -1537950.66346  24053457.158    24053457.4054   24053465.8474
       183.0004        182.0004
 -10655719.49648  -7975102.48946  23006113.338    23006112.4484   23006116.5414
       172.0004        174.0004
 -14912611.81049 -11598508.37447  21624446.026    21624445.7284   21624450.8384
       197.0004        197.0004
  -6620074.57647  -5149404.96945  24692457.198    24692456.8054   24692462.0304
       139.0004        145.0004
  -4115607.22748  -3193359.22646  24584055.406    24584057.3114   24584065.1054
       167.0004        169.0004
 -25976673.57949 -20215846.57848  20127366.745    20127367.4384   20127371.8544
       214.0004        215.0004
 -21815134.80049 -16989858.42847  20978206.929    20978207.6784   20978215.2264
       196.0004        196.0004
  -7283734.61148  -5665648.06446  22391785.524    22391785.5584   22391790.6764
       176.0004        177.0004
  -2943597.54747  -2088101.04745  23580680.585    23580679.3264   23580684.5114
       159.0004        161.0004
 21  2  1  1 46 30.0000000  0 11G30G28G09G19G17G22G03G07G01G14G21
 -20789639.84949 -16170231.07548  20503367.912    20503367.9144   20503375.1034
       215.0004        215.0004
  -4103220.60547  -3186715.69345  23023805.026    23023806.1974   23023810.0954
       159.0004        161.0004
  -1936618.64548  -1478870.20146  24067884.371    24067884.6714   24067894.3374
       182.0004        183.0004
 -10711226.91648  -8018354.99946  22995551.054    22995550.2454   22995554.6774
       174.0004        176.0004
 -14922812.14149 -11606456.69847  21622504.069    21622504.6894   21622509.2414
       197.0004        196.0004
  -6639672.63247  -5164676.15945  24688728.952    24688727.6734   24688730.8934
       140.0004        144.0004
  -4154803.93048  -3223902.10446  24576598.366    24576598.7444   24576607.4534
       170.0004        172.0004
 -25956515.45849 -20200138.97948  20131203.412    20131203.4814   20131207.8944
       213.0004        214.0004
 -21776647.06049 -16959867.98147  20985531.701    20985531.9874   20985539.5834
       196.0004        196.0004
  -7319398.64248  -5693438.21546  22384998.758    22384999.1544   22385004.2594
       177.0004        177.0004
  -2855575.67347  -2019512.60345  23597430.700    23597428.9554   23597434.6754
       159.0004        161.0004
 21  2  1  1 47  0.0000000  0 11G30G28G09G19G17G22G03G07G01G14G21
 -20828792.54849 -16200739.66748  20495917.282    20495917.4944   20495924.2814
       214.0004        215.0004
  -4132611.99547  -3209618.08045  23018212.317    23018212.3364   23018217.7924
       160.0004        162.0004
  -1860943.79548  -1419902.83146  24082286.936    24082286.9624   24082294.9194
       184.0004        185.0004
 -10766407.17448  -8061352.59046  22985050.780    22985049.9224   22985053.8384
       174.0004        175.0004
 -14932662.58449 -11614132.34947  21620630.638    21620630.8934   21620635.1074
       197.0004        197.0004
  -6659120.88947  -5179830.61945  24685025.068    24685024.8104   24685028.6174
       138.0004        142.0004
  -4194054.70848  -3254487.13346  24569128.990    24569130.1234   24569137.9734
       170.0004        170.0004
 -25935771.45849 -20183974.82148  20135150.261    20135150.8434   20135155.5784
       213.0004        214.0004
 -21737567.69549 -16929416.50847  20992967.581    20992968.0964   20992975.9504
       196.0004        196.0004
  -7355126.22848  -5721277.87946  22378200.670    22378200.5564   22378204.6804
       177.0004        178.0004
  -2767286.31747  -1950715.69645  23614229.968    23614229.6654   23614233.9014
       158.0004        160.0004
 21  2  1  1 47 30.0000000  0 11G30G28G09G19G17G22G03G07G01G14G21
 -20867451.20749 -16230863.31048  20488561.472    20488561.1944   20488567.8354
       215.0004        215.0004
  -4162138.79247  -3232625.94746  23012593.639    23012594.0284   23012599.4224
       161.0004        163.0004
  -1785416.38048  -1361050.31646  24096659.225    24096659.2414   24096666.0894
       183.0004        182.0004
 -10821260.35748  -8104095.32546  22974611.776    22974611.2734   22974615.4784
       174.0004        175.0004
 -14942164.71549 -11621536.60347  21618821.887    21618822.5424   21618826.9464
       197.0004        198.0004
  -6678416.75747  -5194866.33145  24681356.279    24681355.2524   24681355.6564
       136.0004        141.0004
  -4233357.05648  -3285112.34146  24561649.018    24561650.5184   24561659.0814
       168.0004        168.0004
 -25914441.92949 -20167354.42048  20139209.509    20139210.0554   20139214.2164
       214.0004        214.0004
 -21697898.03249 -16898505.07247  21000516.693    21000517.3684   21000524.4054
       196.0004        196.0004
  -7390916.99448  -5749166.80646  22371388.991    22371389.0584   22371394.4064
       177.0004        177.0004
  -2678731.85847  -1881712.23945  23631082.462    23631081.1124   23631085.1884
       157.0004        157.0004
 21  2  1  1 48  0.0000000  0 11G30G28G09G19G17G22G03G07G01G14G21
 -20905613.75449 -16260600.36448  20481298.619    20481298.9944   20481305.9374
       215.0004        215.0004
  -4191801.16547  -3255739.48445  23006950.556    23006950.0994   23006954.8974
       161.0004        162.0004
  -1710038.38648  -1302314.26946  24111002.580    24111002.0034   24111009.5714
       178.0004        177.0004
 -10875786.54448  -8146583.25146  22964236.955    22964235.4564   22964239.7174
       175.0004        176.0004
 -14951320.12249 -11628670.68147  21617080.032    21617080.6924   21617084.6944
       198.0004        199.0004
  -6697558.26147  -5209781.77345  24677714.984    24677712.6174   24677715.8804
       137.0004        143.0004
  -4272708.51548  -3315775.80846  24554159.709    24554161.3104   24554169.6754
       165.0004        166.0004
 -25892526.89749 -20150277.78048  20143379.233    20143380.1054   20143384.8134
       213.0004        214.0004
 -21657639.07449 -16867134.44347  21008176.645    21008177.9044   21008185.8704
       196.0004        196.0004
  -7426770.21548  -5777104.37346  22364566.520    22364567.4574   22364572.2674
       177.0004        179.0004
  -2589914.61947  -1812503.99845  23647983.124    23647983.1694   23647987.6234
       155.0004        158.0004
 21  2  1  1 48 30.0000000  0 11G30G28G09G19G17G22G03G07G01G14G21
 -20943279.06849 -16289949.96848  20474131.832    20474131.8224   20474138.4314
       215.0004        216.0004
  -4221599.64847  -3278959.08146  23001278.082    23001279.4494   23001284.1474
       161.0004        164.0004
  -1634812.77048  -1243697.00046  24125316.532    24125316.9394   24125325.0884
       176.0004        176.0004
 -10929986.37948  -8188816.86546  22953922.285    22953921.9154   22953925.6824
       174.0004        175.0004
 -14960131.00049 -11635536.30447  21615403.128    21615403.5944   21615407.1794
       198.0004        197.0004
  -6716544.00447  -5224575.86445  24674101.167    24674099.1484   24674103.4974
       137.0004        143.0004
  -4312107.18648  -3346476.08546  24546664.689    24546664.6354   24546672.6644
       166.0004        169.0004
 -25870027.25749 -20132745.60748  20147661.513    20147661.9344   20147666.0764
       213.0004        214.0004
 -21616792.84049 -16835306.21247  21015950.893    21015951.0014   21015958.5364
       209.0004        212.0004
  -7462686.04848  -5805090.75746  22357732.505    22357732.7044   22357737.8874
       177.0004        178.0004
  -2500838.10447  -1743093.75345  23664934.442    23664933.4784   23664938.3604
       155.0004        158.0004
 21  2  1  1 49  0.0000000  0 12G30G28G06G09G19G17G22G03G07G01G14G21
 -20980443.61449 -16318909.36048  20467059.326    20467059.4574   20467066.1054
       215.0004        216.0004
  -4251532.35947  -3302283.25546  22995583.731    22995583.1814   22995587.5234
       162.0004        163.0004
  -1210173.07257   -926100.87645  24156617.063                    24156625.7864
       139.0004        150.0004
  -1559739.91948  -1185198.70546  24139602.723    24139602.9264   24139612.4754
       177.0004        180.0004
 -10983858.46648  -8230795.10146  22943670.217    22943669.8514   22943673.5204
       174.0004        173.0004
 -14968597.28149 -11642133.39947  21613791.957    21613792.3824   21613796.4204
       196.0004        196.0004
  -6735369.98347  -5239245.47545  24670515.934    24670515.4334   24670520.8534
       138.0004        143.0004
  -4351549.18248  -3377210.06546  24539157.568    24539158.7754   24539167.4404
       167.0004        169.0004
 -25846942.05849 -20114757.14548  20152053.897    20152054.8274   20152059.0244
       213.0004        214.0004
 -21575358.99249 -16803020.07747  21023834.530    21023835.4524   21023842.9724
       213.0004        211.0004
  -7498662.34648  -5833124.23446  22350886.534    22350887.0704   22350891.7124
       177.0004        176.0004
  -2411502.60347  -1673481.65645  23681934.367    23681934.0704   23681939.0754
       155.0004        158.0004
 21  2  1  1 49 30.0000000  0 12G30G28G06G09G19G17G22G03G07G01G14G21
 -21017105.82249 -16347477.32648  20460082.892    20460083.0074   20460089.6034
       215.0004        216.0004
  -4281599.92447  -3325712.52546  22989861.982    22989862.5874   22989864.9584
       162.0004        164.0004
  -1318592.33547  -1010583.27245  24135986.466    24135986.1394   24135995.0804
       144.0004        148.0004
  -1484822.39148  -1126821.46746  24153859.548    24153859.6994   24153868.1694
       179.0004        180.0004
 -11037402.98448  -8272518.08546  22933481.775    22933480.8044   22933484.6924
       173.0004        174.0004
 -14976720.68549 -11648463.32347  21612246.064    21612247.2324   21612250.4764
       196.0004        197.0004
  -6754034.29647  -5253789.05245  24666961.949    24666963.3264   24666968.5574
       138.0004        142.0004
  -4391032.32948  -3407976.11846  24531644.686    24531644.8884   24531654.2114
       168.0004        169.0004
 -25823271.59249 -20096312.64048  20156558.626    20156559.0494   20156563.5524
       213.0004        214.0004
 -21533339.12349 -16770277.31748  21031831.572    21031831.8034   21031838.9634
       222.0004        227.0004
  -7534698.83048  -5861204.61146  22344028.110    22344029.4364   22344034.0674
       175.0004        176.0004
  -2321911.01347  -1603670.04345  23698983.088    23698982.1754   23698988.0644
       155.0004        158.0004
 21  2  1  1 50  0.0000000  0 12G30G28G06G09G19G17G22G03G07G01G14G21
 -21053264.55149 -16375652.95548  20453202.011    20453202.0724   20453209.0954
       215.0004        216.0004
  -4311802.70147  -3349247.15246  22984114.384    22984113.5844   22984118.3304
       161.0004        163.0004
  -1426974.41047  -1095036.69345  24115360.467    24115360.4404   24115369.1824
       144.0004        148.0004
  -1410062.86848  -1068567.33546  24168086.613    24168086.3254   24168094.0514
       180.0004        181.0004
 -11090620.46148  -8313986.20746  22923354.913    22923354.0714   22923358.5194
       173.0004        174.0004
 -14984503.20849 -11654527.60847  21610764.949    21610765.4964   21610770.2774
       197.0004        198.0004
  -6772535.17747  -5268205.28245  24663443.174    24663443.3984   24663447.7434
       138.0004        143.0004
  -4430554.76748  -3438772.82446  24524125.254    24524125.1404   24524133.1444
       168.0004        169.0004
 -25799016.20549 -20077412.33448  20161173.680    20161174.2444   20161179.3934
       213.0004        213.0004
 -21490735.22849 -16737079.44448  21039937.675    21039938.4394   21039946.5824
       225.0004        226.0004
  -7570795.50648  -5889331.88146  22337160.282    22337160.3014   22337164.8904
       176.0004        177.0004
  -2232066.99047  -1533661.71645  23716079.832    23716078.9864   23716085.1204
       156.0004        158.0004
 21  2  1  1 50 30.0000000  0 12G30G28G06G09G19G17G22G03G07G01G14G21
 -21088918.72449 -16403435.42748  20446417.361    20446417.2634   20446423.8764
       216.0004        216.0004
  -4342141.52647  -3372887.78146  22978340.533    22978341.0244   22978345.7194
       161.0004        164.0004
  -1535317.40247  -1179459.65945  24094743.872    24094744.2834   24094753.7464
       147.0004        152.0004
  -1335464.28948  -1010438.62746  24182282.018    24182281.7754   24182290.5654
       181.0004        182.0004
 -11143511.52148  -8355199.99846  22913288.843    22913289.0304   22913293.2754
       171.0004        172.0004
 -14991947.75349 -11660328.53547  21609348.287    21609349.0534   21609353.4514
       198.0004        198.0004
  -6790871.38647  -5282493.23945  24659955.716    24659954.7784   24659958.3094
       139.0004        144.0004
  -4470114.85848  -3469598.85046  24516597.016    24516596.8194   24516603.6484
       166.0004        166.0004
 -25774177.40749 -20058057.42648  20165900.483    20165901.2564   20165905.7874
       212.0004        214.0004
 -21447549.36749 -16703428.11548  21048155.967    21048156.6844   21048164.4084
       226.0004        226.0004
  -7606952.58148  -5917506.21046  22330278.219    22330278.4734   22330283.5194
       177.0004        177.0004
  -2141973.22847  -1463458.81145  23733223.565    23733223.4374   23733230.1714
       157.0004        159.0004
 21  2  1  1 51  0.0000000  0 12G30G28G06G09G19G17G22G03G07G01G14G21
 -21124064.82449 -16430822.01048  20439728.943    20439729.2174   20439736.0624
       215.0004        216.0004
  -4372614.53947  -3396632.99746  22972542.877    22972542.6964   22972546.4924
       163.0004        166.0004
  -1643616.84547  -1263848.71145  24074134.342    24074134.7594   24074144.4374
       149.0004        153.0004
  -1261026.92248   -952435.53546  24196446.886    24196447.1344   24196454.8064
       180.0004        180.0004
 -11196074.68348  -8396158.31046  22903287.119    22903286.5824   22903291.1474
       172.0004        174.0004
 -14999053.69749 -11665865.62747  21607996.511    21607996.8394   21608001.5214
       198.0004        199.0004
  -6809038.70547  -5296649.59545  24656499.539    24656497.9744   24656501.6464
       138.0004        142.0004
  -4509708.29948  -3500450.86946  24509060.401    24509062.1704   24509070.9914
       166.0004        168.0004
 -25748753.59949 -20038246.68648  20170739.937    20170739.8244   20170743.8574
       213.0004        214.0004
 -21403781.24649 -16669323.08348  21056484.625    21056485.4724   21056492.7974
       226.0004        225.0004
  -7643167.67148  -5945725.76646  22323387.802    22323388.4994   22323392.6824
       178.0004        178.0004
  -2051630.18147  -1393061.66345  23750415.402    23750415.4994   23750421.9324
       158.0004        159.0004
 21  2  1  1 51 30.0000000  0 12G30G28G06G09G19G17G22G03G07G01G14G21
 -21158702.20649 -16457812.17848  20433137.731    20433137.9324   20433145.0674
       215.0004        216.0004
  -4403222.92747  -3420483.67646  22966717.796    22966717.0944   22966722.2124
       164.0004        165.0004
  -1751871.27947  -1348202.70245  24053534.511    24053534.6814   24053544.4804
       150.0004        153.0004
  -1186754.06048   -894560.64046  24210580.689    24210580.6484   24210589.6634
       179.0004        180.0004
 -11248311.43348  -8436862.26246  22893347.053    22893346.4124   22893349.9214
       174.0004        176.0004
 -15005824.12449 -11671141.27047  21606708.346    21606708.2514   21606713.1964
       199.0004        199.0004
  -6827036.49647  -5310673.84145  24653076.155    24653074.7464   24653076.3964
       137.0004        141.0004
  -4549333.88448  -3531327.92546  24501520.111    24501521.7084   24501530.9724
       167.0004        168.0004
 -25722746.77849 -20017981.62548  20175686.744    20175687.7434   20175693.2794
       213.0004        213.0004
 -21359433.40149 -16634766.29748  21064924.076    21064925.0884   21064932.0954
       226.0004        226.0004
  -7679441.35248  -5973990.97146  22316484.709    22316485.3884   22316490.5704
       178.0004        178.0004
  -1961041.93847  -1322473.40845  23767653.641    23767653.3574   23767659.8634
       157.0004        158.0004
 21  2  1  1 52  0.0000000  0 12G30G28G06G09G19G17G22G03G07G01G14G21
 -21192828.51649 -16484404.09948  20426643.867    20426643.8534   20426650.9104
       216.0004        216.0004
  -4433965.70547  -3444439.06646  22960867.059    22960866.6834   22960871.1774
       163.0004        165.0004
  -1860077.31247  -1432518.94545  24032942.790    24032944.0154   24032954.0494
       150.0004        153.0004
  -1112647.16148   -836815.05546  24224683.104    24224683.9924   24224691.3694
       180.0004        182.0004
 -11300220.97148  -8477311.22246  22883469.634    22883469.0444   22883471.7814
       176.0004        178.0004
 -15012259.85149 -11676156.10247  21605482.673    21605483.3274   21605487.9284
       198.0004        198.0004
  -6844861.54747  -5324563.46045  24649682.144    24649681.4824   24649684.4564
       136.0004        141.0004
  -4588988.39448  -3562227.52746  24493976.463    24493976.7114   24493984.9174
       167.0004        168.0004
 -25696156.13249 -19997261.63848  20180748.911    20180749.0004   20180753.1214
       213.0004        214.0004
 -21314506.68249 -16599758.43648  21073473.199    21073473.9564   21073481.7624
       226.0004        226.0004
  -7715772.32748  -6002300.80346  22309571.971    22309572.5044   22309576.8784
       177.0004        177.0004
  -1870210.29347  -1251695.51945  23784937.129    23784937.3954   23784944.4664
       156.0004        158.0004
 21  2  1  1 52 30.0000000  0 12G30G28G06G09G19G17G22G03G07G01G14G21
 -21226441.78049 -16510596.27648  20420246.987    20420247.2464   20420254.2594
       215.0004        216.0004
  -4464842.50347  -3468498.92746  22954991.508    22954991.3244   22954996.4504
       163.0004        165.0004
  -1968232.03847  -1516795.23645  24012362.079    24012363.2354   24012372.0354
       151.0004        154.0004
  -1038708.05348   -779200.23346  24238754.073    24238753.7914   24238761.5014
       181.0004        182.0004
 -11351802.94048  -8517504.97046  22873652.400    22873652.8334   22873657.2374
       176.0004        176.0004
 -15018362.18349 -11680911.17947  21604322.047    21604322.5904   21604326.6034
       197.0004        197.0004
  -6862511.50847  -5338316.67145  24646323.111    24646322.4114   24646326.0444
       139.0004        144.0004
  -4628669.20048  -3593147.60346  24486423.746    24486425.3024   24486431.3914
       165.0004        165.0004
 -25668981.85649 -19976086.89748  20185917.761    20185918.4794   20185923.8254
       213.0004        213.0004
 -21269002.28249 -16564300.47348  21082132.878    21082133.4024   21082141.0074
       226.0004        226.0004
  -7752159.73248  -6030654.64746  22302647.656    22302647.8264   22302651.9984
       178.0004        179.0004
  -1779137.63647  -1180729.83745  23802268.456    23802268.7904   23802274.2004
       154.0004        156.0004
 21  2  1  1 53  0.0000000  0 12G30G28G06G09G19G17G22G03G07G01G14G21
 -21259540.59549 -16536387.57048  20413948.585    20413948.8494   20413955.9234
       215.0004        216.0004
  -4495853.61048  -3492663.41546  22949090.674    22949090.5114   22949095.7834
       165.0004        167.0004
  -2076333.01547  -1601029.65845  23991790.288    23991792.4874   23991801.1204
       153.0004        156.0004
   -964939.12448   -721718.02446  24252789.941    24252790.2514   24252798.6224
       180.0004        180.0004
 -11403057.91548  -8557443.92346  22863899.725    22863898.9034   22863902.7754
       175.0004        176.0004
 -15024133.12849 -11685408.00147  21603223.478    21603224.1244   21603228.6884
       196.0004        196.0004
  -6879984.33047  -5351931.87745  24642997.041    24642995.9744   24643001.9864
       138.0004        143.0004
  -4668374.09347  -3624086.47946  24478869.922    24478869.7304   24478876.7364
       163.0004        165.0004
 -25641224.84349 -19954458.06948  20191201.727    20191202.4054   20191206.1664
       213.0004        214.0004
 -21222922.03049 -16528393.77148  21090901.341    21090902.0484   21090909.7394
       226.0004        226.0004
  -7788603.24148  -6059052.19846  22295712.174    22295712.5984   22295717.6614
       178.0004        179.0004
  -1687826.41047  -1109578.24945  23819645.207    23819644.0124   23819650.1114
       152.0004        154.0004
 21  2  1  1 53 30.0000000  0 12G30G28G06G09G19G17G22G03G07G01G14G21
 -21292123.09549 -16561776.53448  20407748.635    20407748.9504   20407755.3794
       215.0004        216.0004
  -4526998.87547  -3516932.44146  22943163.134    22943163.1044   22943167.8184
       164.0004        165.0004
  -2184377.41647  -1685220.00745  23971231.211    23971232.1774   23971241.0804
       152.0004        155.0004
   -891342.24648   -664369.83246  24266795.062    24266795.4384   24266803.6854
       179.0004        180.0004
 -11453986.00048  -8597128.11046  22854208.529    22854207.9874   22854211.3394
       175.0004        176.0004
 -15029574.19449 -11689647.76447  21602187.983    21602188.8344   21602192.7044
       196.0004        196.0004
  -6897278.01047  -5365407.45645  24639706.981    24639707.2604   24639710.4874
       138.0004        143.0004
  -4708100.55647  -3655042.16046  24471309.200    24471309.5264   24471318.2024
       164.0004        165.0004
 -25612885.34549 -19932375.35648  20196594.104    20196593.7104   20196598.9234
       213.0004        213.0004
 -21176267.28249 -16492039.39548  21099779.102    21099780.2224   21099787.8194
       226.0004        226.0004
  -7825101.97148  -6087492.77046  22288766.976    22288767.1884   22288772.3124
       179.0004        179.0004
  -1596278.74847  -1038242.40245  23837066.447    23837064.8644   23837068.9804
       150.0004        152.0004
 21  2  1  1 54  0.0000000  0 12G30G28G06G09G19G17G22G03G07G01G14G21
 -21324187.96549 -16586762.16248  20401647.138    20401647.2704   20401653.8434
       216.0004        216.0004
  -4558278.50547  -3541306.19346  22937211.467    22937211.7844   22937215.7954
       164.0004        167.0004
  -2292362.79347  -1769364.35545  23950682.268    23950683.0564   23950691.9624
       153.0004        156.0004
   -817919.71548   -607157.51946  24280768.085    24280768.0444   24280775.2494
       180.0004        181.0004
 -11504587.55448  -8636557.90246  22844579.253    22844578.6344   22844582.0694
       175.0004        175.0004
 -15034686.99849 -11693631.76747  21601216.229    21601216.0824   21601220.3114
       197.0004        199.0004
  -6914390.53847  -5378741.85645  24636451.666    24636450.3214   24636454.0404
       139.0004        143.0004
  -4747846.28348  -3686012.88246  24463745.756    24463746.6284   24463753.0084
       165.0004        167.0004
 -25583964.33449 -19909839.50748  20202098.257    20202099.0534   20202102.0324
       213.0004        213.0004
 -21129039.86649 -16455238.80748  21108765.935    21108766.7834   21108775.0864
       225.0004        225.0004
  -7861655.62148  -6115976.13546  22281810.246    22281811.0234   22281816.4594
       179.0004        179.0004
  -1504497.93547   -966724.90245  23854531.781    23854531.1044   23854534.4894
       148.0004        150.0004
 21  2  1  1 54 30.0000000  0 12G30G28G06G09G19G17G22G03G07G01G14G21
 -21355732.86449 -16611342.60648  20395644.049    20395644.3104   20395650.7384
       216.0004        216.0004
  -4589691.93248  -3565784.19746  22931234.993    22931234.2574   22931238.3674
       167.0004        169.0004
  -2400285.84647  -1853460.14345  23930144.916    23930145.8564   23930154.7494
       152.0004        154.0004
   -744672.99448   -550082.19146  24294705.828    24294706.0224   24294713.4394
       181.0004        182.0004
 -11554862.03048  -8675732.80846  22835012.138    22835011.6104   22835015.2164
       174.0004        175.0004
 -15039473.31849 -11697361.34247  21600304.615    21600305.0554   21600309.5924
       198.0004        198.0004
  -6931319.23347  -5391933.08245  24633231.089    24633229.3954   24633232.0484
       140.0004        145.0004
  -4787608.13348  -3716996.15546  24456179.751    24456180.1234   24456187.3174
       169.0004        171.0004
 -25554461.74549 -19886850.46747  20207709.847    20207711.1044   20207715.9344
       213.0004        212.0004
 -21081240.77249 -16417992.73648  21117861.405    21117862.7024   21117870.6964
       225.0004        225.0004
  -7898262.86548  -6144501.25446  22274844.910    22274845.2024   22274849.5584
       179.0004        179.0004
  -1412485.64347   -895027.02845  23872042.321    23872041.1914   23872042.9294
       148.0004        152.0004
 21  2  1  1 55  0.0000000  0 12G30G28G06G09G19G17G22G03G07G01G14G21
 -21386757.45449 -16635517.62348  20389740.786    20389740.6244   20389747.0064
       216.0004        216.0004
  -4621239.84448  -3590366.97746  22925230.336    22925230.2464   22925234.9034
       168.0004        169.0004
  -2508145.12547  -1937506.23145  23909619.611    23909620.9704   23909629.9754
       151.0004        154.0004
   -671605.34648   -493146.39946  24308610.430    24308610.5244   24308618.9194
       182.0004        183.0004
 -11604811.14448  -8714654.20446  22825507.313    22825506.4354   22825510.7494
       175.0004        176.0004
 -15043935.91249 -11700838.67947  21599455.103    21599455.5514   21599460.4774
       198.0004        199.0004
  -6948063.05347  -5404980.21145  24630044.042    24630043.6894   24630046.8184
       139.0004        143.0004
  -4827384.83848  -3747990.95046  24448610.029    24448609.9864   24448618.4684
       168.0004        168.0004
 -25524379.12049 -19863409.47748  20213436.218    20213437.0644   20213440.5824
       212.0004        213.0004
 -21032872.83749 -16380303.42648  21127066.271    21127066.9524   21127075.1774
       225.0004        225.0004
  -7934924.23548  -6173068.56446  22267868.349    22267868.8414   22267873.5224
       179.0004        180.0004
  -1320245.53347   -823151.60745  23889593.040    23889592.6164   23889596.1914
       148.0004        150.0004
 21  2  1  1 55 30.0000000  0 12G30G28G06G09G19G17G22G03G07G01G14G21
 -21417258.56349 -16659284.71948  20383936.465    20383936.4234   20383943.3654
       216.0004        217.0004
  -4652920.62048  -3615053.28546  22919201.391    22919201.7204   22919205.6784
       167.0004        169.0004
  -2615936.27747  -2021499.23245  23889107.653    23889108.5324   23889117.8024
       151.0004        154.0004
   -598717.17748   -436350.47146  24322481.630    24322481.9124   24322487.7464
       184.0004        185.0004
 -11654433.09648  -8753320.65546  22816064.924    22816063.7324   22816067.8244
       176.0004        177.0004
 -15048074.70949 -11704063.69847  21598668.049    21598668.3614   21598672.4994
       198.0004        198.0004
  -6964618.22147  -5417880.32245  24626893.977    24626892.3554   24626895.6924
       140.0004        144.0004
  -4867172.35948  -3778994.13046  24441038.922    24441039.2644   24441047.1284
       167.0004        169.0004
 -25493715.35849 -19839515.63748  20219271.022    20219271.4394   20219276.3344
       212.0004        213.0004
 -20983936.12249 -16342170.88948  21136379.288    21136379.4114   21136387.4444
       225.0004        225.0004
  -7971637.50448  -6201676.28846  22260882.092    22260882.7644   22260887.7694
       180.0004        181.0004
  -1227778.48647   -751099.36945  23907189.019    23907188.6864   23907192.9814
       147.0004        150.0004
 21  2  1  1 56  0.0000000  0 12G30G28G06G09G19G17G22G03G07G01G14G21
 -21447235.17549 -16682643.13048  20378232.475    20378232.2144   20378239.0874
       216.0004        217.0004
  -4684734.65148  -3639843.44646  22913147.529    22913147.3474   22913151.3664
       165.0004        166.0004
  -2723657.14647  -2105437.50045  23868609.896    23868610.2164   23868618.1834
       150.0004        152.0004
   -526011.05448   -379696.39746  24336317.281    24336317.1214   24336324.2554
       184.0004        185.0004
 -11703728.90548  -8791732.99046  22806684.441    22806683.4334   22806686.5454
       176.0004        176.0004
 -15051892.17449 -11707038.32647  21597940.963    21597941.5624   21597946.1274
       197.0004        197.0004
  -6980983.16847  -5430632.21945  24623779.132    24623778.1544   24623781.7284
       140.0004        144.0004
  -4906968.71348  -3810004.22946  24433466.058    24433466.3954   24433474.1994
       167.0004        169.0004
 -25462472.01949 -19815170.18647  20225215.640    20225216.5154   20225221.6254
       212.0004        212.0004
 -20934432.81949 -16303596.87748  21145798.728    21145799.4894   21145807.5684
       224.0004        225.0004
  -8008402.45148  -6230324.31246  22253885.662    22253887.0604   22253891.1094
       180.0004        180.0004
  -1135087.71747   -678872.82245  23924828.502    23924826.9704   23924831.4564
       146.0004        149.0004
 21  2  1  1 56 30.0000000  0 12G30G28G06G09G19G17G22G03G07G01G14G21
 -21476686.17549 -16705591.98148  20372627.906    20372627.8814   20372634.5984
       216.0004        217.0004
  -4716682.10448  -3664737.57246  22907068.616    22907068.1754   22907072.1704
       165.0004        168.0004
  -2831305.50047  -2189319.24145  23848123.416    23848124.7594   23848133.7614
       149.0004        152.0004
   -453489.47848   -323186.12046  24350115.446    24350115.8194   24350125.7534
       183.0004        183.0004
 -11752699.23748  -8829891.71546  22797364.987    22797364.1764   22797368.0354
       176.0004        175.0004
 -15055390.09749 -11709763.98347  21597275.303    21597276.1744   21597280.8344
       197.0004        197.0004
  -6997156.21147  -5443234.60145  24620699.917    24620700.3334   24620703.8884
       139.0004        143.0004
  -4946771.97548  -3841019.70446  24425888.524    24425890.5874   24425900.3214
       166.0004        167.0004
 -25430649.92949 -19790373.77947  20231273.096    20231272.9404   20231276.8684
       212.0004        212.0004
 -20884365.10049 -16264583.07848  21155326.056    21155327.4174   21155334.8754
       225.0004        225.0004
  -8045218.88348  -6259012.44946  22246879.836    22246880.2824   22246884.8564
       180.0004        181.0004
  -1042176.78547   -606474.70045  23942509.970    23942507.6924   23942512.5894
       147.0004        151.0004
 21  2  1  1 57  0.0000000  0 12G30G28G06G09G19G17G22G03G07G01G14G21
 -21505608.03449 -16728128.48948  20367124.169    20367124.3984   20367131.3784
       217.0004        217.0004
  -4748760.88748  -3689734.02646  22900964.577    22900963.8174   22900968.9784
       166.0004        169.0004
  -2938876.59947  -2273140.75845  23827654.153    23827654.1364   23827663.1804
       150.0004        153.0004
   -381152.35548   -266819.56146  24363879.796    24363881.2634   24363891.3814
       182.0004        182.0004
 -11801342.23348  -8867795.32446  22788108.695    22788108.0514   22788111.9864
       174.0004        173.0004
 -15058568.47149 -11712240.61247  21596670.967    21596671.6104   21596675.7274
       197.0004        198.0004
  -7013133.24147  -5455684.21645  24617658.892    24617658.6014   24617664.4094
       139.0004        143.0004
  -4986577.57747  -3872037.04446  24418313.892    24418315.7374   24418326.0274
       164.0004        165.0004
 -25398247.86449 -19765125.41047  20237437.307    20237438.1054   20237443.0604
       211.0004        212.0004
 -20833732.65649 -16225129.19248  21164961.575    21164962.1474   21164969.7274
       224.0004        224.0004
  -8082083.98948  -6287738.50046  22239866.071    22239865.6924   22239869.4904
       181.0004        181.0004
   -949044.93147   -533904.43845  23960231.455    23960230.1394   23960234.6564
       148.0004        152.0004
 21  2  1  1 57 30.0000000  0 12G30G28G06G09G19G17G22G03G07G01G14G21
 -21534000.90549 -16750252.81848  20361720.920    20361721.1474   20361728.0774
       217.0004        216.0004
  -4780972.61948  -3714834.07646  22894834.472    22894834.1744   22894839.0244
       167.0004        169.0004
  -3046369.31547  -2356901.20545  23807199.068    23807199.9114   23807208.4794
       152.0004        155.0004
   -309003.36048   -210599.59846  24377610.521    24377611.4604   24377620.0554
       181.0004        182.0004
 -11849659.97548  -8905445.48946  22778913.531    22778912.9704   22778918.1364
       173.0004        174.0004
 -15061430.89349 -11714471.07847  21596126.709    21596127.1224   21596130.7614
       198.0004        199.0004
  -7028913.78847  -5467980.75145  24614655.648    24614656.6274   24614662.1824
       137.0004        141.0004
  -5026384.72448  -3903055.62246  24410740.079    24410741.1574   24410749.8194
       165.0004        168.0004
 -25365267.94849 -19739426.78547  20243714.327    20243714.6944   20243718.7094
       211.0004        212.0004
 -20782538.89549 -16185237.94448  21174702.956    21174703.9504   21174711.4404
       224.0004        223.0004
  -8118998.74748  -6316503.25446  22232839.409    22232840.1724   22232844.9624
       179.0004        179.0004
   -855696.58547   -461165.48045  23977994.873    23977993.5734   23977998.8054
       148.0004        152.0004
 21  2  1  1 58  0.0000000  0 12G30G28G06G09G19G17G22G03G07G01G14G21
 -21561862.97149 -16771963.52848  20356419.423    20356419.2444   20356425.6934
       216.0004        216.0004
  -4813316.64648  -3740037.22346  22888678.863    22888679.4544   22888683.7874
       167.0004        170.0004
  -3153780.68547  -2440598.32845  23786759.098    23786759.9514   23786767.9934
       152.0004        154.0004
   -237044.12148   -154527.53546  24391304.955    24391305.4994   24391313.6194
       181.0004        182.0004
 -11897652.36948  -8942842.15646  22769780.789    22769780.7974   22769784.1204
       174.0004        175.0004
 -15063978.54649 -11716456.25047  21595641.888    21595641.9094   21595646.0654
       198.0004        198.0004
  -7044495.36547  -5480122.25345  24611692.910    24611692.5874   24611697.3854
       139.0004        144.0004
  -5066190.40148  -3934073.05446  24403166.497    24403166.6674   24403175.4104
       168.0004        169.0004
 -25331710.82749 -19713278.38947  20250098.817    20250100.0144   20250104.7684
       211.0004        212.0004
 -20730785.24649 -16144910.42548  21184552.068    21184552.3554   21184560.0424
       224.0004        224.0004
  -8155962.06048  -6345305.83646  22225806.487    22225807.0354   22225812.5394
       181.0004        182.0004
   -762134.27247   -388259.79945  23995797.772    23995797.2274   23995803.4284
       149.0004        152.0004
 21  2  1  1 58 30.0000000  0 12G30G28G06G09G19G17G22G03G07G01G14G21
 -21589192.71949 -16793259.44248  20351218.182    20351218.3384   20351225.5084
       216.0004        216.0004
  -4845792.52448  -3765343.10746  22882499.906    22882500.1304   22882504.2534
       169.0004        171.0004
  -3261107.97047  -2524229.86145  23766334.535    23766335.8704   23766344.8544
       152.0004        155.0004
   -165276.55648    -98604.80246  24404963.170    24404963.0514   24404970.4224
       182.0004        181.0004
 -11945319.41448  -8979985.29446  22760711.089    22760710.4324   22760713.9274
       176.0004        177.0004
 -15066213.12049 -11718197.45747  21595215.815    21595216.4934   21595220.9444
       198.0004        198.0004
  -7059875.97147  -5492107.13345  24608766.872    24608765.3214   24608767.6654
       139.0004        144.0004
  -5105992.06148  -3965087.25346  24395591.725    24395593.0564   24395600.9184
       168.0004        170.0004
 -25297577.12949 -19686680.69947  20256595.206    20256595.3324   20256600.5384
       211.0004        212.0004
 -20678473.46549 -16104147.99048  21194506.682    21194507.6454   21194514.1864
       224.0004        223.0004
  -8192973.14348  -6374145.63146  22218762.989    22218763.5914   22218768.2734
       182.0004        181.0004
   -668360.70047   -315189.49445  24013642.667    24013642.1084   24013647.4524
       149.0004        151.0004
 21  2  1  1 59  0.0000000  0 12G30G28G06G09G19G17G22G03G07G01G14G21
 -21615988.72449 -16814139.45948  20346119.008    20346119.3094   20346126.0054
       216.0004        216.0004
  -4878400.11948  -3790751.62246  22876294.680    22876295.2824   22876299.0894
       170.0004        172.0004
  -3368348.38847  -2607793.72245  23745929.007    23745929.3744   23745937.7284
       153.0004        157.0004
    -93702.62848    -42832.95546  24418581.570    24418582.3244   24418589.7234
       180.0004        180.0004
 -11992661.75148  -9016875.42746  22751701.905    22751701.7034   22751705.4124
       176.0004        178.0004
 -15068136.78649 -11719696.40747  21594849.811    21594850.3104   21594854.6134
       197.0004        198.0004
  -7075053.20047  -5503933.53545  24605875.200    24605875.9974   24605879.8694
       137.0004        141.0004
  -5145787.21148  -3996096.39946  24388019.713    24388020.7534   24388028.7984
       171.0004        174.0004
 -25262867.72949 -19659634.43247  20263200.787    20263200.5904   20263205.5684
       211.0004        212.0004
 -20625605.35349 -16062952.05048  21204566.724    21204567.3494   21204574.0874
       223.0004        222.0004
  -8230031.19348  -6403022.04646  22211710.579    22211711.6204   22211716.8894
       182.0004        182.0004
   -574378.54547   -241956.67945  24031526.148    24031525.1934   24031531.6644
       147.0004        149.0004
 21  2  1  1 59 30.0000000  0 12G30G28G06G09G19G17G22G03G07G01G14G21
 -21642249.29149 -16834602.25348  20341122.277    20341122.1774   20341128.9634
       216.0004        217.0004
  -4911139.22848  -3816262.63446  22870064.860    22870064.5494   22870068.1994
       170.0004        172.0004
  -3475498.93547  -2691287.56845  23725538.635    23725539.5474   23725547.0224
       154.0004        157.0004
    -22323.94148     12786.73546  24432164.813    24432165.1614   24432173.2724
       178.0004        179.0004
 -12039679.21348  -9053512.39246  22742754.656    22742754.0034   22742756.8054
       176.0004        178.0004
 -15069750.83749 -11720954.12547  21594543.193    21594543.4444   21594547.0284
       198.0004        198.0004
  -7090024.85147  -5515599.75045  24603026.955    24603026.0804   24603031.5464
       135.0004        141.0004
  -5185573.18048  -4027098.44646  24380447.690    24380449.1934   24380457.7944
       172.0004        173.0004
 -25227583.21849 -19632140.02247  20269914.315    20269915.1244   20269919.5464
       211.0004        211.0004
 -20572182.49049 -16021323.84048  21214732.911    21214733.2764   21214740.9014
       223.0004        223.0004
  -8267135.18848  -6431934.26646  22204651.208    22204651.7104   22204656.1104
       182.0004        181.0004
   -480189.16147   -168562.34745  24049450.631    24049450.7274   24049454.6804
       148.0004        151.0004
 21  2  1  2  0  0.0000000  0 12G30G28G06G09G19G17G22G03G07G01G14G21
 -21667973.07049 -16854646.75748  20336227.179    20336227.0054   20336234.1784
       216.0004        217.0004
  -4944009.20548  -3841875.59046  22863809.434    22863809.3344   22863813.5804
       169.0004        170.0004
  -3582556.86347  -2774709.23745  23705165.925    23705166.7854   23705175.1914
       156.0004        159.0004
     48857.50548     68252.74646  24445710.227    24445709.8644   24445718.4304
       178.0004        178.0004
 -12086372.14948  -9089896.49446  22733869.814    22733868.9284   22733872.3454
       177.0004        178.0004
 -15071057.06349 -11721971.95747  21594294.398    21594294.9194   21594299.5924
       199.0004        200.0004
  -7104789.04947  -5527104.33445  24600219.494    24600218.5994   24600222.6054
       136.0004        142.0004
  -5225347.39648  -4058091.34146  24372879.319    24372880.4054   24372888.3784
       171.0004        172.0004
 -25191724.36749 -19604198.06747  20276738.498    20276738.8454   20276743.2524
       211.0004        211.0004
 -20518206.73949 -15979264.80548  21225003.995    21225004.8844   21225012.0534
       223.0004        223.0004
  -8304284.34048  -6460881.65546  22197581.702    22197581.7994   22197586.0234
       181.0004        179.0004
   -385796.05847    -95009.28945  24067413.695    24067412.5584   24067417.9954
       148.0004        151.0004
 21  2  1  2  0 30.0000000  0 12G30G28G06G09G19G17G22G03G07G01G14G21
 -21693159.21949 -16874272.32148  20331434.037    20331434.2634   20331441.1714
       216.0004        217.0004
  -4977010.47048  -3867590.85246  22857529.934    22857529.5714   22857533.8114
       169.0004        170.0004
  -3689520.16347  -2858057.21345  23684811.260    23684811.9504   23684819.7584
       155.0004        157.0004
    119839.20448    123563.09846  24459217.269    24459217.4704   24459225.5384
       177.0004        178.0004
 -12132741.71548  -9126028.58646  22725045.707    22725045.0964   22725048.8064
       177.0004        178.0004
 -15072057.93649 -11722751.85047  21594103.833    21594104.5794   21594109.0724
       199.0004        200.0004
  -7119344.02147  -5538445.84245  24597450.286    24597448.9894   24597453.8104
       136.0004        142.0004
  -5265107.88448  -4089073.46246  24365315.275    24365315.1184   24365322.8324
       171.0004        172.0004
 -25155292.72249 -19575809.77147  20283671.124    20283671.7074   20283675.7514
       211.0004        211.0004
 -20463680.58349 -15936776.87048  21235379.692    21235380.6964   21235387.8164
       223.0004        222.0004
  -8341478.48248  -6489864.09246  22190503.214    22190504.3814   22190508.0664
       180.0004        180.0004
   -291201.62447    -21299.34845  24085415.028    24085414.2514   24085417.3774
       148.0004        151.0004
 21  2  1  2  1  0.0000000  0 12G30G28G06G09G19G17G22G03G07G01G14G21
 -21717806.35749 -16893477.90048  20326743.675    20326743.8744   20326751.0134
       216.0004        216.0004
  -5010142.56148  -3893408.05746  22851225.008    22851224.2264   22851229.9604
       169.0004        170.0004
  -3796385.88747  -2941329.14745  23664475.310    23664476.4304   23664483.9044
       157.0004        160.0004
    190619.37848    178716.42846  24472687.149    24472687.1094   24472695.7214
       178.0004        179.0004
 -12178787.85548  -9161908.69346  22716283.715    22716282.3764   22716286.6584
       176.0004        176.0004
 -15072755.24449 -11723295.21247  21593971.683    21593971.5564   21593975.9314
       199.0004        199.0004
  -7133687.86847  -5549622.86245  24594720.066    24594718.6324   24594723.7904
       137.0004        143.0004
  -5304851.89248  -4120042.78846  24357752.056    24357752.0234   24357760.4574
       172.0004        173.0004
 -25118288.89049 -19546975.63247  20290712.482    20290712.9974   20290717.5304
       211.0004        211.0004
 -20408605.82949 -15893861.47048  21245859.878    21245860.8974   21245868.2534
       222.0004        221.0004
  -8378716.61948  -6518880.83546  22183417.994    22183418.0784   22183422.8784
       181.0004        182.0004
   -196408.34447     52565.53545  24103452.776    24103452.5254   24103457.5024
       147.0004        150.0004
 21  2  1  2  1 30.0000000  0 12G30G28G06G09G19G17G22G03G07G01G14G21
 -21741912.77249 -16912262.12348  20322156.574    20322156.8124   20322163.5984
       216.0004        217.0004
  -5043405.25548  -3919327.04546  22844894.951    22844895.0364   22844899.1904
       169.0004        169.0004
  -3903150.91447  -3024522.59145  23644159.132    23644159.2914   23644168.0444
       159.0004        161.0004
    261196.52748    233711.53446  24486119.156    24486118.2464   24486125.6914
       177.0004        177.0004
 -12224510.91048  -9197537.03546  22707581.785    22707581.8014   22707585.6804
       176.0004        177.0004
 -15073150.12049 -11723602.91747  21593895.688    21593896.2394   21593900.9434
       199.0004        199.0004
  -7147818.04147  -5560633.38645  24592031.567    24592031.3684   24592033.5654
       136.0004        142.0004
  -5344576.62948  -4150997.10346  24350190.524    24350191.4664   24350200.5114
       172.0004        173.0004
 -25080713.66949 -19517696.25447  20297862.159    20297862.8614   20297867.4544
       210.0004        210.0004
 -20352984.02249 -15850519.78848  21256444.419    21256445.3814   21256452.3904
       222.0004        221.0004
  -8415997.59548  -6547930.94046  22176323.441    22176323.2164   22176328.6564
       182.0004        183.0004
   -101418.69247    126583.41945  24121527.620    24121526.8264   24121532.6964
       146.0004        150.0004
 21  2  1  2  2  0.0000000  0 12G30G28G06G09G19G17G22G03G07G01G14G21
 -21765476.26549 -16930623.28948  20317672.676    20317672.9004   20317679.7924
       216.0004        217.0004
  -5076797.15548  -3945346.72746  22838540.889    22838540.8314   22838544.9104
       169.0004        170.0004
  -4009811.66747  -3107634.79545  23623860.689    23623861.8904   23623870.0634
       158.0004        160.0004
    331569.64148    288547.63946  24499509.913    24499509.2804   24499517.9254
       175.0004        175.0004
 -12269910.22348  -9232913.09846  22698943.060    22698942.0464   22698945.9674
       177.0004        179.0004
 -15073244.04549 -11723676.10547  21593877.608    21593878.3904   21593883.3744
       198.0004        199.0004
  -7161731.33647  -5571474.89645  24589384.014    24589382.9424   24589387.0734
       137.0004        142.0004
  -5384278.62848  -4181933.71146  24342635.854    24342637.1204   24342643.5124
       173.0004        174.0004
 -25042566.81349 -19487971.43447  20305121.696    20305122.2744   20305126.8384
       210.0004        210.0004
 -20296816.29249 -15806752.71048  21267132.852    21267133.8274   21267140.6354
       221.0004        221.0004
  -8453319.69048  -6577013.09946  22169220.509    22169221.6314   22169226.3154
       183.0004        183.0004
     -6234.38147    200752.99245  24139641.291    24139640.9304   24139645.7564
       146.0004        150.0004
 21  2  1  2  2 30.0000000  0 12G30G28G06G09G19G17G22G03G07G01G14G21
 -21788495.68049 -16948560.50848  20313292.464    20313292.3114   20313299.3204
       217.0004        217.0004
  -5110317.66648  -3971466.59746  22832161.911    22832161.7734   22832166.0444
       169.0004        170.0004
  -4116365.54047  -3190663.73745  23603582.913    23603584.7764   23603593.2864
       156.0004        157.0004
    401736.73348    343223.19446  24512863.004    24512862.7564   24512869.7044
       174.0004        174.0004
 -12314986.18448  -9268037.19946  22690365.325    22690364.2314   22690368.5534
       179.0004        179.0004
 -15073038.51849 -11723515.95547  21593917.377    21593917.3384   21593922.0604
       199.0004        198.0004
  -7175425.91847  -5582145.98645  24586777.474    24586775.8404   24586781.0744
       137.0004        142.0004
  -5423955.53448  -4212850.75946  24335084.819    24335086.3004   24335094.1614
       173.0004        174.0004
 -25003849.66049 -19457802.24047  20312489.748    20312490.1864   20312494.8534
       210.0004        210.0004
 -20240104.70049 -15762561.84448  21277925.435    21277925.8824   21277933.3134
       222.0004        222.0004
  -8490682.20448  -6606126.74946  22162110.682    22162111.2804   22162116.1914
       183.0004        182.0004
     89141.93247    275072.20345  24157791.890    24157790.8124   24157795.6804
       148.0004        152.0004
