     2.11           OBSERVATION DATA    G (GPS)             RINEX VERSION / TYPE
teqc  2018Jun8                          20210202 03:10:36UTCPGM / RUN BY / DATE
Linux2.6.32-573.12.1.el6.x86_64|x86_64|gcc|Win64-MinGW64|=+ COMMENT
BIT 2 OF LLI FLAGS DATA COLLECTED UNDER A/S CONDITION       COMMENT
-Unknown-                                                   MARKER NAME
CRNO                                                        MARKER NUMBER
-Unknown-           -Unknown-                               OBSERVER / AGENCY
-Unknown-           ASHTECH             -Unknown-           REC # / TYPE / VERS
-Unknown-           -Unknown-                               ANT # / TYPE
   408078.2101 -6158372.5420  1605163.7907                  APPROX POSITION XYZ
        0.0000        0.0000        0.0000                  ANTENNA: DELTA H/E/N
     1     1                                                WAVELENGTH FACT L1/2
     7    L1    L2    C1    P1    P2    S1    S2            # / TYPES OF OBSERV
    30.0000                                                 INTERVAL
Forced Modulo Decimation to 30 seconds                      COMMENT
 SNR is mapped to RINEX snr flag value [1-9]                COMMENT
  L1: 1 -> 1;  90 -> 5; 210 -> 9                            COMMENT
  L2: 1 -> 1; 150 -> 5; 250 -> 9                            COMMENT
pseudorange smoothing corrections not applied               COMMENT
  2021     2     1     0     0   30.0000000     GPS         TIME OF FIRST OBS
                                                            END OF HEADER
 21  2  1  0  0 30.0000000  0 10G21G03G04G16G01G07G08G09G27G22
 -10207496.01447  -7939338.99545  22848883.231    22848883.3404   22848889.8344
       153.0004        156.0004
  11893240.28048   9277925.33946  24088898.026    24088898.8544   24088909.2874
       181.0004        181.0004
  -7851569.01249  -6090416.23547  20316106.044    20316106.2354   20316112.3074
       213.0004        212.0004
  17484885.04347  13554585.75445  24109618.003    24109616.4024   24109620.6444
       136.0004        141.0004
  -3055211.69946  -2363855.17345  24249730.166    24249731.9604   24249742.1884
       132.0004        139.0004
  -5512030.30547  -4285169.18545  23990071.259    23990071.0844   23990075.3004
       155.0004        158.0004
 -12425567.67549  -9661734.62048  20145525.545    20145525.8394   20145533.2264
       212.0004        213.0004
 -17637056.62949 -13711966.18147  21165468.479    21165468.6304   21165475.4614
       205.0004        204.0004
   1772246.24849   1395519.64748  21636929.353    21636929.5344   21636937.2054
       222.0004        222.0004
  12542623.25447   9770206.51345  24740330.827    24740330.1564   24740336.3704
       137.0004        142.0004
 21  2  1  0  1  0.0000000  0 10G21G03G04G16G01G07G08G09G27G22
 -10258718.51747  -7979252.55845  22839137.246    22839137.2794   22839142.5884
       154.0004        157.0004
  11952566.04548   9324153.17346  24100186.573    24100187.9784   24100197.9044
       179.0004        179.0004
  -7827151.00649  -6071389.21847  20320752.224    20320753.0144   20320759.1134
       213.0004        212.0004
  17565623.94147  13617499.20945  24124980.304    24124981.6444   24124985.4824
       136.0004        142.0004
  -3121523.28046  -2415526.39445  24237111.443    24237113.2744   24237123.8884
       134.0004        140.0004
  -5578907.19147  -4337281.01645  23977344.162    23977344.8984   23977349.1264
       155.0004        157.0004
 -12420830.16149  -9658043.03248  20146427.239    20146427.5074   20146434.8564
       212.0004        213.0004
 -17683711.31649 -13748320.45547  21156589.029    21156589.6354   21156597.7994
       203.0004        203.0004
   1845044.04649   1452245.21948  21650782.807    21650782.7584   21650790.1334
       222.0004        222.0004
  12588137.86547   9805672.36145  24748991.322    24748991.7194   24748999.1664
       138.0004        143.0004
 21  2  1  0  1 30.0000000  0 10G21G03G04G16G01G07G08G09G27G22
 -10309874.66747  -8019114.43545  22829403.148    22829402.0524   22829407.8644
       154.0004        156.0004
  12011733.41648   9370257.56646  24111447.403    24111447.5814   24111457.6634
       177.0004        177.0004
  -7802169.24549  -6051922.91747  20325506.173    20325506.4744   20325512.6374
       213.0004        211.0004
  17646227.84247  13680307.44745  24140320.857    24140319.8824   24140323.3264
       139.0004        145.0004
  -3188062.04947  -2467374.64445  24224451.585    24224451.5434   24224462.1034
       136.0004        142.0004
  -5645930.29047  -4389506.77545  23964589.249    23964590.1224   23964595.4344
       154.0004        157.0004
 -12415483.73649  -9653876.97648  20147444.542    20147444.4624   20147452.4194
       213.0004        213.0004
 -17729857.89049 -13784278.81747  21147807.673    21147807.9194   21147816.5414
       202.0004        203.0004
   1918296.14349   1509324.78248  21664720.889    21664721.8674   21664729.6624
       221.0004        221.0004
  12633404.13247   9840944.73445  24757607.487    24757605.3384   24757612.2314
       140.0004        145.0004
 21  2  1  0  2  0.0000000  0 10G21G03G04G16G01G07G08G09G27G22
 -10360962.39547  -8058923.01445  22819679.893    22819680.2954   22819685.7454
       153.0004        155.0004
  12070739.89248   9416236.58846  24122675.431    24122676.5214   24122684.5924
       176.0004        176.0004
  -7776624.89649  -6032018.24047  20330367.013    20330367.4674   20330373.2904
       212.0004        211.0004
  17726695.30247  13743009.38345  24155629.658    24155630.4554   24155636.3364
       136.0004        141.0004
  -3254826.50447  -2519398.76045  24211746.706    24211748.0114   24211757.8724
       138.0004        144.0004
  -5713098.96447  -4441846.00145  23951809.440    23951809.7294   23951813.7174
       155.0004        159.0004
 -12409529.00649  -9649236.92848  20148577.062    20148577.6204   20148585.4394
       212.0004        213.0004
 -17775495.08849 -13819840.26447  21139121.802    21139123.3434   21139132.1944
       202.0004        203.0004
   1991999.52249   1566755.98048  21678746.845    21678747.2234   21678754.7004
       221.0004        221.0004
  12678420.58747   9876022.42845  24766171.397    24766170.6584   24766179.0744
       141.0004        145.0004
 21  2  1  0  2 30.0000000  0 10G21G03G04G16G01G07G08G09G27G22
 -10411978.49647  -8098675.75845  22809972.690    22809972.6854   22809978.3994
       152.0004        155.0004
  12129583.92148   9462089.04346  24133873.094    24133873.9424   24133881.6734
       176.0004        177.0004
  -7750518.14049  -6011675.31447  20335334.917    20335335.2984   20335341.5724
       212.0004        210.0004
  17807025.40947  13805604.33345  24170917.104    24170916.3234   24170923.0934
       137.0004        142.0004
  -3321814.12247  -2571596.77945  24198998.780    24198998.8124   24199010.0294
       138.0004        143.0004
  -5780411.80047  -4494297.50445  23938999.971    23938999.4994   23939005.6544
       157.0004        161.0004
 -12402965.91049  -9644122.81548  20149826.466    20149826.7514   20149834.6154
       213.0004        213.0004
 -17820620.73449 -13855003.08847  21130536.902    21130537.0784   21130544.7654
       203.0004        204.0004
   2066152.03449   1624537.16748  21692857.742    21692857.7974   21692865.6194
       221.0004        221.0004
  12723186.76447   9910905.08945  24774690.655    24774689.6964   24774697.6534
       139.0004        144.0004
 21  2  1  0  3  0.0000000  0  9G21G03G04G16G01G07G08G09G27
 -10462918.42247  -8138369.15245  22800280.099    22800279.8424   22800285.4654
       154.0004        158.0004
  12188265.34848   9507814.79746  24145039.474    24145040.3814   24145050.0054
       177.0004        179.0004
  -7723847.97549  -5990893.37647  20340410.105    20340410.5224   20340416.6434
       212.0004        210.0004
  17887219.24446  13868093.03545  24186178.188    24186177.7074   24186180.0394
       133.0004        139.0004
  -3389021.14647  -2623965.76345  24186209.187    24186209.2604   24186220.1984
       137.0004        142.0004
  -5847866.14247  -4546859.28045  23926163.260    23926163.9564   23926169.1204
       159.0004        161.0004
 -12395793.01749  -9638533.54348  20151191.404    20151191.4624   20151199.5234
       213.0004        213.0004
 -17865231.31549 -13889764.56747  21122048.889    21122048.7244   21122055.5904
       204.0004        205.0004
   2140752.93949   1682667.74548  21707053.684    21707053.8084   21707061.5574
       221.0004        220.0004
 21  2  1  0  3 30.0000000  0  9G21G03G04G16G01G07G08G09G27
 -10513782.02647  -8178003.10145  22790601.357    22790599.9774   22790606.9064
       155.0004        157.0004
  12246779.10248   9553409.84146  24156175.094    24156175.5594   24156185.0094
       179.0004        180.0004
  -7696618.13749  -5969675.31747  20345592.369    20345592.2214   20345597.9264
       211.0004        210.0004
  17967272.63646  13930472.32345  24201413.708    24201412.6444   24201417.2564
       134.0004        141.0004
  -3456448.37847  -2676506.32345  24173377.355    24173379.1814   24173389.2254
       137.0004        142.0004
  -5915464.22247  -4599533.07245  23913300.467    23913300.3384   23913305.1764
       159.0004        162.0004
 -12388013.68249  -9632471.70948  20152671.507    20152671.8254   20152679.6404
       212.0004        213.0004
 -17909328.06049 -13924125.65947  21113657.115    21113657.7464   21113663.9234
       205.0004        206.0004
   2215796.65949   1741143.38848  21721333.372    21721334.2764   21721341.8124
       221.0004        220.0004
 21  2  1  0  4  0.0000000  0  9G21G03G04G16G01G07G08G09G27
 -10564567.44647  -8217576.11545  22780934.589    22780935.0374   22780938.3454
       153.0004        155.0004
  12305123.10548   9598872.66446  24167277.209    24167278.0324   24167287.1744
       179.0004        179.0004
  -7668829.60049  -5948021.91347  20350880.311    20350880.4314   20350886.0334
       211.0004        210.0004
  18047184.91347  13992741.57745  24216619.895    24216618.6894   24216623.3234
       137.0004        143.0004
  -3524094.15647  -2729217.20445  24160505.160    24160506.7524   24160517.2114
       139.0004        144.0004
  -5983205.26747  -4652318.27245  23900408.999    23900409.2134   23900413.2304
       158.0004        160.0004
 -12379628.18449  -9625937.54147  20154267.139    20154267.3864   20154275.1054
       212.0004        212.0004
 -17952909.56949 -13958085.27147  21105363.765    21105364.5384   21105370.3764
       206.0004        207.0004
   2291280.33949   1799961.85248  21735697.421    21735698.1244   21735705.9014
       220.0004        220.0004
 21  2  1  0  4 30.0000000  0  9G21G03G04G16G01G07G08G09G27
 -10615269.79547  -8257084.38545  22771288.001    22771287.7464   22771291.5984
       154.0004        157.0004
  12363296.97048   9644202.89346  24178346.843    24178347.3634   24178356.6584
       177.0004        178.0004
  -7640481.59849  -5925932.56347  20356274.722    20356275.2584   20356280.7584
       211.0004        210.0004
  18126956.41347  14054901.16445  24231797.573    24231798.3264   24231804.5494
       139.0004        144.0004
  -3591954.66647  -2782095.41245  24147592.814    24147594.1024   24147604.0684
       141.0004        146.0004
  -6051086.81247  -4705212.96846  23887492.297    23887492.4374   23887496.0874
       160.0004        163.0004
 -12370636.31549  -9618930.88447  20155978.437    20155978.8434   20155986.3564
       212.0004        212.0004
 -17995972.55649 -13991640.84347  21097169.442    21097169.7814   21097176.1844
       207.0004        208.0004
   2367203.01749   1859122.37648  21750145.139    21750146.0674   21750153.5194
       219.0004        219.0004
 21  2  1  0  5  0.0000000  0  9G21G03G04G16G01G07G08G09G27
 -10665887.68947  -8296526.84945  22761655.470    22761655.2974   22761660.4844
       155.0004        158.0004
  12421297.18348   9689397.80046  24189385.116    24189385.5364   24189395.4244
       178.0004        179.0004
  -7611576.52949  -5903409.14447  20361774.735    20361775.2264   20361781.1454
       211.0004        210.0004
  18206584.82347  14116949.26345  24246951.802    24246951.0304   24246956.2984
       140.0004        145.0004
  -3660029.46047  -2835140.54745  24134637.880    24134638.8174   24134648.5034
       144.0004        148.0004
  -6119109.22647  -4758217.41446  23874547.621    23874548.8004   23874552.1794
       162.0004        165.0004
 -12361039.41649  -9611452.77748  20157804.861    20157805.1544   20157812.5214
       212.0004        213.0004
 -18038516.98049 -14024792.34647  21089073.212    21089073.6584   21089080.7614
       208.0004        209.0004
   2443560.43649   1918621.66848  21764675.554    21764676.0104   21764683.7584
       219.0004        219.0004
 21  2  1  0  5 30.0000000  0  9G21G03G04G16G01G07G08G09G27
 -10716418.05947  -8335901.11645  22752038.952    22752039.2824   22752046.1014
       156.0004        159.0004
  12479122.45448   9734456.42746  24200387.813    24200388.8584   24200399.4034
       180.0004        181.0004
  -7582114.55049  -5880451.75947  20367381.757    20367382.0374   20367387.8454
       211.0004        210.0004
  18286069.78047  14178885.59845  24262076.618    24262077.2574   24262082.0384
       137.0004        142.0004
  -3728315.76047  -2888350.50945  24121640.815    24121642.5894   24121656.1174
       143.0004        147.0004
  -6187271.00647  -4811330.44246  23861577.612    23861576.7724   23861581.9254
       162.0004        163.0004
 -12350837.52449  -9603503.23348  20159746.348    20159746.3454   20159754.0894
       212.0004        213.0004
 -18080540.52949 -14057537.95947  21081076.104    21081076.5114   21081083.7014
       208.0004        208.0004
   2520350.68649   1978458.23448  21779288.602    21779289.1644   21779296.9524
       220.0004        220.0004
 21  2  1  0  6  0.0000000  0  9G21G03G04G16G01G07G08G09G27
 -10766857.17347  -8375204.29345  22742441.254    22742441.5524   22742446.7464
       156.0004        160.0004
  12536771.82048   9779377.93746  24211358.176    24211359.4634   24211368.5904
       179.0004        180.0004
  -7552095.66949  -5857060.42547  20373093.457    20373093.9944   20373100.5094
       211.0004        210.0004
  18365411.29047  14240710.15445  24277173.947    24277173.8724   24277178.1264
       136.0004        141.0004
  -3796810.49247  -2941722.91445  24108607.728    24108609.2374   24108620.3284
       143.0004        148.0004
  -6255570.44847  -4864550.76745  23848579.068    23848580.0614   23848584.0534
       161.0004        162.0004
 -12340030.00449  -9595081.77848  20161802.303    20161802.7894   20161810.4354
       212.0004        213.0004
 -18122040.66449 -14089875.71847  21073178.632    21073179.3214   21073186.3344
       207.0004        208.0004
   2597572.02349   2038630.70848  21793983.462    21793983.8444   21793991.1464
       220.0004        219.0004
 21  2  1  0  6 30.0000000  0  9G21G03G04G16G01G07G08G09G27
 -10817203.15847  -8414434.89545  22732860.369    22732860.0014   22732866.3024
       157.0004        158.0004
  12594242.38648   9824160.11646  24222296.600    24222296.5694   24222305.1764
       181.0004        182.0004
  -7521521.77649  -5833236.61747  20378911.671    20378912.0784   20378918.5414
       211.0004        210.0004
  18444607.55646  14302421.51945  24292244.632    24292244.3234   24292249.6414
       134.0004        140.0004
  -3865512.62147  -2995256.92345  24095536.077    24095536.3334   24095546.0154
       144.0004        148.0004
  -6324007.29347  -4917878.15046  23835556.524    23835557.3074   23835562.5224
       161.0004        163.0004
 -12328618.89349  -9586189.99048  20163973.922    20163974.1164   20163982.1744
       212.0004        213.0004
 -18163016.84249 -14121805.20047  21065381.936    21065382.0324   21065388.6984
       208.0004        208.0004
   2675220.78249   2099136.24648  21808759.423    21808759.8454   21808766.7114
       219.0004        217.0004
 21  2  1  0  7  0.0000000  0  9G21G03G04G16G01G07G08G09G27
 -10867454.27447  -8453591.55145  22723297.290    22723297.2594   22723302.6814
       156.0004        157.0004
  12651531.20148   9868800.68946  24233197.302    24233197.8964   24233207.0984
       181.0004        181.0004
  -7490394.87849  -5808981.89547  20384835.287    20384835.6284   20384841.4994
       211.0004        210.0004
  18523657.05746  14364018.52845  24307289.162    24307286.8514   24307291.0094
       131.0004        139.0004
  -3934420.86147  -3048951.49045  24082423.403    24082423.3054   24082434.0374
       145.0004        149.0004
  -6392581.80147  -4971312.79546  23822505.933    23822507.5034   23822512.2824
       161.0004        163.0004
 -12316605.59949  -9576828.96548  20166259.487    20166260.2844   20166268.2434
       212.0004        213.0004
 -18203468.56549 -14153326.01647  21057683.977    21057684.2874   21057691.1304
       208.0004        209.0004
   2753293.25049   2159971.95348  21823616.272    21823616.5264   21823623.7364
       218.0004        218.0004
 21  2  1  0  7 30.0000000  0  9G21G03G04G16G01G07G08G09G27
 -10917606.95747  -8492671.51445  22713753.271    22713754.2574   22713759.6714
       156.0004        158.0004
  12708637.55048   9913299.07446  24244062.104    24244063.2964   24244073.9164
       177.0004        176.0004
  -7458714.71249  -5784296.06347  20390863.701    20390864.0234   20390869.8864
       211.0004        209.0004
  18602559.50047  14425500.94645  24322302.600    24322304.2814   24322308.9374
       137.0004        142.0004
  -4003532.11847  -3102804.26245  24069271.381    24069271.9654   24069281.3684
       145.0004        149.0004
  -6461291.98647  -5024853.13446  23809431.962    23809433.2334   23809437.2984
       162.0004        165.0004
 -12303989.35349  -9566998.11748  20168661.122    20168661.4104   20168668.9384
       212.0004        213.0004
 -18243393.05949 -14184436.01147  21050086.764    21050087.1894   21050093.7974
       209.0004        209.0004
   2831787.93949   2221136.65348  21838553.845    21838553.6594   21838561.3184
       219.0004        219.0004
 21  2  1  0  8  0.0000000  0  9G21G03G04G16G01G07G08G09G27
 -10967657.76647  -8531672.10745  22704229.432    22704229.6014   22704235.7344
       156.0004        158.0004
  12765559.47948   9957653.75446  24254895.497    24254895.9094   24254905.4894
       173.0004        173.0004
  -7426482.36149  -5759179.94647  20396997.234    20396997.8994   20397003.5924
       211.0004        209.0004
  18681314.59147  14486868.52645  24337289.360    24337288.0604   24337293.3564
       136.0004        140.0004
  -4072844.19947  -3156813.53145  24056081.869    24056082.0034   24056090.4594
       145.0004        148.0004
  -6530136.25547  -5078497.97046  23796332.680    23796332.9364   23796335.8934
       163.0004        165.0004
 -12290771.23649  -9556698.26948  20171176.770    20171176.8814   20171184.1124
       212.0004        213.0004
 -18282788.94749 -14215134.09747  21042590.894    21042590.9184   21042596.8834
       209.0004        210.0004
   2910702.06949   2282628.19348  21853569.889    21853570.6534   21853578.1054
       219.0004        219.0004
 21  2  1  0  8 30.0000000  0  9G21G03G04G16G01G07G08G09G27
 -11017604.67147  -8570591.74945  22694724.623    22694724.2824   22694731.0154
       156.0004        159.0004
  12822294.02748  10001862.43746  24265692.752    24265693.2464   24265701.6844
       174.0004        176.0004
  -7393699.91649  -5733635.18347  20403234.931    20403235.4854   20403242.1094
       210.0004        209.0004
  18759920.14646  14548119.63845  24352246.991    24352245.3104   24352251.3004
       131.0004        137.0004
  -4142356.00447  -3210978.47345  24042855.065    24042855.6574   24042864.1044
       145.0004        149.0004
  -6599114.92947  -5132247.57046  23783204.340    23783204.3934   23783209.7914
       161.0004        163.0004
 -12276952.70649  -9545930.56647  20173805.723    20173806.1744   20173813.5234
       212.0004        212.0004
 -18321655.79349 -14245419.94647  21035193.877    21035194.2904   21035200.8094
       209.0004        209.0004
   2990031.87149   2344443.62548  21868666.755    21868666.5684   21868673.5424
       219.0004        218.0004
 21  2  1  0  9  0.0000000  0  9G21G03G04G16G01G07G08G09G27
 -11067445.64047  -8609428.83345  22685240.460    22685239.9674   22685245.2814
       156.0004        158.0004
  12878839.53448  10045923.82046  24276452.641    24276453.4294   24276462.4294
       175.0004        176.0004
  -7360368.24049  -5707662.45547  20409578.560    20409578.6284   20409585.3074
       210.0004        210.0004
  18838375.60646  14609253.83145  24367178.593    24367176.4804   24367184.8774
       131.0004        139.0004
  -4212065.18047  -3265297.17045  24029587.633    24029587.4864   24029597.2984
       142.0004        146.0004
  -6668226.84347  -5186100.94646  23770052.962    23770053.8784   23770058.7304
       161.0004        163.0004
 -12262534.74849  -9534695.78248  20176549.741    20176549.8724   20176557.2864
       212.0004        213.0004
 -18359991.96449 -14275292.28947  21027898.279    21027898.6594   21027905.6064
       209.0004        209.0004
   3069774.79449   2406580.97848  21883840.887    21883841.1314   21883848.2614
       219.0004        218.0004
 21  2  1  0  9 30.0000000  0  9G21G03G04G16G01G07G08G09G27
 -11117177.39747  -8648180.80945  22675777.937    22675777.3774   22675782.2724
       157.0004        159.0004
  12935194.34048  10089836.58946  24287176.881    24287177.2264   24287186.0984
       174.0004        175.0004
  -7326488.24749  -5681262.46247  20416025.602    20416025.9514   20416032.3604
       210.0004        209.0004
  18916680.38746  14670270.50545  24382077.325    24382077.9494   24382085.6564
       131.0004        139.0004
  -4281969.46647  -3319767.88145  24016286.805    24016287.5334   24016296.0214
       145.0004        150.0004
  -6737470.85847  -5240057.29846  23756877.701    23756878.1674   23756881.8414
       163.0004        166.0004
 -12247517.25949  -9522993.82148  20179407.591    20179407.6164   20179415.0844
       212.0004        213.0004
 -18397795.90449 -14304749.89147  21020704.816    21020704.9584   21020711.6724
       209.0004        209.0004
   3149928.25149   2469038.23248  21899094.005    21899093.8214   21899100.9574
       219.0004        218.0004
 21  2  1  0 10  0.0000000  0  9G21G03G04G16G01G07G08G09G27
 -11166796.73547  -8686845.19245  22666334.648    22666335.4604   22666339.2664
       157.0004        159.0004
  12991357.06948  10133599.63646  24297862.071    24297863.6004   24297874.2814
       173.0004        174.0004
  -7292060.52849  -5654435.66847  20422576.416    20422576.8324   20422583.1284
       210.0004        209.0004
  18994833.68646  14731169.22145  24396951.997    24396950.3514   24396953.3164
       127.0004        134.0004
  -4352066.05147  -3374388.45245  24002948.367    24002948.6514   24002956.0154
       146.0004        149.0004
  -6806845.07147  -5294115.09446  23743675.162    23743675.7004   23743680.6404
       164.0004        166.0004
 -12231901.15149  -9510825.41148  20182378.685    20182378.7254   20182386.6954
       212.0004        213.0004
 -18435065.65049 -14333791.26147  21013612.267    21013612.7474   21013619.4104
       209.0004        209.0004
   3230490.02149   2531813.63648  21914423.769    21914424.5824   21914430.8494
       218.0004        217.0004
 21  2  1  0 10 30.0000000  0  9G21G03G04G16G01G07G08G09G27
 -11216301.13447  -8725419.99545  22656914.775    22656913.8244   22656920.2144
       157.0004        160.0004
  13047325.23348  10177211.13546  24308514.843    24308515.3094   24308524.9874
       174.0004        175.0004
  -7257086.85049  -5627183.44847  20429232.591    20429232.8014   20429238.2514
       210.0004        209.0004
  19072834.44646  14791949.04945  24411794.045    24411795.3524   24411795.8764
       128.0004        136.0004
  -4422353.41347  -3429157.66245  23989572.546    23989572.0344   23989581.8924
       145.0004        149.0004
  -6876349.40447  -5348274.28246  23730447.583    23730449.2574   23730454.8894
       163.0004        164.0004
 -12215687.55349  -9498191.41548  20185463.630    20185464.1404   20185471.8154
       212.0004        213.0004
 -18471800.49449 -14362415.80247  21006621.630    21006622.1514   21006629.2664
       208.0004        209.0004
   3311456.66549   2594904.54448  21929831.804    21929831.8474   21929838.4224
       218.0004        217.0004
 21  2  1  0 11  0.0000000  0  9G21G03G04G16G01G07G08G09G27
 -11265687.69447  -8763902.99645  22647515.953    22647516.0624   22647521.2424
       155.0004        155.0004
  13103097.55148  10220670.03646  24319127.558    24319127.8544   24319138.1834
       175.0004        175.0004
  -7221567.86549  -5599506.32547  20435990.803    20435991.1984   20435997.5674
       210.0004        208.0004
  19150682.62746  14852609.95745  24426607.568    24426606.1204   24426611.7704
       130.0004        139.0004
  -4492828.83547  -3484073.42445  23976161.768    23976161.3384   23976171.2354
       144.0004        148.0004
  -6945982.45847  -5402533.77245  23717196.505    23717197.5254   23717202.9534
       161.0004        162.0004
 -12198877.01749  -9485092.28547  20188663.138    20188663.2204   20188670.5904
       212.0004        212.0004
 -18507998.52949 -14390622.05947  20999733.794    20999734.5084   20999741.2434
       210.0004        211.0004
   3392825.96749   2658309.19548  21945315.459    21945315.7254   21945322.8934
       217.0004        217.0004
 21  2  1  0 11 30.0000000  0  9G21G03G04G16G01G07G08G09G27
 -11314953.86047  -8802292.16545  22638140.582    22638140.2574   22638146.4904
       155.0004        156.0004
  13158671.85248  10263974.65146  24329702.553    24329703.2824   24329713.0834
       172.0004        173.0004
  -7185505.10249  -5571405.47747  20442853.472    20442854.1254   20442859.9724
       209.0004        208.0004
  19228377.06146  14913151.05345  24441390.609    24441392.6784   24441395.2404
       128.0004        134.0004
  -4563490.37747  -3539134.26145  23962715.089    23962714.8274   23962723.6444
       144.0004        147.0004
  -7015743.17147  -5456892.73946  23703923.713    23703923.9504   23703928.6104
       163.0004        166.0004
 -12181470.80549  -9471528.99547  20191975.643    20191975.8464   20191983.1064
       212.0004        212.0004
 -18543658.76449 -14418409.25847  20992947.782    20992948.3364   20992955.2984
       210.0004        211.0004
   3474594.79949   2722025.16948  21960875.628    21960875.9264   21960882.7264
       217.0004        216.0004
 21  2  1  0 12  0.0000000  0  9G21G03G04G16G01G07G08G09G27
 -11364096.53347  -8840585.09245  22628789.772    22628789.7714   22628795.6104
       156.0004        158.0004
  13214046.14948  10307123.38446  24340239.222    24340240.9274   24340250.6864
       171.0004        172.0004
  -7148899.98549  -5542882.00047  20449819.619    20449819.8954   20449825.5964
       209.0004        208.0004
  19305916.81246  14973571.65545  24456146.854    24456146.0934   24456153.2354
       127.0004        135.0004
  -4634336.13147  -3594338.60945  23949232.093    23949234.3294   23949242.4664
       144.0004        148.0004
  -7085630.70848  -5511350.51846  23690625.139    23690625.2934   23690629.4664
       166.0004        168.0004
 -12163469.63549  -9457502.07147  20195400.771    20195400.9434   20195408.4564
       212.0004        212.0004
 -18578780.14549 -14445776.55347  20986264.093    20986264.8414   20986271.8184
       210.0004        210.0004
   3556760.17149   2786050.15448  21976511.450    21976511.1394   21976517.9004
       216.0004        215.0004
 21  2  1  0 12 30.0000000  0  9G21G03G04G16G01G07G08G09G27
 -11413114.48147  -8878780.86445  22619463.342    22619462.7934   22619467.2284
       158.0004        159.0004
  13269217.97948  10350114.34646  24350739.437    24350740.3604   24350749.1434
       172.0004        173.0004
  -7111754.32549  -5513937.32747  20456888.160    20456888.4164   20456894.2944
       209.0004        207.0004
  19383300.15546  15033870.38345  24470871.652    24470873.4584   24470876.8934
       128.0004        136.0004
  -4705364.37247  -3649685.15545  23935717.521    23935717.0774   23935725.5784
       145.0004        149.0004
  -7155644.75348  -5565906.92146  23677301.850    23677301.9324   23677305.8244
       166.0004        166.0004
 -12144874.94649  -9443012.68347  20198938.708    20198939.2164   20198947.0794
       212.0004        212.0004
 -18613361.95549 -14472723.41247  20979684.360    20979684.5724   20979691.5644
       211.0004        211.0004
   3639318.66649   2850381.45148  21992220.734    21992221.8654   21992228.6964
       215.0004        215.0004
 21  2  1  0 13  0.0000000  0  9G21G03G04G16G01G07G08G09G27
 -11462004.15447  -8916876.68945  22610158.194    22610157.0114   22610164.3704
       157.0004        158.0004
  13324185.74748  10392946.30746  24361198.316    24361199.7504   24361209.3624
       172.0004        174.0004
  -7074069.23649  -5484572.34347  20464059.508    20464059.8264   20464065.4384
       209.0004        208.0004
  19460526.95346  15094047.10245  24485565.258    24485565.3414   24485574.5594
       125.0004        133.0004
  -4776572.69147  -3705172.05745  23922167.564    23922167.2314   23922176.3864
       145.0004        150.0004
  -7225783.96047  -5620560.83646  23663954.333    23663954.7884   23663958.4584
       163.0004        163.0004
 -12125687.73449  -9428061.60547  20202590.202    20202590.6114   20202598.3264
       212.0004        212.0004
 -18647402.80349 -14499248.75647  20973206.506    20973206.5474   20973213.7164
       211.0004        211.0004
   3722267.60949   2915016.98348  22008007.082    22008006.6544   22008012.9884
       215.0004        215.0004
 21  2  1  0 13 30.0000000  0  9G21G03G04G16G01G07G08G09G27
 -11510761.43547  -8954869.34145  22600877.736    22600878.9224   22600884.9004
       156.0004        157.0004
  13378948.91248  10435618.84646  24371620.262    24371620.8514   24371629.2994
       173.0004        174.0004
  -7035844.76149  -5454787.02747  20471332.849    20471333.3534   20471339.4294
       209.0004        208.0004
  19537597.50746  15154102.06745  24500231.732    24500231.9544   24500235.3294
       124.0004        133.0004
  -4847957.57747  -3760796.50945  23908581.144    23908581.6204   23908591.4704
       145.0004        148.0004
  -7296045.42047  -5675309.98546  23650582.223    23650583.5564   23650587.6564
       161.0004        164.0004
 -12105907.83849  -9412648.67647  20206354.237    20206354.6944   20206362.3264
       212.0004        212.0004
 -18680900.16849 -14525350.59247  20966831.512    20966832.1124   20966839.1934
       211.0004        211.0004
   3805605.44949   2979955.56748  22023864.959    22023864.8914   22023872.2714
       215.0004        215.0004
 21  2  1  0 14  0.0000000  0  9G21G03G04G16G01G07G08G09G27
 -11559384.09147  -8992757.08245  22591627.332    22591627.3534   22591631.6214
       154.0004        157.0004
  13433505.47848  10478130.40746  24382002.005    24382002.6954   24382012.7694
       173.0004        174.0004
  -6997082.43549  -5424582.61947  20478709.037    20478709.3984   20478715.8534
       209.0004        208.0004
  19614510.96146  15214034.65545  24514872.220    24514872.3264   24514873.6314
       127.0004        135.0004
  -4919516.92247  -3816556.92545  23894964.000    23894963.9884   23894973.0614
       141.0004        145.0004
  -7366428.74947  -5730154.11746  23637190.097    23637190.4824   23637194.4234
       163.0004        166.0004
 -12085536.57749  -9396774.95047  20210231.305    20210231.2284   20210238.7474
       212.0004        212.0004
 -18713853.13949 -14551028.22947  20960560.534    20960561.1484   20960568.2104
       211.0004        211.0004
   3889329.13549   3045194.79548  22039796.676    22039796.8564   22039804.4834
       215.0004        215.0004
 21  2  1  0 14 30.0000000  0  9G21G03G04G16G01G07G08G09G27
 -11607870.61047  -9030538.75345  22582401.573    22582400.2734   22582407.5374
       155.0004        158.0004
  13487852.02948  10520478.30046  24392341.603    24392343.4504   24392355.9824
       175.0004        176.0004
  -6957785.32149  -5393961.48947  20486187.491    20486187.4474   20486194.2774
       209.0004        208.0004
  19691265.08146  15273843.09644  24529477.427    24529478.0594   24529478.9234
       125.0004        131.0004
  -4991250.23347  -3872452.93145  23881313.940    23881313.2794   23881322.5384
       141.0004        145.0004
  -7436934.33947  -5785093.49346  23623774.457    23623773.4654   23623778.4994
       163.0004        164.0004
 -12064576.62849  -9380442.49347  20214219.617    20214219.5974   20214227.2464
       212.0004        212.0004
 -18746262.19049 -14576282.02847  20954393.503    20954393.9514   20954401.3114
       211.0004        211.0004
   3973434.10649   3110731.14248  22055800.832    22055801.7644   22055809.1484
       214.0004        214.0004
 21  2  1  0 15  0.0000000  0  9G21G03G04G16G01G07G08G09G27
 -11656218.07047  -9068212.04945  22573200.801    22573199.6884   22573205.6554
       156.0004        160.0004
  13541987.54648  10562661.74946  24402645.554    24402646.2514   24402657.2874
       175.0004        176.0004
  -6917953.96249  -5362924.07347  20493767.247    20493767.5764   20493773.6144
       209.0004        208.0004
  19767859.77346  15333527.26945  24544049.958    24544050.4714   24544058.7614
       127.0004        135.0004
  -5063154.33247  -3928481.97745  23867630.799    23867632.2064   23867640.3964
       142.0004        146.0004
  -7507560.50547  -5840126.83846  23610333.883    23610333.8484   23610338.4224
       163.0004        165.0004
 -12043028.13449  -9363651.44647  20218319.484    20218320.1114   20218327.5704
       211.0004        212.0004
 -18778125.39649 -14601110.50147  20948330.619    20948330.8954   20948337.5104
       211.0004        212.0004
   4057918.28949   3176562.97748  22071878.404    22071878.5814   22071885.6164
       214.0004        213.0004
 21  2  1  0 15 30.0000000  0  9G21G03G04G16G01G07G08G09G27
 -11704423.39447  -9105774.58845  22564026.548    22564027.0054   22564032.5784
       157.0004        160.0004
  13595910.08548  10604679.21546  24412906.266    24412907.9204   24412916.7224
       172.0004        171.0004
  -6877590.03349  -5331471.67147  20501447.989    20501448.6144   20501454.7404
       208.0004        207.0004
  19844294.15346  15393086.51545  24558600.036    24558597.3034   24558602.0934
       128.0004        136.0004
  -5135227.22447  -3984642.61445  23853915.223    23853916.3944   23853925.6994
       142.0004        145.0004
  -7578306.10947  -5895253.26546  23596872.001    23596871.7714   23596875.8214
       164.0004        166.0004
 -12020893.20049  -9346403.44047  20222532.110    20222532.3204   20222539.8794
       211.0004        212.0004
 -18809441.89649 -14625512.97547  20942371.030    20942371.4844   20942378.4734
       211.0004        212.0004
   4142778.52949   3242687.83247  22088025.404    22088026.5714   22088033.9424
       213.0004        212.0004
 21  2  1  0 16  0.0000000  0  9G21G03G04G16G01G07G08G09G27
 -11752483.99647  -9143224.36645  22554883.531    22554882.1614   22554886.8674
       158.0004        161.0004
  13649617.59648  10646529.12046  24423127.614    24423127.7264   24423137.5984
       170.0004        170.0004
  -6836695.14749  -5299605.51647  20509229.683    20509230.1954   20509236.6414
       208.0004        207.0004
  19920567.37546  15452520.20345  24573109.230    24573110.0364   24573117.1874
       127.0004        135.0004
  -5207466.85547  -4040933.13445  23840166.887    23840166.9754   23840180.3894
       139.0004        144.0004
  -7649169.88847  -5950471.76546  23583386.145    23583386.1334   23583391.3434
       164.0004        165.0004
 -11998172.28949  -9328698.81547  20226855.387    20226855.9304   20226863.4114
       211.0004        212.0004
 -18840210.81549 -14649488.74547  20936516.217    20936516.5344   20936523.2554
       211.0004        211.0004
   4228011.80149   3309103.37147  22104245.403    22104246.0274   22104253.3704
       212.0004        212.0004
 21  2  1  0 16 30.0000000  0  9G21G03G04G16G01G07G08G09G27
 -11800396.56147  -9180558.79145  22545765.503    22545764.4524   22545769.8204
       159.0004        161.0004
  13703109.35348  10688210.98246  24433306.270    24433306.9224   24433316.0754
       169.0004        171.0004
  -6795269.84349  -5267326.05147  20517112.790    20517113.2764   20517119.6494
       208.0004        206.0004
  19996679.72546  15511828.53545  24587595.061    24587593.7334   24587600.1094
       128.0004        135.0004
  -5279869.81447  -4097350.93045  23826388.490    23826390.5404   23826401.8234
       138.0004        143.0004
  -7720150.03847  -6005780.89846  23569878.684    23569878.8434   23569884.2004
       163.0004        165.0004
 -11974865.74849  -9310537.85147  20231290.756    20231290.8554   20231298.5114
       211.0004        212.0004
 -18870430.14849 -14673036.26247  20930765.550    20930765.8124   20930772.4944
       210.0004        210.0004
   4313616.13049   3375808.05547  22120534.821    22120535.4584   22120544.0494
       212.0004        212.0004
 21  2  1  0 17  0.0000000  0  9G21G03G04G16G01G07G08G09G27
 -11848157.90647  -9217775.41245  22536674.990    22536675.0114   22536680.7514
       159.0004        160.0004
  13756383.81748  10729723.51446  24443444.398    24443445.7754   24443453.9874
       172.0004        175.0004
  -6753315.37949  -5234634.27747  20525096.582    20525096.8774   20525103.2164
       208.0004        206.0004
  20072630.56246  15571011.01945  24602045.111    24602046.0764   24602052.4484
       128.0004        135.0004
  -5352433.66747  -4153894.10745  23812580.197    23812582.0134   23812592.7044
       140.0004        145.0004
  -7791245.41048  -6061179.86046  23556348.889    23556350.0064   23556354.9834
       165.0004        168.0004
 -11950974.53449  -9291921.31847  20235836.839    20235837.0364   20235845.2364
       211.0004        212.0004
 -18900098.59649 -14696154.53047  20925119.690    20925119.9044   20925126.6924
       210.0004        210.0004
   4399588.80049   3442799.73747  22136895.393    22136896.1344   22136903.9464
       212.0004        212.0004
 21  2  1  0 17 30.0000000  0  9G21G03G04G16G01G07G08G09G27
 -11895766.16447  -9254872.71945  22527615.412    22527615.5544   22527621.1794
       159.0004        161.0004
  13809438.73848  10771064.95946  24453540.653    24453541.4504   24453550.6024
       173.0004        174.0004
  -6710833.87049  -5201531.80747  20533180.696    20533180.7354   20533187.2954
       208.0004        206.0004
  20148418.88946  15630066.84345  24616469.231    24616470.4774   24616474.3124
       126.0004        134.0004
  -5425156.65347  -4210561.29545  23798744.059    23798744.7364   23798753.2314
       142.0004        147.0004
  -7862455.38648  -6116668.12546  23542798.996    23542799.5564   23542803.6134
       167.0004        169.0004
 -11926500.79749  -9272850.87247  20240494.207    20240494.2984   20240502.4094
       211.0004        212.0004
 -18929215.78849 -14718843.25247  20919578.713    20919579.1254   20919586.0314
       210.0004        210.0004
   4485926.33549   3510075.73247  22153325.673    22153325.8504   22153333.3304
       211.0004        211.0004
 21  2  1  0 18  0.0000000  0  9G21G03G04G16G01G07G08G09G27
 -11943218.34347  -9291848.42346  22518586.286    22518586.5984   22518591.4924
       160.0004        163.0004
  13862271.28048  10812233.13046  24463595.103    24463594.9034   24463604.2814
       172.0004        172.0004
  -6667827.85749  -5168020.61847  20541364.640    20541365.0464   20541370.8514
       207.0004        206.0004
  20224042.66446  15688994.42245  24630859.916    24630860.2144   24630862.9204
       126.0004        134.0004
  -5498037.52547  -4267351.47745  23784874.902    23784875.0214   23784884.6024
       143.0004        148.0004
  -7933779.56148  -6172245.37446  23529225.411    23529226.6744   23529231.0334
       167.0004        168.0004
 -11901447.00449  -9253328.41447  20245261.525    20245261.8324   20245269.7214
       211.0004        211.0004
 -18957781.83449 -14741102.49047  20914142.296    20914142.5604   20914149.9634
       210.0004        210.0004
   4572624.73549   3577632.94647  22169823.707    22169823.8044   22169831.1704
       212.0004        212.0004
 21  2  1  0 18 30.0000000  0  9G21G03G04G16G01G07G08G09G27
 -11990511.74547  -9328700.38146  22509587.387    22509586.6304   22509591.7094
       161.0004        163.0004
  13914881.08248  10853227.69946  24473605.056    24473605.5804   24473616.6364
       170.0004        171.0004
  -6624297.65649  -5134100.97947  20549648.197    20549648.5074   20549654.3274
       207.0004        206.0004
  20299502.75946  15747794.51544  24645219.115    24645218.8104   24645222.8264
       124.0004        131.0004
  -5571072.57447  -4324261.82645  23770974.443    23770976.0304   23770986.8294
       144.0004        147.0004
  -8005215.34648  -6227909.58646  23515631.209    23515631.9104   23515637.1574
       166.0004        167.0004
 -11875812.78049  -9233353.68547  20250139.587    20250139.5464   20250147.4454
       210.0004        211.0004
 -18985794.42949 -14762930.48747  20908811.730    20908812.6114   20908819.4054
       210.0004        211.0004
   4659682.37149   3645470.06447  22186389.160    22186389.9594   22186397.7194
       211.0004        212.0004
 21  2  1  0 19  0.0000000  0  9G21G03G04G16G01G07G08G09G27
 -12037644.04947  -9365426.85146  22500617.710    22500617.7934   22500622.4604
       162.0004        164.0004
  13967265.84548  10894046.91546  24483573.344    24483573.8334   24483584.9004
       169.0004        169.0004
  -6580245.42149  -5099774.57347  20558030.485    20558030.8984   20558037.4254
       207.0004        206.0004
  20374798.40046  15806466.50545  24659550.119    24659548.3524   24659555.0774
       126.0004        135.0004
  -5644259.98247  -4381290.89845  23757048.040    23757049.8924   23757059.0744
       143.0004        147.0004
  -8076762.21648  -6283660.35546  23502017.786    23502018.4034   23502023.0434
       167.0004        170.0004
 -11849600.19749  -9212928.29047  20255127.568    20255128.1154   20255135.3324
       210.0004        211.0004
 -19013253.24549 -14784326.97747  20903587.257    20903587.4824   20903593.8914
       211.0004        211.0004
   4747095.76049   3713584.38047  22203023.712    22203024.6024   22203031.6734
       211.0004        211.0004
 21  2  1  0 19 30.0000000  0  9G21G03G04G16G01G07G08G09G27
 -12084612.67047  -9402025.74046  22491680.345    22491679.6934   22491685.4434
       163.0004        165.0004
  14019423.57148  10934689.23946  24493500.296    24493500.8354   24493509.6454
       169.0004        170.0004
  -6535673.08549  -5065042.87847  20566512.184    20566512.6854   20566519.3444
       207.0004        205.0004
  20449928.27346  15865009.27345  24673843.950    24673844.1994   24673849.7174
       128.0004        136.0004
  -5717597.78447  -4438437.14545  23743093.303    23743093.4304   23743104.1644
       145.0004        149.0004
  -8148419.13548  -6339496.85846  23488382.483    23488383.3094   23488387.5484
       169.0004        171.0004
 -11822810.95049  -9192053.53347  20260226.004    20260226.0564   20260233.2804
       210.0004        211.0004
 -19040157.71149 -14805291.48247  20898467.032    20898467.5284   20898474.5064
       211.0004        211.0004
   4834861.51849   3781973.29947  22219726.381    22219726.4864   22219732.8364
       211.0004        211.0004
 21  2  1  0 20  0.0000000  0  9G21G03G04G16G01G07G08G09G27
 -12131415.13147  -9438495.14146  22482772.261    22482772.8214   22482777.6604
       163.0004        164.0004
  14071352.34548  10975153.14846  24503380.170    24503381.0324   24503391.0044
       169.0004        171.0004
  -6490582.54449  -5029907.38947  20575092.827    20575093.5054   20575099.4304
       207.0004        205.0004
  20524891.52346  15923422.16345  24688111.427    24688110.5724   24688116.6744
       132.0004        140.0004
  -5791083.85947  -4495698.93745  23729107.998    23729108.9044   23729119.4644
       145.0004        149.0004
  -8220185.42248  -6395418.60646  23474724.865    23474725.0794   23474729.9704
       169.0004        169.0004
 -11795446.38249  -9170730.47247  20265432.758    20265433.2164   20265440.7534
       210.0004        211.0004
 -19066507.26149 -14825823.58247  20893452.943    20893453.0484   20893460.2934
       211.0004        211.0004
   4922976.52549   3850634.35347  22236493.764    22236493.9134   22236500.3384
       211.0004        211.0004
 21  2  1  0 20 30.0000000  0  9G21G03G04G16G01G07G08G09G27
 -12178047.44547  -9474831.98646  22473897.969    22473898.6844   22473904.7784
       163.0004        164.0004
  14123051.46648  11015438.12846  24513218.836    24513219.7334   24513229.6844
       170.0004        172.0004
  -6444974.40549  -4994368.59247  20583772.157    20583772.5334   20583778.5634
       206.0004        205.0004
  20599688.60546  15981705.66245  24702343.038    24702342.9104   24702348.4874
       133.0004        139.0004
  -5864714.73047  -4553073.53145  23715097.336    23715098.6664   23715108.4704
       147.0004        151.0004
  -8292058.51248  -6451423.58346  23461047.045    23461048.5504   23461052.9144
       168.0004        170.0004
 -11767506.88049  -9148959.41947  20270749.524    20270749.9154   20270757.6444
       210.0004        211.0004
 -19092299.94549 -14845921.78447  20888544.931    20888545.3184   20888551.9394
       210.0004        211.0004
   5011438.81349   3919566.02147  22253327.466    22253327.1294   22253334.7254
       211.0004        211.0004
 21  2  1  0 21  0.0000000  0  8G21G03G04G01G07G08G09G27
 -12224505.58847  -9511033.12446  22465058.130    22465057.7954   22465065.6684
       163.0004        165.0004
  14174520.39248  11055543.74946  24523013.177    24523013.7594   24523024.7964
       169.0004        170.0004
  -6398849.34249  -4958426.98147  20592548.709    20592549.2844   20592555.9564
       206.0004        204.0004
  -5938486.99947  -4610558.33145  23701057.186    23701059.9504   23701069.6304
       148.0004        150.0004
  -8364036.15648  -6507510.02746  23447350.930    23447351.6594   23447357.0084
       169.0004        170.0004
 -11738993.21149  -9126740.95147  20276175.679    20276175.9434   20276183.4324
       210.0004        211.0004
 -19117533.97349 -14865584.65047  20883743.275    20883743.6244   20883750.1844
       210.0004        211.0004
   5100246.48049   3988766.81047  22270226.235    22270226.8074   22270234.3924
       211.0004        210.0004
 21  2  1  0 21 30.0000000  0  8G21G03G04G01G07G08G09G27
 -12270788.24947  -9547097.53546  22456250.834    22456251.3544   22456257.1894
       163.0004        164.0004
  14225756.47448  11095467.87446  24532763.176    24532764.2114   24532774.0804
       169.0004        169.0004
  -6352210.06649  -4922084.69547  20601424.101    20601424.5324   20601431.3424
       205.0004        204.0004
  -6012399.29847  -4668152.24745  23686995.738    23686994.2634   23687003.8504
       148.0004        152.0004
  -8436118.10548  -6563677.74246  23433632.574    23433633.7714   23433639.9554
       168.0004        169.0004
 -11709907.83149  -9104077.01147  20281710.135    20281710.5974   20281718.2234
       210.0004        211.0004
 -19142209.57449 -14884812.39647  20879047.528    20879047.8534   20879054.5904
       211.0004        211.0004
   5189395.46649   4058233.55147  22287190.319    22287191.6654   22287198.6684
       211.0004        211.0004
 21  2  1  0 22  0.0000000  0  8G21G03G04G01G07G08G09G27
 -12316893.83047  -9583023.91346  22447477.840    22447478.5454   22447483.1874
       163.0004        165.0004
  14276757.06848  11135208.54346  24542469.782    24542469.5864   24542478.7744
       167.0004        168.0004
  -6305059.19949  -4885343.75447  20610397.045    20610397.7384   20610403.3924
       205.0004        204.0004
  -6086450.03447  -4725854.03045  23672902.239    23672902.8084   23672912.4404
       148.0004        151.0004
  -8508304.39948  -6619926.75346  23419898.089    23419897.7924   23419903.3464
       169.0004        173.0004
 -11680253.10949  -9080969.40447  20287353.534    20287353.8994   20287361.1944
       210.0004        211.0004
 -19166326.86149 -14903605.07447  20874458.015    20874458.0374   20874464.9234
       211.0004        211.0004
   5278881.92649   4127963.28947  22304220.314    22304220.1894   22304227.2494
       211.0004        211.0004
 21  2  1  0 22 30.0000000  0  8G21G03G04G01G07G08G09G27
 -12362819.54247  -9618810.16546  22438738.638    22438738.0204   22438743.3734
       164.0004        165.0004
  14327520.09648  11174764.07146  24552128.711    24552129.1834   24552139.6984
       169.0004        171.0004
  -6257399.08949  -4848206.01547  20619466.049    20619466.5184   20619472.2634
       205.0004        203.0004
  -6160637.36247  -4783662.26645  23658783.845    23658785.4454   23658794.8994
       149.0004        152.0004
  -8580593.98548  -6676256.31346  23406142.071    23406142.7284   23406147.4814
       173.0004        176.0004
 -11650031.08049  -9057419.76647  20293104.610    20293104.9534   20293112.2094
       211.0004        211.0004
 -19189885.69449 -14921962.61747  20869974.853    20869975.4044   20869981.6334
       211.0004        211.0004
   5368702.26149   4197953.15147  22321312.163    22321312.4764   22321319.7404
       211.0004        211.0004
 21  2  1  0 23  0.0000000  0  8G21G03G04G01G07G08G09G27
 -12408562.31047  -9654453.84946  22430033.814    22430033.3004   22430039.9334
       164.0004        166.0004
  14378044.83048  11214133.90546  24561743.009    24561743.3584   24561754.2554
       168.0004        169.0004
  -6209230.58249  -4810672.11647  20628632.780    20628633.1174   20628638.8104
       204.0004        203.0004
  -6234957.98447  -4841574.37845  23644644.103    23644644.1574   23644652.4424
       150.0004        154.0004
  -8652984.22648  -6732664.25846  23392365.197    23392365.9144   23392371.3644
       173.0004        173.0004
 -11619242.41949  -9033428.59247  20298963.448    20298963.8134   20298971.2364
       211.0004        211.0004
 -19212884.45249 -14939883.71747  20865598.229    20865598.7604   20865605.6544
       211.0004        212.0004
   5458854.40949   4268201.58947  22338466.244    22338467.7194   22338475.2174
       211.0004        211.0004
 21  2  1  0 23 30.0000000  0  8G21G03G04G01G07G08G09G27
 -12454118.97847  -9689952.52546  22421364.937    22421364.7584   22421369.7724
       164.0004        165.0004
  14428330.11048  11253317.15746  24571310.612    24571311.3464   24571321.6774
       165.0004        165.0004
  -6160555.06249  -4772743.14147  20637895.130    20637895.3654   20637901.4674
       204.0004        204.0004
  -6309409.00347  -4899588.08445  23630475.806    23630476.0824   23630484.6394
       150.0004        153.0004
  -8725474.01248  -6789149.79346  23378572.983    23378572.9564   23378576.6524
       173.0004        174.0004
 -11587888.11249  -9008996.65447  20304929.828    20304930.1794   20304938.0424
       211.0004        211.0004
 -19235322.03049 -14957367.54347  20861328.624    20861329.1024   20861335.9094
       211.0004        212.0004
   5549335.81949   4338706.58047  22355685.602    22355686.0054   22355692.7124
       210.0004        209.0004
 21  2  1  0 24  0.0000000  0  8G21G03G04G01G07G08G09G27
 -12499487.58947  -9725304.66746  22412730.623    22412730.9054   22412735.7154
       164.0004        165.0004
  14478373.12448  11292311.66146  24580835.611    24580835.5034   24580844.9754
       165.0004        167.0004
  -6111375.53549  -4734421.42547  20647253.633    20647254.1084   20647260.0884
       205.0004        204.0004
  -6383989.10047  -4957702.34845  23616283.986    23616283.6534   23616291.6394
       151.0004        154.0004
  -8798063.04048  -6845712.66046  23364759.370    23364759.6334   23364763.2464
       172.0004        171.0004
 -11555971.01149  -8984126.17747  20311003.972    20311003.9874   20311011.5144
       211.0004        211.0004
 -19257198.97549 -14974414.49547  20857165.530    20857165.8514   20857172.5814
       211.0004        212.0004
   5640142.25649   4409464.86447  22372965.056    22372965.7794   22372971.9244
       209.0004        208.0004
 21  2  1  0 24 30.0000000  0  8G21G03G04G01G07G08G09G27
 -12544664.28447  -9760507.26946  22404135.331    22404134.6304   22404140.0584
       164.0004        166.0004
  14528173.65848  11331117.20346  24590311.942    24590312.7974   24590321.7224
       168.0004        171.0004
  -6061692.52649  -4695707.39047  20656708.312    20656708.7194   20656714.9864
       205.0004        203.0004
  -6458694.57747  -5015914.31245  23602067.749    23602067.3894   23602076.3114
       152.0004        155.0004
  -8870748.37848  -6902350.53846  23350926.463    23350927.8264   23350931.3574
       169.0004        169.0004
 -11523491.51349  -8958817.46647  20317184.061    20317184.4264   20317192.0254
       211.0004        211.0004
 -19278513.32749 -14991023.07347  20853109.461    20853109.7704   20853117.0104
       211.0004        212.0004
   5731272.00649   4480475.07647  22390306.219    22390307.1524   22390313.8984
       209.0004        208.0004
 21  2  1  0 25  0.0000000  0  8G21G03G04G01G07G08G09G27
 -12589646.78947  -9795558.56446  22395575.432    22395575.2654   22395580.3584
       164.0004        166.0004
  14577729.75748  11369732.26746  24599743.194    24599743.1514   24599752.4814
       170.0004        172.0004
  -6011508.19949  -4656602.73247  20666257.608    20666257.9834   20666264.3174
       204.0004        203.0004
  -6533523.14647  -5074222.22845  23587829.985    23587829.8054   23587836.8834
       154.0004        157.0004
  -8943529.38448  -6959063.01446  23337076.664    23337077.8534   23337081.6544
       170.0004        171.0004
 -11490451.48549  -8933071.98947  20323471.815    20323472.0904   20323479.3424
       211.0004        211.0004
 -19299264.79949 -15007193.06347  20849160.537    20849160.9734   20849167.6684
       211.0004        212.0004
   5822721.81949   4551734.67447  22407708.448    22407709.2114   22407716.5264
       208.0004        207.0004
 21  2  1  0 25 30.0000000  0  8G21G03G04G01G07G08G09G27
 -12634432.32548  -9830456.36946  22387052.869    22387052.3324   22387057.5594
       165.0004        166.0004
  14627039.86148  11408155.67746  24609124.990    24609125.7334   24609135.8184
       169.0004        170.0004
  -5960824.50949  -4617108.94047  20675903.037    20675903.0554   20675908.9354
       204.0004        202.0004
  -6608472.48747  -5132624.21845  23573564.044    23573565.7194   23573573.7914
       153.0004        156.0004
  -9016404.65448  -7015848.92546  23323209.400    23323209.7474   23323214.4234
       171.0004        172.0004
 -11456852.24249  -8906890.74647  20329865.692    20329866.1984   20329872.4734
       211.0004        211.0004
 -19319452.84449 -15022923.99047  20845318.568    20845319.1244   20845326.1034
       211.0004        212.0004
   5914488.60749   4623241.26547  22425170.568    22425172.0934   22425179.0184
       208.0004        208.0004
 21  2  1  0 26  0.0000000  0  8G21G03G04G01G07G08G09G27
 -12679017.06548  -9865197.69246  22378568.645    22378568.7504   22378573.5204
       165.0004        166.0004
  14676103.72848  11446387.19546  24618461.984    24618462.6504   24618472.4964
       170.0004        171.0004
  -5909642.07949  -4577226.51947  20685642.284    20685642.5794   20685649.1174
       203.0004        202.0004
  -6683538.73547  -5191117.32345  23559280.916    23559281.3154   23559289.2764
       153.0004        155.0004
  -9089371.63248  -7072706.26146  23309323.576    23309324.3064   23309328.7724
       171.0004        173.0004
 -11422694.86249  -8880274.58447  20336365.891    20336366.3794   20336372.9284
       211.0004        211.0004
 -19339075.68849 -15038214.50047  20841584.453    20841584.9274   20841592.4944
       211.0004        212.0004
   6006570.52649   4694993.42047  22442694.663    22442694.6364   22442701.1904
       208.0004        207.0004
 21  2  1  0 26 30.0000000  0  8G21G03G04G01G07G08G09G27
 -12723399.20548  -9899781.15846  22370122.603    22370122.1404   22370129.0484
       165.0004        165.0004
  14724918.51248  11484424.60846  24627750.465    24627751.2714   24627762.4974
       170.0004        171.0004
  -5857964.10249  -4536957.99047  20695476.473    20695476.5744   20695482.7464
       203.0004        201.0004
  -6758720.66747  -5249700.56345  23544973.590    23544973.7654   23544982.9724
       152.0004        154.0004
  -9162429.91448  -7129634.77646  23295421.520    23295422.4414   23295425.9494
       171.0004        171.0004
 -11387982.17549  -8853225.74747  20342971.145    20342971.3884   20342978.1854
       210.0004        211.0004
 -19358134.07349 -15053065.20247  20837958.180    20837958.4804   20837965.4274
       211.0004        212.0004
   6098963.35849   4766987.83247  22460276.507    22460276.5664   22460283.1814
       208.0004        207.0004
 21  2  1  0 27  0.0000000  0  8G21G03G04G01G07G08G09G27
 -12767576.17247  -9934204.73946  22361714.866    22361715.0814   22361720.7114
       164.0004        166.0004
  14773482.42448  11522266.55346  24636991.441    24636992.6144   24637002.9434
       169.0004        168.0004
  -5805792.77149  -4496304.99047  20705403.571    20705404.2564   20705410.5634
       202.0004        201.0004
  -6834015.98547  -5308372.18245  23530645.097    23530646.4344   23530654.7884
       152.0004        155.0004
  -9235578.02848  -7186633.28146  23281502.192    23281502.6644   23281506.5624
       169.0004        171.0004
 -11352715.70049  -8825745.35147  20349681.764    20349681.6074   20349689.8274
       210.0004        210.0004
 -19376627.72149 -15067475.83047  20834438.796    20834439.2264   20834446.3504
       212.0004        212.0004
   6191663.85149   4839221.99747  22477917.446    22477917.1384   22477923.5304
       207.0004        207.0004
 21  2  1  0 27 30.0000000  0  8G21G03G04G01G07G08G09G27
 -12811546.07247  -9968467.00146  22353349.356    22353348.5084   22353353.0544
       164.0004        167.0004
  14821793.86948  11559911.77046  24646185.225    24646186.2524   24646196.5614
       168.0004        170.0004
  -5753130.21949  -4455269.24047  20715425.310    20715425.7204   20715432.3764
       202.0004        201.0004
  -6909422.35147  -5367130.30245  23516295.195    23516296.0414   23516306.0424
       153.0004        156.0004
  -9308815.21248  -7243701.19046  23267565.799    23267566.0144   23267570.9964
       171.0004        173.0004
 -11316897.82049  -8797835.30847  20356496.904    20356497.5324   20356505.6324
       210.0004        211.0004
 -19394556.37649 -15081446.21048  20831026.821    20831027.5304   20831034.5724
       212.0004        213.0004
   6284668.78249   4911693.37647  22495615.178    22495615.3024   22495622.7784
       207.0004        208.0004
 21  2  1  0 28  0.0000000  0  8G21G03G04G01G07G08G09G27
 -12855305.44348 -10002565.19146  22345021.970    22345021.9974   22345026.1754
       165.0004        165.0004
  14869851.40748  11597359.11346  24655332.231    24655332.7584   24655342.8254
       170.0004        172.0004
  -5699978.28449  -4413852.15347  20725540.331    20725540.4844   20725546.5744
       203.0004        201.0004
  -6984937.03147  -5425972.84245  23501925.505    23501926.3594   23501936.5664
       154.0004        156.0004
  -9382139.84248  -7300837.22446  23253612.329    23253613.0204   23253616.7254
       172.0004        173.0004
 -11280530.06449  -8769496.78647  20363417.655    20363418.0904   20363426.3864
       210.0004        210.0004
 -19411919.41249 -15094975.84347  20827723.111    20827723.4044   20827730.3814
       212.0004        212.0004
   6377975.21349   4984399.69347  22513370.701    22513371.1504   22513377.8674
       207.0004        207.0004
 21  2  1  0 28 30.0000000  0  8G21G03G04G01G07G08G09G27
 -12898851.72547 -10036497.32546  22336734.643    22336734.2954   22336739.5054
       164.0004        165.0004
  14917654.02548  11634607.83746  24664428.056    24664428.6714   24664439.0454
       169.0004        170.0004
  -5646338.58849  -4372054.98547  20735746.707    20735747.3164   20735753.9144
       203.0004        201.0004
  -7060557.05747  -5484897.48645  23487535.263    23487536.6874   23487545.0294
       154.0004        157.0004
  -9455550.25948  -7358040.12446  23239642.178    23239643.0844   23239647.6384
       169.0004        168.0004
 -11243613.80649  -8740730.85747  20370443.301    20370443.6184   20370450.8584
       210.0004        210.0004
 -19428716.00749 -15108064.09448  20824527.170    20824527.1994   20824534.3004
       212.0004        213.0004
   6471580.60449   5057338.96547  22531182.163    22531183.2844   22531190.3394
       207.0004        206.0004
 21  2  1  0 29  0.0000000  0  8G21G03G04G01G07G08G09G27
 -12942181.28248 -10070260.60546  22328489.566    22328489.2884   22328494.2304
       165.0004        167.0004
  14965200.88748  11671657.25346  24673476.192    24673476.8744   24673486.4424
       169.0004        170.0004
  -5592212.49849  -4329878.81547  20746046.953    20746047.6144   20746053.5364
       202.0004        201.0004
  -7136279.27947  -5543901.76245  23473125.263    23473125.7684   23473134.7914
       153.0004        154.0004
  -9529044.05848  -7415307.99946  23225658.491    23225658.7224   23225661.9174
       170.0004        171.0004
 -11206150.26049  -8711538.47347  20377572.158    20377572.3934   20377579.9824
       210.0004        210.0004
 -19444945.16849 -15120710.18348  20821438.449    20821438.8754   20821445.8354
       212.0004        213.0004
   6565482.47849   5130509.25447  22549051.903    22549051.8644   22549058.9114
       205.0004        205.0004
 21  2  1  0 29 30.0000000  0  8G21G03G04G01G07G08G09G27
 -12985292.33848 -10103853.60546  22320286.629    22320285.9284   22320291.4674
       166.0004        167.0004
  15012489.66048  11708505.59046  24682474.700    24682474.7304   24682484.7384
       168.0004        169.0004
  -5537602.95649  -4287325.91747  20756439.418    20756439.7934   20756445.6494
       203.0004        201.0004
  -7212101.91347  -5602984.25045  23458696.486    23458697.1784   23458707.4284
       153.0004        156.0004
  -9602620.80948  -7472640.49446  23211656.004    23211656.3274   23211660.6054
       171.0004        171.0004
 -11168141.91349  -8681921.55547  20384804.769    20384805.1784   20384812.8344
       210.0004        210.0004
 -19460607.39049 -15132914.49747  20818457.282    20818458.0094   20818465.0444
       212.0004        211.0004
   6659676.94949   5203907.55247  22566976.215    22566976.8314   22566983.7454
       204.0004        204.0004
 21  2  1  0 30  0.0000000  0  8G21G03G04G01G07G08G09G27
 -13028181.70548 -10137273.87846  22312124.333    22312123.5624   22312129.8544
       166.0004        167.0004
  15059519.47048  11745152.12946  24691423.037    24691424.1844   24691434.5194
       168.0004        169.0004
  -5482511.35049  -4244397.40847  20766922.243    20766923.0784   20766928.9914
       203.0004        201.0004
  -7288021.73047  -5662142.50545  23444249.352    23444250.2594   23444260.1684
       155.0004        157.0004
  -9676278.39948  -7530035.98746  23197637.872    23197638.7734   23197643.7794
       169.0004        170.0004
 -11129590.29749  -8651881.34047  20392141.642    20392141.3914   20392148.7454
       210.0004        210.0004
 -19475701.72549 -15144676.31647  20815586.104    20815586.1964   20815592.7964
       212.0004        212.0004
   6754161.59149   5277531.94447  22584955.544    22584956.5204   22584963.6414
       204.0004        204.0004
 21  2  1  0 30 30.0000000  0  8G21G03G04G01G07G08G09G27
 -13070846.04948 -10170518.77546  22304005.599    22304004.8624   22304011.4434
       165.0004        165.0004
  15106289.64348  11781596.36246  24700324.278    24700325.0034   24700336.1734
       170.0004        172.0004
  -5426939.12149  -4201094.36347  20777497.238    20777497.3844   20777504.5494
       202.0004        200.0004
  -7364035.50747  -5721373.95145  23429785.757    23429785.6834   23429795.6954
       154.0004        156.0004
  -9750014.56548  -7587492.69546  23183607.735    23183608.9324   23183613.3934
       171.0004        173.0004
 -11090496.69749  -8621418.78547  20399580.586    20399580.9714   20399587.9634
       210.0004        210.0004
 -19490227.15649 -15155994.82348  20812821.594    20812822.1554   20812828.9044
       212.0004        213.0004
   6848934.04849   5351380.62547  22602989.561    22602990.1334   22602998.6504
       203.0004        203.0004
 21  2  1  0 31  0.0000000  0  8G21G03G04G01G07G08G09G27
 -13113283.87348 -10203587.20546  22295931.057    22295930.1704   22295935.0134
       165.0004        167.0004
  15152797.30948  11817836.01946  24709174.164    24709174.6214   24709186.6294
       170.0004        171.0004
  -5370889.80949  -4157419.59047  20788163.414    20788163.8204   20788169.8334
       202.0004        200.0004
  -7440142.03447  -5780677.67845  23415302.438    23415303.7184   23415312.6944
       154.0004        157.0004
  -9823829.49348  -7645010.79046  23169560.414    23169561.0144   23169566.2534
       171.0004        172.0004
 -11050864.25449  -8590536.35447  20407122.286    20407122.2724   20407129.7064
       210.0004        210.0004
 -19504184.90149 -15166870.98348  20810165.866    20810166.1094   20810172.9074
       212.0004        213.0004
   6943989.80849   5425450.05847  22621078.187    22621079.2914   22621086.6444
       203.0004        203.0004
 21  2  1  0 31 30.0000000  0  8G21G03G04G01G07G08G09G27
 -13155492.33247 -10236476.88745  22287895.512    22287895.6194   22287902.0864
       162.0004        162.0004
  15199040.99548  11853869.99946  24717972.368    24717973.3714   24717985.5104
       168.0004        168.0004
  -5314365.46749  -4113374.64347  20798919.743    20798920.1634   20798925.8404
       201.0004        200.0004
  -7516338.72747  -5840051.67845  23400803.944    23400803.9864   23400812.4714
       154.0004        156.0004
  -9897721.39848  -7702588.87246  23155500.460    23155500.5264   23155503.9304
       170.0004        171.0004
 -11010694.97449  -8559235.59247  20414765.094    20414765.7784   20414774.0154
       209.0004        209.0004
 -19517574.61249 -15177304.50648  20807617.362    20807617.8924   20807624.7954
       212.0004        213.0004
   7039325.92349   5499737.94947  22639221.798    22639221.2864   22639228.7824
       203.0004        203.0004
 21  2  1  0 32  0.0000000  0  8G21G03G04G01G07G08G09G27
 -13197469.47947 -10269186.30545  22279907.018    22279907.7624   22279914.6844
       161.0004        162.0004
  15245018.90248  11889696.87746  24726725.764    24726725.2244   24726734.7304
       170.0004        173.0004
  -5257368.73749  -4068961.61147  20809766.168    20809766.3274   20809772.0864
       201.0004        200.0004
  -7592623.25647  -5899494.12145  23386284.897    23386286.7434   23386296.4574
       151.0004        153.0004
  -9971689.28548  -7760226.14546  23141424.247    23141425.0214   23141430.1574
       171.0004        172.0004
 -10969991.33449  -8527518.46547  20422511.981    20422512.2934   20422519.5784
       210.0004        210.0004
 -19530396.54849 -15187295.62348  20805177.460    20805178.1954   20805184.9444
       212.0004        213.0004
   7134938.80449   5574241.48847  22657415.127    22657415.1224   22657423.1344
       202.0004        202.0004
 21  2  1  0 32 30.0000000  0  8G21G03G04G01G07G08G09G27
 -13239211.89348 -10301712.83346  22271969.261    22271968.8534   22271971.4344
       165.0004        169.0004
  15290730.50948  11925316.20746  24735424.113    24735424.5294   24735433.1624
       171.0004        172.0004
  -5199900.91049  -4024181.47747  20820701.214    20820701.8334   20820708.4544
       202.0004        201.0004
  -7668992.20047  -5959002.33445  23371754.290    23371754.7654   23371763.3194
       151.0004        154.0004
 -10045731.05348  -7817920.96846  23127334.084    23127334.5894   23127340.0104
       171.0004        171.0004
 -10928754.11549  -8495385.55147  20430358.455    20430358.9584   20430367.0214
       209.0004        210.0004
 -19542649.62649 -15196843.46348  20802846.299    20802846.4594   20802853.4734
       213.0004        213.0004
   7230826.33249   5648959.05647  22675662.052    22675661.8764   22675669.6864
       202.0004        201.0004
 21  2  1  0 33  0.0000000  0  8G21G03G04G01G07G08G09G27
 -13280717.16348 -10334054.62046  22264070.004    22264070.0424   22264073.1894
       168.0004        169.0004
  15336174.17248  11960726.71946  24744069.622    24744070.0894   24744079.9224
       168.0004        167.0004
  -5141964.44349  -3979036.19347  20831726.809    20831727.0394   20831733.5394
       202.0004        201.0004
  -7745443.23147  -6018574.51945  23357206.695    23357206.7444   23357215.5624
       152.0004        155.0004
 -10119845.03048  -7875672.10946  23113231.706    23113232.2764   23113235.1974
       171.0004        174.0004
 -10886985.75549  -8462838.77247  20438307.225    20438307.3424   20438315.0094
       209.0004        210.0004
 -19554334.03649 -15205948.20248  20800621.977    20800622.6394   20800629.8504
       213.0004        213.0004
   7326985.12949   5723887.99047  22693958.523    22693960.4454   22693968.0324
       201.0004        201.0004
 21  2  1  0 33 30.0000000  0  8G21G03G04G01G07G08G09G27
 -13321982.38548 -10366209.32146  22256215.308    22256214.8794   22256220.6464
       167.0004        166.0004
  15381348.68248  11995927.55446  24752667.055    24752666.9054   24752677.0054
       165.0004        167.0004
  -5083561.35649  -3933527.28447  20842839.827    20842840.5504   20842846.9494
       202.0004        200.0004
  -7821973.41347  -6078208.36145  23342642.899    23342643.6854   23342651.8754
       152.0004        156.0004
 -10194029.65048  -7933478.27546  23099115.258    23099115.1664   23099119.3554
       173.0004        175.0004
 -10844688.40149  -8429879.77347  20446355.950    20446356.0714   20446363.6584
       209.0004        210.0004
 -19565449.38649 -15214609.50148  20798507.271    20798507.4314   20798514.3004
       212.0004        213.0004
   7423412.32549   5799026.09147  22712309.091    22712310.5834   22712317.2004
       201.0004        201.0004
 21  2  1  0 34  0.0000000  0  8G21G03G04G01G07G08G09G27
 -13363003.95647 -10398174.13046  22248406.401    22248407.0894   22248414.3274
       163.0004        164.0004
  15426253.55548  12030918.28746  24761213.156    24761212.9414   24761223.4104
       168.0004        170.0004
  -5024693.01049  -3887655.85247  20854042.199    20854042.9294   20854049.6054
       202.0004        200.0004
  -7898579.24547  -6137901.17245  23328064.611    23328063.8754   23328073.7884
       152.0004        154.0004
 -10268282.38348  -7991337.51446  23084984.220    23084984.1184   23084989.2804
       173.0004        174.0004
 -10801862.89349  -8396509.23747  20454505.381    20454505.9554   20454513.3784
       209.0004        210.0004
 -19575994.72549 -15222826.64448  20796501.115    20796501.3004   20796507.5584
       213.0004        213.0004
   7520105.70249   5874371.59547  22730710.500    22730710.9554   22730717.3864
       202.0004        202.0004
 21  2  1  0 34 30.0000000  0  8G21G03G04G01G07G08G09G27
 -13403780.22047 -10429947.80146  22240648.532    22240648.5304   22240654.7554
       162.0004        164.0004
  15470886.53848  12065697.17146  24769704.329    24769705.3754   24769717.4394
       169.0004        170.0004
  -4965362.55549  -3841424.33147  20865332.801    20865332.9194   20865339.2324
       201.0004        199.0004
  -7975258.98147  -6197651.55845  23313473.992    23313473.1974   23313482.1104
       151.0004        153.0004
 -10342602.51148  -8049249.27446  23070841.593    23070842.3194   23070847.2314
       174.0004        176.0004
 -10758512.56649  -8362729.74147  20462754.753    20462755.0464   20462762.4994
       209.0004        209.0004
 -19585970.88349 -15230600.26048  20794602.209    20794602.4904   20794609.5134
       213.0004        213.0004
   7617061.28049   5949921.40847  22749160.456    22749160.9984   22749167.1744
       201.0004        201.0004
 21  2  1  0 35  0.0000000  0  8G21G03G04G01G07G08G09G27
 -13444308.13047 -10461527.95346  22232937.819    22232937.8784   22232942.1664
       164.0004        168.0004
  15515246.74548  12100263.48346  24778147.085    24778147.1954   24778157.5554
       169.0004        170.0004
  -4905571.77849  -3794834.10547  20876710.278    20876710.7734   20876716.9454
       201.0004        199.0004
  -8052009.41647  -6257457.03445  23298868.672    23298868.6034   23298877.3984
       152.0004        155.0004
 -10416988.03648  -8107211.96746  23056686.067    23056686.8404   23056691.6874
       175.0004        177.0004
 -10714638.59049  -8328542.21647  20471103.575    20471103.8444   20471111.5034
       209.0004        209.0004
 -19595377.34049 -15237929.95348  20792812.035    20792812.4754   20792819.5374
       213.0004        214.0004
   7714276.52649   6025673.55847  22767660.533    22767659.8694   22767666.4694
       200.0004        199.0004
 21  2  1  0 35 30.0000000  0  8G21G03G04G01G07G08G09G27
 -13484584.84548 -10492912.38146  22225274.314    22225273.3194   22225278.9944
       167.0004        170.0004
  15559333.05248  12134616.33846  24786537.416    24786537.5704   24786546.2374
       168.0004        169.0004
  -4845322.73249  -3747886.80947  20888175.596    20888176.0054   20888182.0714
       201.0004        200.0004
  -8128827.66147  -6317315.35345  23284249.323    23284250.0174   23284259.7404
       152.0004        155.0004
 -10491437.64348  -8165224.65046  23042520.153    23042520.4324   23042524.7454
       177.0004        179.0004
 -10670243.39249  -8293948.55247  20479551.561    20479552.0674   20479559.5094
       209.0004        209.0004
 -19604213.87049 -15244815.56348  20791130.551    20791130.9224   20791137.6654
       213.0004        213.0004
   7811748.50749   6101625.75747  22786209.093    22786208.4594   22786214.7324
       200.0004        199.0004
 21  2  1  0 36  0.0000000  0  7G21G04G01G07G08G09G27
 -13524603.91248 -10524096.05346  22217659.585    22217658.4114   22217662.8844
       170.0004        171.0004
  -4784613.88249  -3700581.20047  20899727.875    20899728.6434   20899734.0964
       201.0004        199.0004
  -8205707.16847  -6377221.42745  23269619.929    23269619.8264   23269628.9394
       152.0004        155.0004
 -10565945.61148  -8223282.76146  23028341.630    23028341.5484   23028345.7164
       177.0004        177.0004
 -10625324.84949  -8258947.07247  20488098.945    20488099.6554   20488107.2344
       208.0004        209.0004
 -19612476.62049 -15251254.04548  20789558.344    20789558.2834   20789565.7244
       213.0004        213.0004
   7909478.03649   6177778.64547  22804806.375    22804805.9514   22804812.4314
       200.0004        201.0004
 21  2  1  0 36 30.0000000  0  7G21G04G01G07G08G09G27
 -13564365.48548 -10555079.08846  22210091.855    22210091.0684   22210095.8294
       170.0004        170.0004
  -4723450.10749  -3652921.12147  20911367.764    20911367.7294   20911373.4054
       201.0004        199.0004
  -8282647.77047  -6437175.10345  23254978.525    23254979.2514   23254987.8424
       152.0004        155.0004
 -10640513.02648  -8281387.23346  23014152.677    23014152.0914   23014156.0274
       177.0004        178.0004
 -10579887.61249  -8223541.43547  20496745.881    20496746.2564   20496753.9784
       209.0004        209.0004
 -19620168.17349 -15257247.46948  20788094.526    20788095.0584   20788101.9064
       213.0004        213.0004
   8007459.53149   6254127.85047  22823450.077    22823451.3564   22823457.1464
       201.0004        200.0004
 21  2  1  0 37  0.0000000  0  7G21G04G01G07G08G09G27
 -13603870.71448 -10585862.34246  22202573.682    22202574.0604   22202579.4544
       169.0004        171.0004
  -4661837.26249  -3604911.10847  20923091.931    20923092.2574   20923098.1714
       201.0004        199.0004
  -8359650.29547  -6497177.00745  23240325.129    23240325.9544   23240335.2754
       154.0004        157.0004
 -10715141.46848  -8339539.21846  22999949.689    22999950.3824   22999955.6294
       178.0004        179.0004
 -10533937.64549  -8187736.24747  20505489.789    20505490.2324   20505497.8884
       209.0004        209.0004
 -19627292.16549 -15262798.62048  20786739.165    20786739.2804   20786746.1714
       213.0004        214.0004
   8105686.33049   6330668.22847  22842143.278    22842143.7924   22842149.1314
       200.0004        201.0004
 21  2  1  0 37 30.0000000  0  7G21G04G01G07G08G09G27
 -13643115.27648 -10616442.50146  22195105.540    22195105.9574   22195111.2654
       169.0004        169.0004
  -4599776.45449  -3556552.04047  20934901.550    20934902.0474   20934907.5064
       200.0004        199.0004
  -8436710.77647  -6557224.08745  23225661.318    23225662.2544   23225671.5964
       155.0004        158.0004
 -10789827.86348  -8397736.38346  22985738.250    22985738.8144   22985742.1514
       180.0004        181.0004
 -10487475.97449  -8151532.33547  20514331.287    20514331.6454   20514339.1344
       209.0004        209.0004
 -19633847.41949 -15267906.61048  20785491.151    20785491.8674   20785498.8264
       213.0004        214.0004
   8204156.64049   6407398.34247  22860882.324    22860881.8924   22860888.4684
       202.0004        202.0004
 21  2  1  0 38  0.0000000  0  7G21G04G01G07G08G09G27
 -13682097.06348 -10646817.88546  22187686.514    22187686.5534   22187693.0884
       167.0004        167.0004
  -4537270.72249  -3507846.27947  20946796.008    20946796.3754   20946802.5964
       200.0004        199.0004
  -8513827.11847  -6617314.69245  23210985.999    23210987.2704   23210996.8474
       156.0004        160.0004
 -10864571.11548  -8455977.84646  22971513.897    22971515.1394   22971518.7724
       179.0004        179.0004
 -10440505.21649  -8114931.72747  20523269.447    20523269.8674   20523276.9534
       208.0004        208.0004
 -19639834.73949 -15272572.04348  20784351.765    20784352.4754   20784359.4944
       213.0004        214.0004
   8302866.70249   6484315.28347  22879664.808    22879665.8444   22879672.2924
       202.0004        202.0004
 21  2  1  0 38 30.0000000  0  7G21G04G01G07G08G09G27
 -13720812.19248 -10676985.51046  22180318.520    22180319.8534   22180324.4294
       166.0004        166.0004
  -4474320.94149  -3458794.50447  20958774.772    20958775.3244   20958781.2754
       201.0004        199.0004
  -8590994.98147  -6677445.47245  23196303.369    23196303.6524   23196311.3614
       158.0004        160.0004
 -10939368.67548  -8514261.63346  22957280.720    22957281.7014   22957286.7404
       179.0004        181.0004
 -10393026.25949  -8077935.11847  20532304.470    20532304.6214   20532311.9674
       208.0004        208.0004
 -19645252.69449 -15276793.81148  20783321.122    20783321.4204   20783328.2444
       213.0004        213.0004
   8401815.00249   6561417.86747  22898494.309    22898494.4344   22898501.0674
       201.0004        201.0004
 21  2  1  0 39  0.0000000  0  7G21G04G01G07G08G09G27
 -13759258.12048 -10706943.34946  22173004.256    22173003.9294   22173009.3614
       166.0004        167.0004
  -4410929.60149  -3409398.64047  20970837.574    20970838.2244   20970843.9824
       200.0004        198.0004
  -8668211.85547  -6737614.42545  23181608.397    23181609.2194   23181616.5384
       157.0004        160.0004
 -11014218.91248  -8572586.45046  22943036.958    22943037.8094   22943042.2004
       180.0004        180.0004
 -10345041.04449  -8040544.02447  20541435.655    20541436.0914   20541443.3484
       208.0004        208.0004
 -19650101.62649 -15280572.19848  20782398.419    20782398.6524   20782405.5624
       213.0004        213.0004
   8500998.32349   6638703.57647  22917367.325    22917368.3754   22917375.2284
       201.0004        200.0004
 21  2  1  0 39 30.0000000  0  7G21G04G01G07G08G09G27
 -13797432.90648 -10736689.89346  22165739.103    22165738.5874   22165745.0424
       167.0004        169.0004
  -4347099.29949  -3359660.75947  20982984.809    20982985.1084   20982990.8664
       200.0004        199.0004
  -8745475.05047  -6797819.45745  23166906.390    23166906.1594   23166914.9704
       159.0004        161.0004
 -11089120.17048  -8630951.04146  22928784.546    22928785.5904   22928788.9024
       180.0004        181.0004
 -10296552.93649  -8002761.08047  20550663.535    20550663.1514   20550670.1814
       208.0004        208.0004
 -19654381.88149 -15283907.46048  20781583.567    20781584.2384   20781591.1154
       213.0004        214.0004
   8600413.46649   6716169.93547  22936285.758    22936286.3634   22936293.3384
       200.0004        199.0004
 21  2  1  0 40  0.0000000  0  7G21G04G01G07G08G09G27
 -13835333.37748 -10766222.68546  22158528.619    22158527.3744   22158533.9834
       169.0004        171.0004
  -4282832.08149  -3309582.40347  20995213.997    20995214.2814   20995220.1254
       200.0004        198.0004
  -8822781.39347  -6858058.10746  23152195.462    23152195.7404   23152204.0574
       160.0004        163.0004
 -11164070.46148  -8689353.83246  22914520.864    22914521.5994   22914526.0784
       180.0004        180.0004
 -10247562.99649  -7964587.08847  20559986.156    20559986.1704   20559993.1024
       208.0004        209.0004
 -19658093.33649 -15286799.49448  20780877.618    20780878.0814   20780885.1974
       213.0004        214.0004
   8700057.75149   6793814.84047  22955247.487    22955247.6404   22955254.4404
       199.0004        198.0004
 21  2  1  0 40 30.0000000  0  7G21G04G01G07G08G09G27
 -13872956.64548 -10795539.50346  22151369.931    22151368.3534   22151374.1184
       171.0004        172.0004
  -4218130.13349  -3259165.29847  21007526.218    21007526.7884   21007532.7524
       199.0004        198.0004
  -8900127.88947  -6918328.05246  23137476.542    23137477.2534   23137485.7444
       161.0004        163.0004
 -11239067.83248  -8747793.30946  22900249.800    22900250.3484   22900254.9244
       180.0004        181.0004
 -10198073.44149  -7926023.77547  20569403.610    20569403.9054   20569410.3634
       209.0004        209.0004
 -19661235.95949 -15289248.28548  20780279.390    20780280.0564   20780286.8074
       214.0004        214.0004
   8799928.35549   6871636.10247  22974253.227    22974252.9154   22974259.1894
       199.0004        198.0004
 21  2  1  0 41  0.0000000  0  7G21G04G01G07G08G09G27
 -13910301.26048 -10824639.18246  22144262.688    22144261.4294   22144266.7404
       171.0004        172.0004
  -4152996.80549  -3208412.05947  21019920.402    21019921.0114   21019927.2344
       199.0004        198.0004
  -8977512.60847  -6978627.78746  23122751.047    23122751.5094   23122759.3704
       162.0004        164.0004
 -11314111.59348  -8806268.94146  22885970.176    22885970.3494   22885974.5724
       181.0004        182.0004
 -10148087.75249  -7887073.87447  20578915.653    20578915.3714   20578922.4824
       209.0004        209.0004
 -19663810.92849 -15291254.76548  20779789.984    20779790.1944   20779797.0014
       214.0004        215.0004
   8900021.30649   6949630.61047  22993299.050    22993299.8834   22993306.9084
       200.0004        200.0004
 21  2  1  0 41 30.0000000  0  7G21G04G01G07G08G09G27
 -13947363.44348 -10853518.78946  22137209.599    22137210.1144   22137214.1464
       171.0004        173.0004
  -4087433.66349  -3157323.91047  21032396.799    21032397.3884   21032403.2674
       199.0004        198.0004
  -9054931.86447  -7038954.43645  23108016.569    23108018.0114   23108026.6674
       160.0004        162.0004
 -11389198.62848  -8864778.30946  22871681.417    22871681.4464   22871685.1774
       180.0004        180.0004
 -10097607.25249  -7847738.40547  20588521.121    20588521.2524   20588528.2824
       208.0004        208.0004
 -19665817.66849 -15292818.46548  20779407.905    20779408.4654   20779415.0094
       214.0004        214.0004
   9000334.47349   7027796.73447  23012387.838    23012388.6644   23012395.5894
       199.0004        198.0004
 21  2  1  0 42  0.0000000  0  7G21G04G01G07G08G09G27
 -13984141.02448 -10882176.60346  22130210.597    22130210.4994   22130215.5114
       172.0004        172.0004
  -4021443.23349  -3105902.78147  21044955.189    21044955.2454   21044960.7774
       199.0004        197.0004
  -9132382.79347  -7099305.79745  23093279.552    23093279.8834   23093287.4984
       160.0004        162.0004
 -11464327.51548  -8923320.25846  22857384.588    22857384.8324   22857388.7904
       179.0004        179.0004
 -10046634.45749  -7808019.32147  20598219.656    20598220.1674   20598227.9474
       207.0004        207.0004
 -19667256.52349 -15293939.63048  20779133.629    20779134.1544   20779141.1694
       214.0004        214.0004
   9100864.77949   7106132.04447  23031518.204    23031518.7614   23031525.7774
       197.0004        195.0004
 21  2  1  0 42 30.0000000  0  7G21G04G01G07G08G09G27
 -14020632.77048 -10910611.70346  22123266.130    22123265.2654   22123271.0614
       172.0004        173.0004
  -3955029.28249  -3054151.66047  21057592.433    21057592.5924   21057598.8604
       198.0004        196.0004
  -9209863.85747  -7159680.63246  23078535.250    23078536.0834   23078544.1424
       160.0004        163.0004
 -11539497.82848  -8981894.49246  22843080.919    22843080.3344   22843085.2094
       179.0004        180.0004
  -9995172.95149  -7767919.43047  20608013.054    20608013.2384   20608020.5734
       206.0004        206.0004
 -19668129.11649 -15294619.57248  20778967.453    20778968.0584   20778975.2324
       214.0004        214.0004
   9201607.90849   7184633.19747  23050690.543    23050690.6294   23050696.9364
       196.0004        197.0004
 21  2  1  0 43  0.0000000  0  7G21G04G01G07G08G09G27
 -14056835.00648 -10938821.23246  22116377.334    22116376.7264   22116384.1574
       171.0004        172.0004
  -3888193.26749  -3002071.65647  21070311.271    21070311.9904   21070316.8564
       198.0004        196.0004
  -9287371.10347  -7220075.85246  23063787.370    23063787.6874   23063794.7904
       162.0004        164.0004
 -11614706.84548  -9040498.91346  22828768.373    22828768.6914   22828772.9464
       180.0004        179.0004
  -9943223.85249  -7727439.61147  20617898.171    20617898.6304   20617906.8264
       206.0004        207.0004
 -19668434.78249 -15294857.75348  20778910.184    20778910.6404   20778917.4464
       214.0004        215.0004
   9302561.87149   7263298.64747  23069900.946    23069900.7654   23069908.1274
       196.0004        195.0004
 21  2  1  0 43 30.0000000  0  7G21G04G01G07G08G09G27
 -14092744.83948 -10966802.88646  22109543.283    22109542.6054   22109550.0464
       170.0004        170.0004
  -3820937.38149  -2949664.46247  21083110.320    21083110.3524   21083115.9694
       198.0004        197.0004
  -9364901.43347  -7280489.04546  23049033.034    23049033.6994   23049042.1024
       163.0004        166.0004
 -11689952.11448  -9099131.54946  22814449.501    22814449.8094   22814453.9134
       180.0004        180.0004
  -9890789.41049  -7686581.59247  20627877.194    20627877.2824   20627884.8094
       207.0004        208.0004
 -19668173.59349 -15294654.22848  20778959.451    20778959.8004   20778966.9214
       215.0004        215.0004
   9403723.98549   7342126.27947  23089150.330    23089151.0684   23089158.8314
       195.0004        195.0004
 21  2  1  0 44  0.0000000  0  7G21G04G01G07G08G09G27
 -14128358.53948 -10994553.78046  22102766.706    22102766.4704   22102771.3784
       170.0004        171.0004
  -3753262.91649  -2896931.10347  21095988.154    21095988.2144   21095994.3324
       198.0004        197.0004
  -9442450.71447  -7340917.01446  23034275.425    23034275.6704   23034285.1064
       163.0004        164.0004
 -11765230.88248  -9157790.30846  22800124.844    22800124.8524   22800128.6074
       180.0004        179.0004
  -9837870.66649  -7645346.18247  20637947.210    20637947.6374   20637955.0334
       208.0004        208.0004
 -19667344.73949 -15294008.35348  20779117.014    20779117.5194   20779124.7834
       215.0004        215.0004
   9505092.41749   7421114.66247  23108440.330    23108441.0794   23108448.1774
       195.0004        196.0004
 21  2  1  0 44 30.0000000  0  7G21G04G01G07G08G09G27
 -14163674.52348 -11022072.70646  22096046.869    22096046.4984   22096051.7994
       170.0004        172.0004
  -3685173.20949  -2843874.19547  21108944.226    21108944.7654   21108951.4614
       198.0004        197.0004
  -9520016.83447  -7401358.11046  23019515.004    23019515.1434   23019523.0034
       162.0004        163.0004
 -11840542.00348  -9216474.28646  22785792.687    22785792.5124   22785797.4314
       178.0004        179.0004
  -9784470.76949  -7603735.86547  20648108.829    20648109.0754   20648115.8174
       207.0004        207.0004
 -19665949.49549 -15292921.15348  20779382.993    20779383.2074   20779390.1734
       215.0004        215.0004
   9606663.33048   7500260.83047  23127768.016    23127769.2794   23127775.8504
       194.0004        193.0004
 21  2  1  0 45  0.0000000  0  7G21G04G01G07G08G09G27
 -14198690.07648 -11049357.53346  22089383.525    22089381.5174   22089387.8344
       170.0004        171.0004
  -3616670.73349  -2790495.64847  21121979.672    21121980.2514   21121987.0294
       197.0004        196.0004
  -9597596.81347  -7461810.00546  23004751.337    23004752.6124   23004760.1504
       162.0004        163.0004
 -11915883.22848  -9275181.69246  22771456.110    22771456.3834   22771460.9194
       178.0004        179.0004
  -9730592.35849  -7561752.68447  20658361.161    20658361.4764   20658368.6984
       206.0004        206.0004
 -19663988.24549 -15291392.90748  20779755.986    20779756.4794   20779763.2764
       215.0004        216.0004
   9708433.83948   7579562.54147  23147135.478    23147135.5554   23147142.5444
       193.0004        193.0004
 21  2  1  0 45 30.0000000  0  7G21G04G01G07G08G09G27
 -14233404.22148 -11076407.48846  22082777.381    22082777.1984   22082781.7134
       171.0004        173.0004
  -3547759.45049  -2736798.54047  21135092.634    21135093.6374   21135100.0334
       197.0004        196.0004
  -9675189.14147  -7522271.51646  22989986.515    22989987.3854   22989995.7284
       162.0004        163.0004
 -11991254.46548  -9333912.50346  22757114.028    22757113.9684   22757118.2014
       178.0004        178.0004
  -9676239.37849  -7519399.70847  20668704.349    20668704.2154   20668711.9424
       206.0004        206.0004
 -19661462.86749 -15289425.07948  20780236.707    20780236.9214   20780243.7154
       215.0004        215.0004
   9810399.47848   7659016.29647  23166538.886    23166539.2314   23166546.1834
       193.0004        193.0004
 21  2  1  0 46  0.0000000  0  7G21G04G01G07G08G09G27
 -14267813.61048 -11103219.98246  22076230.027    22076229.3554   22076234.7214
       171.0004        173.0004
  -3478440.97849  -2682784.16147  21148284.411    21148284.4274   21148291.0114
       197.0004        195.0004
  -9752789.95847  -7582739.64646  22975220.800    22975220.4834   22975229.1644
       162.0004        163.0004
 -12066653.23948  -9392664.77546  22742765.915    22742765.6194   22742770.5874
       178.0004        179.0004
  -9621412.75949  -7476677.66547  20679136.551    20679136.9214   20679145.2274
       205.0004        205.0004
 -19658372.96249 -15287017.35648  20780824.239    20780824.7284   20780831.5414
       214.0004        214.0004
   9912558.25748   7738620.55447  23185978.601    23185979.2994   23185986.5474
       192.0004        193.0004
 21  2  1  0 46 30.0000000  0  7G21G04G01G07G08G09G27
 -14301916.72048 -11129793.82746  22069739.706    22069739.6014   22069745.0564
       171.0004        173.0004
  -3408719.20849  -2628455.52347  21161552.566    21161552.6554   21161558.9044
       197.0004        196.0004
  -9830397.62147  -7643213.09246  22960451.659    22960452.1524   22960460.9574
       161.0004        163.0004
 -12142078.69448  -9451437.80446  22728411.784    22728411.9064   22728416.8764
       178.0004        177.0004
  -9566116.82949  -7433589.93247  20689658.781    20689659.7704   20689667.8304
       205.0004        206.0004
 -19654720.35949 -15284171.18648  20781519.765    20781519.9474   20781526.5254
       214.0004        214.0004
  10014905.86148   7818371.91447  23205454.764    23205455.0794   23205462.9574
       192.0004        191.0004
 21  2  1  0 47  0.0000000  0  7G21G04G01G07G08G09G27
 -14335709.89248 -11156126.12046  22063309.293    22063309.0154   22063314.7904
       172.0004        173.0004
  -3338594.95949  -2573813.24247  21174895.658    21174896.3584   21174902.4824
       196.0004        195.0004
  -9908007.44347  -7703688.22645  22945682.748    22945683.2494   22945692.0444
       160.0004        161.0004
 -12217527.04048  -9510228.70146  22714054.281    22714054.7754   22714059.2284
       178.0004        179.0004
  -9510352.16449  -7390136.92647  20700271.820    20700272.1844   20700279.1034
       206.0004        206.0004
 -19650503.89449 -15280885.61948  20782321.501    20782322.0454   20782328.9594
       214.0004        214.0004
  10117441.03748   7898269.47047  23224967.677    23224967.5004   23224974.7034
       190.0004        191.0004
 21  2  1  0 47 30.0000000  0  7G21G04G01G07G08G09G27
 -14369189.44948 -11182214.04046  22056938.533    22056938.0734   22056943.1414
       173.0004        174.0004
  -3268070.21949  -2518858.89547  21188316.777    21188317.0414   21188323.5814
       197.0004        196.0004
  -9985615.82047  -7764162.25045  22930913.235    22930914.5214   22930923.4074
       160.0004        162.0004
 -12292995.98948  -9569035.63346  22699694.333    22699694.2664   22699698.5714
       179.0004        181.0004
  -9454120.60749  -7346320.10047  20710972.470    20710972.6724   20710979.8474
       206.0004        206.0004
 -19645723.51249 -15277160.63148  20783231.617    20783231.6774   20783238.7344
       214.0004        214.0004
  10220161.42448   7978311.34447  23244513.135    23244513.9554   23244521.2894
       190.0004        190.0004
 21  2  1  0 48  0.0000000  0  7G21G04G01G07G08G09G27
 -14402353.79948 -11208056.38346  22050627.593    22050627.1214   22050631.6034
       173.0004        174.0004
  -3197148.13449  -2463594.94247  21201812.904    21201813.1994   21201819.8134
       197.0004        196.0004
 -10063220.35347  -7824633.29446  22916146.324    22916146.7864   22916155.1444
       161.0004        163.0004
 -12368483.99648  -9627857.42446  22685328.032    22685329.3404   22685334.1324
       180.0004        181.0004
  -9397424.76549  -7302141.51347  20721760.657    20721761.0804   20721768.7074
       206.0004        206.0004
 -19640380.37649 -15272997.14148  20784248.510    20784248.9534   20784255.7254
       214.0004        215.0004
  10323063.52748   8058494.80647  23264094.877    23264095.3344   23264102.9994
       190.0004        190.0004
 21  2  1  0 48 30.0000000  0  7G21G04G01G07G08G09G27
 -14435200.43448 -11233651.15546  22044375.893    22044376.0034   22044380.6054
       173.0004        174.0004
  -3125831.22549  -2408023.32947  21215384.074    21215384.0074   21215390.2154
       197.0004        195.0004
 -10140817.89847  -7885098.86846  22901380.589    22901380.4504   22901389.7284
       162.0004        164.0004
 -12443988.68848  -9686692.22446  22670960.294    22670960.4944   22670964.8544
       180.0004        180.0004
  -9340267.63749  -7257603.48547  20732637.183    20732637.5714   20732644.8754
       205.0004        204.0004
 -19634475.00249 -15268395.56348  20785372.772    20785372.8864   20785379.4034
       215.0004        215.0004
  10426144.50648   8138817.66647  23283710.251    23283710.3874   23283717.8304
       188.0004        188.0004
 21  2  1  0 49  0.0000000  0  7G21G04G01G07G08G09G27
 -14467727.96548 -11258997.25746  22038187.179    22038186.8584   22038191.6264
       174.0004        176.0004
  -3054123.53549  -2352147.21047  21229028.995    21229029.7524   21229036.3354
       196.0004        195.0004
 -10218406.92947  -7945557.80445  22886616.341    22886616.1854   22886624.5924
       162.0004        162.0004
 -12519509.81048  -9745539.82146  22656589.256    22656589.7474   22656593.1144
       179.0004        180.0004
  -9282652.79749  -7212708.79947  20743601.388    20743601.2684   20743609.1824
       204.0004        205.0004
 -19628009.50949 -15263357.51648  20786602.017    20786602.5424   20786609.6674
       214.0004        214.0004
  10529399.92148   8219276.43447  23303358.558    23303359.2974   23303367.3764
       189.0004        189.0004
 21  2  1  0 49 30.0000000  0  7G21G04G01G07G08G09G27
 -14499933.86548 -11284092.75446  22032058.115    22032058.2324   22032063.0084
       174.0004        175.0004
  -2982027.25949  -2295968.29347  21242749.166    21242749.3704   21242755.0914
       196.0004        195.0004
 -10295983.96047  -8006007.39245  22871853.516    22871853.7324   22871862.6974
       160.0004        162.0004
 -12595045.24348  -9804398.57146  22642214.837    22642215.6784   22642220.0474
       179.0004        181.0004
  -9224582.67649  -7167459.34547  20754650.785    20754651.5504   20754659.3044
       204.0004        205.0004
 -19620984.15549 -15257883.20948  20787939.448    20787940.0404   20787946.3724
       214.0004        214.0004
  10632827.28348   8299869.17247  23323042.076    23323041.6124   23323048.7734
       190.0004        191.0004
 21  2  1  0 50  0.0000000  0  7G21G04G01G07G08G09G27
 -14531815.92648 -11308935.88946  22025990.901    22025991.0124   22025995.4024
       174.0004        174.0004
  -2909545.06949  -2239488.66247  21256542.048    21256542.5684   21256548.3524
       195.0004        193.0004
 -10373546.01847  -8066445.30745  22857093.780    22857094.6044   22857102.4174
       160.0004        162.0004
 -12670592.95548  -9863266.87746  22627838.529    22627839.2304   22627844.8364
       180.0004        181.0004
  -9166059.54449  -7121856.90047  20765787.613    20765788.1024   20765795.5164
       204.0004        204.0004
 -19613399.68849 -15251973.23548  20789382.985    20789383.3324   20789389.6114
       214.0004        214.0004
  10736423.61948   8380593.60247  23342755.249    23342755.1134   23342762.2284
       189.0004        188.0004
 21  2  1  0 50 30.0000000  0  7G21G04G01G07G08G09G27
 -14563370.80748 -11333524.07646  22019986.934    22019986.2674   22019990.5244
       174.0004        174.0004
  -2836679.43149  -2182710.24147  21270407.538    21270407.9374   21270414.4094
       195.0004        194.0004
 -10451089.89647  -8126869.04645  22842337.802    22842337.2964   22842346.1764
       160.0004        162.0004
 -12746150.62348  -9922142.95946  22613461.253    22613461.7884   22613464.9024
       181.0004        182.0004
  -9107085.76949  -7075903.29347  20777010.855    20777011.0604   20777017.8494
       204.0004        206.0004
 -19605256.62149 -15245627.97748  20790932.401    20790932.4364   20790939.0874
       214.0004        214.0004
  10840186.14448   8461447.53247  23362500.342    23362500.4664   23362508.7834
       190.0004        191.0004
 21  2  1  0 51  0.0000000  0  7G21G04G01G07G08G09G27
 -14594596.54848 -11357855.80146  22014044.978    22014044.3504   22014048.8884
       173.0004        174.0004
  -2763432.63149  -2125634.82247  21284345.905    21284346.3614   21284352.6394
       195.0004        193.0004
 -10528612.18547  -8187275.99346  22827586.068    22827586.0654   22827594.4754
       161.0004        164.0004
 -12821716.00248  -9981025.06246  22599082.633    22599083.2024   22599085.3334
       182.0004        183.0004
  -9047663.84549  -7029600.47547  20788318.245    20788318.3124   20788325.7364
       205.0004        205.0004
 -19596555.34449 -15238847.75648  20792588.057    20792588.4944   20792595.0354
       214.0004        214.0004
  10944112.34348   8542428.97647  23382277.857    23382277.9484   23382284.3094
       192.0004        193.0004
 21  2  1  0 51 30.0000000  0  7G21G04G01G07G08G09G27
 -14625491.26148 -11381929.58046  22008165.396    22008164.9814   22008170.5074
       173.0004        175.0004
  -2689808.10849  -2068265.05747  21298356.695    21298356.9744   21298362.0814
       195.0004        193.0004
 -10606110.60047  -8247664.32046  22812837.109    22812838.3474   22812846.9264
       162.0004        164.0004
 -12897287.56248 -10039911.96846  22584701.250    22584701.4554   22584705.4784
       182.0004        184.0004
  -8987796.87749  -6982950.87147  20799710.017    20799710.4724   20799718.4364
       204.0004        204.0004
 -19587297.42149 -15231633.78748  20794350.011    20794350.1874   20794357.0104
       214.0004        214.0004
  11048198.52248   8623535.09947  23402084.816    23402084.4674   23402091.5974
       192.0004        192.0004
 21  2  1  0 52  0.0000000  0  7G21G04G01G07G08G09G27
 -14656052.46448 -11405743.46646  22002350.765    22002350.1644   22002355.1354
       173.0004        174.0004
  -2615808.52949  -2010603.05747  21312438.515    21312438.8724   21312444.4714
       195.0004        195.0004
 -10683582.03447  -8308031.59846  22798096.331    22798096.2034   22798105.2964
       162.0004        165.0004
 -12972863.43548 -10098802.21846  22570319.239    22570319.6754   22570324.1604
       184.0004        186.0004
  -8927487.58149  -6935956.61447  20811187.021    20811186.9174   20811194.6094
       204.0004        204.0004
 -19577483.65149 -15223986.69448  20796216.874    20796217.3024   20796224.7974
       214.0004        214.0004
  11152441.76048   8704763.61847  23421920.505    23421920.6474   23421928.4924
       192.0004        191.0004
 21  2  1  0 52 30.0000000  0  7G21G04G01G07G08G09G27
 -14686276.47148 -11429294.61146  21996597.560    21996598.1014   21996603.4414
       173.0004        174.0004
  -2541435.67249  -1952650.18347  21326590.642    21326590.7514   21326596.9724
       195.0004        194.0004
 -10761022.54747  -8368374.79746  22783358.300    22783359.6104   22783367.9874
       164.0004        166.0004
 -13048440.56148 -10157693.44946  22555937.064    22555937.8244   22555941.9484
       185.0004        185.0004
  -8866737.44249  -6888618.83247  20822746.966    20822747.1454   20822755.0634
       203.0004        204.0004
 -19567113.89949 -15215906.36348  20798189.997    20798190.5034   20798197.7454
       213.0004        214.0004
  11256840.06148   8786112.93947  23441787.155    23441787.4524   23441794.5864
       192.0004        192.0004
 21  2  1  0 53  0.0000000  0  7G21G04G01G07G08G09G27
 -14716161.40648 -11452581.54546  21990909.892    21990910.3814   21990916.5994
       172.0004        173.0004
  -2466692.11149  -1894408.44747  21340814.066    21340814.3414   21340820.2454
       195.0004        194.0004
 -10838428.91748  -8428691.41746  22768629.594    22768629.6744   22768637.5854
       166.0004        169.0004
 -13124017.14248 -10216584.27346  22541555.934    22541555.6484   22541559.8824
       185.0004        185.0004
  -8805549.43049  -6840939.85347  20834390.750    20834390.9764   20834398.7554
       203.0004        204.0004
 -19556188.94349 -15207393.41248  20800269.392    20800269.8254   20800276.5704
       214.0004        214.0004
  11361390.68748   8867580.98147  23461682.149    23461682.4364   23461690.1994
       191.0004        192.0004
 21  2  1  0 53 30.0000000  0  7G21G04G01G07G08G09G27
 -14745706.15548 -11475603.41946  21985288.395    21985288.7124   21985293.5674
       172.0004        171.0004
  -2391581.94549  -1835881.04747  21355106.758    21355107.0814   21355113.5944
       195.0004        194.0004
 -10915799.53848  -8488980.15946  22753906.482    22753907.0784   22753915.0934
       167.0004        169.0004
 -13199592.17748 -10275473.88546  22527174.041    22527174.1464   22527178.5764
       184.0004        185.0004
  -8743927.28549  -6792922.58547  20846117.286    20846117.3684   20846124.5194
       203.0004        203.0004
 -19544711.10149 -15198449.63648  20802453.415    20802453.7714   20802460.6294
       213.0004        214.0004
  11466089.27548   8949164.29847  23481606.444    23481606.0704   23481613.1334
       191.0004        190.0004
 21  2  1  0 54  0.0000000  0  7G21G04G01G07G08G09G27
 -14774907.21048 -11498357.46046  21979732.352    21979731.6234   21979736.9554
       171.0004        173.0004
  -2316106.76248  -1777069.23147  21369469.055    21369469.7384   21369475.8244
       194.0004        192.0004
 -10993130.04548  -8549237.66046  22739190.941    22739191.1284   22739198.5934
       167.0004        168.0004
 -13275162.58548 -10334359.92446  22512793.545    22512793.6654   22512798.6114
       186.0004        187.0004
  -8681872.23149  -6744567.98247  20857925.707    20857926.0194   20857933.3814
       203.0004        203.0004
 -19532680.11549 -15189074.84348  20804743.071    20804743.4174   20804750.2254
       213.0004        214.0004
  11570934.06348   9030861.55647  23501557.935    23501557.7924   23501564.2064
       191.0004        191.0004
 21  2  1  0 54 30.0000000  0  7G21G04G01G07G08G09G27
 -14803763.21248 -11520842.61146  21974240.419    21974240.6884   21974246.5774
       171.0004        172.0004
  -2240270.28848  -1717975.86547  21383900.671    21383900.7064   21383907.0814
       194.0004        192.0004
 -11070418.41848  -8609462.31546  22724484.618    22724484.4094   22724491.8994
       167.0004        169.0004
 -13350727.10248 -10393241.34946  22498414.516    22498414.6674   22498417.7044
       186.0004        186.0004
  -8619387.91649  -6695878.88147  20869815.436    20869816.0224   20869823.8164
       203.0004        204.0004
 -19520097.89649 -15179270.50648  20807137.370    20807137.7044   20807144.5014
       214.0004        214.0004
  11675921.24048   9112669.73947  23521537.276    23521536.5324   23521541.9524
       190.0004        189.0004
 21  2  1  0 55  0.0000000  0  7G21G04G01G07G08G09G27
 -14832272.22648 -11543057.39446  21968815.765    21968815.6264   21968820.7144
       172.0004        173.0004
  -2164075.53948  -1658603.33547  21398399.420    21398399.9294   21398406.2714
       193.0004        192.0004
 -11147661.85048  -8669651.96246  22709784.339    22709784.4924   22709792.5164
       167.0004        169.0004
 -13426284.00248 -10452116.83946  22484036.272    22484036.3634   22484040.0664
       185.0004        186.0004
  -8556477.32149  -6646857.62747  20881787.083    20881787.5364   20881795.3684
       203.0004        203.0004
 -19506965.71349 -15169037.62948  20809635.727    20809636.6994   20809643.6134
       214.0004        214.0004
  11781047.56748   9194586.35947  23541541.763    23541540.8834   23541547.5324
       189.0004        190.0004
 21  2  1  0 55 30.0000000  0  7G21G04G01G07G08G09G27
 -14860430.77048 -11564999.09446  21963457.246    21963457.0334   21963462.8054
       172.0004        174.0004
  -2087524.20948  -1598952.95347  21412967.649    21412967.8734   21412973.5414
       194.0004        192.0004
 -11224856.10348  -8729803.28046  22695093.896    22695093.8644   22695103.8224
       168.0004        170.0004
 -13501830.22048 -10510983.99946  22469660.000    22469660.4134   22469664.8074
       186.0004        187.0004
  -8493142.49549  -6597505.80247  20893839.240    20893839.7704   20893847.4794
       202.0004        202.0004
 -19493283.45949 -15158376.12948  20812239.891    20812240.2354   20812247.0124
       214.0004        214.0004
  11886311.28048   9276610.02947  23561572.125    23561572.2144   23561578.1454
       190.0004        190.0004
 21  2  1  0 56  0.0000000  0  7G21G04G01G07G08G09G27
 -14888235.56648 -11586665.13446  21958166.093    21958165.8824   21958171.6314
       173.0004        175.0004
  -2010618.18648  -1539026.18547  21427601.779    21427602.1164   21427608.3074
       193.0004        191.0004
 -11301997.25348  -8789913.21546  22680414.276    22680414.8494   22680423.7544
       169.0004        171.0004
 -13577362.70348 -10569840.46347  22455286.763    22455287.2624   22455290.5344
       187.0004        188.0004
  -8429384.53649  -6547824.26647  20905972.228    20905972.3544   20905980.4214
       202.0004        202.0004
 -19479051.29849 -15147286.12648  20814948.223    20814948.7984   20814955.4324
       214.0004        215.0004
  11991710.34748   9358739.18947  23581628.451    23581628.8354   23581635.3544
       191.0004        192.0004
 21  2  1  0 56 30.0000000  0  7G21G04G01G07G08G09G27
 -14915685.07848 -11608054.33446  21952943.044    21952942.6774   21952948.9104
       174.0004        175.0004
  -1933360.50248  -1478825.39047  21442303.822    21442304.0444   21442310.0504
       193.0004        192.0004
 -11379082.36748  -8849979.48446  22665745.737    22665746.2114   22665753.6964
       169.0004        170.0004
 -13652879.42148 -10628684.65946  22440916.011    22440916.5764   22440920.6764
       187.0004        187.0004
  -8365207.35549  -6497816.05447  20918184.482    20918184.6134   20918192.8084
       202.0004        202.0004
 -19464270.53249 -15135768.64248  20817761.416    20817761.4434   20817768.1324
       214.0004        215.0004
  12097241.63048   9440971.34646  23601709.530    23601710.3414   23601716.5824
       188.0004        186.0004
 21  2  1  0 57  0.0000000  0  7G21G04G01G07G08G09G27
 -14942776.75748 -11629164.70746  21947787.304    21947786.5154   21947793.0324
       175.0004        175.0004
  -1855753.85848  -1418352.68947  21457071.777    21457072.1154   21457078.2774
       193.0004        192.0004
 -11456108.36548  -8909999.71846  22651086.715    22651089.1634   22651096.2724
       169.0004        170.0004
 -13728378.32448 -10687514.95847  22426549.351    22426549.8034   22426554.1724
       187.0004        188.0004
  -8300613.06049  -6447482.82347  20930476.541    20930476.7454   20930484.4194
       201.0004        201.0004
 -19448942.22449 -15123824.50248  20820677.255    20820677.9374   20820684.7914
       214.0004        213.0004
  12202902.31148   9523304.37046  23621814.744    23621816.3694   23621823.9614
       187.0004        186.0004
 21  2  1  0 57 30.0000000  0  7G21G04G01G07G08G09G27
 -14969508.61948 -11649994.70246  21942701.604    21942701.0094   21942705.8914
       175.0004        176.0004
  -1777801.58848  -1357610.66947  21471905.796    21471906.0764   21471911.8064
       193.0004        191.0004
 -11533072.56748  -8969971.79246  22636442.601    22636443.1184   22636451.8714
       170.0004        172.0004
 -13803857.51048 -10746329.88647  22412186.847    22412186.8364   22412191.1764
       187.0004        188.0004
  -8235604.37249  -6396826.69547  20942847.396    20942847.2654   20942854.9664
       201.0004        201.0004
 -19433067.96049 -15111454.94148  20823698.673    20823698.8534   20823705.4214
       213.0004        213.0004
  12308689.07848   9605735.61146  23641948.087    23641948.3394   23641953.7864
       185.0004        185.0004
 21  2  1  0 58  0.0000000  0  7G21G04G01G07G08G09G27
 -14995880.13648 -11670543.91646  21937682.961    21937681.8644   21937687.2844
       176.0004        176.0004
  -1699508.19748  -1296602.83747  21486803.999    21486804.7924   21486810.8054
       193.0004        192.0004
 -11609973.57448  -9029894.62846  22621809.380    22621810.1714   22621818.1514
       171.0004        172.0004
 -13879316.98848 -10805129.44846  22397826.273    22397826.9154   22397830.9244
       187.0004        187.0004
  -8170186.53049  -6345851.74347  20955295.896    20955296.2454   20955303.6654
       201.0004        201.0004
 -19416650.52449 -15098662.13248  20826823.045    20826823.2674   20826829.7124
       214.0004        214.0004
  12414597.30048   9688261.51446  23662102.128    23662101.8254   23662107.2354
       184.0004        185.0004
 21  2  1  0 58 30.0000000  0  7G21G04G01G07G08G09G27
 -15021888.55548 -11690810.19346  21932732.465    21932732.8994   21932737.1954
       175.0004        176.0004
  -1620876.02948  -1235331.02447  21501767.469    21501768.2024   21501773.7034
       193.0004        191.0004
 -11686807.71348  -9089765.36446  22607188.110    22607188.1294   22607196.7534
       170.0004        171.0004
 -13954753.87548 -10863911.42946  22383471.944    22383471.8204   22383476.2034
       186.0004        187.0004
  -8104361.39349  -6294559.41447  20967822.445    20967822.4264   20967829.9924
       201.0004        202.0004
 -19399690.63449 -15085446.62048  20830050.097    20830050.5804   20830057.1034
       214.0004        215.0004
  12520624.63048   9770880.21146  23682278.973    23682278.4774   23682283.2464
       185.0004        186.0004
 21  2  1  0 59  0.0000000  0  8G21G30G04G01G07G08G09G27
 -15047532.05248 -11710792.10946  21927854.139    21927853.4524   21927858.3804
       177.0004        177.0004
  -1577305.93656  -1208283.79145  24276760.065                    24276768.3064
       134.0004        151.0004
  -1541908.02148  -1173797.51847  21516795.183    21516795.3644   21516801.0594
       193.0004        192.0004
 -11763571.98648  -9149581.63146  22592579.580    22592580.6894   22592588.9314
       170.0004        170.0004
 -14030166.16648 -10922674.23746  22369120.882    22369121.2994   22369124.9304
       186.0004        187.0004
  -8038132.01249  -6242952.10947  20980424.891    20980425.0054   20980433.0064
       200.0004        200.0004
 -19382189.58549 -15071809.43948  20833380.263    20833380.6674   20833387.6084
       214.0004        214.0004
  12626768.06348   9853589.38947  23702476.656    23702477.2094   23702483.2314
       187.0004        188.0004
 21  2  1  0 59 30.0000000  0  8G21G30G04G01G07G08G09G27
 -15072807.25148 -11730487.05446  21923044.090    21923043.2384   21923049.2504
       177.0004        178.0004
  -1661205.60347  -1273660.11645  24260796.099    24260794.7894   24260801.6684
       149.0004        154.0004
  -1462605.60448  -1112003.42247  21531885.168    21531885.8284   21531892.1534
       192.0004        191.0004
 -11840261.85648  -9209339.93846  22577985.459    22577985.8114   22577994.6094
       169.0004        170.0004
 -14105550.40748 -10981415.19446  22354776.007    22354776.0494   22354780.1634
       187.0004        187.0004
  -7971499.45149  -6191030.61447  20993104.619    20993104.9024   20993112.7814
       200.0004        200.0004
 -19364147.18949 -15057750.42948  20836814.042    20836814.6084   20836820.6314
       214.0004        214.0004
  12733026.14248   9936387.91046  23722698.855    23722697.8464   23722702.7954
       187.0004        187.0004
 21  2  1  1  0  0.0000000  0  8G21G30G04G01G07G08G09G27
 -15097721.84548 -11749901.02246  21918302.425    21918302.7484   21918307.7064
       178.0004        178.0004
  -1745222.09047  -1339127.44945  24244807.094    24244807.1234   24244813.5354
       151.0004        155.0004
  -1382981.70948  -1049958.83547  21547036.800    21547037.3874   21547044.4874
       192.0004        191.0004
 -11916884.27148  -9269045.68646  22563405.877    22563406.0884   22563414.4594
       169.0004        172.0004
 -14180914.34448 -11040140.31346  22340433.770    22340434.6014   22340438.2784
       186.0004        186.0004
  -7904477.06149  -6138805.36747  21005857.931    21005858.1854   21005867.0134
       199.0004        200.0004
 -19345574.74049 -15043278.39448  20840348.161    20840348.0474   20840354.7184
       214.0004        213.0004
  12839386.01848  10019265.73547  23742937.626    23742936.9684   23742942.6504
       188.0004        188.0004
 21  2  1  1  0 30.0000000  0  8G21G30G04G01G07G08G09G27
 -15122261.88548 -11769023.08246  21913631.724    21913632.0554   21913637.1794
       178.0004        178.0004
  -1829342.39747  -1404675.71145  24228798.810    24228798.5394   24228805.8384
       151.0004        154.0004
  -1303027.55348   -987656.89047  21562252.220    21562252.6694   21562258.5994
       193.0004        192.0004
 -11993424.37648  -9328687.30446  22548840.203    22548841.4504   22548848.8144
       169.0004        169.0004
 -14256244.45948 -11098839.08646  22326099.229    22326099.8064   22326104.1884
       186.0004        187.0004
  -7837055.42649  -6086269.01247  21018688.501    21018688.6764   21018696.4244
       199.0004        200.0004
 -19326461.87149 -15028385.24048  20843984.943    20843985.2824   20843992.5474
       214.0004        214.0004
  12945856.44548  10102229.70346  23763197.346    23763196.9464   23763203.5384
       186.0004        185.0004
 21  2  1  1  1  0.0000000  0  8G21G30G04G01G07G08G09G27
 -15146423.76948 -11787850.50846  21909034.451    21909034.4254   21909039.8524
       177.0004        177.0004
  -1913563.51547  -1470302.50445  24212771.089    24212770.8704   24212778.7494
       151.0004        154.0004
  -1222744.24648   -925098.48047  21577530.019    21577529.9964   21577535.8244
       193.0004        191.0004
 -12069877.27348  -9388260.98046  22534291.428    22534292.1784   22534299.9584
       169.0004        170.0004
 -14331536.24548 -11157507.98547  22311770.798    22311772.0354   22311777.0664
       187.0004        188.0004
  -7769236.01249  -6033422.71147  21031594.628    21031594.7344   21031602.0974
       199.0004        200.0004
 -19306808.12849 -15013070.63848  20847725.318    20847725.4654   20847732.1694
       214.0004        214.0004
  13052436.35848  10185278.98446  23783477.625    23783477.8154   23783484.9424
       185.0004        185.0004
 21  2  1  1  1 30.0000000  0  8G21G30G04G01G07G08G09G27
 -15170206.17448 -11806382.22746  21904509.961    21904509.5144   21904513.5574
       178.0004        179.0004
  -1997885.04947  -1536007.53645  24196725.600    24196725.8794   24196733.0484
       153.0004        156.0004
  -1142135.60748   -862286.55547  21592868.425    21592868.8714   21592875.0454
       192.0004        190.0004
 -12146240.77948  -9447764.97346  22519759.769    22519760.8144   22519769.8584
       169.0004        170.0004
 -14406788.63348 -11216146.19747  22297453.184    22297452.4854   22297456.1974
       188.0004        189.0004
  -7701022.28449  -5980269.14647  21044575.192    21044574.8484   21044582.8464
       199.0004        199.0004
 -19286615.77949 -14997336.33648  20851567.783    20851568.1584   20851574.3024
       214.0004        214.0004
  13159121.92748  10268410.58446  23803779.258    23803779.4054   23803785.7514
       184.0004        183.0004
 21  2  1  1  2  0.0000000  0  8G21G30G04G01G07G08G09G27
 -15193608.10048 -11824617.45646  21900055.420    21900055.6604   21900061.5744
       178.0004        178.0004
  -2082306.64747  -1601790.55545  24180660.152    24180660.0224   24180669.1644
       154.0004        157.0004
  -1061205.44348   -799224.08947  21608269.073    21608269.4824   21608275.8314
       191.0004        190.0004
 -12222512.64848  -9507197.53346  22505245.801    22505246.4914   22505254.9404
       169.0004        170.0004
 -14482000.56848 -11274752.89446  22283140.017    22283139.5634   22283143.6204
       187.0004        186.0004
  -7632418.10449  -5926811.32547  21057628.557    21057629.3174   21057638.0834
       199.0004        199.0004
 -19265887.09649 -14981184.11548  20855511.721    20855512.2854   20855519.0824
       214.0004        214.0004
  13265909.41748  10351621.64446  23824099.371    23824100.2454   23824106.3474
       181.0004        181.0004
 21  2  1  1  2 30.0000000  0  8G21G30G04G01G07G08G09G27
 -15216628.55248 -11842555.45046  21895674.404    21895674.3974   21895680.0564
       178.0004        179.0004
  -2166828.17647  -1667651.44545  24164576.741    24164577.2254   24164584.4384
       156.0004        158.0004
   -979957.94848   -735914.34947  21623729.343    21623730.0524   21623736.6274
       191.0004        189.0004
 -12298690.97048  -9566557.22446  22490749.286    22490750.1324   22490758.4784
       170.0004        171.0004
 -14557170.87548 -11333327.13246  22268833.864    22268835.0584   22268839.6654
       186.0004        187.0004
  -7563427.90649  -5873052.72447  21070757.386    21070757.9964   21070766.2414
       198.0004        198.0004
 -19244624.70849 -14964616.01948  20859558.187    20859558.5504   20859565.2524
       213.0004        213.0004
  13372794.81848  10434908.91146  23844439.560    23844440.3424   23844446.4144
       182.0004        183.0004
 21  2  1  1  3  0.0000000  0  8G21G30G04G01G07G08G09G27
 -15239265.61948 -11860194.71346  21891367.948    21891367.8304   21891372.5774
       178.0004        179.0004
  -2251448.69347  -1733589.46345  24148474.569    24148474.5524   24148481.7294
       157.0004        159.0004
   -898396.35248   -672359.86547  21639251.027    21639251.0104   21639256.3704
       190.0004        189.0004
 -12374772.92448  -9625841.84246  22476272.271    22476272.7484   22476280.7264
       170.0004        171.0004
 -14632297.62548 -11391867.46147  22254539.346    22254539.4584   22254543.3104
       187.0004        188.0004
  -7494054.38049  -5818995.41747  21083959.422    21083959.2624   21083967.5014
       198.0004        198.0004
 -19222830.37649 -14947633.42448  20863705.120    20863705.5774   20863712.2744
       213.0004        213.0004
  13479774.82248  10518269.99446  23864797.731    23864797.5874   23864804.1304
       181.0004        181.0004
 21  2  1  1  3 30.0000000  0  8G21G30G04G01G07G08G09G27
 -15261518.39548 -11877534.50546  21887132.646    21887132.3604   21887137.7894
       177.0004        177.0004
  -2336167.36347  -1799603.97045  24132352.377    24132352.8164   24132360.4744
       157.0004        159.0004
   -816524.09448   -608563.30447  21654830.804    21654830.9604   21654836.9904
       190.0004        190.0004
 -12450755.87848  -9685049.29046  22461813.514    22461814.2094   22461820.7494
       171.0004        172.0004
 -14707379.11848 -11450372.50447  22240251.838    22240251.4704   22240255.7634
       187.0004        188.0004
  -7424301.23349  -5764642.31247  21097232.667    21097233.0384   21097241.0404
       197.0004        197.0004
 -19200506.02949 -14930237.82448  20867953.713    20867954.1904   20867960.6794
       213.0004        214.0004
  13586846.27448  10601702.25946  23885173.245    23885173.7094   23885179.0244
       182.0004        184.0004
 21  2  1  1  4  0.0000000  0  8G21G30G04G01G07G08G09G27
 -15283383.84048 -11894572.48646  21882972.830    21882972.1064   21882976.8864
       178.0004        179.0004
  -2420982.17847  -1865693.40245  24116211.998    24116212.7374   24116220.3954
       156.0004        158.0004
   -734343.46548   -544526.45447  21670468.790    21670469.0354   21670475.7324
       191.0004        190.0004
 -12526636.00348  -9744176.62846  22447372.354    22447373.6324   22447380.9404
       170.0004        170.0004
 -14782412.81948 -11508840.28847  22225972.494    22225972.5874   22225977.4324
       187.0004        188.0004
  -7354170.07849  -5709994.63447  21110578.296    21110578.6184   21110586.2654
       197.0004        197.0004
 -19177652.46649 -14912429.84948  20872302.806    20872303.1624   20872309.7694
       213.0004        214.0004
  13694006.89948  10685204.05746  23905563.771    23905564.1984   23905572.0764
       183.0004        183.0004
 21  2  1  1  4 30.0000000  0  8G21G30G04G01G07G08G09G27
 -15304859.68348 -11911306.89346  21878885.374    21878884.3684   21878890.7434
       178.0004        178.0004
  -2505891.46747  -1931856.44245  24100054.869    24100055.2694   24100062.1624
       156.0004        158.0004
   -651857.08148   -480251.35547  21686165.281    21686165.6464   21686172.3004
       191.0004        190.0004
 -12602409.81348  -9803221.12646  22432954.255    22432954.1554   22432962.6684
       170.0004        172.0004
 -14857396.00948 -11567268.73247  22211703.546    22211703.9834   22211708.4724
       188.0004        189.0004
  -7283664.21749  -5655054.99247  21123994.993    21123995.0914   21124003.2364
       197.0004        197.0004
 -19154270.91749 -14894210.45948  20876752.204    20876752.4294   20876759.1264
       213.0004        214.0004
  13801254.25248  10768773.44746  23925971.464    23925972.1274   23925979.7564
       180.0004        180.0004
 21  2  1  1  5  0.0000000  0  8G21G30G04G01G07G08G09G27
 -15325944.07248 -11927736.25846  21874873.342    21874873.0154   21874877.9654
       178.0004        179.0004
  -2590894.23747  -1998092.33245  24083881.161    24083880.4834   24083887.2564
       155.0004        158.0004
   -569068.30048   -415740.61347  21701919.656    21701919.9774   21701926.2084
       191.0004        189.0004
 -12678074.53648  -9862180.61446  22418556.446    22418556.2124   22418564.2004
       171.0004        173.0004
 -14932326.55248 -11625656.16647  22197444.758    22197446.0504   22197450.0324
       189.0004        189.0004
  -7212786.59549  -5599825.67547  21137481.886    21137482.7304   21137490.9044
       196.0004        196.0004
 -19130363.20449 -14875581.07848  20881301.149    20881301.7234   20881308.3354
       213.0004        213.0004
  13908585.10348  10852407.85546  23946395.995    23946396.4554   23946404.3404
       179.0004        178.0004
 21  2  1  1  5 30.0000000  0  8G21G30G04G01G07G08G09G27
 -15346636.46448 -11943860.17246  21870935.006    21870935.1214   21870939.8704
       177.0004        178.0004
  -2675990.36647  -2064400.95445  24067687.410    24067686.5624   24067693.5384
       156.0004        158.0004
   -485981.20948   -350997.43547  21717729.962    21717730.3114   21717737.5114
       190.0004        189.0004
 -12753628.17748  -9921053.55046  22404178.377    22404178.6134   22404186.4754
       171.0004        171.0004
 -15007203.83548 -11684002.07747  22183196.767    22183196.9654   22183201.3444
       189.0004        190.0004
  -7141541.40649  -5544309.93647  21151039.461    21151039.8074   21151048.5194
       196.0004        196.0004
 -19105932.10449 -14856543.85148  20885950.089    20885950.7114   20885957.7364
       213.0004        213.0004
  14015995.40748  10936104.21046  23966836.831    23966836.5204   23966844.6174
       180.0004        181.0004
 21  2  1  1  6  0.0000000  0  8G21G30G04G01G07G08G09G27
 -15366934.42448 -11959676.74546  21867072.376    21867072.3424   21867077.6014
       177.0004        178.0004
  -2761177.74147  -2130780.65845  24051475.268    24051475.1364   24051483.8884
       156.0004        158.0004
   -402598.16448   -286023.62747  21733598.511    21733598.3904   21733604.5774
       190.0004        189.0004
 -12829066.89048  -9979836.91646  22389822.446    22389823.3874   22389830.2054
       170.0004        171.0004
 -15082024.42848 -11742303.81847  22168959.308    22168959.7184   22168963.3634
       189.0004        189.0004
  -7069930.72849  -5488509.40247  21164666.012    21164667.0974   21164675.8764
       195.0004        196.0004
 -19080978.48849 -14837099.46748  20890698.699    20890699.1814   20890705.9494
       212.0004        213.0004
  14123483.13848  11019860.86046  23987288.890    23987289.8784   23987297.8934
       176.0004        176.0004
 21  2  1  1  6 30.0000000  0  8G21G30G04G01G07G08G09G27
 -15386833.85848 -11975182.78046  21863285.232    21863285.8804   21863290.3864
       178.0004        178.0004
  -2846453.33047  -2197229.12345  24035247.660    24035248.7804   24035255.8284
       157.0004        161.0004
   -318920.49148   -220820.25347  21749520.991    21749521.5194   21749528.1934
       189.0004        188.0004
 -12904385.89048 -10038527.02146  22375489.169    22375489.7694   22375498.3314
       172.0004        174.0004
 -15156784.51848 -11800558.42547  22154732.269    22154732.8474   22154736.1504
       189.0004        188.0004
  -6997956.01649  -5432425.21247  21178363.497    21178363.7334   21178372.0034
       196.0004        197.0004
 -19055502.36549 -14817247.94647  20895546.538    20895547.1324   20895553.9654
       212.0004        212.0004
  14231047.07848  11103676.90646  24007758.981    24007759.3184   24007765.7504
       175.0004        175.0004
 21  2  1  1  7  0.0000000  0  8G21G30G04G01G07G08G09G27
 -15406333.48948 -11990377.27246  21859576.170    21859575.0474   21859580.7514
       178.0004        178.0004
  -2931815.75147  -2263745.26446  24019004.556    24019004.9634   24019012.5884
       160.0004        163.0004
   -234951.18848   -155389.63146  21765500.157    21765500.4644   21765506.6574
       189.0004        187.0004
 -12979581.96248 -10097121.34946  22361180.077    22361180.6334   22361188.2784
       173.0004        173.0004
 -15231482.22648 -11858764.41747  22140518.142    22140518.2294   22140522.1274
       189.0004        190.0004
  -6925619.88049  -5376059.38347  21192128.962    21192129.2014   21192136.6674
       196.0004        197.0004
 -19029505.30549 -14796990.49148  20900493.953    20900494.1694   20900501.3234
       212.0004        213.0004
  14338684.46948  11187550.18946  24028240.846    24028241.4514   24028249.6874
       173.0004        174.0004
 21  2  1  1  7 30.0000000  0  8G21G30G04G01G07G08G09G27
 -15425431.74348 -12005259.01146  21855942.095    21855941.3534   21855945.9164
       179.0004        178.0004
  -3017264.22947  -2330328.46245  24002744.614    24002744.8294   24002751.4744
       159.0004        160.0004
   -150693.84748    -89734.57646  21781533.660    21781533.8614   21781539.7764
       188.0004        187.0004
 -13054652.54948 -10155617.88546  22346896.242    22346896.2584   22346903.2184
       173.0004        175.0004
 -15306115.65048 -11916920.31347  22126315.577    22126315.4774   22126319.6964
       190.0004        191.0004
  -6852926.11049  -5319414.87547  21205961.691    21205962.2274   21205969.9544
       196.0004        196.0004
 -19002989.58749 -14776328.89348  20905539.206    20905539.8604   20905546.9174
       212.0004        213.0004
  14446391.86048  11271478.00646  24048735.383    24048736.9194   24048744.1304
       173.0004        173.0004
 21  2  1  1  8  0.0000000  0  8G21G30G04G01G07G08G09G27
 -15444127.90848 -12019827.40546  21852382.782    21852382.9904   21852388.5014
       179.0004        179.0004
  -3102798.31047  -2396978.36245  23986467.670    23986467.2784   23986474.0324
       155.0004        155.0004
    -66152.42548    -23858.13146  21797621.530    21797622.5754   21797627.1534
       188.0004        187.0004
 -13129595.47348 -10214014.92946  22332634.172    22332634.5974   22332642.0304
       174.0004        175.0004
 -15380683.43048 -11975025.05247  22112126.163    22112126.2274   22112130.2734
       191.0004        192.0004
  -6779878.38449  -5262494.55747  21219860.840    21219862.0354   21219870.8264
       195.0004        195.0004
 -18975957.83049 -14755265.17848  20910683.874    20910683.9034   20910691.3744
       212.0004        213.0004
  14554165.58448  11355457.52546  24069245.741    24069245.6574   24069254.3934
       173.0004        175.0004
 21  2  1  1  8 30.0000000  0  8G21G30G04G01G07G08G09G27
 -15462420.25548 -12034081.17946  21848901.453    21848901.6994   21848907.3944
       179.0004        179.0004
  -3188416.68447  -2463693.97845  23970175.306    23970175.5264   23970181.2964
       153.0004        155.0004
     18669.88748     42237.16146  21813762.222    21813762.7634   21813769.1824
       188.0004        187.0004
 -13204407.64148 -10272310.09746  22318397.861    22318397.7024   22318405.9364
       174.0004        176.0004
 -15455183.44048 -12033077.00447  22097949.407    22097949.5724   22097952.3464
       191.0004        191.0004
  -6706480.07549  -5205301.08547  21233828.276    21233828.9544   21233838.4864
       195.0004        196.0004
 -18948411.88549 -14733800.81347  20915925.045    20915925.5574   20915932.8684
       212.0004        212.0004
  14662002.65448  11439486.38546  24089767.558    24089767.5944   24089773.8974
       174.0004        175.0004
 21  2  1  1  9  0.0000000  0  8G21G30G04G01G07G08G09G27
 -15480306.00148 -12048018.09246  21845497.791    21845498.3764   21845503.5764
       178.0004        179.0004
  -3274117.14547  -2530473.52145  23953867.357    23953867.6944   23953873.9254
       154.0004        157.0004
    103770.93348    108549.66846  21829957.277    21829957.2514   21829963.3524
       187.0004        186.0004
 -13279085.08248 -10330500.28146  22304186.501    22304186.7634   22304194.4284
       174.0004        175.0004
 -15529612.59948 -12091073.74247  22083786.176    22083786.0864   22083790.0254
       191.0004        191.0004
  -6632733.51049  -5147836.22647  21247863.429    21247863.5424   21247871.2474
       195.0004        196.0004
 -18920352.64149 -14711936.46447  20921264.520    20921265.1644   20921271.8304
       211.0004        212.0004
  14769901.18648  11523563.17046  24110298.787    24110299.7644   24110307.9224
       175.0004        175.0004
 21  2  1  1  9 30.0000000  0  8G21G30G04G01G07G08G09G27
 -15497782.42348 -12061636.05846  21842173.539    21842172.8194   21842177.6804
       178.0004        179.0004
  -3359897.44647  -2597315.26045  23937543.379    23937542.7964   23937550.7774
       155.0004        157.0004
    189148.46248    175077.61746  21846204.041    21846204.1324   21846210.4034
       187.0004        186.0004
 -13353623.83748 -10388582.40046  22290001.819    22290002.6754   22290011.0194
       174.0004        174.0004
 -15603967.90848 -12149012.92347  22069635.868    22069636.6604   22069640.0474
       191.0004        192.0004
  -6558640.40549  -5090101.31847  21261962.311    21261962.9014   21261970.2604
       195.0004        195.0004
 -18891781.09749 -14689672.91747  20926701.943    20926702.4194   20926708.9264
       212.0004        212.0004
  14877859.10948  11607686.23346  24130843.703    24130844.1924   24130850.2954
       175.0004        176.0004
 21  2  1  1 10  0.0000000  0  8G21G30G04G01G07G08G09G27
 -15514848.30348 -12074934.12946  21838925.392    21838925.5354   21838930.2024
       178.0004        179.0004
  -3445756.25547  -2664218.18545  23921203.640    23921203.7924   23921210.4504
       153.0004        155.0004
    274799.31848    241818.53546  21862501.718    21862502.7744   21862509.4064
       187.0004        186.0004
 -13428020.86748 -10446554.08046  22275845.421    22275845.6604   22275855.0174
       174.0004        175.0004
 -15678246.92848 -12206892.66747  22055500.791    22055501.3174   22055506.2304
       192.0004        192.0004
  -6484204.27648  -5032099.13647  21276126.414    21276127.1634   21276134.8084
       194.0004        195.0004
 -18862699.13649 -14667011.64647  20932236.104    20932236.3324   20932243.5614
       212.0004        212.0004
  14985873.66048  11691853.39646  24151397.753    24151399.1754   24151405.7984
       176.0004        178.0004
 21  2  1  1 10 30.0000000  0  8G21G30G04G01G07G08G09G27
 -15531501.24948 -12087910.44246  21835756.744    21835756.4744   21835761.2764
       179.0004        180.0004
  -3531691.63147  -2731180.76945  23904851.135    23904851.5444   23904858.8004
       155.0004        158.0004
    360720.95848    308770.45146  21878852.938    21878853.1914   21878859.1864
       186.0004        185.0004
 -13502272.45048 -10504412.40146  22261715.295    22261716.3374   22261724.2414
       175.0004        177.0004
 -15752446.82648 -12264710.73847  22041381.466    22041382.1204   22041385.7964
       193.0004        193.0004
  -6409427.07548  -4973831.17947  21290356.048    21290357.1364   21290364.6064
       194.0004        194.0004
 -18833108.05549 -14643953.65247  20937866.960    20937867.2864   20937874.2044
       212.0004        212.0004
  15093942.53848  11776062.90346  24171961.798    24171963.2284   24171969.6174
       176.0004        177.0004
 21  2  1  1 11  0.0000000  0  8G21G30G04G01G07G08G09G27
 -15547740.19148 -12100564.14346  21832667.234    21832666.7054   21832671.0574
       180.0004        180.0004
  -3617702.78447  -2798202.42645  23888485.771    23888485.0774   23888491.8714
       157.0004        160.0004
    446909.59348    375930.42546  21895253.408    21895254.3674   21895259.5934
       185.0004        184.0004
 -13576376.14548 -10562155.51646  22247613.431    22247614.4484   22247622.3814
       175.0004        176.0004
 -15826566.11848 -12322466.04647  22027277.412    22027277.4394   22027281.0374
       192.0004        191.0004
  -6334312.98148  -4915300.72047  21304650.557    21304650.9454   21304658.9474
       194.0004        195.0004
 -18803010.43549 -14620500.96847  20943593.959    20943594.6424   20943601.3014
       211.0004        212.0004
  15202062.25948  11860312.01146  24192536.965    24192537.7744   24192545.0294
       177.0004        178.0004
 21  2  1  1 11 30.0000000  0  8G21G30G04G01G07G08G09G27
 -15563563.81348 -12112894.21846  21829655.304    21829654.7154   21829660.4274
       180.0004        180.0004
  -3703788.81347  -2865282.40945  23872103.298    23872102.7184   23872109.6304
       157.0004        158.0004
    533361.71348    443295.72146  21911705.709    21911706.0574   21911711.9194
       186.0004        185.0004
 -13650329.26348 -10619781.29346  22233540.674    22233542.1624   22233549.0344
       175.0004        176.0004
 -15900603.16848 -12380157.23347  22013187.367    22013188.4454   22013192.9264
       192.0004        192.0004
  -6258865.22948  -4856510.25747  21319007.793    21319008.0424   21319015.5874
       194.0004        194.0004
 -18772408.54349 -14596655.33447  20949418.003    20949418.2974   20949424.7734
       211.0004        212.0004
  15310229.58348  11944598.21346  24213121.529    24213121.8354   24213127.7224
       178.0004        179.0004
 21  2  1  1 12  0.0000000  0  8G21G30G04G01G07G08G09G27
 -15578969.99848 -12124899.00946  21826723.929    21826723.6894   21826728.9574
       180.0004        181.0004
  -3789947.77547  -2932419.21745  23855708.016    23855707.2864   23855714.4244
       155.0004        157.0004
    620074.61348    510864.22446  21928205.439    21928206.1144   21928212.2634
       185.0004        184.0004
 -13724128.25748 -10677286.95346  22219497.466    22219497.7354   22219506.1244
       175.0004        177.0004
 -15974555.00548 -12437782.01647  21999115.434    21999116.1424   21999120.2074
       192.0004        193.0004
  -6183086.38948  -4797461.79747  21333427.584    21333428.1714   21333436.1024
       194.0004        195.0004
 -18741303.93749 -14572417.96547  20955336.543    20955336.7034   20955344.0364
       211.0004        212.0004
  15418442.14548  12028919.68646  24233713.589    24233713.7734   24233720.1984
       179.0004        180.0004
 21  2  1  1 12 30.0000000  0  8G21G30G04G01G07G08G09G27
 -15593956.77448 -12136576.99146  21823872.399    21823871.7754   21823876.6064
       180.0004        180.0004
  -3876178.02847  -2999611.59045  23839297.827    23839298.0354   23839305.2694
       153.0004        155.0004
    707045.44248    578633.69646  21944756.346    21944756.0304   21944762.9544
       184.0004        184.0004
 -13797769.74248 -10734669.89946  22205483.969    22205484.2154   22205493.7234
       176.0004        177.0004
 -16048418.44448 -12495337.93647  21985060.118    21985060.6964   21985064.3064
       193.0004        194.0004
  -6106979.64449  -4738157.83647  21347910.767    21347910.9824   21347919.0664
       195.0004        195.0004
 -18709698.27949 -14547790.17447  20961350.913    20961351.3784   20961358.3714
       211.0004        212.0004
  15526697.43848  12113274.46846  24254313.225    24254314.3224   24254320.5264
       180.0004        182.0004
 21  2  1  1 13  0.0000000  0  8G21G30G04G01G07G08G09G27
 -15608521.58848 -12147926.18346  21821100.063    21821099.4664   21821105.2114
       180.0004        180.0004
  -3962476.79247  -3066857.35445  23822876.342    23822876.2294   23822883.2264
       152.0004        155.0004
    794272.39648    646602.74346  21961354.954    21961355.1424   21961362.2484
       185.0004        186.0004
 -13871249.21848 -10791926.61846  22191501.447    22191502.2824   22191510.0914
       177.0004        178.0004
 -16122191.26648 -12552823.24547  21971020.734    21971021.4584   21971025.6534
       193.0004        192.0004
  -6030546.51948  -4678599.56047  21362455.151    21362455.7674   21362463.5444
       194.0004        193.0004
 -18677592.18749 -14522772.44247  20967460.224    20967460.9044   20967468.0334
       211.0004        211.0004
  15634994.06448  12197661.42746  24274921.657    24274922.5864   24274929.6184
       182.0004        183.0004
 21  2  1  1 13 30.0000000  0  8G21G30G04G01G07G08G09G27
 -15622663.48948 -12158945.84846  21818407.900    21818408.6604   21818413.6464
       180.0004        180.0004
  -4048843.56047  -3134156.09145  23806439.075    23806439.4564   23806448.8944
       152.0004        154.0004
    881751.44148    714768.21246  21978002.460    21978002.3014   21978008.4384
       185.0004        184.0004
 -13944564.52948 -10849055.41246  22177549.777    22177550.2084   22177558.3704
       178.0004        178.0004
 -16195871.45948 -12610236.38847  21957000.448    21957000.9354   21957004.4014
       192.0004        192.0004
  -5953790.88748  -4618789.98547  21377061.665    21377062.0254   21377069.6144
       193.0004        194.0004
 -18644988.64349 -14497367.09347  20973664.481    20973664.9744   20973672.5544
       211.0004        211.0004
  15743328.29948  12282077.68746  24295537.921    24295537.5814   24295543.6794
       180.0004        179.0004
 21  2  1  1 14  0.0000000  0  8G21G30G04G01G07G08G09G27
 -15636379.92848 -12169633.96946  21815798.825    21815798.6144   21815803.6944
       180.0004        179.0004
  -4135275.99847  -3201506.00145  23789993.436    23789992.8824   23790000.6934
       154.0004        157.0004
    969480.21748    783128.30446  21994696.163    21994696.0034   21994702.4314
       184.0004        183.0004
 -14017711.71648 -10906053.18846  22163630.012    22163630.4524   22163638.6384
       177.0004        177.0004
 -16269455.69948 -12667574.75047  21942998.270    21942998.3624   21943001.8544
       192.0004        193.0004
  -5876715.36948  -4558731.12547  21391729.107    21391729.0674   21391736.6744
       194.0004        195.0004
 -18611888.81849 -14471575.01247  20979963.711    20979963.6754   20979970.7504
       211.0004        211.0004
  15851698.10348  12366521.71746  24316159.825    24316160.2074   24316164.9634
       177.0004        176.0004
 21  2  1  1 14 30.0000000  0  8G21G30G04G01G07G08G09G27
 -15649670.07548 -12179989.90346  21813270.685    21813269.6184   21813273.9524
       179.0004        179.0004
  -4221773.05647  -3268906.29645  23773533.997    23773534.0034   23773540.2584
       156.0004        160.0004
   1057455.18148    851680.22446  22011436.738    22011437.3964   22011443.7834
       185.0004        185.0004
 -14090688.04748 -10962917.82446  22149741.471    22149743.0764   22149751.9354
       177.0004        177.0004
 -16342942.08448 -12724836.85947  21929014.106    21929014.5184   21929018.1914
       193.0004        194.0004
  -5799323.00848  -4498425.37847  21406455.873    21406455.8204   21406463.9384
       194.0004        194.0004
 -18578295.17549 -14445398.13947  20986356.134    20986356.1364   20986363.6834
       211.0004        211.0004
  15960100.45048  12450991.07746  24336787.353    24336788.3184   24336794.2854
       174.0004        174.0004
 21  2  1  1 15  0.0000000  0  8G21G30G04G01G07G08G09G27
 -15662532.38848 -12190012.46546  21810821.737    21810821.5304   21810826.1974
       179.0004        179.0004
  -4308332.99947  -3336355.59845  23757061.284    23757061.1734   23757068.9454
       158.0004        160.0004
   1145673.48648    920421.75446  22028224.751    22028224.3804   22028230.8804
       185.0004        184.0004
 -14163490.14348 -11019646.70946  22135888.327    22135889.3194   22135898.5934
       176.0004        178.0004
 -16416328.16848 -12782020.80347  21915049.851    21915049.4624   21915053.4764
       194.0004        195.0004
  -5721616.66148  -4437874.97747  21421241.743    21421242.7534   21421251.4704
       193.0004        194.0004
 -18544209.51949 -14418837.88447  20992841.859    20992842.3084   20992850.4204
       210.0004        210.0004
  16068532.80948  12535483.83646  24357421.943    24357422.7634   24357426.8704
       172.0004        173.0004
 21  2  1  1 15 30.0000000  0  8G21G30G04G01G07G08G09G27
 -15674965.02648 -12199700.21346  21808456.474    21808456.0894   21808460.7674
       179.0004        180.0004
  -4394954.49047  -3403852.79245  23740577.753    23740577.2004   23740585.5924
       157.0004        159.0004
   1234131.87348    989350.35446  22045058.095    22045058.6144   22045063.5814
       184.0004        183.0004
 -14236114.96948 -11076237.44546  22122068.895    22122069.6894   22122078.7034
       177.0004        178.0004
 -16489611.87449 -12839124.98047  21901103.677    21901104.1864   21901108.3314
       195.0004        195.0004
  -5643599.73148  -4377082.56147  21436088.698    21436089.0424   21436097.6514
       193.0004        193.0004
 -18509634.02749 -14391895.93347  20999421.499    20999421.8714   20999429.6704
       210.0004        210.0004
  16176992.23748  12619997.69746  24378061.631    24378061.8194   24378066.9384
       173.0004        173.0004
 21  2  1  1 16  0.0000000  0  8G21G30G04G01G07G08G09G27
 -15686967.19148 -12209052.54046  21806173.143    21806172.4274   21806177.4294
       180.0004        181.0004
  -4481636.29547  -3471397.02445  23724082.788    23724082.5374   23724090.1384
       157.0004        159.0004
   1322826.84148   1058463.31946  22061935.353    22061935.5794   22061941.6684
       184.0004        183.0004
 -14308559.75548 -11132687.90146  22108284.024    22108284.6584   22108292.2494
       178.0004        178.0004
 -16562791.08549 -12896147.73147  21887177.794    21887178.2514   21887182.6344
       195.0004        195.0004
  -5565275.51448  -4316050.69447  21450993.732    21450993.6784   21451002.3164
       192.0004        193.0004
 -18474571.16749 -14364574.23147  21006094.337    21006094.6234   21006101.3334
       210.0004        211.0004
  16285475.83248  12704530.33046  24398704.221    24398705.1304   24398711.3604
       173.0004        174.0004
 21  2  1  1 16 30.0000000  0  9G21G30G04G01G07G08G09G27G17
 -15698535.45148 -12218066.75546  21803971.146    21803970.8844   21803976.0234
       181.0004        182.0004
  -4568375.18347  -3538985.76145  23707577.586    23707577.7174   23707583.5474
       157.0004        159.0004
   1411756.99048   1127759.52846  22078857.900    22078858.6144   22078865.1744
       183.0004        183.0004
 -14380819.57948 -11188994.23846  22094532.557    22094533.0744   22094541.2384
       178.0004        179.0004
 -16635861.80748 -12953085.96247  21873273.193    21873273.5104   21873277.7514
       194.0004        195.0004
  -5486645.43648  -4254780.52147  21465956.739    21465957.0404   21465964.5844
       192.0004        193.0004
 -18439021.33549 -14336873.07347  21012858.571    21012859.3744   21012866.1984
       210.0004        210.0004
  16393982.48648  12789080.94346  24419352.670    24419353.0594   24419358.4524
       173.0004        173.0004
   -430070.62054   -317377.23644  24200988.163
        74.0004        111.0004
 21  2  1  1 17  0.0000000  0  9G21G30G04G01G07G08G09G27G17
 -15709669.71248 -12226742.78846  21801851.506    21801852.0994   21801857.5544
       182.0004        182.0004
  -4655170.83447  -3606618.68345  23691060.412    23691060.8144   23691068.1164
       157.0004        159.0004
   1500917.94448   1197235.58646  22095824.498    22095825.4764   22095831.4564
       183.0004        183.0004
 -14452892.55448 -11245154.97846  22080818.372    22080818.5854   22080827.1584
       178.0004        180.0004
 -16708822.66849 -13009938.57747  21859389.093    21859389.1094   21859393.9374
       195.0004        195.0004
  -5407714.00248  -4193275.51947  21480976.838    21480977.4294   21480984.8014
       192.0004        193.0004
 -18402987.87049 -14308795.04847  21019715.835    21019716.5124   21019723.5554
       210.0004        211.0004
  16502508.35248  12873646.59546  24440003.809    24440005.1164   24440010.8344
       170.0004        170.0004
   -526407.97444    -79610.14943  24182656.548
        74.0004         74.0004
 21  2  1  1 17 30.0000000  0  9G21G30G04G01G07G08G09G27G17
 -15720369.88748 -12235080.57046  21799815.801    21799815.8434   21799821.1684
       182.0004        181.0004
  -4742023.39547  -3674295.98845  23674533.349    23674533.5554   23674540.0774
       157.0004        160.0004
   1590304.85148   1266887.72946  22112834.121    22112834.8974   22112841.5904
       183.0004        183.0004
 -14524777.19048 -11301168.94546  22067139.763    22067139.7374   22067148.2454
       179.0004        180.0004
 -16781673.22649 -13066705.22547  21845526.048    21845527.1784   21845530.8404
       195.0004        196.0004
  -5328485.68748  -4131539.15447  21496052.970    21496053.8294   21496061.2424
       192.0004        192.0004
 -18366474.59349 -14280343.13847  21026664.563    21026664.5904   21026671.1244
       210.0004        210.0004
  16611049.05648  12958223.70746  24460657.974    24460659.4304   24460666.1694
       170.0004        171.0004
   -622519.97945   -154502.83945  24164367.784                    24164374.3414
        88.0004        146.0004
 21  2  1  1 18  0.0000000  0  9G21G30G04G01G07G08G09G27G17
 -15730633.27948 -12243078.00446  21797863.564    21797862.9844   21797867.5424
       181.0004        181.0004
  -4828929.83647  -3742015.27245  23657994.837    23657995.5344   23658002.7114
       158.0004        159.0004
   1679916.04848   1336714.62646  22129886.870    22129887.7454   22129893.8474
       184.0004        184.0004
 -14596468.87648 -11357032.58046  22053496.311    22053497.0374   22053505.4474
       179.0004        179.0004
 -16854409.48849 -13123382.83047  21831684.723    21831684.9294   21831689.3014
       195.0004        195.0004
  -5248962.11948  -4069572.73847  21511186.808    21511186.5644   21511193.7094
       191.0004        191.0004
 -18329482.25849 -14251517.93347  21033703.497    21033704.0714   21033710.8854
       210.0004        210.0004
  16719603.30548  13042811.46446  24481315.155    24481316.6834   24481322.5494
       171.0004        173.0004
   -718403.05747   -229216.66645  24146119.893    24146121.0404   24146127.5644
       139.0004        149.0004
 21  2  1  1 18 30.0000000  0  9G21G30G04G01G07G08G09G27G17
 -15740456.83548 -12250732.70846  21795993.486    21795993.2384   21795997.6004
       180.0004        179.0004
  -4915886.81547  -3809773.97045  23641447.404    23641448.1444   23641455.0634
       159.0004        162.0004
   1769750.10448   1406715.17346  22146982.175    22146982.7714   22146989.0894
       184.0004        183.0004
 -14667962.78648 -11412742.13546  22039891.940    22039892.2664   22039899.4354
       178.0004        178.0004
 -16927027.36849 -13179968.19447  21817866.550    21817866.2894   21817871.0584
       195.0004        195.0004
  -5169144.96148  -4007377.56847  21526376.045    21526376.0184   21526382.9114
       191.0004        191.0004
 -18292011.29749 -14222319.79147  21040834.898    21040835.2654   21040841.9844
       210.0004        211.0004
  16828170.22648  13127409.01246  24501974.896    24501975.7944   24501982.8814
       170.0004        170.0004
   -814053.55347   -303749.32345  24127919.333    24127921.0124   24127925.8604
       144.0004        149.0004
 21  2  1  1 19  0.0000000  0  9G21G30G04G01G07G08G09G27G17
 -15749838.54648 -12258043.12146  21794208.338    21794208.0194   21794211.6654
       179.0004        178.0004
  -5002892.09947  -3877570.25845  23624889.636    23624890.0294   23624898.4494
       159.0004        161.0004
   1859804.63748   1476887.54746  22164118.860    22164119.5734   22164126.2774
       184.0004        183.0004
 -14739255.00248 -11468294.49446  22026324.463    22026325.9194   22026333.5154
       178.0004        178.0004
 -16999523.64549 -13236458.77847  21804070.065    21804070.9784   21804075.3774
       195.0004        195.0004
  -5089036.29948  -3944955.22347  21541619.808    21541620.0254   21541626.9954
       191.0004        191.0004
 -18254063.20549 -14192749.83547  21048055.012    21048055.7994   21048063.4974
       211.0004        211.0004
  16936747.85248  13212014.93446  24522637.768    24522637.5824   24522644.0894
       170.0004        171.0004
   -909468.65847   -378098.52845  24109763.521    24109762.8764   24109768.5484
       147.0004        150.0004
 21  2  1  1 19 30.0000000  0  9G21G30G04G01G07G08G09G27G17
 -15758776.61048 -12265007.83246  21792507.310    21792507.5654   21792510.6624
       179.0004        179.0004
  -5089943.81647  -3945402.71745  23608324.752    23608325.0244   23608332.2044
       157.0004        160.0004
   1950076.71348   1547229.43946  22181296.922    22181297.5444   22181303.1744
       183.0004        182.0004
 -14810342.09248 -11523687.00346  22012796.109    22012797.4554   22012806.6294
       178.0004        179.0004
 -17071895.70949 -13292852.58047  21790298.160    21790299.5184   21790302.9144
       195.0004        196.0004
  -5008638.79248  -3882307.79847  21556918.892    21556918.9134   21556925.9734
       191.0004        192.0004
 -18215639.99949 -14162809.65747  21055367.508    21055367.7644   21055374.6034
       211.0004        211.0004
  17045333.77748  13296627.38146  24543298.721    24543300.2794   24543308.0874
       171.0004        171.0004
  -1004645.98547   -452262.51545  24091651.116    24091651.0684   24091656.4214
       147.0004        151.0004
 21  2  1  1 20  0.0000000  0  9G21G30G04G01G07G08G09G27G17
 -15767269.75348 -12271625.88746  21790891.360    21790891.1954   21790894.3524
       179.0004        180.0004
  -5177040.33947  -4013270.12545  23591751.611    23591750.8094   23591759.1474
       159.0004        162.0004
   2040563.25548   1617738.40946  22198516.495    22198517.0064   22198522.4414
       182.0004        181.0004
 -14881220.87748 -11578917.22446  21999308.239    21999310.3514   21999318.5074
       178.0004        180.0004
 -17144141.18549 -13349147.78247  21776550.893    21776551.0814   21776555.1964
       196.0004        197.0004
  -4927955.71648  -3819437.89547  21572271.435    21572271.8724   21572279.9834
       191.0004        191.0004
 -18176743.85349 -14132500.99847  21062768.541    21062768.9694   21062776.3134
       210.0004        210.0004
  17153925.49148  13381244.24146  24563962.843    24563964.4754   24563972.2724
       169.0004        170.0004
  -1099583.69547   -526239.77745  24073585.245    24073584.5274   24073590.5984
       148.0004        150.0004
 21  2  1  1 20 30.0000000  0  8G21G30G04G01G07G08G09G17
 -15775317.56848 -12277896.89146  21789360.510    21789359.8244   21789364.1974
       180.0004        181.0004
  -5264180.84947  -4081171.80046  23575170.206    23575169.5994   23575176.5814
       161.0004        163.0004
   2131260.17448   1688411.35046  22215774.119    22215775.9314   22215782.3984
       181.0004        180.0004
 -14951889.09248 -11633983.33146  21985861.761    21985862.4044   21985870.0514
       179.0004        180.0004
 -17216258.51249 -13405343.07747  21762826.813    21762827.4554   21762831.7784
       195.0004        195.0004
  -4846991.54048  -3756348.91847  21587678.179    21587678.8634   21587686.3604
       190.0004        190.0004
 -18137377.98649 -14101826.28747  21070260.177    21070260.4124   21070267.3694
       210.0004        210.0004
  -1194280.41847   -600029.25145  24055563.565    24055564.0384   24055569.3774
       146.0004        149.0004
 21  2  1  1 21  0.0000000  0  8G21G30G04G01G07G08G09G17
 -15782917.70848 -12283819.06246  21787913.526    21787912.9794   21787918.5304
       182.0004        183.0004
  -5351362.83047  -4149105.79446  23558580.051    23558579.8424   23558586.2254
       161.0004        163.0004
   2222165.36048   1759246.54946  22233074.352    22233074.6834   22233080.8634
       181.0004        182.0004
 -15022342.59048 -11688882.14746  21972455.352    21972455.9054   21972463.7114
       180.0004        181.0004
 -17288244.18249 -13461435.79647  21749128.619    21749129.1254   21749133.2654
       195.0004        195.0004
  -4765747.76248  -3693042.06947  21603139.027    21603139.6704   21603146.5004
       190.0004        190.0004
 -18097543.59549 -14070786.49547  21077839.928    21077840.4114   21077847.6994
       210.0004        210.0004
  -1288733.06547   -673628.56545  24037590.616    24037591.1884   24037596.1304
       147.0004        151.0004
 21  2  1  1 21 30.0000000  0  8G21G30G04G01G07G08G09G17
 -15790070.88948 -12289392.95746  21786551.058    21786551.9364   21786557.3454
       182.0004        182.0004
  -5438586.56247  -4217072.34746  23541981.781    23541982.1034   23541988.7654
       163.0004        166.0004
   2313273.61748   1830239.98446  22250411.470    22250411.2234   22250417.1724
       181.0004        180.0004
 -15092580.22148 -11743612.73746  21959088.393    21959089.6644   21959098.2664
       179.0004        180.0004
 -17360097.82749 -13517425.64547  21735455.529    21735456.2724   21735460.3174
       196.0004        197.0004
  -4684229.54348  -3629521.37247  21618652.853    21618652.4104   21618658.7594
       190.0004        190.0004
 -18057245.01849 -14039385.00847  21085509.058    21085509.5344   21085515.9764
       210.0004        210.0004
  -1382941.96747   -747037.91345  24019661.988    24019663.1514   24019669.1264
       149.0004        153.0004
 21  2  1  1 22  0.0000000  0  8G21G30G04G01G07G08G09G17
 -15796773.40248 -12294615.67346  21785276.696    21785276.4564   21785282.0684
       182.0004        182.0004
  -5525847.85947  -4285068.15846  23525375.901    23525375.7914   23525383.5084
       164.0004        165.0004
   2404584.40548   1901391.23746  22267786.212    22267787.7654   22267792.9024
       179.0004        178.0004
 -15162596.22748 -11798170.64446  21945765.574    21945766.7364   21945774.6784
       179.0004        181.0004
 -17431814.50149 -13573308.76547  21721808.091    21721808.5794   21721812.8394
       196.0004        196.0004
  -4602437.14448  -3565787.03947  21634216.743    21634216.6564   21634223.4264
       190.0004        191.0004
 -18016482.00249 -14007621.62247  21093266.148    21093266.0604   21093272.9684
       210.0004        210.0004
  -1476902.28447   -820253.58145  24001782.561    24001782.9344   24001789.9204
       152.0004        156.0004
 21  2  1  1 22 30.0000000  0  8G21G30G04G01G07G08G09G17
 -15803024.54448 -12299486.65746  21784087.453    21784086.6974   21784091.8214
       182.0004        182.0004
  -5613145.92847  -4353092.57146  23508763.802    23508763.5814   23508770.9454
       164.0004        166.0004
   2496093.74648   1972697.21146  22285200.947    22285200.7374   22285206.6644
       178.0004        179.0004
 -15232388.33148 -11852554.07446  21932484.690    21932485.1604   21932492.7234
       180.0004        181.0004
 -17503392.68449 -13629083.96147  21708187.085    21708188.0074   21708192.0474
       196.0004        197.0004
  -4520375.20848  -3501842.66447  21649831.973    21649832.4584   21649839.7244
       190.0004        190.0004
 -17975257.74849 -13975498.81947  21101110.433    21101110.7444   21101117.3974
       209.0004        209.0004
  -1570613.17847   -893274.84145  23983949.254    23983949.1824   23983956.2244
       155.0004        159.0004
 21  2  1  1 23  0.0000000  0  8G21G30G04G01G07G08G09G17
 -15808823.54648 -12304005.35546  21782984.071    21782983.5584   21782988.7044
       182.0004        182.0004
  -5700479.39848  -4421144.61546  23492145.286    23492144.8084   23492151.8294
       165.0004        167.0004
   2587798.07648   2044155.11346  22302650.400    22302651.4164   22302658.2874
       177.0004        176.0004
 -15301953.74248 -11906760.90346  21919246.650    21919247.7934   21919254.9964
       180.0004        181.0004
 -17574830.04949 -13684749.45347  21694594.109    21694594.3464   21694597.5334
       197.0004        197.0004
  -4438046.49448  -3437690.44547  21665498.869    21665499.3474   21665505.9864
       189.0004        188.0004
 -17933574.97549 -13943018.75447  21109042.743    21109043.1464   21109049.6024
       209.0004        210.0004
  -1664073.09147   -966100.58545  23966165.187    23966165.1614   23966171.2194
       156.0004        158.0004
 21  2  1  1 23 30.0000000  0  8G21G30G04G01G07G08G09G17
 -15814168.11948 -12308169.93146  21781965.701    21781966.5954   21781970.6054
       182.0004        181.0004
  -5787845.42348  -4489222.02746  23475519.914    23475519.6844   23475526.9114
       165.0004        167.0004
   2679695.47848   2115763.50246  22320139.002    22320139.5864   22320145.3274
       177.0004        177.0004
 -15371288.08748 -11960787.62946  21906052.810    21906053.6194   21906061.2954
       181.0004        182.0004
 -17646123.11149 -13740302.47747  21681027.012    21681027.5124   21681031.3454
       197.0004        197.0004
  -4355453.11148  -3373331.94347  21681216.428    21681216.7964   21681222.9764
       189.0004        190.0004
 -17891434.84049 -13910182.27047  21117061.829    21117061.8524   21117068.4874
       210.0004        210.0004
  -1757278.66647  -1038728.15045  23948428.195    23948428.1994   23948434.1264
       154.0004        156.0004
 21  2  1  1 24  0.0000000  0  9G21G14G30G04G01G07G08G09G17
 -15819058.18948 -12311980.38646  21781036.079    21781036.6004   21781040.2034
       182.0004        182.0004
  -1299185.08657  -1000797.92845  23554103.712    23554104.7035   23554109.5914
       146.0004        156.0004
  -5875243.25448  -4557324.22746  23458888.185    23458888.3414   23458895.2414
       165.0004        166.0004
   2771781.80848   2187519.06646  22337662.702    22337662.8464   22337668.4764
       178.0004        176.0004
 -15440389.18348 -12014632.63646  21892903.812    21892903.9784   21892913.2874
       182.0004        183.0004
 -17717270.38749 -13795741.91647  21667487.891    21667488.4324   21667492.8254
       197.0004        197.0004
  -4272599.28648  -3308770.53247  21696983.645    21696983.4494   21696989.6024
       190.0004        191.0004
 -17848840.76549 -13876992.08647  21125166.675    21125167.1244   21125174.1424
       209.0004        209.0004
  -1850229.02047  -1111156.78245  23930740.138    23930740.9764   23930746.4594
       155.0004        158.0004
 21  2  1  1 24 30.0000000  0  9G21G14G30G04G01G07G08G09G17
 -15823491.78648 -12315435.10946  21780193.718    21780192.4694   21780196.3484
       182.0004        182.0004
  -1325846.33247  -1021572.90545  23549030.780    23549031.0534   23549036.0294
       150.0004        153.0004
  -5962670.63947  -4625449.46646  23442249.538    23442250.8624   23442257.4834
       163.0004        164.0004
   2864054.48748   2259419.86346  22355221.027    22355221.7414   22355227.4884
       177.0004        176.0004
 -15509253.31248 -12068292.95246  21879799.070    21879799.4744   21879807.8534
       181.0004        181.0004
 -17788268.65749 -13851065.22947  21653977.623    21653978.0174   21653981.6784
       197.0004        197.0004
  -4189487.32449  -3244007.95547  21712798.174    21712798.1504   21712805.7974
       206.0004        209.0004
 -17805794.53349 -13843449.55147  21133358.257    21133358.8054   21133365.8194
       209.0004        210.0004
  -1942921.54647  -1183384.57845  23913101.645    23913101.5754   23913106.9044
       156.0004        159.0004
 21  2  1  1 25  0.0000000  0  9G21G14G30G04G01G07G08G09G17
 -15827466.96448 -12318532.64946  21779436.307    21779435.8104   21779440.6054
       182.0004        182.0004
  -1352456.55747  -1042308.11645  23543965.787    23543966.6924   23543971.4074
       150.0004        153.0004
  -6050125.25547  -4693595.92846  23425608.148    23425608.4944   23425615.3384
       162.0004        163.0004
   2956511.02048   2331463.90446  22372814.765    22372816.0404   22372821.0024
       176.0004        174.0004
 -15577876.69648 -12121765.71046  21866740.583    21866741.0694   21866748.7834
       181.0004        182.0004
 -17859114.92249 -13906270.11147  21640496.318    21640496.0234   21640499.8114
       197.0004        197.0004
  -4106119.74049  -3179046.20947  21728662.638    21728663.0644   21728669.8624
       209.0004        208.0004
 -17762297.96549 -13809556.13247  21141635.605    21141636.1674   21141642.5674
       209.0004        210.0004
  -2035353.41347  -1255409.28045  23895511.941    23895511.9694   23895518.5714
       157.0004        159.0004
 21  2  1  1 25 30.0000000  0  9G21G14G30G04G01G07G08G09G17
 -15830984.30648 -12321273.41546  21778765.972    21778766.3234   21778770.7724
       182.0004        184.0004
  -1379018.45047  -1063005.64145  23538912.205    23538912.6784   23538917.8194
       154.0004        157.0004
  -6137606.73247  -4761763.28146  23408960.743    23408960.8744   23408968.9724
       161.0004        164.0004
   3049146.82348   2403647.64546  22390443.618    22390443.7344   22390450.2484
       176.0004        176.0004
 -15646257.54848 -12175049.48446  21853728.220    21853728.9604   21853735.7404
       181.0004        182.0004
 -17929807.88049 -13961355.51647  21627042.452    21627043.5354   21627048.0214
       197.0004        197.0004
  -4022501.20049  -3113888.89348  21744574.921    21744575.0304   21744581.9084
       218.0004        220.0004
 -17718354.88249 -13775314.76747  21149997.123    21149997.5694   21150004.7744
       209.0004        209.0004
  -2127524.64347  -1327230.83545  23877972.154    23877972.7384   23877978.7144
       156.0004        159.0004
 21  2  1  1 26  0.0000000  0  9G21G14G30G04G01G07G08G09G17
 -15834041.91648 -12323655.96146  21778184.588    21778184.5724   21778189.9514
       183.0004        184.0004
  -1405532.72247  -1083666.08545  23533866.872    23533867.2424   23533871.8734
       157.0004        159.0004
  -6225112.49847  -4829949.58346  23392309.816    23392311.1084   23392317.8914
       164.0004        166.0004
   3141959.59948   2475969.27146  22408105.320    22408105.9444   22408111.8014
       176.0004        177.0004
 -15714391.98448 -12228141.23646  21840761.735    21840762.2384   21840770.6514
       181.0004        182.0004
 -18000344.78149 -14016319.33347  21613620.113    21613620.9784   21613625.2744
       197.0004        198.0004
  -3938633.60849  -3048537.53248  21760534.263    21760534.1864   21760541.1634
       220.0004        220.0004
 -17673966.95149 -13740726.76947  21158443.937    21158444.2194   21158451.2784
       209.0004        209.0004
  -2219431.97647  -1398846.81845  23860483.866    23860483.9704   23860487.5724
       157.0004        159.0004
 21  2  1  1 26 30.0000000  0  9G21G14G30G04G01G07G08G09G17
 -15836638.40448 -12325679.18146  21777691.005    21777690.4444   21777696.7124
       185.0004        186.0004
  -1432000.51747  -1104290.35045  23528830.008    23528830.7004   23528835.4054
       157.0004        160.0004
  -6312640.56147  -4898153.27546  23375654.697    23375654.9714   23375660.4544
       164.0004        164.0004
   3234946.42248   2548426.51846  22425800.595    22425800.6144   22425806.2414
       177.0004        176.0004
 -15782276.51148 -12281038.26046  21827844.062    21827845.0794   21827853.2204
       182.0004        183.0004
 -18070722.44149 -14071159.07047  21600228.591    21600228.4914   21600232.4434
       197.0004        197.0004
  -3854520.19949  -2982994.62648  21776540.326    21776540.7734   21776547.7284
       221.0004        222.0004
 -17629136.39049 -13705793.87247  21166975.063    21166975.8044   21166982.2414
       209.0004        209.0004
  -2311073.98747  -1470256.05045  23843043.462    23843043.4684   23843049.7764
       156.0004        158.0004
 21  2  1  1 27  0.0000000  0  9G21G14G30G04G01G07G08G09G17
 -15838771.92048 -12327341.62646  21777285.125    21777284.9384   21777291.2254
       186.0004        187.0004
  -1458422.45847  -1124878.84345  23523801.434    23523801.5904   23523807.6064
       157.0004        159.0004
  -6400188.51747  -4966372.46245  23358993.461    23358993.9074   23359001.6974
       162.0004        162.0004
   3328104.86348   2621017.51346  22443527.377    22443528.6824   22443534.6114
       177.0004        176.0004
 -15849907.33648 -12333737.58146  21814974.245    21814975.1394   21814983.3424
       182.0004        183.0004
 -18140937.67649 -14125872.23047  21586866.612    21586867.0664   21586871.2994
       197.0004        198.0004
  -3770163.43849  -2917262.06748  21792593.216    21792593.3204   21792600.2484
       222.0004        221.0004
 -17583865.00049 -13670517.45147  21175589.912    21175590.6554   21175597.4954
       209.0004        210.0004
  -2402447.67747  -1541456.13445  23825653.275    23825653.6674   23825661.1304
       153.0004        154.0004
 21  2  1  1 27 30.0000000  0  9G21G14G30G04G01G07G08G09G17
 -15840440.19748 -12328641.55346  21776967.339    21776967.0624   21776973.7004
       187.0004        187.0004
  -1484798.61447  -1145431.66646  23518782.683    23518783.3694   23518788.1014
       159.0004        163.0004
  -6487753.16847  -5034604.61346  23342330.698    23342331.3014   23342338.8014
       162.0004        165.0004
   3421433.14348   2693740.87846  22461286.537    22461286.9374   22461293.2324
       177.0004        177.0004
 -15917279.92248 -12386235.66346  21802154.092    21802154.6494   21802162.9474
       183.0004        184.0004
 -18210986.63649 -14180455.81047  21573536.792    21573537.2304   21573541.7364
       198.0004        199.0004
  -3685564.86749  -2851341.08448  21808691.528    21808691.6444   21808698.6024
       221.0004        220.0004
 -17538153.90149 -13634898.39747  21184288.042    21184288.9264   21184295.1164
       209.0004        208.0004
  -2493549.64247  -1612444.49345  23808317.622    23808318.9874   23808324.7164
       150.0004        153.0004
 21  2  1  1 28  0.0000000  0  9G21G14G30G04G01G07G08G09G17
 -15841642.88248 -12329578.71346  21776737.665    21776738.0174   21776744.7334
       187.0004        187.0004
  -1511131.01147  -1165950.41246  23513772.463    23513772.2904   23513777.6604
       163.0004        165.0004
  -6575333.37748  -5102848.93846  23325666.052    23325665.3104   23325673.6274
       165.0004        168.0004
   3514927.50848   2766593.60446  22479078.999    22479079.5474   22479084.3574
       176.0004        176.0004
 -15984391.78248 -12438530.62746  21789383.003    21789383.5394   21789391.7524
       184.0004        184.0004
 -18280867.38349 -14234908.35247  21560238.818    21560239.1324   21560243.5084
       198.0004        198.0004
  -3600727.79349  -2785234.29248  21824835.391    21824835.5494   21824842.5824
       220.0004        220.0004
 -17492006.26549 -13598939.22747  21193070.617    21193070.5374   21193077.4214
       209.0004        209.0004
  -2584378.66647  -1683220.21745  23791035.810    23791035.2384   23791041.1054
       153.0004        156.0004
 21  2  1  1 28 30.0000000  0  9G21G14G30G04G01G07G08G09G17
 -15842380.49748 -12330153.45646  21776597.899    21776597.2654   21776604.0494
       187.0004        187.0004
  -1537422.56148  -1186437.31646  23508768.865    23508769.7994   23508774.0024
       165.0004        166.0004
  -6662928.89748  -5171105.15946  23308995.196    23308996.2544   23309004.7764
       165.0004        166.0004
   3608583.22848   2839572.08446  22496900.863    22496901.1384   22496907.3244
       176.0004        177.0004
 -16051241.30848 -12490621.14846  21776661.574    21776662.7084   21776670.4344
       184.0004        185.0004
 -18350579.15349 -14289229.24747  21546973.719    21546973.8104   21546977.6564
       198.0004        199.0004
  -3515657.11549  -2718945.47348  21841023.677    21841023.9454   21841030.8664
       220.0004        219.0004
 -17445426.16749 -13562643.04147  21201933.257    21201933.9724   21201941.3774
       208.0004        208.0004
  -2674934.70847  -1753783.23645  23773802.343    23773802.6804   23773808.9894
       154.0004        156.0004
 21  2  1  1 29  0.0000000  0  9G21G14G30G04G01G07G08G09G17
 -15842650.95748 -12330364.17046  21776546.111    21776546.2544   21776553.1304
       186.0004        186.0004
  -1563673.60847  -1206892.64346  23503772.789    23503773.3244   23503779.5684
       163.0004        164.0004
  -6750536.80748  -5239371.02946  23292325.609    23292325.2984   23292332.4724
       165.0004        167.0004
   3702398.29148   2912674.75246  22514753.345    22514753.7364   22514759.0744
       177.0004        176.0004
 -16117824.26948 -12542503.94946  21763990.948    21763992.0854   21764000.7534
       184.0004        184.0004
 -18420118.04049 -14343415.37947  21533740.479    21533740.7634   21533745.1304
       198.0004        199.0004
  -3430355.06849  -2652476.33348  21857256.577    21857256.7454   21857263.4674
       219.0004        219.0004
 -17398415.07549 -13526011.01147  21210879.816    21210880.4114   21210887.1024
       208.0004        208.0004
  -2765214.35347  -1824130.82745  23756621.972    23756623.3434   23756630.2854
       155.0004        159.0004
 21  2  1  1 29 30.0000000  0  9G21G14G30G04G01G07G08G09G17
 -15842452.22348 -12330209.30746  21776583.354    21776583.4744   21776590.6984
       186.0004        186.0004
  -1589884.51647  -1227316.72046  23498784.676    23498785.4134   23498790.6254
       162.0004        163.0004
  -6838154.33347  -5307644.39946  23275651.218    23275651.2204   23275659.5244
       164.0004        164.0004
   3796370.54648   2985899.86246  22532634.713    22532635.4374   22532642.0314
       176.0004        176.0004
 -16184136.56348 -12594175.86946  21751373.266    21751374.2274   21751381.8304
       184.0004        185.0004
 -18489480.81249 -14397464.30547  21520541.056    21520541.5414   21520546.1554
       198.0004        199.0004
  -3344823.44049  -2585828.33048  21873533.126    21873533.1964   21873539.6414
       219.0004        219.0004
 -17350974.54449 -13489044.37947  21219908.304    21219908.3694   21219914.4794
       208.0004        208.0004
  -2855215.15147  -1894261.21845  23739496.201    23739497.0554   23739503.2084
       157.0004        160.0004
 21  2  1  1 30  0.0000000  0  9G21G14G30G04G01G07G08G09G17
 -15841783.68448 -12329688.35346  21776710.984    21776710.8744   21776716.5834
       185.0004        186.0004
  -1616056.89947  -1247710.75745  23493804.404    23493805.6954   23493810.8944
       160.0004        162.0004
  -6925779.89348  -5375924.03646  23258976.995    23258977.5164   23258985.0374
       165.0004        168.0004
   3890496.63048   3059244.86946  22550547.543    22550547.6124   22550552.9204
       176.0004        176.0004
 -16250175.23248 -12645634.55246  21738806.751    21738806.5054   21738814.3714
       185.0004        186.0004
 -18558664.76949 -14451373.87147  21507376.035    21507376.4514   21507380.4784
       199.0004        200.0004
  -3259065.57049  -2519004.00648  21889852.107    21889852.2014   21889858.6854
       219.0004        219.0004
 -17303107.40949 -13451745.30347  21229015.684    21229016.2934   21229023.5524
       207.0004        207.0004
  -2944935.55047  -1964173.10845  23722423.779    23722423.1684   23722428.6974
       155.0004        156.0004
 21  2  1  1 30 30.0000000  0  9G21G14G30G04G01G07G08G09G17
 -15840645.62948 -12328801.52346  21776927.456    21776926.6154   21776932.9734
       185.0004        184.0004
  -1642193.47747  -1268076.88246  23488832.301    23488832.0254   23488837.8934
       161.0004        164.0004
  -7013412.84948  -5444209.44046  23242301.607    23242301.2534   23242309.3034
       168.0004        170.0004
   3984772.06948   3132706.25046  22568486.873    22568487.2934   22568493.0344
       176.0004        175.0004
 -16315938.45848 -12696878.59346  21726291.036    21726292.2864   21726300.3944
       185.0004        185.0004
 -18627668.88949 -14505143.30847  21494244.926    21494245.4804   21494248.8534
       199.0004        199.0004
  -3173085.77149  -2452006.75248  21906212.991    21906213.1544   21906220.0754
       219.0004        218.0004
 -17254817.54749 -13414116.83247  21238206.240    21238206.5934   21238213.2464
       208.0004        208.0004
  -3034374.91647  -2033865.96245  23705402.001    23705402.2934   23705408.7044
       153.0004        155.0004
 21  2  1  1 31  0.0000000  0  9G21G14G30G04G01G07G08G09G17
 -15839035.43048 -12327546.81046  21777233.363    21777233.7464   21777238.8974
       183.0004        182.0004
  -1668293.69947  -1288414.69846  23483863.246    23483864.0454   23483870.8884
       162.0004        163.0004
  -7101049.55248  -5512497.75546  23225625.299    23225624.8104   23225631.7774
       167.0004        167.0004
   4079195.65248   3206283.04746  22586454.320    22586454.6134   22586461.8754
       175.0004        175.0004
 -16381421.23448 -12747904.12046  21713831.439    21713831.5094   21713839.2134
       185.0004        186.0004
 -18696488.78149 -14558769.19147  21481148.964    21481149.4414   21481153.5424
       199.0004        200.0004
  -3086885.12549  -2384837.42048  21922616.647    21922616.8084   21922623.5414
       219.0004        218.0004
 -17206105.71249 -13376159.56347  21247475.393    21247475.7644   21247482.1414
       208.0004        207.0004
  -3123529.60147  -2103337.08945  23688437.016    23688437.4024   23688441.9694
       153.0004        156.0004
 21  2  1  1 31 30.0000000  0  9G21G14G30G04G01G07G08G09G17
 -15836951.97148 -12325923.31946  21777631.063    21777630.4344   21777634.2694
       182.0004        182.0004
  -1694358.77447  -1308725.13746  23478905.380    23478905.5674   23478910.4614
       162.0004        163.0004
  -7188687.94648  -5580787.40446  23208947.276    23208947.2434   23208954.2144
       166.0004        168.0004
   4173764.39248   3279972.96946  22604450.705    22604451.4074   22604456.9154
       175.0004        176.0004
 -16446620.31248 -12798708.59046  21701424.769    21701424.9304   21701432.6864
       185.0004        185.0004
 -18765121.72649 -14612249.40647  21468089.308    21468089.2674   21468092.9214
       200.0004        200.0004
  -3000466.74649  -2317498.42648  21939061.632    21939062.1014   21939068.7534
       219.0004        218.0004
 -17156974.35949 -13337875.39047  21256824.646    21256825.1134   21256832.0054
       207.0004        207.0004
  -3212397.46747  -2172584.68145  23671526.483    23671526.8754   23671531.2414
       155.0004        159.0004
 21  2  1  1 32  0.0000000  0  9G21G14G30G04G01G07G08G09G17
 -15834395.58348 -12323931.30546  21778118.007    21778117.2904   21778121.4294
       182.0004        181.0004
  -1720391.21147  -1329010.13546  23473950.926    23473951.2894   23473955.8474
       162.0004        164.0004
  -7276327.32548  -5649077.82846  23192270.284    23192270.8494   23192277.2684
       168.0004        170.0004
   4268474.08648   3353772.71646  22622473.067    22622473.5674   22622480.1794
       175.0004        175.0004
 -16511533.66148 -12849290.40046  21689071.615    21689071.9294   21689079.9914
       185.0004        186.0004
 -18833566.24249 -14665582.79247  21455063.729    21455064.0594   21455067.7744
       199.0004        199.0004
  -2913834.54649  -2249992.80548  21955546.931    21955547.1944   21955554.2534
       218.0004        217.0004
 -17107427.25949 -13299267.25247  21266253.221    21266253.4274   21266260.5274
       207.0004        207.0004
  -3300977.75647  -2241608.20045  23654671.159    23654671.4944   23654675.1664
       157.0004        159.0004
 21  2  1  1 32 30.0000000  0  9G21G14G30G04G01G07G08G09G17
 -15831365.46048 -12321570.16446  21778694.490    21778693.0174   21778697.8124
       181.0004        181.0004
  -1746392.50347  -1349270.84546  23469004.266    23469003.9994   23469007.9964
       162.0004        164.0004
  -7363965.89148  -5717367.60946  23175593.319    23175593.4684   23175600.4514
       168.0004        169.0004
   4363321.50148   3427679.77746  22640522.741    22640523.2444   22640529.0544
       174.0004        174.0004
 -16576158.28448 -12899647.23146  21676772.821    21676774.4044   21676782.3124
       185.0004        185.0004
 -18901819.84949 -14718767.42047  21442075.505    21442076.0034   21442079.8234
       199.0004        199.0004
  -2826992.20049  -2182323.44248  21972072.638    21972072.6924   21972079.3944
       217.0004        216.0004
 -17057467.15749 -13260337.30447  21275760.421    21275760.6764   21275767.2654
       206.0004        207.0004
  -3389269.23047  -2310406.68445  23637869.254    23637868.9644   23637873.7274
       156.0004        157.0004
 21  2  1  1 33  0.0000000  0  9G21G14G30G04G01G07G08G09G17
 -15827859.67348 -12318838.38646  21779362.220    21779361.0094   21779363.8244
       181.0004        181.0004
  -1772362.65547  -1369507.28946  23464060.743    23464061.4924   23464066.2734
       162.0004        164.0004
  -7451600.37148  -5785654.23046  23158916.751    23158916.8264   23158923.6184
       169.0004        171.0004
   4458304.85348   3501692.77646  22658597.287    22658597.7504   22658603.9964
       174.0004        174.0004
 -16640489.71448 -12949775.59946  21664531.130    21664532.4794   21664540.3014
       184.0004        185.0004
 -18969878.40649 -14771800.06447  21429124.170    21429124.6414   21429129.1174
       199.0004        199.0004
  -2739940.69649  -2114491.10648  21988637.795    21988638.1524   21988645.3684
       217.0004        217.0004
 -17007095.36549 -13221086.56147  21285345.572    21285345.8914   21285352.6854
       206.0004        206.0004
  -3477268.55047  -2378977.51845  23621124.239    23621125.1814   23621128.5734
       156.0004        158.0004
 21  2  1  1 33 30.0000000  0  9G21G14G30G04G01G07G08G09G17
 -15823878.17448 -12315735.90446  21780118.110    21780118.6674   21780121.6324
       180.0004        179.0004
  -1798304.04647  -1389721.35946  23459124.352    23459125.5584   23459130.1454
       162.0004        163.0004
  -7539229.93648  -5853936.99946  23142242.525    23142241.9174   23142249.1954
       170.0004        172.0004
   4553419.94448   3575808.40846  22676697.261    22676697.5334   22676703.9284
       174.0004        174.0004
 -16704525.90548 -12999673.93046  21652346.564    21652347.1614   21652354.7694
       185.0004        187.0004
 -19037740.56449 -14824679.66647  21416210.336    21416211.0574   21416215.3164
       199.0004        200.0004
  -2652684.46149  -2046499.25348  22005241.973    22005242.3844   22005249.4384
       217.0004        217.0004
 -16956315.67249 -13181517.95847  21295008.803    21295009.3624   21295015.8974
       206.0004        207.0004
  -3564974.68747  -2447319.88945  23604433.594    23604434.0124   23604438.4034
       157.0004        160.0004
 21  2  1  1 34  0.0000000  0  9G21G14G30G04G01G07G08G09G17
 -15819418.72448 -12312260.98546  21780967.094    21780967.4004   21780970.4974
       180.0004        180.0004
  -1824216.33647  -1409912.73845  23454192.738    23454193.7704   23454198.8364
       161.0004        161.0004
  -7626851.01348  -5922213.11946  23125567.681    23125568.2144   23125575.6014
       171.0004        172.0004
   4648665.38748   3650025.64946  22694821.928    22694821.8684   22694827.7764
       173.0004        173.0004
 -16768262.06648 -13049338.43446  21640216.792    21640218.0054   21640225.2264
       186.0004        186.0004
 -19105402.21749 -14877403.01747  21403334.956    21403335.0924   21403339.5534
       199.0004        199.0004
  -2565224.73049  -1978348.80648  22021885.356    22021885.2394   22021892.2354
       217.0004        217.0004
 -16905129.03549 -13141632.26447  21304749.024    21304749.9334   21304756.3794
       206.0004        206.0004
  -3652384.85147  -2515431.62645  23587799.188    23587800.4564   23587805.9744
       158.0004        160.0004
 21  2  1  1 34 30.0000000  0  9G21G14G30G04G01G07G08G09G17
 -15814480.35048 -12308412.89746  21781907.195    21781906.8554   21781910.8234
       181.0004        181.0004
  -1850100.84547  -1430082.47445  23449267.126    23449267.7244   23449272.7944
       160.0004        162.0004
  -7714461.53348  -5990481.05746  23108896.620    23108896.3854   23108903.6934
       171.0004        172.0004
   4744038.15848   3724342.07346  22712970.281    22712971.2574   22712976.7044
       173.0004        173.0004
 -16831694.98248 -13098766.68446  21628146.184    21628146.8844   21628154.9034
       186.0004        186.0004
 -19172860.58749 -14929968.00047  21390497.958    21390498.7204   21390502.5374
       199.0004        200.0004
  -2477564.96549  -1910042.51348  22038566.428    22038566.6334   22038573.5014
       217.0004        217.0004
 -16853538.06649 -13101431.52347  21314566.052    21314566.4204   21314574.1574
       206.0004        205.0004
  -3739496.76447  -2583310.94545  23571222.308    23571222.7714   23571228.1844
       158.0004        158.0004
 21  2  1  1 35  0.0000000  0  9G21G14G30G04G01G07G08G09G17
 -15809062.87848 -12304191.48546  21782937.370    21782936.8964   21782941.4534
       180.0004        180.0004
  -1875959.27147  -1450231.87145  23444347.174    23444347.3784   23444352.4484
       161.0004        162.0004
  -7802059.98548  -6058739.59346  23092226.459    23092226.1844   23092233.1584
       170.0004        170.0004
   4839534.75648   3798754.98746  22731142.728    22731144.0034   22731149.6324
       172.0004        172.0004
 -16894821.95948 -13147956.52546  21616134.304    21616134.9034   21616142.3774
       186.0004        187.0004
 -19240113.49349 -14982372.86047  21377700.636    21377700.9764   21377704.9744
       200.0004        201.0004
  -2389708.00149  -1841582.54548  22055284.936    22055285.2164   22055291.9854
       217.0004        216.0004
 -16801545.89349 -13060918.15147  21324460.288    21324460.8914   21324467.7564
       205.0004        206.0004
  -3826309.17447  -2650956.92045  23554702.779    23554702.7084   23554709.3494
       157.0004        159.0004
 21  2  1  1 35 30.0000000  0  9G21G14G30G04G01G07G08G09G17
 -15803165.64448 -12299596.23046  21784059.030    21784059.7264   21784063.9474
       180.0004        180.0004
  -1901792.94747  -1470362.00245  23439429.675    23439431.1204   23439436.6954
       161.0004        162.0004
  -7889644.41448  -6126987.20746  23075559.229    23075559.5774   23075567.2524
       168.0004        168.0004
   4935152.11748   3873262.00746  22749338.141    22749338.8714   22749345.7274
       170.0004        170.0004
 -16957639.89448 -13196905.53547  21604180.393    21604180.9304   21604189.1174
       187.0004        188.0004
 -19307158.44949 -15034615.66347  21364941.996    21364942.1074   21364946.7124
       200.0004        200.0004
  -2301656.84649  -1772971.25548  22072040.680    22072040.5384   22072047.4284
       216.0004        215.0004
 -16749155.23649 -13020094.25847  21334429.903    21334430.5564   21334437.2334
       205.0004        205.0004
  -3912820.32447  -2718368.11045  23538238.869    23538240.1544   23538245.9234
       156.0004        159.0004
 21  2  1  1 36  0.0000000  0  9G21G14G30G04G01G07G08G09G17
 -15796786.71848 -12294625.62546  21785273.495    21785273.2914   21785277.7714
       180.0004        181.0004
  -1927602.04747  -1490472.99445  23434520.090    23434520.3274   23434525.5124
       160.0004        161.0004
  -7977211.67048  -6195221.43146  23058896.390    23058896.3144   23058904.3654
       169.0004        172.0004
   5030888.29748   3947861.62346  22767557.173    22767556.9294   22767562.6894
       169.0004        169.0004
 -17020144.57548 -13245610.47447  21592286.097    21592286.1814   21592293.9604
       187.0004        188.0004
 -19373991.52849 -15086693.38847  21352223.904    21352224.6964   21352228.6754
       200.0004        201.0004
  -2213413.82349  -1704210.46648  22088832.173    22088832.8944   22088840.1774
       216.0004        216.0004
 -16696367.67849 -12978961.09847  21344475.066    21344475.6994   21344482.1554
       205.0004        206.0004
  -3999027.19047  -2785542.22345  23521835.667    23521835.9434   23521840.4934
       155.0004        158.0004
 21  2  1  1 36 30.0000000  0  9G21G14G30G04G01G07G08G09G17
 -15789927.25648 -12289280.56546  21786579.241    21786578.3274   21786584.0484
       181.0004        182.0004
  -1953389.63947  -1510567.18645  23429612.695    23429612.3604   23429617.8524
       158.0004        159.0004
  -8064761.53248  -6263442.06446  23042237.091    23042236.6044   23042243.4614
       171.0004        173.0004
   5126738.45048   4022550.09146  22785796.266    22785796.6974   22785801.8304
       169.0004        170.0004
 -17082334.58048 -13294070.19847  21580451.951    21580452.3254   21580459.8324
       187.0004        188.0004
 -19440611.54749 -15138605.08147  21339547.465    21339547.4694   21339551.1534
       201.0004        201.0004
  -2124983.24049  -1635303.50448  22105660.231    22105660.7594   22105667.7504
       216.0004        216.0004
 -16643187.67849 -12937522.13347  21354594.830    21354594.9784   21354602.1414
       205.0004        204.0004
  -4084930.11147  -2852479.49045  23505487.019    23505487.5524   23505491.4904
       153.0004        154.0004
 21  2  1  1 37  0.0000000  0  9G21G14G30G04G01G07G08G09G17
 -15782585.54948 -12283559.74646  21787975.492    21787975.8774   21787981.6464
       182.0004        182.0004
  -1979155.93847  -1530644.78345  23424709.131    23424709.6594   23424715.3354
       157.0004        159.0004
  -8152290.90148  -6331646.75346  23025580.586    23025580.7804   23025586.7674
       171.0004        171.0004
   5222700.59448   4097325.78646  22804057.207    22804057.3424   22804063.7334
       169.0004        169.0004
 -17144205.73848 -13342281.49446  21568677.373    21568678.2844   21568684.6614
       187.0004        186.0004
 -19507015.12649 -15190348.14247  21326910.981    21326911.5794   21326915.1334
       202.0004        202.0004
  -2036366.87049  -1566251.79148  22122524.043    22122523.9244   22122530.8574
       216.0004        215.0004
 -16589616.87049 -12895778.65047  21364789.391    21364789.9264   21364796.4914
       205.0004        205.0004
  -4170526.18847  -2919177.68645  23489198.168    23489198.6974   23489204.2054
       152.0004        155.0004
 21  2  1  1 37 30.0000000  0  9G21G14G30G04G01G07G08G09G17
 -15774760.26848 -12277462.10746  21789466.065    21789465.0184   21789470.0164
       183.0004        183.0004
  -2004901.59247  -1550706.32745  23419809.638    23419810.3014   23419815.5954
       158.0004        160.0004
  -8239797.09648  -6399833.39846  23008929.173    23008929.1684   23008934.6584
       172.0004        173.0004
   5318772.32148   4172186.83446  22822339.210    22822339.9804   22822344.9494
       168.0004        169.0004
 -17205754.29848 -13390241.40046  21556964.600    21556965.5264   21556973.4404
       186.0004        187.0004
 -19573199.04749 -15241920.02947  21314316.189    21314316.9854   21314320.9244
       202.0004        201.0004
  -1947567.53749  -1497057.51948  22139421.751    22139421.7584   22139428.5524
       215.0004        214.0004
 -16535657.38849 -12853732.31547  21375057.888    21375057.9534   21375064.6244
       205.0004        205.0004
  -4255813.00947  -2985634.88645  23472971.752    23472970.9234   23472974.8324
       154.0004        159.0004
 21  2  1  1 38  0.0000000  0  9G21G14G30G04G01G07G08G09G17
 -15766452.26348 -12270988.32846  21791045.647    21791045.7674   21791050.9764
       183.0004        183.0004
  -2030629.35147  -1570753.92045  23414914.512    23414915.0994   23414919.6284
       158.0004        160.0004
  -8327279.53648  -6468001.55246  22992281.774    22992280.9384   22992287.2214
       172.0004        173.0004
   5414949.15148   4247129.80446  22840640.204    22840640.4054   22840647.5164
       168.0004        168.0004
 -17266978.63248 -13437948.65847  21545315.085    21545315.6964   21545323.1664
       187.0004        188.0004
 -19639161.90049 -15293319.67147  21301764.616    21301764.8424   21301768.6704
       202.0004        202.0004
  -1858589.00049  -1427723.60248  22156353.055    22156353.1284   22156360.3804
       214.0004        213.0004
 -16481313.44149 -12811386.38247  21385397.558    21385398.3994   21385405.6544
       204.0004        203.0004
  -4340790.29347  -3051850.89145  23456800.479    23456800.3084   23456804.7694
       159.0004        162.0004
 21  2  1  1 38 30.0000000  0  9G21G14G30G04G01G07G08G09G17
 -15757659.98848 -12264137.18446  21792718.580    21792718.3604   21792724.4624
       183.0004        184.0004
  -2056339.75847  -1590787.97645  23410021.479    23410021.8764   23410027.1954
       159.0004        161.0004
  -8414735.45948  -6536149.00946  22975638.335    22975638.8774   22975645.7324
       171.0004        173.0004
   5511228.77348   4322152.85946  22858961.877    22858962.0754   22858967.9694
       166.0004        167.0004
 -17327874.89548 -13485400.28746  21533726.845    21533728.1554   21533735.2064
       187.0004        187.0004
 -19704900.60949 -15344544.63147  21289254.413    21289254.9614   21289259.1834
       202.0004        203.0004
  -1769434.08449  -1358252.24748  22173319.706    22173319.5144   22173326.2544
       213.0004        213.0004
 -16426587.03049 -12768742.42747  21395812.715    21395813.0464   21395820.0334
       203.0004        204.0004
  -4425455.89347  -3117824.02946  23440687.873    23440688.2654   23440693.8324
       160.0004        163.0004
 21  2  1  1 39  0.0000000  0  9G21G14G30G04G01G07G08G09G17
 -15748381.92648 -12256907.49646  21794484.657    21794484.2644   21794490.2334
       183.0004        183.0004
  -2082032.96047  -1610808.63145  23405132.102    23405133.0194   23405137.3184
       159.0004        159.0004
  -8502161.66848  -6604273.31046  22959002.181    22959001.7054   22959009.4284
       172.0004        172.0004
   5607609.30048   4397254.56746  22877302.935    22877303.9584   22877309.1864
       167.0004        169.0004
 -17388438.90048 -13532593.00646  21522202.116    21522201.7984   21522210.3364
       186.0004        186.0004
 -19770411.04049 -15395591.71447  21276787.962    21276788.5494   21276792.3394
       202.0004        201.0004
  -1680104.29349  -1288644.61048  22190316.565    22190317.7444   22190325.2554
       213.0004        213.0004
 -16371479.85049 -12725801.76147  21406299.826    21406299.9774   21406307.1234
       204.0004        205.0004
  -4509806.83247  -3183551.94146  23424635.558    23424636.9794   23424642.5184
       161.0004        163.0004
 21  2  1  1 39 30.0000000  0  9G21G14G30G04G01G07G08G09G17
 -15738617.54148 -12249298.89346  21796342.298    21796342.0834   21796347.8894
       183.0004        184.0004
  -2107710.29847  -1630816.94545  23400246.736    23400247.2064   23400251.2914
       159.0004        160.0004
  -8589556.19048  -6672372.92446  22942370.071    22942370.2804   22942377.8144
       169.0004        169.0004
   5704087.64948   4472432.47246  22895662.943    22895662.9054   22895669.1394
       169.0004        170.0004
 -17448667.61048 -13579524.44546  21510738.925    21510740.0724   21510749.6474
       186.0004        187.0004
 -19835690.82749 -15446459.09547  21264365.927    21264366.0064   21264370.2544
       201.0004        201.0004
  -1590602.71749  -1218903.14748  22207349.773    22207350.0424   22207356.8364
       213.0004        213.0004
 -16315994.84549 -12682566.71247  21416857.402    21416858.2084   21416865.1564
       204.0004        204.0004
  -4593841.22347  -3249033.25346  23408645.348    23408645.8734   23408651.7664
       162.0004        164.0004
 21  2  1  1 40  0.0000000  0  9G21G14G30G04G01G07G08G09G17
 -15728367.36448 -12241311.72546  21798293.538    21798293.2884   21798298.7024
       184.0004        184.0004
  -2133373.90847  -1650814.57345  23395362.267    23395363.1624   23395367.3004
       157.0004        157.0004
  -8676917.81448  -6740446.90146  22925745.398    22925745.6924   22925754.1664
       168.0004        170.0004
   5800659.85848   4547683.52946  22914039.394    22914040.0654   22914044.7864
       168.0004        168.0004
 -17508558.82648 -13626192.90747  21499343.324    21499344.3434   21499352.6464
       187.0004        189.0004
 -19900737.96849 -15497145.19047  21251988.268    21251988.4714   21251992.2194
       202.0004        202.0004
  -1500933.16249  -1149030.77748  22224413.737    22224413.7424   22224420.3174
       213.0004        213.0004
 -16260135.44849 -12639039.91747  21427487.171    21427487.8264   21427494.7634
       204.0004        203.0004
  -4677558.57347  -3314267.47446  23392715.280    23392715.2614   23392720.8484
       164.0004        167.0004
 21  2  1  1 40 30.0000000  0  9G21G14G30G04G01G07G08G09G17
 -15717630.46248 -12232945.28446  21800336.616    21800336.6864   21800342.2924
       184.0004        185.0004
  -2159024.91547  -1670802.34445  23390481.140    23390482.4934   23390487.5464
       155.0004        156.0004
  -8764244.22548  -6808493.44446  22909127.896    22909128.6474   22909136.0194
       168.0004        170.0004
   5897323.14748   4623005.57246  22932431.942    22932433.2294   22932439.9324
       167.0004        167.0004
 -17568109.28148 -13672595.86047  21488013.252    21488013.7734   21488020.2054
       190.0004        192.0004
 -19965549.68549 -15547647.83147  21239654.529    21239655.3344   21239659.1334
       202.0004        202.0004
  -1411098.76149  -1079029.94347  22241507.753    22241508.0614   22241515.4974
       213.0004        212.0004
 -16203904.42449 -12595223.53947  21438187.446    21438187.9534   21438195.0854
       203.0004        203.0004
  -4760957.33948  -3379253.43146  23376843.726    23376844.4094   23376850.9004
       165.0004        168.0004
 21  2  1  1 41  0.0000000  0  9G21G14G30G04G01G07G08G09G17
 -15706404.40548 -12224197.68946  21802472.909    21802472.4714   21802477.6824
       184.0004        185.0004
  -2184662.42847  -1690779.62245  23385600.893    23385601.7154   23385607.5414
       153.0004        155.0004
  -8851531.26148  -6876509.31546  22892518.668    22892518.5354   22892525.8144
       169.0004        170.0004
   5994076.56748   4698397.83246  22950844.749    22950844.3694   22950850.7604
       167.0004        168.0004
 -17627313.81048 -13718729.25247  21476746.558    21476746.6444   21476753.1324
       192.0004        191.0004
 -20030121.44549 -15597963.46547  21227366.854    21227367.2234   21227371.3794
       202.0004        202.0004
  -1321099.52149  -1008900.66047  22258633.632    22258634.0654   22258641.5844
       212.0004        212.0004
 -16147302.45649 -12551118.10047  21448958.859    21448959.2694   21448965.7904
       203.0004        203.0004
  -4844033.64248  -3443988.12846  23361034.217    23361035.4784   23361042.3294
       166.0004        168.0004
 21  2  1  1 41 30.0000000  0  9G21G14G30G04G01G07G08G09G17
 -15694691.43148 -12215070.68846  21804701.460    21804701.4884   21804706.5544
       185.0004        185.0004
  -2210290.45847  -1710749.52845  23380725.531    23380726.2334   23380731.2504
       153.0004        155.0004
  -8938779.58848  -6944495.00046  22875915.593    22875915.7824   22875923.9334
       169.0004        171.0004
   6090914.31248   4773855.79646  22969271.563    22969272.6674   22969279.1574
       167.0004        168.0004
 -17686172.17348 -13764592.91547  21465544.483    21465545.2574   21465552.5604
       190.0004        189.0004
 -20094453.04549 -15648092.00047  21215125.237    21215125.7684   21215129.5164
       202.0004        203.0004
  -1230942.00249   -938648.05647  22275791.558    22275790.8214   22275798.0504
       212.0004        212.0004
 -16090335.16549 -12506728.02347  21459799.269    21459799.7164   21459806.6164
       203.0004        203.0004
  -4926788.31048  -3508472.22846  23345287.965    23345287.9684   23345294.8474
       168.0004        169.0004
 21  2  1  1 42  0.0000000  0  9G21G14G30G04G01G07G08G09G17
 -15682489.37448 -12205562.56946  21807023.897    21807024.1064   21807028.5474
       185.0004        186.0004
  -2235908.32147  -1730711.49545  23375850.318    23375850.6354   23375857.7734
       154.0004        157.0004
  -9025985.18648  -7012447.40146  22859321.632    22859321.7524   22859328.3734
       171.0004        172.0004
   6187835.33348   4849378.67446  22987716.785    22987716.7994   22987721.9964
       167.0004        169.0004
 -17744679.41748 -13810182.95146  21454410.293    21454410.4464   21454419.2374
       188.0004        187.0004
 -20158539.82549 -15698029.75247  21202930.151    21202930.0034   21202934.1324
       203.0004        202.0004
  -1140626.56049   -868272.38847  22292977.943    22292977.6124   22292984.1624
       212.0004        212.0004
 -16033003.49549 -12462053.99747  21470708.493    21470709.5934   21470716.1954
       202.0004        202.0004
  -5009217.81248  -3572702.95746  23329600.319    23329601.2534   23329608.6574
       167.0004        168.0004
 21  2  1  1 42 30.0000000  0  9G21G14G30G04G01G07G08G09G17
 -15669799.02448 -12195673.96746  21809438.140    21809438.2134   21809443.2984
       185.0004        184.0004
  -2261518.82547  -1750667.74645  23370977.217    23370977.3204   23370982.8514
       154.0004        156.0004
  -9113147.37848  -7080365.97246  22842735.553    22842735.3404   22842741.8324
       171.0004        173.0004
   6284835.14548   4924962.94046  23006176.283    23006175.8294   23006179.8734
       168.0004        170.0004
 -17802833.98248 -13855498.16547  21443343.553    21443344.5694   21443353.0664
       187.0004        188.0004
 -20222380.95449 -15747776.07947  21190779.925    21190781.0244   21190785.5544
       202.0004        202.0004
  -1050157.55049   -797777.04947  22310191.847    22310192.4464   22310200.2264
       211.0004        210.0004
 -15975311.73849 -12417099.39047  21481687.929    21481687.7854   21481694.6274
       202.0004        202.0004
  -5091322.72848  -3636680.76846  23313979.041    23313978.3364   23313983.7944
       167.0004        168.0004
 21  2  1  1 43  0.0000000  0  9G21G14G30G04G01G07G08G09G17
 -15656619.47848 -12185404.19946  21811946.012    21811945.9284   21811951.9484
       185.0004        185.0004
  -2287122.43747  -1770618.60845  23366104.908    23366105.4024   23366111.4304
       154.0004        157.0004
  -9200263.29348  -7148248.53646  22826156.698    22826156.9134   22826164.5344
       171.0004        170.0004
   6381911.45648   5000606.79446  23024646.465    23024647.7474   23024653.6544
       168.0004        169.0004
 -17860632.03248 -13900535.62847  21432346.950    21432347.1544   21432354.7914
       188.0004        190.0004
 -20285972.69449 -15797328.10747  21178680.680    21178680.7204   21178684.4044
       202.0004        203.0004
   -959537.19949   -727163.82247  22327437.382    22327437.0124   22327444.9974
       210.0004        209.0004
 -15917262.03649 -12371865.88847  21492733.756    21492734.1804   21492741.6644
       202.0004        202.0004
  -5173100.20648  -3700403.42046  23298415.992    23298416.1334   23298421.6084
       165.0004        165.0004
 21  2  1  1 43 30.0000000  0  9G21G14G30G04G01G07G08G09G17
 -15642948.75148 -12174751.66446  21814547.865    21814547.8934   21814552.9504
       185.0004        185.0004
  -2312718.89347  -1790563.85645  23361234.023    23361234.5134   23361239.2034
       155.0004        157.0004
  -9287329.32248  -7216092.16846  22809589.464    22809589.9124   22809596.2784
       171.0004        175.0004
   6479062.81548   5076309.14446  23043134.188    23043134.4914   23043141.7514
       167.0004        166.0004
 -17918069.07348 -13945291.74747  21421417.623    21421417.9454   21421424.7954
       191.0004        192.0004
 -20349310.98149 -15846682.59047  21166627.372    21166627.6744   21166631.6434
       203.0004        203.0004
   -868767.41949   -656434.10947  22344709.900    22344710.1684   22344717.3194
       209.0004        208.0004
 -15858855.74849 -12326354.46847  21503848.495    21503848.7794   21503855.6344
       201.0004        201.0004
  -5254547.35047  -3763868.69346  23282917.279    23282918.2754   23282921.4424
       163.0004        164.0004
 21  2  1  1 44  0.0000000  0  9G21G14G30G04G01G07G08G09G17
 -15628786.64348 -12163716.25546  21817242.672    21817242.9584   21817247.8964
       184.0004        185.0004
  -2338309.68147  -1810504.71145  23356364.053    23356364.9104   23356370.6484
       157.0004        160.0004
  -9374343.53648  -7283895.44446  22793031.696    22793031.1344   22793038.2384
       176.0004        178.0004
   6576285.94648   5152067.41446  23061635.285    23061636.4554   23061641.7854
       167.0004        168.0004
 -17975142.38648 -13989764.46447  21410555.999    21410556.4204   21410564.1334
       192.0004        193.0004
 -20412393.39949 -15895837.72747  21154622.414    21154622.7994   21154627.4284
       203.0004        202.0004
   -777850.86849   -585590.05347  22362011.102    22362011.3074   22362018.4924
       209.0004        209.0004
 -15800095.96649 -12280567.64747  21515030.142    21515030.3494   21515036.7434
       201.0004        201.0004
  -5335662.91247  -3827075.59346  23267481.404    23267482.3614   23267484.7624
       162.0004        163.0004
 21  2  1  1 44 30.0000000  0 10G21G14G30G04G01G07G08G09G28G17
 -15614134.35548 -12152298.85446  21820031.353    21820030.8574   21820035.8834
       184.0004        184.0004
  -2363897.20847  -1830443.01745  23351495.863    23351495.6794   23351500.3994
       159.0004        161.0004
  -9461304.94948  -7351657.57046  22776484.120    22776483.8254   22776489.5244
       177.0004        179.0004
   6673576.66548   5227878.35046  23080149.723    23080149.7554   23080156.6184
       167.0004        169.0004
 -18031850.14248 -14033952.31747  21399765.753    21399766.0394   21399772.9534
       193.0004        193.0004
 -20475218.43349 -15944792.28847  21142668.212    21142668.1654   21142672.0834
       203.0004        203.0004
   -686791.88349   -514635.01447  22379340.159    22379339.4494   22379346.5944
       210.0004        209.0004
 -15740986.84249 -12234508.59047  21526278.571    21526278.9724   21526284.9804
       201.0004        202.0004
  -1450015.04654  -1122490.81344  23690204.522
        74.0004        110.0004
  -5416446.46047  -3890023.75745  23252107.999    23252108.0524   23252112.0824
       160.0004        162.0004
 21  2  1  1 45  0.0000000  0 10G21G14G30G04G01G07G08G09G28G17
 -15598990.76348 -12140498.64846  21822913.915    21822912.8174   21822917.6844
       184.0004        184.0004
  -2389482.28247  -1850379.43045  23346626.911    23346626.8424   23346632.3034
       160.0004        161.0004
  -9548211.02148  -7419376.57946  22759945.269    22759944.9864   22759951.8094
       177.0004        177.0004
   6770932.42448   5303739.95646  23098676.551    23098676.3674   23098682.1134
       167.0004        167.0004
 -18088188.94348 -14077852.68647  21389044.072    21389044.3864   21389051.7504
       192.0004        192.0004
 -20537783.07449 -15993543.96347  21130761.698    21130762.3644   21130766.8084
       203.0004        203.0004
   -595592.73649   -443570.74047  22396692.046    22396692.8964   22396701.4224
       209.0004        208.0004
 -15681530.82049 -12188179.21847  21537591.617    21537592.1494   21537599.6104
       201.0004        201.0004
  -1464982.30744  -1016542.00143  23687356.432
        74.0004         74.0004
  -5496895.98447  -3952711.64245  23236798.372    23236799.6204   23236802.9004
       160.0004        162.0004
 21  2  1  1 45 30.0000000  0 10G21G14G30G04G01G07G08G09G28G17
 -15583356.81148 -12128316.34046  21825888.384    21825887.3944   21825892.6154
       184.0004        185.0004
  -2415066.96647  -1870315.51745  23341758.761    23341759.4624   23341763.9394
       160.0004        161.0004
  -9635060.38148  -7487051.40346  22743419.100    22743418.7354   22743424.9814
       178.0004        180.0004
   6868349.41748   5379649.28646  23117213.522    23117214.3734   23117219.9484
       165.0004        166.0004
 -18144156.60448 -14121463.83747  21378393.549    21378393.8294   21378401.8564
       191.0004        191.0004
 -20600085.50049 -16042091.31447  21118906.107    21118906.8044   21118911.1714
       203.0004        204.0004
   -504256.95649   -372400.02047  22414072.586    22414073.5204   22414081.1494
       207.0004        206.0004
 -15621731.66049 -12141582.47547  21548971.782    21548971.9874   21548978.2744
       201.0004        201.0004
  -1479934.01944  -1028192.61145  23684510.303
        74.0004        140.0004
  -5577010.76247  -4015138.71245  23221553.615    23221554.1094   23221557.1744
       159.0004        160.0004
 21  2  1  1 46  0.0000000  0 10G21G14G30G04G01G07G08G09G28G17
 -15567231.57048 -12115751.19546  21828955.040    21828955.7104   21828961.3904
       184.0004        184.0004
  -2440652.24247  -1890252.10045  23336889.255    23336889.2244   23336894.6824
       159.0004        160.0004
  -9721850.60948  -7554680.13546  22726902.769    22726902.7874   22726909.9464
       179.0004        181.0004
   6965824.90247   5455604.20146  23135761.947    23135762.6504   23135769.0694
       163.0004        163.0004
 -18199749.98648 -14164783.33247  21367814.407    21367814.2124   21367822.1344
       190.0004        190.0004
 -20662122.83149 -16090432.08447  21107101.531    21107101.5614   21107105.2974
       204.0004        204.0004
   -412787.55549   -301125.17047  22431480.534    22431480.0744   22431487.3594
       207.0004        207.0004
 -15561592.05849 -12094720.45347  21560416.161    21560416.3384   21560423.1704
       202.0004        204.0004
  -1494871.43446  -1039832.18145  23681667.895                    23681672.6724
       121.0004        144.0004
  -5656789.18947  -4077303.68245  23206372.326    23206372.8844   23206376.6964
       159.0004        162.0004
 21  2  1  1 46 30.0000000  0 10G21G14G30G04G01G07G08G09G28G17
 -15550614.11548 -12102802.51246  21832117.904    21832118.2674   21832123.3424
       184.0004        184.0004
  -2466238.29847  -1910189.28845  23332020.702    23332021.4994   23332024.7644
       158.0004        160.0004
  -9808578.48248  -7622260.29446  22710399.790    22710399.5454   22710405.7414
       181.0004        181.0004
   7063356.94047   5531603.16546  23154320.760    23154321.8744   23154329.8374
       162.0004        163.0004
 -18254965.06548 -14207808.04947  21357306.743    21357307.6674   21357315.4434
       189.0004        189.0004
 -20723890.98549 -16138563.11847  21095346.597    21095347.4134   21095351.1104
       203.0004        204.0004
   -321186.32549   -229747.60747  22448911.779    22448911.1614   22448918.7774
       208.0004        208.0004
 -15501113.93349 -12047594.64047  21571925.401    21571925.1184   21571931.2994
       203.0004        202.0004
  -1509795.14547  -1051461.02445  23678828.616    23678828.6004   23678832.1114
       137.0004        144.0004
  -5736228.95947  -4139204.79046  23191255.485    23191256.2904   23191261.5184
       161.0004        164.0004
 21  2  1  1 47  0.0000000  0 10G21G14G30G04G01G07G08G09G28G17
 -15533502.97648 -12089469.14146  21835374.286    21835374.6124   21835379.8254
       185.0004        185.0004
  -2491825.01947  -1930126.97845  23327152.087    23327152.3574   23327156.4504
       159.0004        160.0004
  -9895240.54948  -7689789.15646  22693907.171    22693906.7394   22693914.4354
       178.0004        177.0004
   7160943.83847   5607644.91146  23172891.537    23172892.2054   23172900.2484
       162.0004        164.0004
 -18309797.63148 -14250534.70447  21346871.802    21346872.8814   21346881.1424
       189.0004        190.0004
 -20785386.09449 -16186481.38547  21083644.425    21083645.0194   21083649.3304
       203.0004        203.0004
   -229454.34249   -158268.14347  22466366.083    22466366.8564   22466375.6184
       208.0004        208.0004
 -15440298.89849 -12000206.30647  21583497.158    21583497.7204   21583504.5964
       203.0004        204.0004
  -1524705.44147  -1063079.43545  23675991.376    23675990.6044   23675996.3644
       140.0004        145.0004
  -5815327.14147  -4200839.65546  23176204.433    23176204.7444   23176210.6554
       163.0004        167.0004
 21  2  1  1 47 30.0000000  0 10G21G14G30G04G01G07G08G09G28G17
 -15515896.54748 -12075749.85646  21838726.200    21838724.9904   21838729.9114
       185.0004        185.0004
  -2517412.37247  -1950065.18245  23322282.790    23322282.1504   23322287.9694
       159.0004        160.0004
  -9981833.27548  -7757264.03646  22677429.186    22677429.5164   22677435.4104
       176.0004        177.0004
   7258583.91247   5683728.05946  23191472.734    23191473.1894   23191480.1024
       162.0004        163.0004
 -18364243.49848 -14292960.06947  21336511.591    21336511.8384   21336520.1584
       189.0004        189.0004
 -20846604.65349 -16234184.18347  21071994.620    21071995.4034   21071999.5984
       203.0004        203.0004
   -137593.60249    -86688.37147  22483848.728    22483848.3344   22483855.4524
       207.0004        207.0004
 -15379148.64349 -11952556.79147  21595133.929    21595134.2534   21595141.2844
       203.0004        203.0004
  -1539602.87547  -1074687.82245  23673156.173    23673155.9084   23673161.2484
       142.0004        147.0004
  -5894081.14548  -4262206.42146  23161218.036    23161218.0234   23161224.7874
       167.0004        169.0004
 21  2  1  1 48  0.0000000  0 10G21G14G30G04G01G07G08G09G28G17
 -15497798.05948 -12061647.12446  21842169.924    21842168.5434   21842174.0944
       184.0004        185.0004
  -2543004.78547  -1970007.31045  23317412.004    23317412.8634   23317418.3094
       159.0004        161.0004
 -10068357.67848  -7824685.65446  22660965.245    22660964.3324   22660970.1644
       177.0004        179.0004
   7356271.01647   5759847.86246  23210062.081    23210062.0724   23210068.9944
       162.0004        163.0004
 -18418302.90648 -14335084.27047  21326225.004    21326225.4854   21326233.0224
       190.0004        191.0004
 -20907546.98549 -16281671.72247  21060398.811    21060399.2354   21060402.3354
       203.0004        204.0004
    -45609.78949    -15012.67047  22501351.956    22501352.0624   22501359.4574
       207.0004        207.0004
 -15317669.33049 -11904650.83447  21606832.896    21606833.5274   21606840.0364
       203.0004        203.0004
  -1554492.35347  -1086290.01045  23670323.084    23670323.0514   23670325.7934
       143.0004        148.0004
  -5972492.63448  -4323306.22046  23146295.944    23146296.8464   23146303.5324
       168.0004        169.0004
 21  2  1  1 48 30.0000000  0 10G21G14G30G04G01G07G08G09G28G17
 -15479204.80048 -12047158.84646  21845707.181    21845707.4564   21845712.6564
       184.0004        184.0004
  -2568600.92047  -1989952.32045  23312541.673    23312541.7734   23312545.8814
       158.0004        160.0004
 -10154808.99748  -7892050.29846  22644513.314    22644513.3574   22644520.3834
       180.0004        182.0004
   7454004.70247   5836003.96545  23228661.002    23228660.9024   23228666.7404
       161.0004        162.0004
 -18471970.45848 -14376903.12847  21316012.928    21316013.1024   21316020.9024
       191.0004        192.0004
 -20968207.76649 -16328939.85047  21048855.275    21048855.6264   21048859.4674
       204.0004        204.0004
     46496.38749     56758.38147  22518878.373    22518878.8154   22518886.8394
       206.0004        205.0004
 -15255861.40449 -11856488.80447  21618595.350    21618595.4774   21618602.0554
       203.0004        203.0004
  -1569372.64847  -1097884.99345  23667491.257    23667490.9514   23667495.6724
       146.0004        150.0004
  -6050557.78448  -4384136.15546  23131440.953    23131442.5774   23131447.3444
       169.0004        171.0004
 21  2  1  1 49  0.0000000  0 10G21G14G30G04G01G07G08G09G28G17
 -15460117.90048 -12032285.92746  21849339.586    21849339.0624   21849344.3614
       184.0004        184.0004
  -2594203.04847  -2009902.03045  23307669.202    23307669.9724   23307674.7814
       157.0004        159.0004
 -10241186.11348  -7959357.12146  22628076.027    22628076.3574   22628083.7844
       181.0004        182.0004
   7551780.94347   5912193.23146  23247266.796    23247266.9204   23247273.0594
       161.0004        163.0004
 -18525244.31448 -14418415.21047  21305873.998    21305874.9604   21305882.8734
       192.0004        192.0004
 -21028585.43749 -16375987.38747  21037365.092    21037366.2844   21037370.0214
       204.0004        204.0004
    138720.86149    128621.61547  22536427.711    22536427.9904   22536436.1594
       205.0004        204.0004
 -15193728.92849 -11808073.87847  21630417.956    21630418.4794   21630425.2514
       202.0004        202.0004
  -1584246.52547  -1109475.02645  23664660.688    23664661.0494   23664666.0424
       148.0004        152.0004
  -6128275.92248  -4444695.69546  23116652.307    23116652.8194   23116657.4594
       169.0004        169.0004
 21  2  1  1 49 30.0000000  0 10G21G14G30G04G01G07G08G09G28G17
 -15440535.68348 -12017027.06246  21853066.208    21853065.6234   21853070.2864
       184.0004        184.0004
  -2619810.91547  -2029856.20945  23302797.522    23302797.5904   23302802.6934
       158.0004        160.0004
 -10327485.35048  -8026603.29146  22611653.922    22611654.5334   22611661.5384
       181.0004        181.0004
   7649598.22147   5988414.46446  23265880.596    23265881.1594   23265887.6904
       161.0004        163.0004
 -18578120.16448 -14459617.19347  21295812.165    21295813.2084   21295820.4804
       192.0004        193.0004
 -21088675.81549 -16422811.09047  21025931.349    21025931.6444   21025935.2134
       204.0004        204.0004
    231062.41849    200576.04347  22554000.434    22554000.4844   22554007.8044
       204.0004        204.0004
 -15131273.45549 -11759407.30847  21642302.249    21642303.0454   21642310.3614
       201.0004        201.0004
  -1599114.50147  -1121060.45745  23661830.462    23661830.9844   23661835.2504
       147.0004        150.0004
  -6205644.82148  -4504983.13546  23101928.732    23101928.5394   23101934.5034
       168.0004        168.0004
 21  2  1  1 50  0.0000000  0 10G21G14G30G04G01G07G08G09G28G17
 -15420459.37748 -12001383.16346  21856886.483    21856886.1924   21856891.0024
       184.0004        183.0004
  -2645426.82947  -2049816.65145  23297922.563    23297923.0054   23297927.5374
       158.0004        160.0004
 -10413705.58548  -8093787.85846  22595247.546    22595247.4244   22595253.6854
       181.0004        182.0004
   7747452.52947   6064664.58445  23284501.766    23284501.5314   23284507.1624
       160.0004        162.0004
 -18630596.28148 -14500507.65047  21285826.509    21285827.4404   21285835.6134
       193.0004        195.0004
 -21148477.50249 -16469409.78247  21014550.917    21014551.1944   21014555.3204
       204.0004        204.0004
    323517.31449    272618.84247  22571593.870    22571593.6064   22571601.9684
       204.0004        204.0004
 -15068499.13349 -11710492.23247  21654248.149    21654248.6264   21654255.6724
       201.0004        201.0004
  -1613978.99347  -1132643.16545  23659002.160    23659002.0434   23659006.6624
       148.0004        151.0004
  -6282664.17848  -4564998.17046  23087271.609    23087272.9984   23087278.2054
       165.0004        165.0004
 21  2  1  1 50 30.0000000  0 10G21G14G30G04G01G07G08G09G28G17
 -15399888.08248 -11985353.57846  21860801.464    21860800.9294   21860805.6674
       184.0004        185.0004
  -2671051.29347  -2069783.77945  23293046.273    23293046.4084   23293050.6024
       158.0004        159.0004
 -10499843.89448  -8160908.62746  22578856.408    22578856.4364   22578862.5604
       180.0004        180.0004
   7845341.58147   6140941.72845  23303129.007    23303129.4114   23303135.8224
       160.0004        162.0004
 -18682669.14648 -14541083.90947  21275918.147    21275918.5444   21275926.2634
       194.0004        194.0004
 -21207987.20849 -16515780.99647  21003226.593    21003227.3124   21003231.0204
       204.0004        205.0004
    416083.38749    344748.22747  22589207.216    22589208.2774   22589216.6624
       204.0004        204.0004
 -15005408.23149 -11661330.50647  21666254.477    21666254.6664   21666261.6364
       200.0004        200.0004
  -1628841.18047  -1144224.09745  23656174.925    23656174.6734   23656178.7104
       150.0004        153.0004
  -6359331.48448  -4624738.91046  23072683.256    23072683.4434   23072689.2604
       165.0004        167.0004
 21  2  1  1 51  0.0000000  0 10G21G14G30G04G01G07G08G09G28G17
 -15378822.14148 -11968938.54946  21864810.011    21864809.4804   21864814.1034
       184.0004        185.0004
  -2696685.57947  -2089758.51345  23288167.531    23288168.2474   23288173.4474
       158.0004        161.0004
 -10585898.07848  -8227963.83446  22562480.302    22562479.5704   22562486.4334
       180.0004        179.0004
   7943262.31847   6217243.60745  23321761.919    23321762.6044   23321769.2174
       161.0004        162.0004
 -18734335.91948 -14581343.73647  21266086.338    21266086.6124   21266094.3704
       194.0004        194.0004
 -21267202.26149 -16561922.60847  20991958.761    20991959.0874   20991962.7794
       205.0004        205.0004
    508757.42249    416961.75047  22606843.306    22606843.8024   22606852.2064
       204.0004        204.0004
 -14942003.87149 -11611924.52047  21678319.934    21678320.0804   21678327.4154
       200.0004        200.0004
  -1643702.43447  -1155804.27945  23653345.863    23653345.6144   23653350.2624
       149.0004        152.0004
  -6435646.16948  -4684204.86846  23058159.974    23058160.8814   23058165.3274
       165.0004        166.0004
 21  2  1  1 51 30.0000000  0 10G21G14G30G04G01G07G08G09G28G17
 -15357260.46748 -11952137.23546  21868912.072    21868912.3074   21868917.1704
       184.0004        185.0004
  -2722330.29247  -2109741.40345  23283288.528    23283287.6154   23283292.6754
       159.0004        161.0004
 -10671865.38648  -8294951.35046  22546120.341    22546120.9934   22546127.6104
       178.0004        177.0004
   8041212.43547   6293568.36545  23340400.776    23340402.1304   23340408.6934
       160.0004        162.0004
 -18785593.29048 -14621284.53247  21256332.197    21256332.8444   21256339.9374
       194.0004        195.0004
 -21326119.43749 -16607832.09247  20980746.551    20980747.0224   20980750.9294
       204.0004        204.0004
    601537.57949    489257.95047  22624499.526    22624499.6704   22624507.5754
       203.0004        203.0004
 -14878288.52549 -11562276.20947  21690443.855    21690444.3374   21690451.8114
       200.0004        199.0004
  -1658564.05947  -1167384.77845  23650518.488    23650518.5494   23650523.2184
       151.0004        155.0004
  -6511606.11948  -4743394.41646  23043706.899    23043707.0204   23043711.0814
       166.0004        169.0004
 21  2  1  1 52  0.0000000  0 10G21G14G30G04G01G07G08G09G28G17
 -15335205.55948 -11934951.56846  21873109.640    21873108.9624   21873114.2474
       185.0004        185.0004
  -2747988.61647  -2129734.86545  23278405.173    23278405.6604   23278410.8954
       159.0004        161.0004
 -10757745.51548  -8361870.89046  22529777.967    22529778.2714   22529784.5924
       178.0004        178.0004
   8139186.93647   6369912.14445  23359045.824    23359046.4764   23359052.3954
       160.0004        162.0004
 -18836440.47748 -14660905.69047  21246655.885    21246656.2804   21246664.3954
       194.0004        194.0004
 -21384738.21449 -16653509.05147  20969592.148    20969592.3254   20969596.1904
       204.0004        204.0004
    694418.88449    561632.99247  22642173.917    22642173.9704   22642181.9724
       203.0004        202.0004
 -14814267.26649 -11512389.51047  21702627.046    21702627.3634   21702634.2084
       199.0004        199.0004
  -1673429.63047  -1178968.31745  23647689.595    23647689.3584   23647693.3284
       152.0004        154.0004
  -6587211.73448  -4802307.85146  23029319.253    23029319.3814   23029323.7304
       168.0004        170.0004
 21  2  1  1 52 30.0000000  0 10G21G14G30G04G01G07G08G09G28G17
 -15312656.10148 -11917380.56246  21877399.853    21877399.9804   21877405.4064
       184.0004        184.0004
  -2773659.97047  -2149738.51045  23273519.557    23273520.2084   23273524.4654
       160.0004        162.0004
 -10843534.38448  -8428719.38346  22513452.730    22513453.0454   22513459.6564
       177.0004        176.0004
   8237184.70947   6446274.03245  23377694.393    23377694.8474   23377701.5644
       160.0004        161.0004
 -18886872.85848 -14700203.67047  21237058.982    21237059.6934   21237067.6584
       193.0004        194.0004
 -21443054.08249 -16698950.01047  20958494.931    20958495.1394   20958499.0634
       204.0004        205.0004
    787400.04449    634085.82147  22659867.741    22659868.0624   22659875.9274
       203.0004        203.0004
 -14749941.28549 -11462265.40247  21714868.453    21714868.5124   21714874.5044
       199.0004        199.0004
  -1688299.21447  -1190554.99845  23644859.074    23644860.0994   23644864.2994
       151.0004        153.0004
  -6662460.36548  -4860943.09946  23014999.190    23014999.5724   23015003.3924
       167.0004        168.0004
 21  2  1  1 53  0.0000000  0 10G21G14G30G04G01G07G08G09G28G17
 -15289611.23948 -11899423.51646  21881785.701    21881785.8634   21881790.8604
       184.0004        184.0004
  -2799345.24247  -2169752.98546  23268632.390    23268633.1054   23268638.0544
       161.0004        164.0004
 -10929229.48348  -8495494.76246  22497145.669    22497145.7514   22497153.4074
       177.0004        179.0004
   8335203.13547   6522652.01645  23396347.234    23396348.0434   23396352.2884
       159.0004        160.0004
 -18936887.40748 -14739176.02547  21227541.583    21227542.4074   21227550.7024
       193.0004        194.0004
 -21501063.95849 -16744152.51247  20947455.970    20947456.4744   20947460.1354
       204.0004        204.0004
    880479.10949    706614.96347  22677580.867    22677580.2384   22677588.8964
       202.0004        203.0004
 -14685313.42949 -11411906.03747  21727165.912    21727166.4374   21727173.8184
       199.0004        200.0004
  -1703173.82047  -1202145.58345  23642030.675    23642029.4444   23642034.5644
       152.0004        155.0004
  -6737349.88048  -4919298.53446  23000748.873    23000749.5964   23000753.1704
       168.0004        170.0004
 21  2  1  1 53 30.0000000  0 10G21G14G30G04G01G07G08G09G28G17
 -15266072.07648 -11881081.28746  21886264.969    21886264.3604   21886269.4434
       184.0004        184.0004
  -2825046.30047  -2189779.75845  23263741.798    23263742.0124   23263747.1834
       162.0004        162.0004
 -11014829.30748  -8562195.93046  22480856.379    22480856.5784   22480864.2004
       178.0004        179.0004
   8433238.48547   6599043.19745  23415002.422    23415003.2774   23415008.1474
       159.0004        161.0004
 -18986482.11848 -14777821.22847  21218104.007    21218104.2394   21218112.3344
       193.0004        193.0004
 -21558766.13649 -16789115.24247  20936475.240    20936475.7394   20936479.9544
       204.0004        204.0004
    973652.29249    779217.43647  22695309.837    22695310.5554   22695319.1774
       202.0004        202.0004
 -14620387.48149 -11361314.39347  21739521.570    21739521.6504   21739528.6954
       199.0004        200.0004
  -1718055.89747  -1213741.99045  23639197.295    23639196.8084   23639201.2704
       151.0004        153.0004
  -6811880.59848  -4977374.39046  22986566.043    22986565.9354   22986571.2504
       168.0004        169.0004
 21  2  1  1 54  0.0000000  0 10G21G14G30G04G01G07G08G09G28G17
 -15242038.72448 -11862354.00046  21890838.592    21890838.2474   21890842.8514
       184.0004        184.0004
  -2850764.29547  -2209819.72745  23258846.569    23258846.8684   23258851.5844
       158.0004        158.0004
 -11100331.51048  -8628821.00346  22464584.981    22464585.3634   22464594.6394
       179.0004        179.0004
   8531287.90947   6675445.32945  23433660.723    23433660.7224   23433666.6834
       158.0004        158.0004
 -19035654.22048 -14816137.14647  21208745.951    21208746.7324   21208755.0014
       192.0004        192.0004
 -21616158.09149 -16833836.25547  20925553.487    20925554.2354   20925558.5264
       204.0004        205.0004
   1066916.92249    851891.16147  22713057.093    22713057.4644   22713067.0694
       200.0004        200.0004
 -14555166.50249 -11310492.85547  21751931.928    21751932.6814   21751940.1264
       199.0004        200.0004
  -1732946.91247  -1225345.39145  23636363.150    23636363.6674   23636367.5004
       148.0004        151.0004
  -6886050.97648  -5035169.50146  22972452.434    22972452.4044   22972456.7334
       168.0004        171.0004
 21  2  1  1 54 30.0000000  0 10G21G14G30G04G01G07G08G09G28G17
 -15217509.61248 -11843240.40246  21895506.738    21895506.1794   21895510.7984
       184.0004        184.0004
  -2876498.48647  -2229872.34045  23253949.779    23253950.7664   23253955.4944
       157.0004        159.0004
 -11185731.87048  -8695366.72546  22448335.177    22448335.1494   22448342.4924
       178.0004        179.0004
   8629350.46447   6751857.69845  23452321.235    23452322.1804   23452327.5814
       157.0004        159.0004
 -19084399.00148 -14854120.08947  21199470.834    21199471.5814   21199479.5094
       193.0004        194.0004
 -21673235.17849 -16878311.91647  20914692.737    20914693.0664   20914697.3824
       205.0004        205.0004
   1160272.24949    924635.55447  22730822.251    22730823.0254   22730831.7144
       201.0004        202.0004
 -14489651.62049 -11259442.30347  21764399.150    21764399.6844   21764406.9384
       199.0004        199.0004
  -1747846.75247  -1236955.65245  23633527.786    23633528.3744   23633532.4094
       148.0004        151.0004
  -6959857.84248  -5092681.32046  22958406.070    22958406.9304   22958411.8734
       171.0004        172.0004
 21  2  1  1 55  0.0000000  0 10G21G14G30G04G01G07G08G09G28G17
 -15192486.31248 -11823741.71746  21900268.428    21900267.3064   21900272.4084
       184.0004        184.0004
  -2902251.23847  -2249939.42346  23249050.095    23249050.7274   23249055.1674
       160.0004        163.0004
 -11271029.34748  -8761832.28446  22432104.430    22432104.6324   22432110.5444
       180.0004        181.0004
   8727422.02047   6828277.07345  23470984.341    23470983.4204   23470989.4084
       157.0004        158.0004
 -19132715.08948 -14891768.98147  21190276.629    21190276.9044   21190285.2094
       193.0004        193.0004
 -21729996.26449 -16922541.33847  20903891.945    20903892.1224   20903895.8494
       205.0004        205.0004
   1253713.97149    997447.27147  22748604.548    22748604.5804   22748612.9574
       201.0004        202.0004
 -14423847.18349 -11208166.12947  21776920.646    21776921.2244   21776928.5644
       198.0004        197.0004
  -1762758.13747  -1248574.91245  23630689.831    23630690.6104   23630695.6094
       149.0004        153.0004
  -7033301.39148  -5149910.02946  22944431.541    22944431.3854   22944436.1424
       171.0004        173.0004
 21  2  1  1 55 30.0000000  0 10G21G14G30G04G01G07G08G09G28G17
 -15166968.25148 -11803857.52046  21905124.043    21905123.3274   21905128.4004
       184.0004        184.0004
  -2928023.24647  -2270021.50546  23244145.172    23244145.2554   23244151.4144
       162.0004        164.0004
 -11356221.13048  -8828215.50946  22415891.918    22415892.2794   22415899.1884
       181.0004        181.0004
   8825500.12847   6904701.56045  23489647.672    23489647.9164   23489653.2714
       156.0004        157.0004
 -19180599.21948 -14929081.29547  21181164.070    21181165.2824   21181172.5594
       194.0004        195.0004
 -21786437.70649 -16966521.70147  20893151.282    20893151.6324   20893155.7044
       205.0004        206.0004
   1347239.83649   1070324.56047  22766401.425    22766400.9804   22766409.8004
       200.0004        199.0004
 -14357755.78449 -11156666.36547  21789497.969    21789498.4474   21789505.7924
       197.0004        197.0004
  -1777682.31347  -1260204.18645  23627850.689    23627850.6194   23627854.6874
       150.0004        153.0004
  -7106379.62948  -5206854.09246  22930523.909    22930524.5914   22930530.1364
       172.0004        173.0004
 21  2  1  1 56  0.0000000  0 10G21G14G30G04G01G07G08G09G28G17
 -15140955.14848 -11783587.55446  21910073.127    21910073.2014   21910077.9614
       183.0004        184.0004
  -2953815.27147  -2290119.14245  23239236.999    23239237.8574   23239242.5644
       162.0004        162.0004
 -11441304.56848  -8894514.27046  22399700.419    22399701.1524   22399708.3524
       181.0004        182.0004
   8923582.26847   6981129.19845  23508312.377    23508312.5344   23508317.0134
       155.0004        156.0004
 -19228048.36749 -14966054.63047  21172136.725    21172136.4034   21172143.9034
       195.0004        196.0004
 -21842556.60949 -17010250.71347  20882471.832    20882472.2924   20882476.5254
       205.0004        206.0004
   1440847.60949   1143265.67047  22784214.271    22784214.5664   22784223.1154
       199.0004        198.0004
 -14291380.12949 -11104945.06847  21802129.709    21802129.7284   21802136.5894
       197.0004        197.0004
  -1792620.25747  -1271844.12545  23625009.339    23625008.9474   23625011.9854
       150.0004        152.0004
  -7179091.24248  -5263512.45646  22916687.091    22916688.0874   22916694.3554
       172.0004        174.0004
 21  2  1  1 56 30.0000000  0 10G21G14G30G04G01G07G08G09G28G17
 -15114448.11248 -11762932.71146  21915118.269    21915118.1354   21915122.6514
       183.0004        183.0004
  -2979628.88947  -2310233.61446  23234325.583    23234326.5414   23234331.2204
       163.0004        165.0004
 -11526277.78048  -8960727.16046  22383532.446    22383531.7934   22383537.4664
       181.0004        182.0004
   9021665.11347   7057557.36745  23526977.458    23526976.9844   23526982.2684
       155.0004        157.0004
 -19275060.31649 -15002687.31447  21163189.210    21163190.1634   21163198.0114
       195.0004        196.0004
 -21898350.97049 -17053726.84147  20871854.830    20871854.8174   20871859.1204
       205.0004        205.0004
   1534533.86049   1216267.93447  22802042.071    22802042.0724   22802051.6354
       197.0004        197.0004
 -14224723.80149 -11053005.06447  21814813.512    21814813.8284   21814821.2024
       197.0004        197.0004
  -1807574.27047  -1283496.59245  23622162.537    23622162.8424   23622166.8704
       149.0004        153.0004
  -7251435.24048  -5319884.36946  22902921.752    22902922.1134   22902926.8564
       175.0004        177.0004
 21  2  1  1 57  0.0000000  0 10G21G14G30G04G01G07G08G09G28G17
 -15087446.99148 -11741892.84846  21920256.195    21920255.6494   21920261.7204
       184.0004        184.0004
  -3005464.70848  -2330365.40346  23229409.874    23229409.8864   23229414.9274
       165.0004        167.0004
 -11611137.97148  -9026851.96746  22367383.862    22367383.6204   22367389.9434
       182.0004        183.0004
   9119746.26547   7133984.25545  23545641.075    23545640.8984   23545646.1524
       155.0004        157.0004
 -19321631.93949 -15038976.86847  21154326.707    21154327.6034   21154335.5324
       196.0004        196.0004
 -21953817.89749 -17096947.81447  20861299.396    20861300.2414   20861303.7604
       205.0004        206.0004
   1628296.74649   1289329.90647  22819885.054    22819884.7644   22819893.3834
       196.0004        197.0004
 -14157789.43949 -11000848.41947  21827550.097    21827550.5744   21827557.8674
       197.0004        197.0004
  -1822545.25047  -1295162.28345  23619313.705    23619313.4834   23619319.3424
       151.0004        155.0004
  -7323411.04548  -5375969.38546  22889224.764    22889224.6224   22889230.3464
       175.0004        174.0004
 21  2  1  1 57 30.0000000  0 10G21G14G30G04G01G07G08G09G28G17
 -15059952.33048 -11720468.46546  21925487.808    21925487.7234   21925493.7004
       184.0004        184.0004
  -3031324.13748  -2350515.61046  23224488.472    23224488.8044   23224493.7444
       166.0004        167.0004
 -11695883.03648  -9092887.11246  22351256.620    22351257.1094   22351263.0324
       183.0004        183.0004
   9217822.60347   7210407.33945  23564303.303    23564303.9044   23564310.6684
       153.0004        154.0004
 -19367760.81449 -15074921.46347  21145549.358    21145549.9464   21145557.0734
       196.0004        197.0004
 -22008954.76249 -17139911.62847  20850807.470    20850807.8044   20850811.8734
       206.0004        206.0004
   1722132.91049   1362448.97147  22837741.817    22837742.0654   22837749.9144
       198.0004        199.0004
 -14090580.35849 -10948477.73747  21840340.617    21840340.7204   21840347.1284
       197.0004        197.0004
  -1837535.13047  -1306842.72045  23616461.352    23616461.2944   23616466.0604
       152.0004        155.0004
  -7395017.26748  -5431766.43246  22875597.396    22875598.6034   22875604.3714
       173.0004        173.0004
 21  2  1  1 58  0.0000000  0 10G21G14G30G04G01G07G08G09G28G17
 -15031963.15348 -11698658.69746  21930814.927    21930814.5494   21930819.2414
       184.0004        184.0004
  -3057207.18148  -2370684.22146  23219563.487    23219563.9984   23219567.5774
       166.0004        168.0004
 -11780509.55248  -9158829.83346  22335151.880    22335152.6474   22335159.7674
       183.0004        184.0004
   9315892.47347   7286825.41145  23582967.445    23582966.1244   23582972.6844
       153.0004        155.0004
 -19413443.27749 -15110518.17347  21136855.496    21136856.8144   21136864.2584
       196.0004        196.0004
 -22063757.96949 -17182615.42647  20840378.704    20840379.5274   20840383.0594
       205.0004        206.0004
   1816040.85049   1435623.98147  22855611.102    22855611.6294   22855620.1164
       199.0004        199.0004
 -14023098.60549 -10895894.55347  21853182.325    21853182.5244   21853188.5794
       197.0004        197.0004
  -1852544.43047  -1318538.26345  23613605.442    23613605.1484   23613609.6754
       153.0004        156.0004
  -7466251.56448  -5487273.63546  22862043.128    22862043.5634   22862048.2414
       173.0004        175.0004
 21  2  1  1 58 30.0000000  0 10G21G14G30G04G01G07G08G09G28G17
 -15003479.95548 -11676463.99646  21936234.874    21936234.0674   21936239.6924
       183.0004        184.0004
  -3083114.73548  -2390871.91946  23214633.291    23214632.8454   23214637.5134
       166.0004        165.0004
 -11865014.96648  -9224678.23246  22319072.063    22319071.9564   22319079.1154
       184.0004        185.0004
   9413953.13847   7363236.29345  23601626.707    23601626.3784   23601633.2524
       153.0004        156.0004
 -19458676.48549 -15145764.83347  21128248.462    21128249.0364   21128256.8184
       197.0004        197.0004
 -22118224.81749 -17225057.15447  20830014.444    20830014.3314   20830018.5714
       205.0004        206.0004
   1910018.33249   1508853.16047  22873494.828    22873494.6964   22873503.0854
       197.0004        196.0004
 -13955347.10449 -10843101.18647  21866074.994    21866075.0874   21866081.4404
       197.0004        197.0004
  -1867574.45147  -1330249.94845  23610744.858    23610744.4834   23610749.6414
       154.0004        156.0004
  -7537112.68048  -5542490.07246  22848558.582    22848559.5924   22848563.5564
       174.0004        176.0004
 21  2  1  1 59  0.0000000  0 10G21G14G30G04G01G07G08G09G28G17
 -14974503.50548 -11653884.93046  21941749.110    21941748.4744   21941753.3904
       183.0004        183.0004
  -3109048.64647  -2411080.14345  23209697.538    23209697.7084   23209703.2064
       163.0004        162.0004
 -11949397.62048  -9290430.92846  22303014.829    22303014.5394   22303021.8044
       185.0004        186.0004
   9512001.05547   7439637.28045  23620284.191    23620284.7324   23620292.5014
       153.0004        155.0004
 -19503458.50449 -15180659.90747  21119725.910    21119726.7744   21119735.0424
       197.0004        197.0004
 -22172353.34849 -17267235.24247  20819713.574    20819714.1834   20819718.2674
       206.0004        207.0004
   2004061.85249   1582133.83347  22891390.527    22891390.7424   22891399.2434
       196.0004        196.0004
 -13887329.64149 -10790100.56247  21879017.482    21879017.8754   21879024.5014
       196.0004        195.0004
  -1882627.30747  -1341979.42145  23607880.605    23607880.1794   23607884.7434
       154.0004        155.0004
  -7607600.34548  -5597415.48846  22835145.592    22835145.8424   22835150.9054
       176.0004        178.0004
 21  2  1  1 59 30.0000000  0 10G21G14G30G04G01G07G08G09G28G17
 -14945033.88948 -11630921.59246  21947356.237    21947356.7944   21947361.3034
       183.0004        184.0004
  -3135009.39747  -2431309.28646  23204756.130    23204757.8204   23204762.5554
       162.0004        163.0004
 -12033654.56448  -9356085.68246  22286981.192    22286980.7594   22286987.0444
       185.0004        185.0004
   9610033.97247   7516026.52145  23638938.149    23638938.4924   23638945.5594
       152.0004        154.0004
 -19547786.27249 -15215201.01447  21111290.489    21111291.9074   21111299.9504
       197.0004        198.0004
 -22226140.11249 -17309147.01247  20809478.962    20809479.3144   20809483.1594
       207.0004        207.0004
   2098169.14049   1655464.15047  22909298.448    22909298.4864   22909306.9724
       195.0004        195.0004
 -13819048.79048 -10736894.71447  21892010.501    21892010.8274   21892018.0264
       194.0004        194.0004
  -1897704.05647  -1353727.54845  23605011.607    23605011.5324   23605016.7774
       154.0004        156.0004
  -7677713.01848  -5652048.72446  22821802.740    22821803.6994   22821808.6624
       175.0004        175.0004
 21  2  1  2  0  0.0000000  0 10G21G14G30G04G01G07G08G09G28G17
 -14915070.36348 -11607573.37846  21953058.527    21953058.2864   21953062.8964
       183.0004        184.0004
  -3160997.05547  -2451559.38846  23199811.476    23199812.8424   23199817.9844
       164.0004        166.0004
 -12117782.44448  -9421639.88546  22270972.171    22270972.2064   22270978.7194
       186.0004        187.0004
   9708050.04147   7592402.66145  23657589.972    23657590.8374   23657598.1714
       151.0004        153.0004
 -19591656.13549 -15249385.32547  21102943.702    21102944.1324   21102951.9374
       198.0004        199.0004
 -22279581.74449 -17350789.84747  20799309.294    20799309.5034   20799313.3784
       207.0004        207.0004
   2192338.39449   1728842.78147  22927219.020    22927218.9384   22927227.1964
       195.0004        196.0004
 -13750506.63148 -10683485.24547  21905053.193    21905053.3054   21905061.6884
       192.0004        191.0004
  -1912805.39847  -1365494.79545  23602139.074    23602138.3894   23602142.1934
       154.0004        157.0004
  -7747448.63148  -5706388.15946  22808533.515    22808533.5964   22808537.6014
       174.0004        175.0004
 21  2  1  2  0 30.0000000  0 10G21G14G30G04G01G07G08G09G28G17
 -14884613.92248 -11583841.08346  21958853.565    21958853.7134   21958858.9824
       183.0004        183.0004
  -3187013.29147  -2471831.76146  23194861.455    23194861.1524   23194866.0834
       163.0004        163.0004
 -12201779.48048  -9487092.13346  22254987.918    22254987.7554   22254994.9944
       187.0004        187.0004
   9806045.91447   7668763.08345  23676239.320    23676239.0494   23676245.4734
       152.0004        156.0004
 -19635066.16249 -15283211.31047  21094683.123    21094682.7384   21094691.2124
       198.0004        197.0004
 -22332676.38749 -17392162.30547  20789205.438    20789205.7374   20789209.7584
       207.0004        207.0004
   2286566.56949   1802267.31447  22945150.898    22945150.5324   22945157.8924
       195.0004        196.0004
 -13681706.91948 -10629875.10047  21918145.019    21918145.2224   21918153.3124
       191.0004        190.0004
  -1927933.37547  -1377282.81445  23599260.185    23599259.4264   23599263.1514
       154.0004        155.0004
  -7816806.68048  -5760433.36646  22795334.910    22795335.3204   22795339.0474
       173.0004        174.0004
 21  2  1  2  1  0.0000000  0 10G21G14G30G04G01G07G08G09G28G17
 -14853666.50348 -11559726.20346  21964742.836    21964742.9294   21964747.7884
       183.0004        184.0004
  -3213060.40347  -2492128.20145  23189902.514    23189904.2294   23189910.7594
       161.0004        162.0004
 -12285644.49648  -9552441.48747  22239028.899    22239029.1624   22239035.7234
       188.0004        189.0004
   9904017.50347   7745104.55645  23694882.075    23694883.4304   23694888.9314
       154.0004        158.0004
 -19678015.08649 -15316678.00147  21086509.846    21086510.3264   21086517.8504
       197.0004        198.0004
 -22385422.54949 -17433263.20847  20779168.156    20779168.4724   20779172.4324
       207.0004        207.0004
   2380849.82249   1875734.77747  22963092.853    22963092.2404   22963099.6544
       197.0004        197.0004
 -13612654.02748 -10576067.67747  21931285.798    21931285.7684   21931293.9874
       190.0004        191.0004
  -1943090.64247  -1389093.64845  23596374.429    23596374.2434   23596379.3424
       152.0004        155.0004
  -7885787.25648  -5814184.44546  22782207.576    22782208.3434   22782213.0944
       173.0004        174.0004
 21  2  1  2  1 30.0000000  0 10G21G14G30G04G01G07G08G09G28G17
 -14822227.58248 -11535228.32046  21970725.861    21970724.7774   21970730.7224
       183.0004        183.0004
  -3239138.21947  -2512448.55745  23184941.938    23184942.8234   23184947.3564
       159.0004        161.0004
 -12369373.87548  -9617685.15547  22223095.772    22223095.8134   22223102.2344
       188.0004        189.0004
  10001963.27247   7821425.94145  23713521.117    23713521.4744   23713527.3414
       156.0004        158.0004
 -19720499.15449 -15349782.44447  21078424.986    21078425.6694   21078433.2084
       197.0004        197.0004
 -22437816.37949 -17474089.54947  20769197.756    20769198.1614   20769202.8444
       207.0004        208.0004
   2475186.69749   1949244.02047  22981044.110    22981043.5984   22981051.2624
       196.0004        196.0004
 -13543349.89948 -10522064.45747  21944474.517    21944474.1994   21944482.1314
       192.0004        193.0004
  -1958277.58747  -1400927.60745  23593485.443    23593484.9814   23593488.7154
       153.0004        155.0004
  -7954388.78548  -5867640.14846  22769153.198    22769153.2494   22769158.0504
       173.0004        173.0004
 21  2  1  2  2  0.0000000  0 10G21G14G30G04G01G07G08G09G28G17
 -14790297.06748 -11510347.41046  21976801.722    21976801.6744   21976807.0404
       183.0004        183.0004
  -3265247.40547  -2532793.42245  23179973.949    23179973.8754   23179978.4844
       160.0004        162.0004
 -12452964.84448  -9682820.98147  22207188.636    22207188.8414   22207195.9224
       189.0004        189.0004
  10099880.77647   7897725.26645  23732152.854    23732153.7554   23732160.5894
       156.0004        158.0004
 -19762515.46649 -15382522.43347  21070429.470    21070430.3334   21070438.0164
       197.0004        196.0004
 -22489855.21049 -17514639.31547  20759295.138    20759295.6934   20759299.9244
       207.0004        208.0004
   2569574.78849   2022793.15547  22999003.541    22999003.7114   22999013.4824
       195.0004        194.0004
 -13473797.26748 -10467867.62047  21957710.489    21957711.0154   21957718.1014
       194.0004        196.0004
  -1973495.25847  -1412785.53445  23590588.769    23590589.1684   23590592.7114
       153.0004        155.0004
  -8022609.56148  -5920799.20646  22756171.969    22756172.1324   22756176.0884
       172.0004        172.0004
 21  2  1  2  2 30.0000000  0 10G21G14G30G04G01G07G08G09G28G17
 -14757874.50148 -11485083.05646  21982970.885    21982971.2944   21982976.6464
       183.0004        183.0004
  -3291388.41747  -2553163.03746  23174999.400    23175000.3714   23175005.1244
       162.0004        165.0004
 -12536414.40548  -9747846.59847  22191308.534    22191308.4244   22191316.0344
       188.0004        189.0004
  10197767.85747   7974000.88545  23750781.240    23750781.3324   23750788.4324
       156.0004        157.0004
 -19804060.94649 -15414895.52647  21062523.199    21062524.3124   21062532.0414
       197.0004        196.0004
 -22541535.58249 -17554909.74247  20749460.501    20749460.7774   20749464.9854
       207.0004        207.0004
   2664012.61948   2096381.04247  23016974.990    23016975.3054   23016983.6054
       194.0004        195.0004
 -13403998.63449 -10413479.07247  21970993.688    21970993.6374   21970999.8314
       196.0004        196.0004
  -1988744.67447  -1424668.16245  23587687.043    23587686.6394   23587691.1574
       152.0004        154.0004
  -8090448.29748  -5973660.52146  22743261.344    22743261.6704   22743266.6514
       171.0004        172.0004
 21  2  1  2  3  0.0000000  0 10G21G14G30G04G01G07G08G09G28G17
 -14724960.73248 -11459435.96946  21989234.748    21989235.0964   21989239.3804
       182.0004        182.0004
  -3317562.16447  -2573558.14246  23170018.405    23170019.0424   23170024.3224
       164.0004        166.0004
 -12619720.00548  -9812760.06847  22175455.043    22175456.0834   22175463.2214
       187.0004        188.0004
  10295621.89147   8050250.77145  23769401.032    23769402.7524   23769408.9624
       154.0004        156.0004
 -19845132.97849 -15446899.68947  21054708.149    21054708.3614   21054716.1514
       196.0004        196.0004
 -22592855.27249 -17594899.14547  20739695.295    20739695.5644   20739699.3204
       207.0004        208.0004
   2758497.38549   2170005.52347  23034953.926    23034954.7694   23034964.0254
       195.0004        196.0004
 -13333957.03749 -10358901.19847  21984322.381    21984322.5204   21984328.1204
       197.0004        198.0004
  -2004027.11747  -1436576.57845  23584778.199    23584778.8294   23584782.8584
       150.0004        151.0004
  -8157903.59748  -6026223.07746  22730425.408    22730426.3914   22730430.0684
       171.0004        173.0004
 21  2  1  2  3 30.0000000  0 10G21G14G30G04G01G07G08G09G28G17
 -14691556.87148 -11433406.96846  21995592.230    21995591.4624   21995596.6284
       183.0004        184.0004
  -3343770.05748  -2593979.82946  23165032.193    23165032.8484   23165036.3874
       166.0004        169.0004
 -12702879.60048  -9877559.75347  22159631.243    22159631.4424   22159638.6184
       188.0004        189.0004
  10393439.74747   8126472.46045  23788016.644    23788016.5324   23788022.7114
       153.0004        156.0004
 -19885729.50349 -15478533.33347  21046983.059    21046983.4164   21046990.7514
       196.0004        196.0004
 -22643811.46449 -17634605.26747  20729998.002    20729998.4344   20730002.8434
       207.0004        208.0004
   2853026.19249   2243664.31447  23052944.490    23052944.4734   23052951.3844
       196.0004        197.0004
 -13263676.00149 -10304136.74547  21997696.100    21997696.5614   21997702.1874
       198.0004        198.0004
  -2019344.53847  -1448512.23945  23581863.628    23581864.3514   23581867.6274
       146.0004        149.0004
  -8224975.12548  -6078486.60246  22717663.201    22717663.0664   22717666.9374
       172.0004        173.0004
 21  2  1  2  4  0.0000000  0 10G21G14G30G04G01G07G08G09G28G17
 -14657664.45948 -11406997.28946  22002041.642    22002041.7404   22002046.0294
       183.0004        183.0004
  -3370014.38248  -2614429.88746  23160039.499    23160040.1214   23160042.2804
       168.0004        170.0004
 -12785891.99948  -9942244.72147  22143834.796    22143834.8584   22143842.1664
       188.0004        188.0004
  10491217.36247   8202662.81245  23806621.553    23806622.9514   23806628.9934
       153.0004        155.0004
 -19925849.41549 -15509795.59647  21039348.256    21039348.3104   21039356.7424
       196.0004        195.0004
 -22694403.20649 -17674027.40447  20720371.641    20720371.7994   20720375.8814
       207.0004        208.0004
   2947594.95849   2317354.24347  23070939.255    23070939.3624   23070947.2954
       196.0004        195.0004
 -13193159.92349 -10249189.15447  22011114.736    22011114.8604   22011121.3674
       198.0004        197.0004
  -2034699.77047  -1460477.31645  23578941.669    23578941.3644   23578946.3474
       147.0004        151.0004
  -8291663.13748  -6130451.26146  22704972.868    22704973.5244   22704976.8974
       172.0004        175.0004
 21  2  1  2  4 30.0000000  0 10G21G14G30G04G01G07G08G09G28G17
 -14623283.27248 -11380206.74446  22008583.028    22008582.6804   22008588.5064
       183.0004        184.0004
  -3396295.15348  -2634908.35346  23155037.000    23155036.9394   23155041.3054
       169.0004        168.0004
 -12868753.78948 -10006812.33447  22128066.625    22128066.8194   22128073.6464
       188.0004        188.0004
  10588952.97247   8278820.44045  23825219.959    23825221.1084   23825227.8984
       154.0004        158.0004
 -19965489.23349 -15540683.74547  21031804.065    21031805.3014   21031813.1984
       195.0004        195.0004
 -22744626.93649 -17713162.75247  20710814.301    20710814.3194   20710818.4044
       208.0004        208.0004
   3042202.11149   2391074.08847  23088941.832    23088942.0094   23088951.4684
       195.0004        195.0004
 -13122410.96649 -10194060.08447  22024576.009    22024576.6214   22024583.9394
       195.0004        193.0004
  -2050093.20947  -1472472.18545  23576013.210    23576013.0074   23576018.3914
       147.0004        150.0004
  -8357966.02448  -6182115.82546  22692355.310    22692355.2974   22692360.7234
       173.0004        175.0004
 21  2  1  2  5  0.0000000  0 10G21G14G30G04G01G07G08G09G28G17
 -14588411.58048 -11353034.00546  22015219.623    22015219.8464   22015223.7424
       183.0004        183.0004
  -3422610.96847  -2655414.19146  23150025.336    23150026.8734   23150033.7904
       164.0004        163.0004
 -12951460.20048 -10071258.90247  22112328.544    22112328.2704   22112334.8604
       188.0004        188.0004
  10686646.24747   8354945.05145  23843811.851    23843812.0394   23843818.5054
       156.0004        159.0004
 -20004644.24049 -15571194.14147  21024353.724    21024354.2764   21024362.2474
       196.0004        197.0004
 -22794477.70849 -17752007.52747  20701327.300    20701328.0994   20701332.0424
       208.0004        209.0004
   3136847.62448   2464823.81147  23106952.119    23106951.9914   23106962.3834
       194.0004        194.0004
 -13051429.88948 -10138750.16247  22038083.500    22038083.9274   22038091.6344
       193.0004        193.0004
  -2065523.91347  -1484496.08645  23573075.885    23573075.6084   23573079.7124
       144.0004        146.0004
  -8423880.50448  -6233477.75246  22679811.510    22679811.7614   22679816.0404
       173.0004        173.0004
 21  2  1  2  5 30.0000000  0 10G21G14G30G04G01G07G08G09G28G17
 -14553051.52648 -11325480.73546  22021949.320    22021948.5084   22021952.6474
       183.0004        183.0004
  -3448964.21547  -2675949.23845  23145011.833    23145013.7604   23145018.4134
       162.0004        162.0004
 -13034010.19448 -10135583.59347  22096619.300    22096619.6934   22096627.1704
       188.0004        188.0004
  10784293.00047   8431033.37745  23862394.136    23862394.8964   23862401.2354
       156.0004        158.0004
 -20043313.44949 -15601326.01347  21016994.185    21016995.4404   21017004.1054
       196.0004        196.0004
 -22843954.35249 -17790560.78647  20691912.647    20691913.2124   20691916.8374
       208.0004        209.0004
   3231527.29248   2538600.12747  23124970.690    23124969.9724   23124978.5184
       193.0004        193.0004
 -12980221.27748 -10083262.97647  22051633.686    22051634.6484   22051642.3924
       192.0004        193.0004
  -2080994.83247  -1496551.33445  23570133.016    23570131.6934   23570135.7304
       143.0004        147.0004
  -8489407.03248  -6284537.39146  22667342.281    22667343.2794   22667347.8364
       173.0004        174.0004
 21  2  1  2  6  0.0000000  0 11G21G14G30G04G19G01G07G08G09G28G17
 -14517204.88448 -11297548.25546  22028769.698    22028769.6184   22028773.3794
       183.0004        183.0004
  -3475357.03147  -2696515.02046  23139992.408    23139992.4614   23139996.1074
       163.0004        164.0004
 -13116402.28948 -10199785.20346  22080940.254    22080940.8224   22080948.1154
       187.0004        187.0004
  10881889.57447   8507082.64145  23880966.318    23880966.5684   23880972.8954
       155.0004        156.0004
  20638268.50554  16011767.933 5                                  24709691.199
        74.0004        139.000
 -20081495.54349 -15631078.26047  21009729.590    21009730.1944   21009737.8514
       196.0004        196.0004
 -22893055.51349 -17828821.41847  20682569.383    20682569.4814   20682573.1324
       208.0004        209.0004
   3326237.79248   2612400.52047  23142991.579    23142992.1574   23143002.0684
       194.0004        196.0004
 -12908789.29848 -10027601.67847  22065225.916    22065226.7294   22065234.8554
       191.0004        191.0004
  -2096508.27247  -1508639.69945  23567180.620    23567179.6184   23567185.1204
       147.0004        151.0004
  -8554545.93348  -6335294.95446  22654948.298    22654948.1834   22654952.3824
       173.0004        175.0004
 21  2  1  2  6 30.0000000  0 10G21G14G30G04G01G07G08G09G28G17
 -14480871.39248 -11269236.44846  22035683.300    22035684.0134   22035688.1484
       183.0004        182.0004
  -3501789.11548  -2717111.38246  23134963.224    23134962.5184   23134967.3594
       165.0004        167.0004
 -13198632.86448 -10263860.96346  22065292.571    22065292.4254   22065299.9944
       186.0004        187.0004
  10979434.45847   8583091.60745  23899528.358    23899527.1974   23899533.9604
       152.0004        154.0004
 -20119186.91749 -15660448.16447  21002556.561    21002557.6154   21002565.6854
       196.0004        196.0004
 -22941777.66449 -17866786.73947  20673297.851    20673298.0704   20673302.1404
       209.0004        210.0004
   3420977.72549   2686223.83647  23161019.017    23161020.3944   23161030.3754
       195.0004        195.0004
 -12837135.87848  -9971767.85347  22078862.956    22078863.5984   22078869.9914
       191.0004        193.0004
  -2112064.72647  -1520761.62345  23564220.037    23564219.7004   23564224.6234
       150.0004        154.0004
  -8619295.16948  -6385748.89746  22642626.191    22642626.7004   22642631.2124
       175.0004        177.0004
 21  2  1  2  7  0.0000000  0 10G21G14G30G04G01G07G08G09G28G17
 -14444051.31948 -11240545.46646  22042690.739    22042690.3854   22042694.7944
       183.0004        183.0004
  -3528261.11848  -2737738.89346  23129924.527    23129924.2754   23129929.4644
       165.0004        166.0004
 -13280699.14548 -10327808.70147  22049676.134    22049676.3024   22049683.0274
       187.0004        189.0004
  11076925.08947   8659058.33245  23918078.259    23918079.5564   23918085.6934
       150.0004        152.0004
 -20156385.04449 -15689433.70547  20995478.719    20995479.2064   20995487.1374
       196.0004        197.0004
 -22990117.81149 -17904454.37847  20664098.778    20664099.0374   20664102.9864
       209.0004        210.0004
   3515744.67948   2760068.20547  23179055.628    23179055.1204   23179063.3044
       194.0004        194.0004
 -12765263.92348  -9915763.73747  22092540.394    22092540.3884   22092546.9814
       192.0004        192.0004
  -2127665.18747  -1532917.82245  23561251.632    23561250.6964   23561256.0224
       150.0004        152.0004
  -8683653.48248  -6435898.22246  22630379.796    22630379.1474   22630384.2864
       177.0004        177.0004
 21  2  1  2  7 30.0000000  0 11G21G14G30G04G19G01G07G08G09G28G17
 -14406745.16348 -11211475.74046  22049790.444    22049789.0104   22049794.2524
       183.0004        183.0004
  -3554774.18147  -2758398.41346  23124877.268    23124878.2104   23124884.6144
       164.0004        165.0004
 -13362598.82848 -10391626.64447  22034090.302    22034090.7894   22034097.5274
       188.0004        188.0004
  11174358.77147   8734980.67645  23936619.454    23936621.1124   23936626.6074
       149.0004        152.0004
  20638268.50554  16011767.93343                                  24709691.1994
        74.0004         74.0004
 -20193087.72549 -15718033.20247  20988493.822    20988494.8004   20988502.4624
       196.0004        197.0004
 -23038073.59149 -17941822.53247  20654972.730    20654973.2244   20654977.2804
       209.0004        210.0004
   3610536.10648   2833931.63747  23197093.704    23197094.0334   23197101.6654
       193.0004        194.0004
 -12693176.71748  -9859591.88747  22106258.174    22106258.6644   22106264.6004
       193.0004        193.0004
  -2143311.44747  -1545109.68645  23558274.180    23558273.6504   23558277.7294
       149.0004        152.0004
  -8747620.63948  -6485742.76146  22618205.328    22618205.5664   22618210.3404
       175.0004        175.0004
 21  2  1  2  8  0.0000000  0 11G21G14G30G04G19G01G07G08G09G28G17
 -14368953.86748 -11182027.98446  22056981.231    22056981.1854   22056985.0704
       182.0004        182.0004
  -3581329.10948  -2779090.55646  23119825.015    23119825.3514   23119829.8974
       165.0004        165.0004
 -13444329.32648 -10455312.75446  22018538.291    22018538.3674   22018544.7284
       187.0004        186.0004
  11271732.87947   8810856.59545  23955149.677    23955150.5864   23955157.1824
       149.0004        151.0004
  -1472957.62744  -1128448.07545  24889480.578
        74.0004        139.0004
 -20229292.58649 -15746244.78147  20981605.762    20981606.2804   20981613.1194
       197.0004        198.0004
 -23085642.29149 -17978889.05847  20645920.531    20645921.1404   20645925.1294
       209.0004        210.0004
   3705349.76848   2907812.36347  23215137.177    23215136.5974   23215143.6764
       193.0004        193.0004
 -12620877.30448  -9803254.68347  22120015.623    22120015.4274   22120022.9874
       192.0004        191.0004
  -2159004.79147  -1557338.25145  23555288.512    23555288.0424   23555291.5484
       148.0004        151.0004
  -8811195.58748  -6535281.66346  22606108.226    22606109.0054   22606113.9584
       176.0004        178.0004
 21  2  1  2  8 30.0000000  0 11G21G14G30G04G19G01G07G08G09G28G17
 -14330678.83448 -11152203.27346  22064264.798    22064264.6054   22064268.6744
       182.0004        182.0004
  -3607927.04747  -2799816.18446  23114764.081    23114763.6064   23114769.9004
       163.0004        164.0004
 -13525888.31148 -10518865.19647  22003018.369    22003018.5584   22003024.9924
       187.0004        188.0004
  11369044.65347   8886683.95045  23973668.238    23973668.7704   23973674.9354
       149.0004        152.0004
  -1564882.79544  -1200077.80445  24871989.225
        74.0004        149.0004
 -20264997.51449 -15774066.79647  20974809.680    20974810.2464   20974818.9994
       198.0004        198.0004
 -23132821.50949 -18015652.08447  20636942.778    20636943.4604   20636947.3064
       209.0004        210.0004
   3800183.13548   2981708.47947  23233183.878    23233182.2744   23233189.4694
       192.0004        192.0004
 -12548368.96548  -9746754.70047  22133811.658    22133812.7994   22133821.1084
       190.0004        191.0004
  -2174746.42147  -1569604.44345  23552291.018    23552291.6524   23552296.5654
       147.0004        150.0004
  -8874377.56348  -6584514.35846  22594085.464    22594085.6834   22594090.1484
       177.0004        178.0004
 21  2  1  2  9  0.0000000  0 11G21G14G30G04G19G01G07G08G09G28G17
 -14291920.26848 -11122001.77246  22071640.057    22071640.0074   22071644.5784
       182.0004        182.0004
  -3634568.98947  -2820576.12345  23109693.612    23109694.1184   23109699.7724
       161.0004        162.0004
 -13607273.33148 -10582282.07347  21987530.308    21987530.9164   21987538.2904
       188.0004        189.0004
  11466291.25747   8962460.47145  23992172.789    23992173.9384   23992180.9694
       148.0004        150.0004
  -1656606.42147  -1271550.57045  24854534.105    24854533.4464   24854540.4444
       143.0004        152.0004
 -20300200.29149 -15801497.51747  20968110.932    20968112.0424   20968119.7454
       198.0004        198.0004
 -23179609.07549 -18052109.91547  20628039.897    20628040.0854   20628043.9254
       209.0004        210.0004
   3895032.97348   3055617.42647  23251231.695    23251231.2194   23251239.6774
       191.0004        192.0004
 -12475654.96548  -9690094.43747  22147649.263    22147650.3754   22147658.1514
       190.0004        191.0004
  -2190538.09447  -1581909.63245  23549287.397    23549286.2824   23549291.4974
       147.0004        150.0004
  -8937165.96748  -6633440.35846  22582136.568    22582136.4784   22582141.7334
       176.0004        176.0004
 21  2  1  2  9 30.0000000  0 11G21G14G30G04G19G01G07G08G09G28G17
 -14252677.99848 -11091423.38646  22079108.027    22079107.7384   22079112.5224
       182.0004        182.0004
  -3661254.50147  -2841370.00745  23104615.087    23104615.1234   23104620.8614
       160.0004        162.0004
 -13688480.54448 -10645560.43047  21972078.325    21972078.5394   21972084.1914
       189.0004        190.0004
  11563471.51347   9038185.28945  24010667.671    24010667.1684   24010672.8574
       147.0004        150.0004
  -1748125.90447  -1342864.34645  24837117.957    24837117.9504   24837124.7974
       148.0004        152.0004
 -20334897.36249 -15828534.20347  20961508.072    20961509.4324   20961516.8404
       198.0004        198.0004
 -23226001.00749 -18088259.48947  20619210.979    20619211.7214   20619215.8354
       210.0004        210.0004
   3989898.87148   3129538.88847  23269282.000    23269282.3144   23269292.0034
       191.0004        191.0004
 -12402737.01348  -9633275.25947  22161526.173    22161526.2124   22161533.0044
       190.0004        189.0004
  -2206379.92347  -1594253.89145  23546271.739    23546272.3774   23546276.6094
       148.0004        151.0004
  -8999558.96348  -6682058.26346  22570264.197    22570264.3814   22570269.4954
       177.0004        178.0004
 21  2  1  2 10  0.0000000  0 11G21G14G30G04G19G01G07G08G09G28G17
 -14212954.11148 -11060469.70446  22086666.702    22086666.4554   22086671.8844
       182.0004        182.0004
  -3687985.47947  -2862199.33146  23099528.387    23099529.2264   23099534.4174
       162.0004        165.0004
 -13769508.47848 -10708699.09447  21956660.056    21956659.4084   21956666.1454
       191.0004        192.0004
  11660581.70047   9113855.55345  24029145.635    24029146.1744   24029151.8034
       146.0004        148.0004
  -1839440.70247  -1414018.63245  24819741.281    24819741.4534   24819746.4824
       150.0004        153.0004
 -20369087.52549 -15855175.88147  20955002.640    20955003.0914   20955010.9284
       198.0004        199.0004
 -23271995.90249 -18124099.69047  20610458.796    20610459.2654   20610463.3624
       209.0004        210.0004
   4084777.05448   3203469.91547  23287333.750    23287335.9514   23287346.7424
       190.0004        189.0004
 -12329619.33648  -9576300.46047  22175439.613    22175440.7624   22175447.4814
       189.0004        190.0004
  -2222274.23447  -1606639.07845  23543246.297    23543246.5234   23543251.6134
       149.0004        153.0004
  -9061556.94748  -6730368.37346  22558465.500    22558466.4444   22558471.5854
       177.0004        178.0004
 21  2  1  2 10 30.0000000  0 12G21G14G30G04G19G01G07G08G09G22G28G17
 -14172747.64548 -11029139.98546  22094317.891    22094317.5024   22094322.3944
       181.0004        182.0004
  -3714761.61948  -2883063.85546  23094434.086    23094434.1174   23094439.5694
       165.0004        168.0004
 -13850353.37748 -10771695.12247  21941275.269    21941274.8554   21941281.8084
       191.0004        192.0004
  11757620.39447   9189470.09445  24047612.527    24047612.3574   24047617.3034
       145.0004        148.0004
  -1930548.11147  -1485011.27945  24802404.389    24802403.4824   24802407.8784
       146.0004        147.0004
 -20402767.37049 -15881419.91447  20948593.589    20948594.2614   20948601.7804
       199.0004        199.0004
 -23317590.03749 -18159627.60347  20601782.743    20601783.1944   20601787.2424
       210.0004        210.0004
   4179666.34848   3277409.60547  23305393.005    23305393.6314   23305403.8144
       189.0004        190.0004
 -12256303.83448  -9519171.50647  22189391.530    22189391.5394   22189398.6074
       189.0004        189.0004
  17231751.32654  13441887.71944                                  24578782.7284
        74.0004        117.0004
  -2238221.16947  -1619065.23645  23540213.621    23540213.0634   23540217.2064
       151.0004        155.0004
  -9123157.79448  -6778369.02146  22546743.181    22546743.0744   22546749.4484
       178.0004        179.0004
 21  2  1  2 11  0.0000000  0 11G21G14G30G04G19G01G07G08G09G28G17
 -14132060.31048 -10997435.55846  22102061.593    22102060.6404   22102064.6254
       181.0004        182.0004
  -3741584.04248  -2903964.45746  23089329.658    23089330.5374   23089334.7354
       166.0004        167.0004
 -13931013.01248 -10834546.79047  21925925.133    21925925.3814   21925932.9284
       191.0004        191.0004
  11854584.78247   9265026.72445  24066064.335    24066064.2234   24066070.1404
       145.0004        148.0004
  -2021446.93247  -1555841.40545  24785105.689    24785105.3404   24785111.1814
       143.0004        147.0004
 -20435934.95449 -15907264.79047  20942281.795    20942282.6434   20942290.4914
       199.0004        199.0004
 -23362781.20649 -18194841.52147  20593183.475    20593183.3354   20593187.6044
       210.0004        210.0004
   4274564.04248   3351355.84547  23323451.003    23323452.4404   23323461.6394
       188.0004        188.0004
 -12182793.91648  -9461891.06447  22203380.103    22203380.9044   22203387.6004
       189.0004        190.0004
  -2254222.38747  -1631533.71945  23537167.673    23537168.1174   23537172.1674
       153.0004        156.0004
  -9184361.06648  -6826059.86446  22535097.199    22535098.3294   22535102.7854
       179.0004        182.0004
 21  2  1  2 11 30.0000000  0 11G21G14G30G04G19G01G07G08G09G28G17
 -14090891.96048 -10965356.31046  22109894.045    22109893.6614   22109898.3504
       181.0004        181.0004
  -3768452.67747  -2924901.01646  23084217.061    23084216.5714   23084222.2894
       164.0004        165.0004
 -14011483.77748 -10897251.27047  21910612.109    21910612.1994   21910619.3844
       191.0004        191.0004
  11951473.33447   9340524.30745  24084502.802    24084501.5614   24084508.2124
       145.0004        149.0004
  -2112134.29647  -1626506.75745  24767848.919    24767848.8824   24767853.9244
       142.0004        146.0004
 -20468587.09649 -15932707.99847  20936069.707    20936069.7344   20936076.9894
       199.0004        200.0004
 -23407566.22349 -18229738.92547  20584660.891    20584661.3674   20584665.3524
       210.0004        211.0004
   4369469.08148   3425307.81347  23341514.237    23341513.8604   23341521.8254
       187.0004        188.0004
 -12109091.68148  -9404460.74547  22217404.823    22217405.0254   22217412.8394
       190.0004        191.0004
  -2270278.00847  -1644044.55445  23534111.460    23534111.6644   23534116.9584
       150.0004        152.0004
  -9245165.50948  -6873439.92646  22523527.019    22523526.3924   22523531.7664
       181.0004        182.0004
 21  2  1  2 12  0.0000000  0 11G21G14G30G04G19G01G07G08G09G28G17
 -14049245.00648 -10932904.12546  22117819.066    22117819.6924   22117823.8624
       181.0004        180.0004
  -3795370.24847  -2945875.72546  23079094.746    23079094.7864   23079099.9704
       164.0004        166.0004
 -14091765.08348 -10959808.13147  21895335.572    21895335.6944   21895342.4504
       191.0004        193.0004
  12048281.40847   9415959.16445  24102922.484    24102923.4864   24102929.7384
       145.0004        149.0004
  -2202610.78447  -1697007.83445  24750631.728    24750631.1644   24750635.5524
       142.0004        147.0004
 -20500723.63449 -15957749.45647  20929953.772    20929954.1764   20929961.4434
       200.0004        200.0004
 -23451944.23549 -18264319.19847  20576215.309    20576216.3864   20576220.2634
       210.0004        210.0004
   4464376.48348   3499261.62347  23359576.884    23359575.1744   23359582.9244
       189.0004        190.0004
 -12035202.24548  -9346884.55747  22231465.821    22231466.0674   22231472.7964
       190.0004        190.0004
  -2286391.75347  -1656600.70245  23531047.203    23531046.3314   23531050.4524
       148.0004        150.0004
  -9305572.13748  -6920510.02246  22512031.374    22512031.6914   22512036.4294
       181.0004        182.0004
 21  2  1  2 12 30.0000000  0 11G21G14G30G04G19G01G07G08G09G28G17
 -14007120.34848 -10900079.70546  22125835.791    22125835.4994   22125840.2664
       180.0004        180.0004
  -3822336.51048  -2966888.40646  23073963.395    23073962.7854   23073967.3744
       165.0004        166.0004
 -14171853.30448 -11022214.52747  21880094.613    21880095.2574   21880102.6034
       193.0004        194.0004
  12145007.56447   9491330.17345  24121328.083    24121329.8484   24121334.7354
       146.0004        150.0004
  -2292874.10847  -1767342.76845  24733455.543    24733455.1994   24733458.7184
       141.0004        145.0004
 -20532341.28149 -15982386.56747  20923936.705    20923937.3264   20923945.1984
       200.0004        200.0004
 -23495911.85249 -18298579.67047  20567849.524    20567849.9644   20567853.5794
       210.0004        210.0004
   4559285.54848   3573216.70547  23377638.614    23377636.5934   23377642.7854
       189.0004        190.0004
 -11961127.54148  -9289164.00547  22245561.187    22245561.6864   22245569.0414
       189.0004        190.0004
  -2302563.67647  -1669202.18345  23527968.007    23527968.4114   23527972.3514
       146.0004        149.0004
  -9365578.85348  -6967268.47946  22500612.884    22500612.9654   22500616.7944
       181.0004        182.0004
 21  2  1  2 13  0.0000000  0 11G21G14G30G04G19G01G07G08G09G28G17
 -13964517.07648 -10866882.35446  22133943.068    22133942.0974   22133947.7924
       180.0004        179.0004
  -3849351.77848  -2987939.28446  23068820.776    23068821.3394   23068827.7304
       165.0004        166.0004
 -14251745.33048 -11084468.06347  21864892.660    21864892.8894   21864900.4324
       194.0004        195.0004
  12241649.87547   9566635.79645  24139721.159    24139720.9664   24139725.7264
       147.0004        151.0004
  -2382922.19747  -1837510.05445  24716321.415    24716321.3824   24716322.5074
       141.0004        145.0004
 -20563437.41749 -16006617.32747  20918019.661    20918019.9264   20918027.6144
       200.0004        200.0004
 -23539465.95849 -18332517.97647  20559561.347    20559561.6734   20559565.2404
       210.0004        210.0004
   4654194.25748   3647171.50347  23395697.122    23395696.7954   23395702.3174
       190.0004        190.0004
 -11886870.18748  -9231301.15247  22259691.612    22259692.5814   22259699.5644
       189.0004        189.0004
  -2318794.44147  -1681849.54645  23524880.600    23524880.0294   23524884.6614
       148.0004        152.0004
  -9425185.24248  -7013715.01346  22489270.338    22489270.4934   22489274.5824
       182.0004        183.0004
 21  2  1  2 13 30.0000000  0 11G21G14G30G04G19G01G07G08G09G28G17
 -13921436.93248 -10833313.40846  22142140.240    22142139.7264   22142144.5874
       179.0004        179.0004
  -3876417.03748  -3009029.09146  23063671.171    23063672.4544   23063676.8564
       165.0004        167.0004
 -14331438.78648 -11146566.86347  21849727.364    21849727.3974   21849733.9954
       194.0004        193.0004
  12338205.48647   9641873.92645  24158094.919    24158095.1004   24158100.7234
       148.0004        151.0004
  -2472753.58447  -1907508.41345  24699226.829    24699226.7774   24699228.0484
       142.0004        146.0004
 -20594010.13849 -16030440.23147  20912201.892    20912202.4194   20912209.8394
       200.0004        200.0004
 -23582604.44849 -18366132.39947  20551351.949    20551352.7294   20551356.5614
       210.0004        210.0004
   4749100.29348   3721124.26246  23413753.929    23413754.6264   23413762.0834
       188.0004        187.0004
 -11812433.50248  -9173298.55247  22273857.745    22273858.2514   22273864.9994
       188.0004        189.0004
  -2335085.66847  -1694543.98245  23521780.476    23521781.0634   23521785.0204
       148.0004        152.0004
  -9484390.55148  -7059849.01646  22478003.752    22478004.3254   22478009.2644
       182.0004        182.0004
 21  2  1  2 14  0.0000000  0 11G21G14G30G04G19G01G07G08G09G28G17
 -13877880.40048 -10799373.24846  22150428.801    22150428.6884   22150433.5204
       179.0004        179.0004
  -3903532.58947  -3030158.08946  23058511.558    23058511.5284   23058516.9954
       164.0004        165.0004
 -14410930.57648 -11208508.52547  21834599.726    21834600.4074   21834606.8004
       193.0004        193.0004
  12434672.46247   9717042.96745  24176451.106    24176451.1654   24176456.2674
       147.0004        150.0004
  -2562366.05247  -1977336.23645  24682173.442    24682172.4914   24682175.0514
       142.0004        147.0004
 -20624056.85449 -16053853.24947  20906483.769    20906484.8294   20906492.3484
       200.0004        201.0004
 -23625324.57749 -18399420.81647  20543222.944    20543223.5904   20543227.1834
       210.0004        211.0004
   4844001.55448   3795073.26346  23431813.910    23431813.5714   23431822.5014
       187.0004        187.0004
 -11737820.04848  -9115158.20346  22288055.740    22288056.0064   22288063.1374
       187.0004        187.0004
  -2351437.96847  -1707286.02345  23518667.815    23518667.0634   23518671.6604
       148.0004        150.0004
  -9543193.50048  -7105669.47546  22466814.174    22466814.3724   22466819.0064
       182.0004        182.0004
 21  2  1  2 14 30.0000000  0 11G21G14G30G04G19G01G07G08G09G28G17
 -13833849.05548 -10765063.10546  22158806.758    22158807.6544   22158812.3244
       180.0004        180.0004
  -3930699.44448  -3051327.04646  23053340.628    23053342.2834   23053347.3264
       165.0004        167.0004
 -14490218.37348 -11270291.22347  21819512.414    21819511.9624   21819518.9324
       193.0004        194.0004
  12531048.00947   9792140.77545  24194789.941    24194790.7974   24194795.8004
       146.0004        149.0004
  -2651758.32947  -2046992.43945  24665160.995    24665160.3034   24665164.9434
       141.0004        145.0004
 -20653575.74649 -16076854.96247  20900866.675    20900867.3514   20900875.1884
       200.0004        200.0004
 -23667623.90249 -18432381.31547  20535173.894    20535174.0244   20535177.7974
       210.0004        211.0004
   4938895.64148   3869016.70346  23449872.072    23449872.0674   23449879.2534
       186.0004        185.0004
 -11663033.19148  -9056882.71946  22302287.136    22302287.5214   22302294.1044
       186.0004        186.0004
  -2367853.03047  -1720076.98845  23515544.873    23515545.6354   23515549.5744
       149.0004        153.0004
  -9601594.48148  -7151176.72046  22455700.571    22455701.2814   22455706.3584
       182.0004        183.0004
 21  2  1  2 15  0.0000000  0 11G21G14G30G04G19G01G07G08G09G28G17
 -13789341.75448 -10730382.07646  22167277.238    22167277.2474   22167281.9094
       179.0004        179.0004
  -3957916.75448  -3072535.31746  23048162.892    23048163.0734   23048167.7134
       167.0004        168.0004
 -14569297.92648 -11331911.64247  21804464.094    21804464.1864   21804471.1574
       194.0004        195.0004
  12627331.36647   9867166.74245  24213112.698    24213112.3834   24213118.0854
       147.0004        150.0004
  -2740927.36247  -2116474.69245  24648191.756    24648192.4134   24648196.9624
       138.0004        141.0004
 -20682563.11949 -16099442.51447  20895350.062    20895350.6814   20895358.6394
       200.0004        200.0004
 -23709498.14649 -18465010.57747  20527205.516    20527205.6014   20527209.6804
       210.0004        211.0004
   5033781.69648   3942953.88346  23467927.364    23467927.2974   23467936.3044
       185.0004        186.0004
 -11588074.34948  -8998473.23446  22316551.240    22316551.3624   22316558.4514
       185.0004        185.0004
  -2384330.69747  -1732916.72045  23512408.547    23512408.5664   23512412.8754
       150.0004        153.0004
  -9659590.92948  -7196368.73646  22444663.436    22444664.5844   22444669.1134
       181.0004        181.0004
 21  2  1  2 15 30.0000000  0 11G21G14G30G04G19G01G07G08G09G28G17
 -13744361.55248 -10695332.58646  22175836.704    22175836.1394   22175840.5874
       179.0004        180.0004
  -3985186.61448  -3093784.58346  23042972.813    23042973.8884   23042979.3124
       167.0004        168.0004
 -14648167.95249 -11393368.83147  21789455.925    21789455.8194   21789462.3564
       195.0004        196.0004
  12723518.63947   9942117.81845  24231417.677    24231417.2344   24231423.0114
       148.0004        152.0004
  -2829873.46647  -2185783.37145  24631268.089    24631266.7864   24631269.0244
       135.0004        140.0004
 -20711018.29449 -16121615.39947  20889935.332    20889935.9154   20889944.1664
       200.0004        200.0004
 -23750946.51749 -18497308.02947  20519317.365    20519318.1304   20519322.0154
       210.0004        211.0004
   5128656.20448   4016882.02546  23485980.168    23485980.5604   23485989.9794
       184.0004        184.0004
 -11512947.97548  -8939933.23546  22330846.713    22330847.7404   22330854.5204
       185.0004        186.0004
  -2400873.10047  -1745806.91345  23509259.857    23509260.0894   23509264.9484
       147.0004        149.0004
  -9717183.44848  -7241246.04246  22433705.088    22433705.2294   22433708.5954
       181.0004        182.0004
 21  2  1  2 16  0.0000000  0 11G21G14G30G04G19G01G07G08G09G28G17
 -13698909.65148 -10659915.50446  22184486.541    22184486.4154   22184491.5564
       179.0004        180.0004
  -4012510.36148  -3115075.80546  23037773.586    23037774.1394   23037779.8084
       167.0004        168.0004
 -14726826.42449 -11454661.14247  21774487.274    21774487.3124   21774494.4374
       195.0004        195.0004
  12819606.78247  10016991.68445  24249701.627    24249701.8714   24249708.1534
       149.0004        151.0004
  -2918595.23146  -2254917.13145  24614382.989    24614380.7384   24614386.4174
       134.0004        140.0004
 -20738939.81249 -16143372.41247  20884622.351    20884622.9604   20884630.6084
       200.0004        200.0004
 -23791967.18049 -18529272.17247  20511511.481    20511512.0274   20511515.9924
       210.0004        211.0004
   5223516.33348   4090799.02947  23504031.949    23504033.1444   23504041.6354
       186.0004        188.0004
 -11437657.68448  -8881265.46946  22345174.731    22345175.0524   22345182.0174
       185.0004        186.0004
  -2417482.17447  -1758749.04745  23506100.260    23506100.8054   23506105.1654
       147.0004        151.0004
  -9774372.30048  -7285808.76046  22422821.978    22422822.9944   22422826.0654
       181.0004        182.0004
 21  2  1  2 16 30.0000000  0 11G21G14G30G04G19G01G07G08G09G28G17
 -13652986.93448 -10624131.56746  22193224.398    22193224.9874   22193229.6904
       179.0004        179.0004
  -4039889.02548  -3136409.87146  23032564.321    23032564.2944   23032569.0004
       167.0004        167.0004
 -14805271.05249 -11515786.83147  21759559.833    21759560.1214   21759567.0204
       195.0004        195.0004
  12915592.99447  10091786.12045  24267965.492    24267965.4854   24267973.7254
       148.0004        150.0004
  -3007091.93647  -2323875.51545  24597542.516    24597541.9014   24597546.6904
       136.0004        142.0004
 -20766326.03149 -16164712.31947  20879410.954    20879411.3654   20879419.2474
       199.0004        199.0004
 -23832558.09049 -18560901.46047  20503787.359    20503787.5484   20503792.0464
       210.0004        211.0004
   5318359.65148   4164702.89947  23522079.987    23522081.3364   23522089.9284
       187.0004        188.0004
 -11362206.90648  -8822472.66846  22359532.430    22359532.8784   22359539.8374
       186.0004        186.0004
  -2434159.50047  -1771744.35345  23502927.367    23502927.6824   23502931.0594
       148.0004        152.0004
  -9831157.11348  -7330056.65846  22412015.815    22412016.1134   22412020.0664
       181.0004        181.0004
 21  2  1  2 17  0.0000000  0 11G21G14G30G04G19G01G07G08G09G28G17
 -13606593.48648 -10587980.82446  22202053.130    22202052.6404   22202057.7884
       179.0004        179.0004
  -4067322.00048  -3157786.17646  23027342.392    23027343.4544   23027349.9434
       166.0004        167.0004
 -14883497.78349 -11576742.72647  21744673.691    21744673.6674   21744680.0584
       195.0004        195.0004
  13011476.33147  10166500.37845  24286210.848    24286211.0524   24286219.3754
       147.0004        151.0004
  -3095360.54847  -2392656.17845  24580747.843    24580746.5484   24580749.9874
       140.0004        146.0004
 -20793173.58849 -16185632.48247  20874300.948    20874301.8054   20874310.1524
       199.0004        199.0004
 -23872715.43149 -18592192.91247  20496145.494    20496146.1374   20496150.2094
       210.0004        212.0004
   5413185.14348   4238592.87547  23540125.707    23540126.8804   23540134.5524
       188.0004        188.0004
 -11286597.25048  -8763556.05646  22373920.365    22373920.8554   22373927.8714
       186.0004        186.0004
  -2450904.53447  -1784792.43645  23499739.885    23499739.1084   23499744.1264
       148.0004        151.0004
  -9887535.85148  -7373988.14846  22401287.995    22401288.0394   22401292.5354
       182.0004        183.0004
 21  2  1  2 17 30.0000000  0 11G21G14G30G04G19G01G07G08G09G28G17
 -13559732.24348 -10551465.55246  22210970.176    22210969.7214   22210975.7454
       179.0004        179.0004
  -4094811.03648  -3179206.21246  23022111.615    23022113.4434   23022117.9284
       166.0004        167.0004
 -14961505.18449 -11637527.71147  21729828.580    21729828.9194   21729836.4004
       195.0004        195.0004
  13107253.15347  10241131.63445  24304438.389    24304438.7074   24304444.4474
       147.0004        149.0004
  -3183400.45547  -2461258.60245  24563994.275    24563994.2864   24563998.2984
       145.0004        150.0004
 -20819481.65149 -16206132.26547  20869295.546    20869295.8454   20869304.1294
       199.0004        199.0004
 -23912438.00149 -18623145.57747  20488587.036    20488587.4144   20488591.6674
       211.0004        212.0004
   5507989.55748   4312466.45247  23558167.351    23558168.1504   23558175.9904
       188.0004        188.0004
 -11210833.00348  -8704518.97946  22388338.221    22388339.1884   22388346.0584
       186.0004        186.0004
  -2467720.65647  -1797895.89745  23496541.104    23496539.4284   23496544.8894
       149.0004        153.0004
  -9943509.31748  -7417603.82146  22390636.116    22390637.0534   22390641.2664
       183.0004        184.0004
 21  2  1  2 18  0.0000000  0 11G21G14G30G04G19G01G07G08G09G28G17
 -13512403.15948 -10514585.75746  22219976.983    22219976.7854   22219981.6674
       179.0004        179.0004
  -4122356.26448  -3200670.07546  23016872.131    23016872.1544   23016876.6494
       166.0004        167.0004
 -15039289.97049 -11698139.23247  21715027.620    21715027.3274   21715034.2414
       195.0004        195.0004
  13202921.65747  10315678.46745  24322641.497    24322643.2914   24322649.9894
       145.0004        148.0004
  -3271209.80647  -2529681.44245  24547285.064    24547283.5414   24547288.8484
       148.0004        152.0004
 -20845247.71049 -16226209.71047  20864392.267    20864393.2824   20864400.5074
       199.0004        200.0004
 -23951722.38249 -18653756.79047  20481111.125    20481111.4624   20481116.0244
       211.0004        212.0004
   5602771.28948   4386322.30447  23576204.083    23576204.1104   23576212.2944
       187.0004        188.0004
 -11134916.59848  -8645363.34946  22402784.671    22402784.6184   22402791.7444
       185.0004        184.0004
  -2484607.82047  -1811054.74045  23493326.875    23493327.3754   23493331.4804
       153.0004        157.0004
  -9999076.78748  -7460903.13146  22380061.634    22380061.9704   22380066.1884
       182.0004        181.0004
 21  2  1  2 18 30.0000000  0 11G21G14G30G04G19G01G07G08G09G28G17
 -13464607.17048 -10477342.10746  22229071.867    22229072.0324   22229077.6024
       179.0004        180.0004
  -4149958.72548  -3222178.45046  23011618.690    23011619.1504   23011624.4384
       166.0004        167.0004
 -15116849.84949 -11758575.47747  21700268.389    21700268.2824   21700275.1684
       195.0004        196.0004
  13298479.17547  10390138.84045  24340825.965    24340828.7904   24340832.9894
       144.0004        147.0004
  -3358787.66747  -2597923.85645  24530619.449    24530618.1514   24530622.2324
       149.0004        152.0004
 -20870470.14949 -16245863.52747  20859592.987    20859593.2884   20859600.5274
       199.0004        199.0004
 -23990566.95649 -18684025.27747  20473719.095    20473719.7184   20473724.3254
       211.0004        212.0004
   5697527.86748   4460158.60746  23594234.625    23594235.1814   23594242.3814
       186.0004        186.0004
 -11058851.42048  -8586091.78546  22417258.802    22417259.5814   22417265.4884
       184.0004        183.0004
  -2501567.64547  -1824270.15745  23490101.266    23490100.9814   23490104.1754
       156.0004        160.0004
 -10054237.89948  -7503885.79746  22369565.479    22369565.6954   22369570.0824
       182.0004        183.0004
 21  2  1  2 19  0.0000000  0 11G21G14G30G04G19G01G07G08G09G28G17
 -13416345.10048 -10439735.31146  22238256.036    22238255.3884   22238260.3544
       179.0004        179.0004
  -4177618.25047  -3243731.32946  23006354.164    23006355.9554   23006360.1664
       164.0004        165.0004
 -15194181.30949 -11818833.78647  21685552.798    21685553.2514   21685559.8784
       197.0004        197.0004
  13393924.08947  10464511.44045  24358989.107    24358991.2074   24358995.5674
       143.0004        146.0004
  -3446131.46347  -2665983.92245  24513995.668    24513995.8584   24514001.9154
       148.0004        151.0004
 -20895146.29649 -16265091.70047  20854896.713    20854897.6744   20854905.3644
       199.0004        200.0004
 -24028968.63249 -18713948.68948  20466412.433    20466412.8634   20466416.5774
       212.0004        213.0004
   5792257.72648   4533974.04046  23612259.702    23612260.7044   23612269.8884
       184.0004        185.0004
 -10982639.65748  -8526706.00046  22431761.642    22431762.3234   22431769.4744
       183.0004        183.0004
  -2518600.28547  -1837542.31945  23486859.028    23486858.5724   23486862.9374
       156.0004        158.0004
 -10108991.09648  -7546550.63246  22359146.598    22359146.8504   22359151.7434
       183.0004        184.0004
 21  2  1  2 19 30.0000000  0 11G21G14G30G04G19G01G07G08G09G28G17
 -13367618.01048 -10401766.15146  22247528.434    22247528.0324   22247533.3244
       178.0004        179.0004
  -4205335.17048  -3265328.93546  23001080.452    23001081.1654   23001085.2544
       165.0004        165.0004
 -15271281.43249 -11878911.81247  21670880.786    21670880.9134   21670887.5694
       196.0004        195.0004
  13489254.33947  10538794.72645  24377130.618    24377130.7914   24377137.5034
       141.0004        144.0004
  -3533239.74847  -2733860.45945  24497419.870    24497419.7684   24497425.6504
       149.0004        153.0004
 -20919273.97749 -16283892.48147  20850305.571    20850306.1124   20850314.0994
       200.0004        200.0004
 -24066924.77049 -18743524.90547  20459189.224    20459189.4714   20459193.6584
       212.0004        212.0004
   5886959.20948   4607767.39246  23630280.534    23630281.3414   23630291.1004
       183.0004        184.0004
 -10906284.06948  -8467208.14846  22446292.256    22446292.5314   22446299.4074
       184.0004        185.0004
  -2535706.65347  -1850871.93845  23483602.899    23483603.2334   23483607.2804
       156.0004        159.0004
 -10163336.23048  -7588897.46646  22348803.986    22348803.8314   22348809.2634
       182.0004        181.0004
 21  2  1  2 20  0.0000000  0 11G21G14G30G04G19G01G07G08G09G28G17
 -13318426.86848 -10363435.38946  22256887.933    22256888.6354   22256893.0334
       178.0004        178.0004
  -4233110.43148  -3286971.98546  22995795.387    22995795.7244   22995799.9874
       165.0004        166.0004
 -15348147.80449 -11938807.68947  21656253.837    21656253.5934   21656260.7144
       195.0004        195.0004
  13584467.31747  10612986.64045  24395248.143    24395248.6064   24395255.9124
       139.0004        143.0004
  -3620111.01547  -2801552.30145  24480889.963    24480889.1634   24480894.0534
       148.0004        151.0004
 -20942851.56149 -16302264.62047  20845818.410    20845819.2774   20845827.1244
       199.0004        199.0004
 -24104432.92349 -18772752.04548  20452051.531    20452052.1684   20452056.1474
       212.0004        213.0004
   5981630.05248   4681536.87546  23648297.032    23648297.8044   23648304.8524
       184.0004        184.0004
 -10829787.91948  -8407600.77646  22460848.385    22460848.9804   22460855.7494
       184.0004        184.0004
  -2552888.22147  -1864260.12745  23480335.342    23480335.1124   23480338.2144
       157.0004        160.0004
 -10217272.87248  -7630926.03046  22338540.455    22338540.6874   22338545.0954
       181.0004        182.0004
 21  2  1  2 20 30.0000000  0 11G21G14G30G04G19G01G07G08G09G28G17
 -13268773.08048 -10324744.09946  22266337.524    22266338.0184   22266342.6994
       178.0004        179.0004
  -4260944.59848  -3308660.91346  22990497.854    22990499.0814   22990504.1304
       166.0004        169.0004
 -15424777.73249 -11998519.29547  21641670.230    21641670.9664   21641679.1064
       195.0004        196.0004
  13679560.66147  10687085.34945  24413344.261    24413345.0914   24413352.1494
       138.0004        143.0004
  -3706743.95147  -2869058.42845  24464404.664    24464403.4044   24464406.9424
       146.0004        149.0004
 -20965877.24449 -16320206.68847  20841437.256    20841437.9014   20841445.6154
       199.0004        199.0004
 -24141490.80149 -18801628.31048  20445000.214    20445000.3904   20445004.6194
       212.0004        213.0004
   6076267.86348   4755280.64146  23666306.107    23666306.3484   23666315.0614
       182.0004        182.0004
 -10753154.21948  -8347886.20046  22475430.715    22475431.8744   22475438.9624
       183.0004        183.0004
  -2570146.09847  -1877707.76745  23477050.390    23477050.2784   23477053.4994
       154.0004        154.0004
 -10270800.93748  -7672636.18146  22328354.244    22328354.3574   22328359.2404
       182.0004        184.0004
 21  2  1  2 21  0.0000000  0 11G21G14G30G04G19G01G07G08G09G28G17
 -13218658.91148 -10285694.12646  22275874.574    22275874.6274   22275879.6734
       179.0004        179.0004
  -4288838.67948  -3330396.54846  22985190.813    22985190.4404   22985196.1494
       168.0004        169.0004
 -15501168.90049 -12058044.90647  21627135.208    21627135.1794   21627141.9664
       196.0004        197.0004
  13774531.68047  10761088.69445  24431415.795    24431417.9414   24431425.3624
       138.0004        143.0004
  -3793137.74347  -2936378.22145  24447964.048    24447963.4024   24447968.5364
       147.0004        151.0004
 -20988349.57549 -16337717.60147  20837160.625    20837161.3364   20837168.8664
       199.0004        199.0004
 -24178096.77449 -18830152.47347  20438033.797    20438033.8204   20438038.2164
       212.0004        212.0004
   6170870.12048   4828996.65946  23684310.379    23684309.7774   23684317.2704
       182.0004        183.0004
 -10676386.36648  -8288067.11746  22490040.242    22490040.1724   22490047.3234
       183.0004        184.0004
  -2587481.52547  -1891215.89545  23473749.518    23473748.3874   23473756.4664
       150.0004        150.0004
 -10323920.17548  -7714027.79646  22318245.532    22318246.3824   22318250.7654
       181.0004        182.0004
 21  2  1  2 21 30.0000000  0 11G21G14G30G04G19G01G07G08G09G28G17
 -13168084.55248 -10246285.51146  22285498.085    22285497.9664   22285504.6274
       179.0004        179.0004
  -4316793.53148  -3352179.54746  22979870.965    22979871.8004   22979875.4634
       167.0004        168.0004
 -15577318.89049 -12117382.56647  21612643.507    21612643.3384   21612650.7004
       196.0004        196.0004
  13869377.87247  10834994.76845  24449466.735    24449467.4664   24449473.0134
       138.0004        142.0004
  -3879290.88647  -3003510.48545  24431569.195    24431568.8774   24431573.5164
       149.0004        152.0004
 -21010267.00949 -16354796.10347  20832990.990    20832991.2174   20832998.6714
       199.0004        199.0004
 -24214248.82049 -18858322.89547  20431153.945    20431154.6564   20431158.7284
       211.0004        212.0004
   6265434.86248   4902683.45146  23702305.040    23702303.6184   23702312.3894
       180.0004        180.0004
 -10599487.59048  -8228146.00446  22504674.264    22504673.9274   22504681.0824
       183.0004        183.0004
  -2604896.30747  -1904785.87445  23470432.858    23470434.0144   23470441.5024
       147.0004        150.0004
 -10376630.40548  -7755100.68946  22308216.389    22308216.1024   22308220.7774
       182.0004        183.0004
 21  2  1  2 22  0.0000000  0 11G21G14G30G04G19G01G07G08G09G28G17
 -13117052.25248 -10206520.07746  22295209.887    22295209.8144   22295215.2604
       179.0004        179.0004
  -4344810.04448  -3374010.59346  22974540.034    22974540.7404   22974544.6624
       168.0004        169.0004
 -15653225.30349 -12176530.41347  21598199.209    21598198.9874   21598205.8434
       195.0004        196.0004
  13964096.56747  10908801.50545  24467491.546    24467494.2584   24467498.3494
       136.0004        140.0004
  -3965202.71747  -3070454.75345  24415221.071    24415220.3174   24415224.3704
       148.0004        151.0004
 -21031628.06749 -16371441.07147  20828925.251    20828925.6874   20828934.1394
       199.0004        199.0004
 -24249944.87749 -18886138.00048  20424361.470    20424361.8414   20424366.2404
       212.0004        213.0004
   6359959.52648   4976339.00946  23720291.072    23720290.4474   23720299.5284
       179.0004        179.0004
 -10522461.21148  -8168125.43746  22519330.537    22519331.2244   22519338.5344
       183.0004        183.0004
  -2622391.46147  -1918418.44545  23467108.457    23467108.0234   23467112.8114
       150.0004        155.0004
 -10428931.41348  -7795854.70346  22298262.575    22298263.0614   22298268.5834
       182.0004        183.0004
