     2.11           OBSERVATION DATA    G (GPS)             RINEX VERSION / TYPE
teqc  2018Jun8                          20210202 03:10:43UTCPGM / RUN BY / DATE
Linux2.6.32-573.12.1.el6.x86_64|x86_64|gcc|Win64-MinGW64|=+ COMMENT
BIT 2 OF LLI FLAGS DATA COLLECTED UNDER A/S CONDITION       COMMENT
-Unknown-                                                   MARKER NAME
CRNO                                                        MARKER NUMBER
-Unknown-           -Unknown-                               OBSERVER / AGENCY
-Unknown-           ASHTECH             -Unknown-           REC # / TYPE / VERS
-Unknown-           -Unknown-                               ANT # / TYPE
   408078.1237 -6158372.0603  1605161.9661                  APPROX POSITION XYZ
        0.0000        0.0000        0.0000                  ANTENNA: DELTA H/E/N
     1     1                                                WAVELENGTH FACT L1/2
     7    L1    L2    C1    P1    P2    S1    S2            # / TYPES OF OBSERV
    30.0000                                                 INTERVAL
Forced Modulo Decimation to 30 seconds                      COMMENT
 SNR is mapped to RINEX snr flag value [1-9]                COMMENT
  L1: 1 -> 1;  90 -> 5; 210 -> 9                            COMMENT
  L2: 1 -> 1; 150 -> 5; 250 -> 9                            COMMENT
pseudorange smoothing corrections not applied               COMMENT
  2021     2     1     0     0   30.0000000     GPS         TIME OF FIRST OBS
                                                            END OF HEADER
 21  2  1  0  0 30.0000000  0  7G08G07G21G09G04G27G01
 -19421277.07749 -15113048.82147  20913402.859    20913403.3334   20913410.0724
       203.0004        204.0004
 -12178997.51948  -9452810.25046  22383608.046    22383608.9504   22383613.2204
       186.0004        186.0004
 -12746757.49948  -9918468.66346  21924892.196    21924891.8124   21924896.8844
       175.0004        176.0004
 -18905520.26949 -14704128.67948  20821168.419    20821169.1424   20821175.9754
       213.0004        214.0004
 -15157222.93748 -11789227.98047  21506760.776    21506761.4074   21506767.8274
       193.0004        192.0004
  -9861177.33448  -7663994.42546  23650854.072    23650853.4364   23650860.2004
       184.0004        183.0004
 -10897342.18248  -8466056.11146  22636992.140    22636994.2774   22637003.9304
       169.0004        171.0004
 21  2  1  0  1  0.0000000  0  7G08G07G21G09G04G27G01
 -19356617.83849 -15062664.97647  20925706.568    20925707.3204   20925714.0324
       203.0004        203.0004
 -12254179.44848  -9511393.56046  22369301.790    22369302.6394   22369305.9254
       186.0004        187.0004
 -12773723.07048  -9939480.76646  21919760.713    21919759.9434   21919765.2674
       175.0004        177.0004
 -18887744.79649 -14690277.66048  20824551.406    20824551.7344   20824558.8034
       214.0004        214.0004
 -15078047.62848 -11727532.94847  21521827.567    21521827.8004   21521834.7634
       192.0004        192.0004
  -9755178.69148  -7581398.10346  23671024.304    23671024.3964   23671031.8404
       183.0004        185.0004
 -10974369.22348  -8526077.12746  22622336.437    22622337.1004   22622345.6644
       170.0004        171.0004
 21  2  1  0  1 30.0000000  0  8G08G07G21G30G09G04G27G01
 -19291547.84149 -15011961.07247  20938088.723    20938089.3754   20938096.2944
       202.0004        202.0004
 -12329335.56648  -9569956.75646  22354999.790    22355000.5274   22355004.6934
       187.0004        187.0004
 -12800326.16448  -9960210.41746  21914698.506    21914697.9544   21914702.2684
       176.0004        178.0004
  -1213156.08256   -915821.61045  24337795.374                    24337804.3174
       131.0004        146.0004
 -18869429.32149 -14676005.85748  20828036.438    20828037.0764   20828043.6924
       214.0004        214.0004
 -14998539.75248 -11665578.76747  21536957.677    21536957.7834   21536964.0354
       192.0004        191.0004
  -9649062.66948  -7498710.27746  23691218.546    23691218.0524   23691224.1944
       184.0004        184.0004
 -11051329.98248  -8586046.51446  22607691.556    22607692.1704   22607699.7874
       170.0004        171.0004
 21  2  1  0  2  0.0000000  0  8G08G07G21G30G09G04G27G01
 -19226069.87849 -14960939.27347  20950548.555    20950549.1344   20950556.6284
       202.0004        202.0004
 -12404463.71248  -9628498.16946  22340703.560    22340703.8444   22340707.8934
       186.0004        186.0004
 -12826564.97448  -9980656.20746  21909704.536    21909704.2224   21909709.2674
       177.0004        178.0004
  -1297104.33447   -981235.83845  24321820.518    24321821.3914   24321828.2594
       143.0004        150.0004
 -18850574.91349 -14661314.10048  20831624.233    20831624.9024   20831631.9084
       213.0004        214.0004
 -14918701.96348 -11603367.51547  21552150.219    21552150.5344   21552156.1104
       192.0004        191.0004
  -9542831.83648  -7415933.03947  23711435.140    23711434.3354   23711439.8024
       186.0004        188.0004
 -11128221.14948  -8645961.66246  22593059.252    22593059.3754   22593068.6714
       170.0004        171.0004
 21  2  1  0  2 30.0000000  0  8G08G07G21G30G09G04G27G01
 -19160187.74349 -14909602.53847  20963085.696    20963086.0564   20963093.0634
       201.0004        201.0004
 -12479562.17148  -9687016.42146  22326412.024    22326412.3244   22326417.6354
       186.0004        186.0004
 -12852437.75648 -10000816.79146  21904780.967    21904780.5034   21904785.8084
       177.0004        177.0004
  -1381165.04547  -1046737.68645  24305824.555    24305824.0274   24305830.9474
       146.0004        150.0004
 -18831183.70449 -14646204.06448  20835314.920    20835315.2634   20835322.1094
       214.0004        215.0004
 -14838537.99448 -11540902.09447  21567404.337    21567404.8344   21567411.6554
       191.0004        191.0004
  -9436489.95148  -7333069.22746  23731671.621    23731669.7734   23731675.7254
       185.0004        186.0004
 -11205040.47948  -8705820.82946  22578440.241    22578440.7924   22578450.0314
       170.0004        170.0004
 21  2  1  0  3  0.0000000  0  8G08G07G21G30G09G04G27G01
 -19093901.72749 -14857951.08547  20975699.542    20975700.0474   20975706.8564
       201.0004        201.0004
 -12554626.85048  -9745508.35147  22312128.703    22312128.7004   22312133.0044
       187.0004        188.0004
 -12877940.17248 -10020688.79046  21899927.978    21899927.7724   21899933.9384
       178.0004        178.0004
  -1465334.84547  -1112324.50845  24289807.968    24289807.4134   24289815.1984
       147.0004        151.0004
 -18811254.84549 -14630675.07748  20839107.267    20839107.5084   20839114.0004
       214.0004        214.0004
 -14758048.53748 -11478183.04047  21582721.838    21582721.9964   21582728.2104
       192.0004        191.0004
  -9330037.69948  -7250119.43446  23751928.091    23751927.3254   23751933.0274
       186.0004        187.0004
 -11281782.60448  -8765619.83946  22563836.813    22563838.0194   22563846.4714
       170.0004        172.0004
 21  2  1  0  3 30.0000000  0  8G08G07G21G30G09G04G27G01
 -19027213.79349 -14805986.44747  20988389.962    20988390.2054   20988397.5124
       201.0004        202.0004
 -12629654.80248  -9803971.68946  22297851.278    22297851.0574   22297854.7344
       187.0004        186.0004
 -12903069.20348 -10040269.81846  21895145.531    21895146.0294   21895151.7614
       178.0004        178.0004
  -1549611.46547  -1177994.57645  24273771.186    24273770.4334   24273777.8324
       151.0004        155.0004
 -18790788.69649 -14614727.43548  20843001.283    20843001.8984   20843008.9044
       214.0004        214.0004
 -14677235.56748 -11415211.89847  21598099.069    21598099.4214   21598106.7654
       192.0004        191.0004
  -9223476.99648  -7167085.12846  23772202.455    23772203.1494   23772210.5054
       184.0004        183.0004
 -11358443.49948  -8825355.55346  22549249.262    22549249.0504   22549258.4184
       170.0004        170.0004
 21  2  1  0  4  0.0000000  0  8G08G07G21G30G09G04G27G01
 -18960126.47149 -14753710.60947  21001155.782    21001156.5884   21001163.9774
       201.0004        201.0004
 -12704643.34648  -9862404.31046  22283580.047    22283581.4284   22283585.8424
       186.0004        186.0004
 -12927822.46848 -10059558.05746  21890436.964    21890435.9774   21890441.6534
       178.0004        180.0004
  -1633993.43747  -1243746.73045  24257712.511    24257713.0734   24257720.3824
       153.0004        156.0004
 -18769786.43949 -14598362.03648  20846998.069    20846998.4714   20847005.3304
       213.0004        214.0004
 -14596101.71348 -11351990.73047  21613538.990    21613539.3554   21613546.1964
       191.0004        190.0004
  -9116810.46848  -7083968.35146  23792500.976    23792500.7154   23792508.4954
       183.0004        184.0004
 -11435019.74148  -8885025.32746  22534677.756    22534678.5044   22534686.4554
       169.0004        171.0004
 21  2  1  0  4 30.0000000  0  8G08G07G21G30G09G04G27G01
 -18892643.25449 -14701126.27347  21013997.905    21013998.1284   21014005.6494
       201.0004        201.0004
 -12779590.06748  -9920804.35246  22269319.476    22269319.5634   22269323.9264
       187.0004        187.0004
 -12952197.38548 -10078551.46646  21885798.047    21885797.2674   21885802.4114
       179.0004        180.0004
  -1718479.30747  -1309579.86645  24241636.002    24241635.3804   24241642.1694
       152.0004        154.0004
 -18748249.23849 -14581579.79748  20851096.654    20851097.0184   20851103.9044
       213.0004        214.0004
 -14514649.74448 -11288521.66347  21629038.994    21629038.9804   21629044.8364
       191.0004        189.0004
  -9010040.82948  -7000771.23046  23812818.122    23812818.8324   23812825.7624
       182.0004        181.0004
 -11511508.06448  -8944626.56046  22520121.231    22520121.5284   22520131.0624
       169.0004        170.0004
 21  2  1  0  5  0.0000000  0  8G08G07G21G30G09G04G27G01
 -18824766.95349 -14648235.63547  21026913.184    21026914.1974   21026921.3414
       200.0004        200.0004
 -12854493.96048  -9979171.02546  22255066.238    22255065.8064   22255070.0134
       187.0004        187.0004
 -12976193.33048 -10097249.57946  21881231.453    21881230.9984   21881236.5134
       179.0004        179.0004
  -1803068.78947  -1375493.71745  24225538.803    24225537.7964   24225545.2534
       152.0004        155.0004
 -18726179.53049 -14564382.61948  20855296.662    20855296.6474   20855303.2754
       213.0004        213.0004
 -14432883.55948 -11224807.75647  21644598.462    21644598.8844   21644604.9784
       190.0004        190.0004
  -8903171.84348  -6917496.67446  23833154.547    23833155.1334   23833162.4654
       180.0004        180.0004
 -11587906.31948  -9004157.61646  22505583.638    22505584.4214   22505592.9744
       169.0004        169.0004
 21  2  1  0  5 30.0000000  0  8G08G07G21G30G09G04G27G01
 -18756501.26949 -14595041.58547  21039904.136    21039904.7124   21039912.3584
       200.0004        200.0004
 -12929353.41548 -10037503.04746  22240819.786    22240820.0824   22240824.7034
       186.0004        186.0004
 -12999808.68648 -10115651.13646  21876737.868    21876737.2964   21876741.5384
       179.0004        179.0004
  -1887761.15347  -1441487.73545  24209422.244    24209421.7094   24209428.9084
       154.0004        157.0004
 -18703579.34049 -14546772.07148  20859596.589    20859597.0964   20859604.0504
       213.0004        213.0004
 -14350806.63448 -11160851.71947  21660216.974    21660217.4784   21660223.8484
       191.0004        190.0004
  -8796206.96948  -6834147.42046  23853510.524    23853510.7814   23853515.3744
       180.0004        180.0004
 -11664211.93348  -9063616.48046  22491063.478    22491063.4024   22491072.2144
       169.0004        170.0004
 21  2  1  0  6  0.0000000  0  8G08G07G21G30G09G04G27G01
 -18687848.14549 -14541545.63147  21052969.775    21052969.4354   21052976.4744
       200.0004        200.0004
 -13004165.09348 -10095797.84247  22226582.823    22226583.8684   22226588.4244
       186.0004        188.0004
 -13023040.55748 -10133753.86646  21872316.208    21872315.5984   21872321.7414
       179.0004        179.0004
  -1972554.08047  -1507560.12445  24193285.196    24193285.7634   24193294.0864
       155.0004        157.0004
 -18680449.19149 -14528748.57348  20863998.217    20863998.4814   20864005.9214
       213.0004        213.0004
 -14268421.02248 -11096655.13147  21675894.325    21675894.7594   21675901.1904
       191.0004        190.0004
  -8689148.08248  -6750724.90146  23873881.622    23873882.9614   23873889.7254
       180.0004        181.0004
 -11740420.81148  -9122999.96346  22476561.114    22476561.6934   22476570.8144
       170.0004        172.0004
 21  2  1  0  6 30.0000000  0  8G08G07G21G30G09G04G27G01
 -18618809.96349 -14487749.63747  21066106.821    21066107.0344   21066113.8744
       200.0004        200.0004
 -13078926.23148 -10154053.27247  22212357.184    22212357.8654   22212361.9884
       188.0004        188.0004
 -13045886.23648 -10151555.65946  21867968.185    21867969.0594   21867973.9964
       179.0004        179.0004
  -2057445.82847  -1573709.53445  24177131.210    24177132.3954   24177139.9364
       156.0004        158.0004
 -18656790.08949 -14510312.90948  20868500.561    20868500.8934   20868507.8084
       213.0004        213.0004
 -14185729.15148 -11032219.92047  21691630.228    21691630.4204   21691636.9274
       191.0004        190.0004
  -8581997.58248  -6667231.00546  23894272.489    23894273.2554   23894279.6514
       181.0004        182.0004
 -11816529.25848  -9182305.20446  22462077.791    22462078.9314   22462087.2314
       171.0004        171.0004
 21  2  1  0  7  0.0000000  0  8G08G07G21G30G09G04G27G01
 -18549390.60449 -14433656.61647  21079316.108    21079316.3154   21079324.1494
       199.0004        199.0004
 -13153635.35248 -10212268.15347  22198141.202    22198141.0964   22198145.1774
       189.0004        189.0004
 -13068344.65348 -10169055.70346  21863694.838    21863694.7034   21863701.3784
       179.0004        180.0004
  -2142436.00247  -1639935.61345  24160958.432    24160958.9014   24160967.2494
       156.0004        158.0004
 -18632604.42349 -14491466.92348  20873103.320    20873103.1374   20873110.5194
       213.0004        214.0004
 -14102734.83648 -10967549.03347  21707424.031    21707424.2024   21707430.2104
       190.0004        189.0004
  -8474759.06848  -6583668.53846  23914678.960    23914679.2504   23914687.3984
       180.0004        180.0004
 -11892535.03248  -9241530.42746  22447614.176    22447614.9734   22447623.3344
       170.0004        169.0004
 21  2  1  0  7 30.0000000  0  8G08G07G21G30G09G04G27G01
 -18479593.52649 -14379269.29347  21092598.760    21092598.4204   21092606.1794
       198.0004        198.0004
 -13228291.62048 -10270441.86747  22183933.910    22183934.6524   22183938.4954
       189.0004        189.0004
 -13090414.54248 -10186253.01246  21859494.288    21859495.0674   21859501.1234
       179.0004        180.0004
  -2227524.04747  -1706237.97145  24144767.997    24144767.6324   24144774.6744
       157.0004        160.0004
 -18607894.62049 -14472212.54348  20877804.839    20877805.3554   20877812.2284
       213.0004        213.0004
 -14019441.98648 -10902645.52647  21723274.305    21723274.3974   21723280.5384
       190.0004        189.0004
  -8367436.35548  -6500040.45446  23935102.578    23935101.8964   23935110.6084
       179.0004        179.0004
 -11968435.86948  -9300673.89046  22433170.784    22433171.5824   22433179.8964
       169.0004        170.0004
 21  2  1  0  8  0.0000000  0  8G08G07G21G30G09G04G27G01
 -18409421.24849 -14324589.58747  21105951.180    21105951.9044   21105959.2824
       198.0004        198.0004
 -13302892.05848 -10328572.07347  22169738.659    22169738.7514   22169742.3964
       188.0004        188.0004
 -13112093.46648 -10203145.65446  21855371.240    21855371.2374   21855375.5474
       180.0004        180.0004
  -2312708.29947  -1772615.31045  24128557.610    24128557.6764   24128564.3974
       158.0004        160.0004
 -18582661.97949 -14452550.74347  20882606.822    20882607.0004   20882613.7994
       212.0004        212.0004
 -13935853.21648 -10837511.42647  21739180.734    21739180.6304   21739186.7414
       190.0004        189.0004
  -8260031.89948  -6416348.67246  23955542.381    23955541.4924   23955547.9074
       178.0004        179.0004
 -12044228.28048  -9359732.86846  22418747.964    22418748.6944   22418757.4174
       170.0004        172.0004
 21  2  1  0  8 30.0000000  0  8G08G07G21G30G09G04G27G01
 -18338877.29949 -14269620.25647  21119375.120    21119375.8614   21119383.5774
       198.0004        199.0004
 -13377434.55348 -10386657.11446  22155553.015    22155553.3084   22155556.8614
       187.0004        187.0004
 -13133379.96148 -10219732.50546  21851319.195    21851319.7534   21851324.6894
       179.0004        179.0004
  -2397987.66947  -1839066.74845  24112328.979    24112329.1334   24112336.1514
       157.0004        159.0004
 -18556908.24849 -14432482.89447  20887507.222    20887507.7184   20887514.5784
       212.0004        212.0004
 -13851971.65048 -10772149.17347  21755141.975    21755143.1394   21755148.3154
       189.0004        188.0004
  -8152548.71048  -6332595.53246  23975994.611    23975993.8194   23976001.3984
       178.0004        177.0004
 -12119909.28748  -9418705.01446  22404346.228    22404346.9324   22404356.0824
       171.0004        173.0004
 21  2  1  0  9  0.0000000  0  8G08G07G21G30G09G04G27G01
 -18267963.60049 -14214362.82047  21132870.025    21132870.7984   21132877.9734
       198.0004        199.0004
 -13451916.28748 -10444694.81147  22141379.389    22141380.0504   22141384.3254
       189.0004        190.0004
 -13154271.31648 -10236011.46946  21847342.585    21847343.1644   21847348.8344
       178.0004        178.0004
  -2483359.99347  -1905590.59745  24096084.487    24096083.6234   24096089.7074
       157.0004        158.0004
 -18530634.31649 -14412009.68847  20892507.286    20892507.6354   20892514.1664
       212.0004        212.0004
 -13767799.55248 -10706560.51947  21771159.564    21771160.1134   21771166.6124
       189.0004        188.0004
  -8044988.79148  -6248782.64546  23996461.261    23996462.1664   23996469.2454
       175.0004        174.0004
 -12195474.99448  -9477587.32146  22389965.909    22389966.9524   22389975.8534
       171.0004        172.0004
 21  2  1  0  9 30.0000000  0  8G08G07G21G30G09G04G27G01
 -18196681.99549 -14158818.70547  21146434.664    21146434.7814   21146442.3414
       198.0004        198.0004
 -13526334.05148 -10502682.65847  22127217.365    22127219.0474   22127223.0304
       190.0004        191.0004
 -13174764.86848 -10251980.45246  21843443.807    21843444.1064   21843448.6324
       178.0004        178.0004
  -2568822.92647  -1972185.07445  24079820.227    24079820.5574   24079826.9724
       156.0004        158.0004
 -18503840.87249 -14391131.67247  20897605.948    20897606.1164   20897613.0834
       212.0004        212.0004
 -13683338.96648 -10640747.07547  21787232.152    21787232.3374   21787237.9694
       189.0004        188.0004
  -7937353.99648  -6164911.37246  24016943.279    24016943.9204   24016950.6544
       173.0004        172.0004
 -12270921.26848  -9536376.57246  22375609.736    22375610.3464   22375619.2984
       172.0004        173.0004
 21  2  1  0 10  0.0000000  0  8G08G07G21G30G09G04G27G01
 -18125036.26549 -14102990.87847  21160067.729    21160068.2934   21160076.1124
       197.0004        196.0004
 -13600685.83248 -10560619.11447  22113070.244    22113070.2844   22113074.0354
       191.0004        191.0004
 -13194858.77848 -10267638.02746  21839621.104    21839620.0474   21839625.9584
       179.0004        179.0004
  -2654375.66247  -2038849.50545  24063540.818    24063540.1684   24063547.0704
       157.0004        160.0004
 -18476530.09149 -14369850.55448  20902802.725    20902803.0064   20902810.0704
       212.0004        213.0004
 -13598593.41648 -10574711.59546  21803357.990    21803358.5714   21803364.7604
       188.0004        187.0004
  -7829647.64348  -6080984.38346  24037439.772    24037440.6324   24037447.6534
       173.0004        175.0004
 -12346245.40148  -9595070.66046  22361275.256    22361275.9424   22361284.7584
       173.0004        174.0004
 21  2  1  0 10 30.0000000  0  8G08G07G21G30G09G04G27G01
 -18053029.04149 -14046881.34047  21173770.610    21173771.2654   21173778.8494
       197.0004        197.0004
 -13674969.55948 -10618502.52147  22098934.509    22098934.3234   22098938.5864
       191.0004        191.0004
 -13214551.31448 -10282982.84246  21835873.145    21835872.2404   21835878.4974
       179.0004        180.0004
  -2740016.81547  -2105582.82845  24047241.927    24047242.9144   24047250.8784
       158.0004        161.0004
 -18448703.71349 -14348167.65447  20908098.214    20908098.4344   20908105.1704
       212.0004        212.0004
 -13513565.92248 -10508456.41346  21819538.876    21819539.1004   21819545.4094
       188.0004        187.0004
  -7721872.52148  -5997003.77046  24057948.224    24057948.1474   24057955.8724
       172.0004        173.0004
 -12421444.27848  -9653667.14846  22346966.713    22346967.1424   22346974.8954
       173.0004        174.0004
 21  2  1  0 11  0.0000000  0  8G08G07G21G30G09G04G27G01
 -17980662.68649 -13990491.94747  21187541.538    21187541.7404   21187549.7964
       197.0004        198.0004
 -13749182.52648 -10676330.80347  22084811.346    22084812.3274   22084816.7224
       191.0004        191.0004
 -13233840.44848 -10298013.31746  21832202.533    21832201.5774   21832207.2284
       179.0004        179.0004
  -2825744.61947  -2172383.69346  24030929.261    24030929.7724   24030937.7114
       160.0004        163.0004
 -18420363.14849 -14326084.09947  20913490.595    20913491.1124   20913498.6334
       212.0004        212.0004
 -13428259.18348 -10441983.63346  21835772.216    21835772.4724   21835778.3604
       187.0004        186.0004
  -7614031.14148  -5912971.55146  24078470.025    24078470.1234   24078477.2694
       173.0004        175.0004
 -12496514.43948  -9712163.33546  22332681.251    22332681.6504   22332690.0434
       174.0004        175.0004
 21  2  1  0 11 30.0000000  0  8G08G07G21G30G09G04G27G01
 -17907941.41849 -13933826.00047  21201379.666    21201380.1834   21201387.8544
       197.0004        197.0004
 -13823323.35648 -10734102.86347  22070703.660    22070704.0804   22070707.5044
       191.0004        192.0004
 -13252724.83948 -10312728.40746  21828607.963    21828608.5624   21828613.9634
       179.0004        179.0004
  -2911558.59747  -2239251.71146  24014600.862    24014600.7744   24014607.3634
       162.0004        164.0004
 -18391511.01949 -14303601.91547  20918981.353    20918981.5774   20918988.8474
       212.0004        212.0004
 -13342677.07148 -10375296.28346  21852057.593    21852057.7604   21852063.6034
       186.0004        185.0004
  -7506127.12548  -5828890.47946  24099002.260    24099003.7314   24099011.1594
       173.0004        175.0004
 -12571453.55048  -9770557.39146  22318420.445    22318421.1424   22318429.4714
       174.0004        176.0004
 21  2  1  0 12  0.0000000  0  8G08G07G21G30G09G04G27G01
 -17834867.66449 -13876885.40947  21215285.016    21215285.8264   21215293.3434
       196.0004        196.0004
 -13897389.22848 -10791816.51947  22056608.949    22056609.7384   22056613.6624
       192.0004        193.0004
 -13271202.17948 -10327126.30846  21825092.288    21825092.1204   21825098.5664
       179.0004        179.0004
  -2997456.74147  -2306185.30745  23998253.083    23998253.9484   23998260.9104
       159.0004        158.0004
 -18362148.46749 -14280721.99547  20924569.105    20924569.3404   20924576.2884
       212.0004        212.0004
 -13256822.02748 -10308396.24346  21868395.316    21868396.1194   21868401.4694
       185.0004        185.0004
  -7398162.61348  -5744762.31246  24119547.704    24119548.6464   24119556.0534
       173.0004        174.0004
 -12646257.82448  -9828846.37846  22304184.748    22304185.2734   22304194.7364
       174.0004        175.0004
 21  2  1  0 12 30.0000000  0  8G08G07G21G30G09G04G27G01
 -17761443.57649 -13819671.83847  21229257.515    21229258.1084   21229264.9934
       196.0004        196.0004
 -13971377.06848 -10849469.38047  22042529.798    22042530.0784   22042533.7094
       192.0004        192.0004
 -13289269.93448 -10341205.06346  21821654.880    21821653.8154   21821659.9464
       179.0004        180.0004
  -3083436.88547  -2373182.81445  23981893.266    23981893.6404   23981898.6634
       155.0004        157.0004
 -18332276.55349 -14257445.18247  20930253.003    20930253.6124   20930260.4594
       212.0004        212.0004
 -13170696.35748 -10241285.33346  21884783.991    21884784.8524   21884791.4374
       185.0004        185.0004
  -7290139.70848  -5660588.58946  24140103.481    24140104.9924   24140112.4174
       174.0004        175.0004
 -12720923.30448  -9887027.23846  22289975.589    22289976.6554   22289986.1804
       174.0004        175.0004
 21  2  1  0 13  0.0000000  0  8G08G07G21G30G09G04G27G01
 -17687672.32849 -13762187.75047  21243296.187    21243296.2574   21243303.0514
       196.0004        196.0004
 -14045284.66548 -10907059.71447  22028464.415    22028465.1484   22028469.6304
       191.0004        191.0004
 -13306926.80148 -10354963.63946  21818294.584    21818294.4824   21818299.5214
       180.0004        181.0004
  -3169497.92347  -2440243.35645  23965515.538    23965515.9184   23965522.6944
       156.0004        158.0004
 -18301897.51549 -14233773.20747  20936034.077    20936034.3744   20936041.8104
       211.0004        211.0004
 -13084303.44448 -10173966.20346  21901224.422    21901225.1664   21901231.5344
       186.0004        185.0004
  -7182061.47648  -5576371.82646  24160670.634    24160671.7064   24160679.3404
       176.0004        177.0004
 -12795447.27448  -9945097.81646  22275795.476    22275796.1274   22275805.3414
       174.0004        175.0004
 21  2  1  0 13 30.0000000  0  8G08G07G21G30G09G04G27G01
 -17613557.48149 -13704435.90447  21257399.309    21257399.8834   21257407.0104
       196.0004        196.0004
 -14119110.30348 -10964586.18147  22014416.819    22014417.1524   22014421.3344
       191.0004        192.0004
 -13324171.30048 -10368400.90446  21815012.735    21815012.1834   21815017.4254
       180.0004        180.0004
  -3255638.77547  -2507366.08145  23949122.525    23949123.0844   23949130.2734
       156.0004        158.0004
 -18271013.54749 -14209707.77347  20941910.772    20941911.3974   20941918.6574
       211.0004        212.0004
 -12997646.76448 -10106441.50946  21917715.158    21917715.1834   21917721.9334
       185.0004        184.0004
  -7073931.04148  -5492114.33346  24181246.804    24181247.3184   24181255.2014
       174.0004        175.0004
 -12869826.87548 -10003055.90546  22261642.031    22261642.1234   22261651.0354
       175.0004        176.0004
 21  2  1  0 14  0.0000000  0  8G08G07G21G30G09G04G27G01
 -17539101.71149 -13646418.40447  21271568.177    21271568.6194   21271575.7094
       196.0004        196.0004
 -14192851.27548 -11022046.66047  22000384.415    22000384.8444   22000388.4824
       192.0004        193.0004
 -13341001.44948 -10381515.27946  21811809.174    21811809.6224   21811815.4144
       180.0004        181.0004
  -3341857.70747  -2574549.60245  23932715.800    23932715.0094   23932724.0304
       155.0004        157.0004
 -18239626.17549 -14185250.07447  20947884.313    20947884.6194   20947891.6364
       212.0004        212.0004
 -12910728.96848 -10038713.35746  21934254.109    21934254.6534   21934262.3094
       184.0004        184.0004
  -6965750.79748  -5407818.07146  24201833.671    24201833.9934   24201841.6084
       175.0004        176.0004
 -12944058.58148 -10060898.75146  22247515.684    22247516.7884   22247524.8304
       175.0004        177.0004
 21  2  1  0 14 30.0000000  0  8G08G07G21G30G09G04G27G01
 -17464307.93649 -13588137.53947  21285800.948    21285801.1934   21285808.4774
       196.0004        197.0004
 -14266505.47248 -11079439.53547  21986369.299    21986369.2784   21986372.3914
       193.0004        193.0004
 -13357415.50448 -10394305.42346  21808686.760    21808686.8224   21808691.7944
       181.0004        181.0004
  -3428153.26847  -2641792.86745  23916294.183    23916293.9324   23916302.5964
       155.0004        158.0004
 -18207737.43449 -14160401.70147  20953952.540    20953952.6554   20953959.7544
       212.0004        212.0004
 -12823553.27948  -9970784.24846  21950843.500    21950844.1934   21950850.0584
       185.0004        184.0004
  -6857523.59548  -5323485.18246  24222427.992    24222429.6194   24222435.9724
       176.0004        178.0004
 -13018139.30448 -10118623.94346  22233417.923    22233419.4304   22233427.7394
       176.0004        178.0004
 21  2  1  0 15  0.0000000  0  8G08G07G21G30G09G04G27G01
 -17389178.88349 -13529595.40847  21300096.179    21300096.9754   21300104.7364
       196.0004        196.0004
 -14340070.23048 -11136762.70647  21972368.916    21972369.6034   21972373.5314
       193.0004        193.0004
 -13373411.74948 -10406770.01546  21805643.667    21805642.6814   21805647.6204
       181.0004        182.0004
  -3514523.84147  -2709094.60145  23899859.656    23899859.7144   23899866.3574
       158.0004        161.0004
 -18175348.94549 -14135163.91147  20960115.828    20960115.8024   20960123.4694
       212.0004        212.0004
 -12736122.44548  -9902656.33546  21967481.676    21967481.7864   21967487.9464
       184.0004        184.0004
  -6749251.98048  -5239117.70346  24243031.779    24243032.9814   24243039.2554
       177.0004        177.0004
 -13092065.64148 -10176228.83146  22219350.625    22219351.0864   22219359.0864
       176.0004        177.0004
 21  2  1  0 15 30.0000000  0  8G08G07G21G30G09G04G27G01
 -17313718.46149 -13470795.07847  21314456.133    21314456.7914   21314464.6394
       195.0004        196.0004
 -14413543.76248 -11194014.81447  21958388.158    21958388.7194   21958391.8934
       192.0004        192.0004
 -13388988.82248 -10418907.96446  21802677.821    21802678.1974   21802682.9664
       181.0004        181.0004
  -3600968.60547  -2776454.14345  23883410.148    23883409.5874   23883416.4844
       159.0004        162.0004
 -18142463.40349 -14109538.81847  20966373.791    20966373.9474   20966381.2474
       212.0004        212.0004
 -12648440.30748  -9834332.59046  21984166.843    21984167.1614   21984172.9324
       184.0004        183.0004
  -6640939.36148  -5154718.24546  24263643.700    24263644.4554   24263651.0714
       179.0004        181.0004
 -13165835.12348 -10233711.50046  22205313.237    22205313.2104   22205322.2674
       176.0004        177.0004
 21  2  1  0 16  0.0000000  0  8G08G07G21G30G09G04G27G01
 -17237928.87149 -13411738.25447  21328879.895    21328880.3064   21328886.8574
       196.0004        197.0004
 -14486922.87148 -11251193.33147  21944424.530    21944424.9084   21944428.6394
       193.0004        193.0004
 -13404144.40548 -10430717.48646  21799794.815    21799794.3994   21799799.6894
       181.0004        182.0004
  -3687485.56447  -2843869.92245  23866945.338    23866945.6414   23866952.6204
       158.0004        159.0004
 -18109082.33649 -14083527.58947  20972725.273    20972726.0404   20972732.5434
       212.0004        212.0004
 -12560509.35848  -9765814.94846  22000898.670    22000899.4334   22000906.4054
       184.0004        184.0004
  -6532587.94648  -5070288.59446  24284262.495    24284263.0774   24284268.9414
       179.0004        179.0004
 -13239444.00648 -10291069.02046  22191305.580    22191305.6094   22191314.9294
       177.0004        178.0004
 21  2  1  0 16 30.0000000  0  8G08G07G21G30G09G04G27G01
 -17161811.78549 -13352426.23347  21343364.895    21343364.9064   21343371.9934
       197.0004        197.0004
 -14560204.07748 -11308295.55947  21930479.625    21930480.1214   21930484.2434
       193.0004        195.0004
 -13418875.64348 -10442196.35946  21796991.581    21796990.9654   21796997.5264
       182.0004        182.0004
  -3774071.60947  -2911339.55745  23850468.325    23850468.7644   23850475.8114
       156.0004        157.0004
 -18075205.84649 -14057130.32647  20979172.441    20979173.1594   20979179.4374
       212.0004        212.0004
 -12472331.11148  -9697104.63946  22017679.238    22017679.4164   22017686.3834
       184.0004        183.0004
  -6424198.74348  -4985829.48146  24304887.720    24304888.5224   24304894.1664
       175.0004        173.0004
 -13312887.45648 -10348297.65746  22177329.053    22177330.2584   22177338.3824
       177.0004        178.0004
 21  2  1  0 17  0.0000000  0  8G08G07G21G30G09G04G27G01
 -17085369.89049 -13292861.10947  21357910.667    21357911.3174   21357917.8914
       196.0004        196.0004
 -14633384.91149 -11365319.58847  21916554.812    21916554.5254   21916558.1824
       195.0004        194.0004
 -13433180.67648 -10453343.12246  21794270.235    21794269.3344   21794274.6204
       182.0004        182.0004
  -3860725.04447  -2978861.70545  23833979.057    23833979.6004   23833986.6564
       154.0004        156.0004
 -18040835.99049 -14030348.62747  20985713.147    20985713.1984   20985720.1164
       212.0004        212.0004
 -12383908.49548  -9628203.91846  22034505.827    22034506.0934   22034511.3564
       184.0004        183.0004
  -6315774.37648  -4901342.93346  24325522.193    24325521.3074   24325526.8374
       173.0004        174.0004
 -13386162.22048 -10405394.83646  22163386.047    22163386.9284   22163394.7834
       177.0004        178.0004
 21  2  1  0 17 30.0000000  0  8G08G07G21G30G09G04G27G01
 -17008607.96349 -13233046.61547  21372518.522    21372518.8764   21372525.2544
       195.0004        195.0004
 -14706464.62248 -11422264.78747  21902645.860    21902646.4864   21902651.8104
       194.0004        194.0004
 -13447059.53748 -10464157.78046  21791627.769    21791627.3154   21791632.1964
       181.0004        181.0004
  -3947446.25847  -3046436.67745  23817476.269    23817476.3824   23817483.7224
       153.0004        156.0004
 -18005976.59049 -14003185.44847  20992346.286    20992346.4784   20992353.6384
       212.0004        212.0004
 -12295246.42948  -9559116.57646  22051376.973    22051377.8544   22051384.2424
       183.0004        184.0004
  -6207319.37748  -4816832.57646  24346160.696    24346159.6474   24346165.0294
       171.0004        170.0004
 -13459266.93048 -10462359.49246  22149473.465    22149475.1804   22149483.8594
       177.0004        177.0004
 21  2  1  0 18  0.0000000  0  8G08G07G21G30G09G04G27G01
 -16931528.38249 -13172984.59247  21387185.586    21387186.2964   21387192.9004
       195.0004        196.0004
 -14779439.48948 -11479128.31247  21888759.533    21888760.3014   21888765.1444
       194.0004        194.0004
 -13460509.49448 -10474638.24746  21789067.210    21789067.4944   21789073.2104
       181.0004        181.0004
  -4034232.54847  -3114062.30545  23800960.254    23800960.8224   23800969.7054
       153.0004        157.0004
 -17970628.58849 -13975641.54647  20999072.493    20999072.4154   20999080.5634
       211.0004        212.0004
 -12206346.83848  -9489844.16646  22068293.515    22068293.9204   22068301.1334
       184.0004        183.0004
  -6098835.26548  -4732299.44846  24366804.169    24366803.9344   24366808.5114
       171.0004        172.0004
 -13532197.20048 -10519188.23146  22135595.190    22135595.7794   22135605.6334
       177.0004        177.0004
 21  2  1  0 18 30.0000000  0  8G08G07G21G30G09G04G27G01
 -16854133.74649 -13112677.08547  21401913.522    21401913.7784   21401920.5344
       195.0004        195.0004
 -14852307.35148 -11535908.45747  21874893.904    21874893.8624   21874898.5444
       193.0004        194.0004
 -13473528.90548 -10484783.22646  21786590.448    21786590.2974   21786595.3594
       181.0004        181.0004
  -4121082.38847  -3181737.49945  23784435.061    23784435.2894   23784441.7804
       156.0004        160.0004
 -17934794.07549 -13947718.55847  21005892.043    21005892.1034   21005899.3204
       211.0004        212.0004
 -12117212.89248  -9420389.16946  22085255.157    22085255.9634   22085262.4304
       183.0004        183.0004
  -5990324.82748  -4647745.86446  24387452.847    24387452.5824   24387458.4494
       172.0004        172.0004
 -13604949.91048 -10575878.63746  22121751.212    22121752.3384   22121761.9044
       177.0004        179.0004
 21  2  1  0 19  0.0000000  0  8G08G07G21G30G09G04G27G01
 -16776427.48249 -13052126.73547  21416700.938    21416701.1114   21416707.8784
       195.0004        195.0004
 -14925066.26748 -11592603.69547  21861048.196    21861048.8054   21861053.0724
       194.0004        194.0004
 -13486116.80348 -10494591.96246  21784195.864    21784195.5634   21784200.1394
       180.0004        181.0004
  -4207994.63847  -3249461.36345  23767896.955    23767896.6814   23767903.2964
       157.0004        160.0004
 -17898475.57449 -13919418.42047  21012802.811    21012803.3904   21012810.3364
       211.0004        211.0004
 -12027848.11548  -9350754.27446  22102261.496    22102261.7314   22102268.4624
       184.0004        184.0004
  -5881791.06448  -4563174.14146  24408105.053    24408105.6724   24408111.9154
       171.0004        173.0004
 -13677522.34148 -10632428.54146  22107942.046    22107942.7884   22107950.2834
       177.0004        178.0004
 21  2  1  0 19 30.0000000  0  8G08G07G21G30G09G04G27G01
 -16698412.52549 -12991335.85347  21431546.165    21431546.9414   21431553.7024
       195.0004        195.0004
 -14997713.73549 -11649212.11147  21847224.801    21847225.1304   21847229.0974
       195.0004        196.0004
 -13498271.50948 -10504063.14046  21781883.048    21781881.7384   21781887.3744
       181.0004        182.0004
  -4294967.43447  -3317232.33245  23751345.354    23751345.5354   23751353.6584
       159.0004        161.0004
 -17861674.86049 -13890742.54147  21019805.813    21019806.1374   21019813.0254
       210.0004        210.0004
 -11938255.22448  -9280941.63846  22119310.614    22119311.0214   22119317.0014
       184.0004        183.0004
  -5773236.35948  -4478586.04846  24428761.766    24428762.5914   24428768.6904
       170.0004        170.0004
 -13749910.89748 -10688835.18346  22094166.823    22094166.7744   22094176.0074
       178.0004        179.0004
 21  2  1  0 20  0.0000000  0  9G08G07G21G30G09G04G27G17G01
 -16620091.37148 -12930306.37547  21446449.051    21446449.9384   21446457.7504
       194.0004        194.0004
 -15070246.76149 -11705731.34247  21833421.499    21833422.1534   21833426.4944
       195.0004        195.0004
 -13509991.09548 -10513195.26846  21779653.192    21779652.7964   21779656.5404
       182.0004        183.0004
  -4381998.89747  -3385049.01945  23734784.586    23734784.1354   23734791.8104
       160.0004        162.0004
 -17824393.71549 -13861692.29647  21026900.415    21026900.6004   21026907.7024
       210.0004        210.0004
 -11848437.01748  -9210953.42646  22136402.604    22136402.8094   22136409.2864
       184.0004        184.0004
  -5664663.01348  -4393983.48846  24449422.969    24449423.0434   24449430.2124
       168.0004        168.0004
  -1501781.12654  -1122312.79145  24074452.512
        74.0004        155.0004
 -13822112.07248 -10745095.79046  22080427.123    22080427.5884   22080437.3904
       179.0004        180.0004
 21  2  1  0 20 30.0000000  0  9G08G07G21G30G09G04G27G17G01
 -16541467.90148 -12869041.33847  21461411.556    21461412.0354   21461419.3234
       194.0004        195.0004
 -15142663.39149 -11762159.86647  21819640.837    21819641.1774   21819646.1834
       195.0004        194.0004
 -13521274.66648 -10521987.63546  21777505.422    21777505.0044   21777510.5784
       183.0004        184.0004
  -4469088.03847  -3452910.69245  23718211.473    23718210.7024   23718218.6014
       159.0004        160.0004
 -17786634.96049 -13832269.88647  21034084.521    21034085.2594   21034092.4424
       209.0004        209.0004
 -11758397.23948  -9140792.55646  22153536.464    22153537.1324   22153543.6304
       184.0004        184.0004
  -5556074.27748  -4309368.87946  24470086.152    24470087.5474   24470092.8784
       169.0004        171.0004
  -1597220.22847  -1196680.79745  24056292.874    24056292.1224   24056298.2554
       149.0004        157.0004
 -13894123.31748 -10801208.41046  22066724.179    22066724.6094   22066733.9964
       179.0004        181.0004
 21  2  1  0 21  0.0000000  0  9G08G07G21G30G09G04G27G17G01
 -16462546.82048 -12807544.38347  21476430.644    21476430.9594   21476437.1654
       194.0004        194.0004
 -15214962.97749 -11818497.20247  21805883.170    21805883.9204   21805887.5774
       195.0004        195.0004
 -13532122.27548 -10530440.29746  21775440.115    21775440.2134   21775446.8714
       183.0004        183.0004
  -4556234.92947  -3520817.35245  23701628.145    23701628.3794   23701636.2654
       157.0004        159.0004
 -17748402.37949 -13802478.26847  21041360.678    21041361.0254   21041367.9554
       209.0004        210.0004
 -11668140.56748  -9070462.69046  22170711.766    22170711.9624   22170718.2984
       183.0004        181.0004
  -5447474.52448  -4224745.74746  24490750.645    24490752.3864   24490759.8794
       169.0004        169.0004
  -1692423.07547  -1270864.71045  24038175.472    24038175.9034   24038181.5334
       153.0004        157.0004
 -13965943.02348 -10857171.79946  22053056.665    22053057.2284   22053066.1374
       180.0004        180.0004
 21  2  1  0 21 30.0000000  0  9G08G07G21G30G09G04G27G17G01
 -16383328.43948 -12745815.76047  21491505.330    21491505.7434   21491512.1094
       194.0004        194.0004
 -15287140.59749 -11874739.49847  21792147.537    21792148.1664   21792152.9084
       195.0004        195.0004
 -13542529.85048 -10538550.07646  21773459.926    21773460.2834   21773465.5184
       182.0004        183.0004
  -4643435.39747  -3588765.74345  23685034.980    23685034.6564   23685041.3794
       157.0004        160.0004
 -17709695.64249 -13772317.17547  21048726.490    21048726.8054   21048733.8824
       209.0004        210.0004
 -11577667.63448  -8999964.30546  22187927.082    22187928.2834   22187934.3684
       182.0004        182.0004
  -5338863.64748  -4140113.93046  24511419.142    24511420.4904   24511427.6244
       168.0004        169.0004
  -1787385.28147  -1344861.09045  24020105.301    24020105.1944   24020110.0644
       152.0004        153.0004
 -14037565.51848 -10912981.51546  22039428.611    22039428.9634   22039436.2724
       179.0004        180.0004
 21  2  1  0 22  0.0000000  0  9G08G07G21G30G09G04G27G17G01
 -16303815.64848 -12683857.73047  21506634.952    21506635.7224   21506642.0414
       193.0004        193.0004
 -15359193.54949 -11930884.63247  21778437.045    21778436.9724   21778441.4264
       195.0004        195.0004
 -13552495.93248 -10546315.82846  21771564.688    21771563.5604   21771568.6774
       182.0004        182.0004
  -4730687.70047  -3656754.55345  23668431.402    23668430.5824   23668438.0524
       158.0004        161.0004
 -17670516.81149 -13741788.21047  21056182.207    21056182.4814   21056189.0894
       210.0004        210.0004
 -11486981.41348  -8929299.71146  22205184.826    22205185.1354   22205191.4884
       181.0004        180.0004
  -5230244.31148  -4055475.45046  24532088.387    24532090.0664   24532096.6904
       167.0004        168.0004
  -1882104.26747  -1418667.99245  24002080.715    24002081.1184   24002085.6894
       150.0004        152.0004
 -14108987.46448 -10968634.93046  22025835.577    22025836.8914   22025845.5674
       179.0004        180.0004
 21  2  1  0 22 30.0000000  0  9G08G07G21G30G09G04G27G17G01
 -16224010.44048 -12621671.84847  21521821.645    21521822.2034   21521828.9184
       192.0004        193.0004
 -15431117.99149 -11986929.64247  21764749.795    21764750.2934   21764754.9014
       195.0004        196.0004
 -13562017.56848 -10553735.27146  21769752.968    21769752.2084   21769756.0734
       182.0004        181.0004
  -4817988.84247  -3724781.40745  23651817.864    23651817.9234   23651824.4964
       159.0004        162.0004
 -17630866.70849 -13710892.01847  21063727.197    21063727.4204   21063734.3494
       210.0004        210.0004
 -11396083.54348  -8858470.20346  22222482.429    22222482.4754   22222488.4364
       181.0004        180.0004
  -5121617.51748  -3970831.17346  24552757.934    24552759.5444   24552768.6264
       167.0004        167.0004
  -1976576.89047  -1492282.92245  23984102.562    23984102.1134   23984108.4034
       151.0004        154.0004
 -14180204.19648 -11024128.45646  22012283.831    22012284.1784   22012294.0184
       179.0004        179.0004
 21  2  1  0 23  0.0000000  0  9G08G07G21G30G09G04G27G17G01
 -16143914.96748 -12559259.78547  21537063.450    21537064.0744   21537070.8504
       193.0004        193.0004
 -15502910.80849 -12042872.08947  21751088.457    21751088.8434   21751092.8864
       195.0004        196.0004
 -13571093.02148 -10560807.03546  21768025.517    21768024.7654   21768029.4404
       182.0004        183.0004
  -4905336.54247  -3792844.54546  23635195.966    23635196.2404   23635203.6414
       161.0004        163.0004
 -17590747.06149 -13679629.95447  21071361.773    21071362.1254   21071369.3164
       210.0004        210.0004
 -11304976.65048  -8787477.81646  22239818.089    22239819.3394   22239825.9054
       181.0004        179.0004
  -5012985.52348  -3886182.96946  24573432.674    24573433.1084   24573440.7694
       168.0004        170.0004
  -2070800.37847  -1565703.69745  23966172.270    23966172.9394   23966177.6644
       152.0004        155.0004
 -14251212.00648 -11079459.19446  21998771.650    21998772.7374   21998781.3964
       179.0004        180.0004
 21  2  1  0 23 30.0000000  0  8G08G07G21G30G09G04G17G01
 -16063533.14448 -12496624.60847  21552360.092    21552360.4544   21552366.9684
       193.0004        193.0004
 -15574570.23749 -12098710.60047  21737452.145    21737452.3734   21737456.6214
       196.0004        197.0004
 -13579721.39748 -10567530.43846  21766383.204    21766382.8384   21766386.8054
       182.0004        182.0004
  -4992729.73247  -3860943.11545  23618564.795    23618565.3834   23618573.2574
       159.0004        160.0004
 -17550160.56249 -13648004.11047  21079084.718    21079084.9944   21079092.1684
       209.0004        209.0004
 -11213664.24548  -8716325.31346  22257195.618    22257195.9244   22257202.9364
       181.0004        181.0004
  -2164773.20947  -1638929.17045  23948288.937    23948289.8144   23948295.7144
       153.0004        155.0004
 -14322008.15848 -11134625.00046  21985299.941    21985300.6484   21985309.0654
       180.0004        180.0004
 21  2  1  0 24  0.0000000  0  9G08G07G14G21G30G09G04G17G01
 -15982867.29748 -12433768.09647  21567710.494    21567710.8384   21567717.0314
       193.0004        193.0004
 -15646093.70649 -12154443.15647  21723841.589    21723841.8904   21723845.9754
       196.0004        197.0004
  -1056296.30856   -816243.51645  23604394.351                    23604400.1764
       123.0004        143.0004
 -13587900.77648 -10573903.96446  21764825.511    21764825.9754   21764831.2124
       182.0004        183.0004
  -5080166.57147  -3929075.67145  23601926.021    23601926.7564   23601933.7954
       158.0004        161.0004
 -17509109.37849 -13616016.16147  21086896.906    21086896.9864   21086904.1274
       209.0004        209.0004
 -11122149.34348  -8645015.00346  22274610.895    22274610.7104   22274617.5374
       180.0004        179.0004
  -2258493.40547  -1711957.75145  23930454.517    23930455.5194   23930461.7434
       154.0004        157.0004
 -14392589.32548 -11189623.26346  21971869.382    21971869.6244   21971877.3584
       179.0004        180.0004
 21  2  1  0 24 30.0000000  0  9G08G07G14G21G30G09G04G17G01
 -15901922.45149 -12370694.19747  21583113.386    21583113.3974   21583119.9994
       206.0004        209.0004
 -15717479.79449 -12210068.67547  21710257.570    21710257.7924   21710261.8664
       196.0004        197.0004
  -1083547.16746   -837477.87945  23599209.162    23599209.1734   23599209.7944
       134.0004        142.0004
 -13595631.45448 -10579927.85746  21763354.610    21763354.6454   21763360.4604
       182.0004        182.0004
  -5167646.69947  -3997241.98546  23585280.520    23585280.7624   23585288.0314
       161.0004        164.0004
 -17467597.17649 -13583668.99147  21094795.994    21094796.3174   21094804.0274
       209.0004        210.0004
 -11030436.38848  -8573550.37746  22292062.484    22292063.0724   22292068.4314
       178.0004        178.0004
  -2351960.08947  -1784788.81645  23912670.288    23912669.4654   23912675.7664
       156.0004        158.0004
 -14462953.59448 -11244452.55446  21958478.953    21958479.2144   21958487.9454
       179.0004        180.0004
 21  2  1  0 25  0.0000000  0  9G08G07G14G21G30G09G04G17G01
 -15820701.78149 -12307405.36147  21598568.763    21598569.3284   21598575.6674
       210.0004        209.0004
 -15788726.77449 -12265585.79347  21696699.452    21696700.0984   21696703.5144
       196.0004        196.0004
  -1110741.25447   -858668.02345  23594034.123    23594034.8144   23594037.7634
       137.0004        144.0004
 -13602912.62748 -10585601.48146  21761969.663    21761969.8164   21761974.5144
       183.0004        184.0004
  -5255169.14547  -4065441.29046  23568625.217    23568625.7174   23568632.4704
       162.0004        163.0004
 -17425626.89349 -13550964.88147  21102783.732    21102783.8694   21102790.4844
       209.0004        210.0004
 -10938529.11248  -8501934.31646  22309552.932    22309552.5594   22309558.2394
       177.0004        176.0004
  -2445172.10447  -1857421.44745  23894931.400    23894931.7364   23894937.7574
       155.0004        158.0004
 -14533098.50648 -11299110.89246  21945131.084    21945131.6004   21945139.6744
       180.0004        180.0004
 21  2  1  0 25 30.0000000  0  9G08G07G14G21G30G09G04G17G01
 -15739207.40849 -12243903.23648  21614077.172    21614077.4954   21614083.8924
       219.0004        223.0004
 -15859831.33049 -12320991.93847  21683168.668    21683169.2044   21683173.0344
       196.0004        196.0004
  -1137879.06547   -879814.32745  23588870.470    23588869.9934   23588874.5524
       139.0004        144.0004
 -13609742.44248 -10590923.37146  21760670.972    21760669.5844   21760675.4114
       183.0004        183.0004
  -5342731.34847  -4133671.55746  23551962.365    23551962.9624   23551969.8994
       162.0004        164.0004
 -17383200.09149 -13517905.02447  21110856.181    21110856.5664   21110864.0084
       209.0004        209.0004
 -10846429.88048  -8430168.66846  22327077.900    22327078.3774   22327084.9244
       178.0004        178.0004
  -2538126.45047  -1929853.27945  23877243.150    23877243.5954   23877248.7784
       157.0004        160.0004
 -14603019.95348 -11353595.10546  21931825.985    21931826.3574   21931834.8684
       180.0004        181.0004
 21  2  1  0 26  0.0000000  0  9G08G07G14G21G30G09G04G17G01
 -15657443.68349 -12180191.22848  21629636.150    21629636.6784   21629642.9684
       224.0004        224.0004
 -15930791.91149 -12376285.88347  21669665.139    21669665.7434   21669669.5694
       196.0004        196.0004
  -1164962.97947   -900918.60745  23583714.379    23583715.5204   23583723.1144
       141.0004        147.0004
 -13616120.37248 -10595893.16546  21759457.616    21759457.2834   21759461.8024
       184.0004        184.0004
  -5430332.54847  -4201932.22646  23535292.364    23535292.8654   23535300.1534
       164.0004        166.0004
 -17340320.04549 -13484491.98847  21119015.431    21119016.6004   21119023.6314
       209.0004        209.0004
 -10754142.67448  -8358256.56646  22344639.093    22344639.2744   22344646.3154
       178.0004        178.0004
  -2630822.09047  -2002083.51845  23859602.620    23859603.1224   23859609.5854
       156.0004        157.0004
 -14672715.73448 -11407903.46646  21918562.356    21918563.2854   21918570.6334
       180.0004        180.0004
 21  2  1  0 26 30.0000000  0  9G08G07G14G21G30G09G04G17G01
 -15575411.25349 -12116269.84748  21645246.300    21645246.6284   21645253.5934
       225.0004        224.0004
 -16001603.26449 -12431463.55547  21656190.285    21656190.3444   21656194.4274
       196.0004        196.0004
  -1191991.55347   -921979.83245  23578571.349    23578572.3394   23578582.0064
       149.0004        155.0004
 -13622042.42848 -10600507.72746  21758328.688    21758328.9184   21758335.0024
       184.0004        184.0004
  -5517968.39348  -4270219.86146  23518615.232    23518615.7864   23518624.0504
       165.0004        166.0004
 -17296986.42549 -13450725.52647  21127263.039    21127263.3034   21127269.6304
       209.0004        209.0004
 -10661667.92248  -8286198.31946  22362235.007    22362236.8214   22362243.7214
       177.0004        177.0004
  -2723254.28947  -2074108.48545  23842012.334    23842013.1124   23842019.9664
       155.0004        158.0004
 -14742179.94848 -11462031.39346  21905343.630    21905344.3074   21905352.3544
       180.0004        181.0004
 21  2  1  0 27  0.0000000  0  9G08G07G14G21G30G09G04G17G01
 -15493112.05449 -12052140.60148  21660907.447    21660907.3144   21660914.3144
       224.0004        222.0004
 -16072262.43749 -12486522.64647  21642743.465    21642744.2824   21642748.8014
       196.0004        197.0004
  -1218965.72747   -942998.66945  23573439.344    23573439.9414   23573448.3764
       154.0004        158.0004
 -13627507.11248 -10604765.91846  21757289.058    21757289.3104   21757295.1104
       183.0004        183.0004
  -5605636.57348  -4338532.68746  23501933.662    23501933.8354   23501941.2394
       165.0004        166.0004
 -17253201.08849 -13416607.08047  21135594.148    21135594.6274   21135601.7894
       208.0004        208.0004
 -10569008.20548  -8213995.95746  22379868.449    22379868.9094   22379875.3584
       176.0004        174.0004
  -2815420.74547  -2145926.38445  23824475.146    23824475.0534   23824481.3264
       156.0004        159.0004
 -14811408.85248 -11515975.96346  21892170.535    21892170.6214   21892180.2194
       181.0004        182.0004
 21  2  1  0 27 30.0000000  0  9G08G07G14G21G30G09G04G17G01
 -15410551.37949 -11987807.59548  21676616.841    21676617.8334   21676625.2414
       223.0004        222.0004
 -16142769.00249 -12541462.81247  21629326.618    21629327.1394   21629331.9914
       196.0004        196.0004
  -1245888.79347   -963977.66245  23568316.663    23568317.2884   23568322.9654
       155.0004        157.0004
 -13632514.97848 -10608668.13046  21756335.794    21756336.7194   21756341.0954
       183.0004        182.0004
  -5693337.38348  -4406870.96946  23485244.988    23485245.2044   23485251.6204
       166.0004        168.0004
 -17208968.45349 -13382140.08647  21144011.988    21144012.3004   21144019.3294
       209.0004        210.0004
 -10476168.61248  -8141653.43046  22397536.431    22397536.4664   22397543.7654
       176.0004        177.0004
  -2907321.37447  -2217537.18245  23806988.107    23806987.4264   23806992.3134
       156.0004        158.0004
 -14880401.28648 -11569736.27346  21879041.048    21879041.9684   21879050.7494
       181.0004        182.0004
 21  2  1  0 28  0.0000000  0  9G08G07G14G21G30G09G04G17G01
 -15327732.38949 -11923273.32648  21692377.679    21692378.0814   21692385.1024
       223.0004        223.0004
 -16213120.16849 -12596281.89247  21615939.280    21615939.6234   21615944.2824
       196.0004        196.0004
  -1272762.09347   -984917.88045  23563203.623    23563203.8874   23563208.1704
       155.0004        156.0004
 -13637064.79048 -10612213.42046  21755471.492    21755471.1964   21755475.8534
       183.0004        184.0004
  -5781068.88248  -4475233.17146  23468550.598    23468550.2544   23468557.0014
       166.0004        167.0004
 -17164290.82649 -13347326.34947  21152513.869    21152513.8084   21152521.2854
       209.0004        209.0004
 -10383152.22848  -8069173.13946  22415237.456    22415237.7584   22415243.8564
       177.0004        177.0004
  -2998954.15547  -2288939.24745  23789547.376    23789549.8914   23789555.8144
       154.0004        155.0004
 -14949153.94848 -11623309.74846  21865957.026    21865958.1324   21865966.5304
       181.0004        182.0004
 21  2  1  0 28 30.0000000  0  9G08G07G14G21G30G09G04G17G01
 -15244657.24549 -11858539.45348  21708187.354    21708187.6614   21708193.6084
       224.0004        223.0004
 -16283312.90949 -12650977.54047  21602582.723    21602583.2224   21602586.8494
       196.0004        197.0004
  -1299586.55547  -1005820.02345  23558096.873    23558097.1104   23558102.0434
       152.0004        154.0004
 -13641155.00148 -10615400.57346  21754692.515    21754692.0134   21754697.1184
       183.0004        183.0004
  -5868828.97948  -4543617.65546  23451849.362    23451849.4814   23451856.1854
       166.0004        166.0004
 -17119170.20849 -13312167.41647  21161099.290    21161099.3674   21161107.0664
       209.0004        208.0004
 -10289961.57648  -7996557.04846  22432970.817    22432970.6574   22432977.2134
       176.0004        176.0004
  -3090316.71247  -2360130.72045  23772161.975    23772162.8054   23772169.0274
       150.0004        151.0004
 -15017663.10448 -11676693.47846  21852920.662    21852921.7274   21852929.4044
       181.0004        183.0004
 21  2  1  0 29  0.0000000  0  9G08G07G14G21G30G09G04G17G01
 -15161328.48749 -11793607.94248  21724044.239    21724044.2054   21724050.4334
       224.0004        222.0004
 -16353343.98449 -12705547.19247  21589256.548    21589256.5534   21589260.9864
       198.0004        198.0004
  -1326362.66447  -1026684.51245  23553003.325    23553003.6194   23553007.6804
       154.0004        157.0004
 -13644783.07948 -10618227.63446  21754001.890    21754001.2124   21754006.3844
       183.0004        183.0004
  -5956615.08447  -4612022.38845  23435143.347    23435143.6714   23435151.0754
       163.0004        162.0004
 -17073608.26949 -13276664.60347  21169770.456    21169770.7684   21169777.2364
       209.0004        210.0004
 -10196599.08748  -7923807.03946  22450736.202    22450737.0514   22450743.1584
       176.0004        176.0004
  -3181406.17247  -2431109.42245  23754830.532    23754830.5984   23754836.4944
       154.0004        159.0004
 -15085924.87048 -11729884.44346  21839931.330    21839931.6244   21839940.1044
       182.0004        182.0004
 21  2  1  0 29 30.0000000  0  9G08G07G14G21G30G09G04G17G01
 -15077749.28049 -11728481.27848  21739947.837    21739947.9924   21739955.3534
       222.0004        220.0004
 -16423211.05949 -12759989.06247  21575960.174    21575961.0134   21575965.6994
       198.0004        198.0004
  -1353092.11047  -1047512.62045  23547916.013    23547916.7284   23547921.3474
       156.0004        158.0004
 -13647948.90048 -10620694.48746  21753399.642    21753399.2644   21753404.3004
       183.0004        184.0004
  -6044425.67047  -4680446.22146  23418432.856    23418434.5264   23418441.0584
       162.0004        164.0004
 -17027607.72649 -13240820.02847  21178523.895    21178524.1634   21178530.9664
       209.0004        209.0004
 -10103068.08348  -7850925.73646  22468535.332    22468535.3544   22468541.5424
       177.0004        177.0004
  -3272221.08347  -2501874.18345  23737549.562    23737549.1494   23737553.4264
       156.0004        159.0004
 -15153936.32848 -11782880.34446  21826989.000    21826988.9694   21826998.3414
       182.0004        183.0004
 21  2  1  0 32  0.0000000  0  9G01G21G04G17G14G07G08G09G30
    -28880.03754     -5963.77743  19287271.886
        74.0004         74.0004
    -30946.88958    -18389.06747  19275977.138                    19275983.4984
       174.0004        189.0004
     33562.04057     13014.01746  20082253.568                    20082260.7694
       137.0004        176.0004
    -99324.39654    -65174.73743  21176194.450
        74.0004         82.0004
    -14990.38854     -3580.47143  21046868.210
        74.0004         74.0004
    -92788.64858    -54422.41047  19034228.016                    19034231.6524
       185.0004        199.0004
     32320.26144     19098.10445  19344431.722
        74.0004        158.0004
     15909.50159      9500.32547  18747791.213                    18747797.7314
       198.0004        208.0004
    -46860.79554     -7211.28143  20859084.251
        74.0004         74.0004
 21  2  1  0 32 30.0000000  0  9G01G21G04G17G14G07G08G09G30
   -129466.03548    -84342.70446  19268131.647    19268132.2294   19268140.6164
       177.0004        185.0004
    -65457.93648    -45280.76547  19269410.201    19269409.5244   19269416.5584
       186.0004        189.0004
     93895.56548     60027.15446  20093734.421    20093734.9204   20093741.8524
       172.0004        176.0004
   -222595.08744   -161229.72445  21152735.098
        74.0004        154.0004
    -75611.55746    -50818.19446  21035332.178                    21035337.8754
       113.0004        166.0004
   -195761.63249   -134661.09047  19014632.508    19014632.9834   19014636.5334
       197.0004        199.0004
     83194.44144     59321.04445  19354112.195
        74.0004        141.0004
     30345.41449     20749.09747  18750537.580    18750538.0654   18750545.2274
       206.0004        208.0004
   -168923.87244   -102325.07846  20835856.268
        74.0004        166.0004
 21  2  1  0 33  0.0000000  0  9G01G21G04G17G14G07G08G09G30
   -229770.60648   -162502.10046  21947176.076    21947177.1114   21947184.2864
       184.0004        185.0004
    -99510.32148    -71815.06447  21961060.932    21961060.6984   21961068.7094
       188.0004        189.0004
    154336.52348    107123.98346  22803367.812    22803368.1994   22803374.9944
       175.0004        177.0004
   -345562.27547   -257048.20845  23827468.634                    23827473.4564
       136.0004        158.0004
   -136198.60747    -98028.86646  23721936.319    23721936.3114   23721941.7094
       159.0004        165.0004
   -298543.04849   -214750.49747  21693205.347    21693206.0714   21693210.3334
       199.0004        199.0004
    134260.92644     99744.49544  22061961.718
        74.0004        110.0004
     45176.40449     32305.72047  21451491.752    21451492.1534   21451499.6764
       207.0004        208.0004
   -290983.28447   -197436.32946  23510761.075    23510760.7694   23510768.8144
       158.0004        167.0004
 21  2  1  0 33 30.0000000  0  9G01G21G04G17G14G07G08G09G30
   -329834.21448   -240473.71246  21928133.074    21928134.7674   21928143.0154
       184.0004        184.0004
   -133106.78348    -97994.09747  21954667.895    21954667.6844   21954675.1154
       189.0004        189.0004
    214934.61648    154343.26746  22814898.503    22814899.9854   22814905.7784
       176.0004        176.0004
   -468281.50547   -352673.48645  23804115.081    23804116.3874   23804120.4594
       153.0004        158.0004
   -196772.62947   -145229.37746  23710409.463    23710409.2674   23710415.1034
       162.0004        163.0004
   -401175.40249   -294723.75247  21673674.781    21673675.4514   21673679.8934
       199.0004        198.0004
    185564.26449     16362.80848  22071725.351                    22071731.9274
       195.0004        220.0004
     60425.35549     44188.01747  21454393.875    21454394.3384   21454401.0124
       207.0004        208.0004
   -413093.89447   -292587.41246  23487524.234    23487524.3914   23487532.0504
       164.0004        167.0004
 21  2  1  0 34  0.0000000  0  9G01G21G04G17G14G07G08G09G30
  -1461675.65948  -1122428.04946  21712752.360    21712752.3324   21712760.3894
       184.0004        186.0004
  -1198286.74648   -928004.43547  21751971.385    21751970.7834   21751977.1924
       188.0004        188.0004
   -756379.92148   -602525.20946  22630064.439    22630065.1854   22630071.2364
       175.0004        174.0004
  -1622766.42847  -1252272.06345  23584422.620    23584423.6064   23584429.3954
       153.0004        156.0004
  -1289368.02447   -996602.39946  23502496.314    23502495.2284   23502500.9674
       163.0004        166.0004
  -1535677.43349  -1178751.30747  21457787.289    21457787.1124   21457791.4004
       199.0004        199.0004
   -794962.72049   -747684.19648  21885137.324    21885137.2024   21885143.5954
       216.0004        219.0004
   -955964.29749   -747803.92547  21260981.024    21260981.6694   21260988.4994
       207.0004        207.0004
  -1567269.79548  -1191945.24346  23267892.628    23267892.0624   23267899.2134
       165.0004        167.0004
 21  2  1  0 34 30.0000000  0  9G01G21G04G17G14G07G08G09G30
  -1526999.73148  -1173329.89846  21700321.943    21700322.3984   21700330.1744
       185.0004        186.0004
  -1196760.20348   -926814.88946  21752261.283    21752261.3724   21752267.5614
       186.0004        186.0004
   -661325.27148   -528456.65146  22648153.083    22648153.1464   22648159.0884
       174.0004        174.0004
  -1710722.48447  -1320809.16045  23567687.271    23567687.9004   23567691.6194
       156.0004        159.0004
  -1315695.81448  -1017117.52746  23497483.989    23497484.5644   23497490.4614
       165.0004        167.0004
  -1603754.49149  -1231798.34347  21444832.018    21444832.7664   21444836.9874
       199.0004        199.0004
   -709037.56749   -680729.52148  21901487.949    21901488.2414   21901494.6844
       219.0004        218.0004
   -905708.28249   -708643.38247  21270545.108    21270545.1944   21270552.5564
       207.0004        208.0004
  -1655215.99448  -1260474.71746  23251155.952    23251156.3334   23251163.8534
       168.0004        171.0004
 21  2  1  0 35  0.0000000  0  9G01G21G04G17G14G07G08G09G30
  -1592038.21948  -1224009.21546  21687945.453    21687946.0974   21687953.8164
       186.0004        186.0004
  -1194759.54248   -925255.91346  21752642.827    21752641.9204   21752647.5394
       186.0004        185.0004
   -566135.78448   -454283.02546  22666267.558    22666267.2354   22666273.5534
       174.0004        175.0004
  -1798382.96147  -1389115.95945  23551005.274    23551005.3184   23551010.0264
       157.0004        160.0004
  -1341991.36547  -1037607.55846  23492480.505    23492481.1714   23492486.6714
       164.0004        165.0004
  -1671638.92249  -1284695.30147  21431913.881    21431914.6084   21431919.0294
       199.0004        200.0004
   -622895.13849   -613605.55748  21917880.117    21917880.3994   21917886.4424
       218.0004        218.0004
   -855041.52149   -669162.79747  21280186.455    21280187.0794   21280194.2294
       207.0004        208.0004
  -1743166.02248  -1329007.17346  23234418.634    23234420.0734   23234427.7224
       169.0004        170.0004
 21  2  1  0 35 30.0000000  0  9G01G21G04G17G14G07G08G09G30
  -1656786.96148  -1274462.74746  21675622.357    21675623.7834   21675632.7854
       186.0004        186.0004
  -1192283.31048   -923326.35446  21753112.885    21753113.2644   21753118.5404
       185.0004        185.0004
   -470813.57748   -380005.99846  22684406.338    22684406.3484   22684412.9264
       174.0004        174.0004
  -1885745.28947  -1457190.41045  23534381.483    23534381.9734   23534386.4374
       159.0004        161.0004
  -1368255.05748  -1058072.73946  23487482.668    23487483.4834   23487488.3994
       165.0004        166.0004
  -1739327.03249  -1337439.28047  21419033.555    21419034.0574   21419038.5604
       199.0004        199.0004
   -536537.21449   -546313.67648  21934313.650    21934313.8464   21934320.0624
       219.0004        219.0004
   -803965.71149   -629363.46147  21289906.156    21289906.3004   21289913.0364
       207.0004        207.0004
  -1831117.09848  -1397540.45846  23217681.935    23217682.9944   23217690.0394
       167.0004        167.0004
 21  2  1  0 36  0.0000000  0  9G01G21G04G17G14G07G08G09G30
  -1721244.22348  -1324689.14046  21663357.063    21663358.5824   21663366.5724
       185.0004        187.0004
  -1189331.94248   -921026.58946  21753675.153    21753674.8754   21753679.5624
       184.0004        183.0004
   -375363.18748   -305629.08546  22702569.334    22702569.3574   22702576.3284
       173.0004        172.0004
  -1972809.06047  -1525032.26245  23517813.936    23517813.7314   23517818.2704
       160.0004        161.0004
  -1394489.62848  -1078515.24446  23482491.898    23482491.8454   23482496.0834
       166.0004        168.0004
  -1806817.55249  -1390029.29247  21406190.353    21406190.9784   21406195.0424
       199.0004        199.0004
   -449968.70649   -478857.69148  21950787.143    21950787.1694   21950794.0744
       219.0004        218.0004
   -752484.92149   -589248.56547  21299701.563    21299702.4584   21299709.4534
       206.0004        206.0004
  -1919068.63248  -1466074.12746  23200946.868    23200947.0104   23200953.9104
       168.0004        171.0004
 21  2  1  0 36 30.0000000  0  9G01G21G04G17G14G07G08G09G30
  -1785406.71348  -1374685.86746  21651148.444    21651148.5254   21651156.9554
       186.0004        187.0004
  -1185904.24448   -918355.64246  21754327.805    21754327.2874   21754331.1374
       183.0004        182.0004
   -279787.45248   -231154.49546  22720757.527    22720757.5054   22720764.2774
       170.0004        170.0004
  -2059572.39747  -1592639.98145  23501301.480    23501302.4214   23501308.4524
       157.0004        158.0004
  -1420696.21348  -1098935.93946  23477502.831    23477504.2074   23477510.0014
       165.0004        165.0004
  -1874107.68149  -1442463.16547  21393385.881    21393386.1944   21393390.3544
       200.0004        200.0004
   -363192.30849   -411239.72248  21967299.444    21967300.0204   21967307.0014
       218.0004        218.0004
   -700601.69549   -548820.08647  21309574.534    21309575.3464   21309582.6344
       205.0004        205.0004
  -2007018.54448  -1534606.50446  23184210.745    23184210.9824   23184217.9454
       170.0004        172.0004
 21  2  1  0 37  0.0000000  0  9G01G21G04G17G14G07G08G09G30
  -1849270.17748  -1424449.58146  21638995.241    21638996.1194   21639003.8294
       187.0004        187.0004
  -1181998.28448   -915312.03746  21755070.638    21755071.1334   21755074.5294
       183.0004        183.0004
   -184088.36048   -156583.78846  22738968.403    22738968.5894   22738974.8024
       170.0004        171.0004
  -2146032.42347  -1660011.32745  23484849.695    23484850.2144   23484857.1484
       158.0004        161.0004
  -1446875.02847  -1119334.98246  23472520.525    23472521.6564   23472527.5704
       163.0004        164.0004
  -1941194.05149  -1494738.24447  21380619.631    21380620.1864   21380624.3074
       200.0004        200.0004
   -276209.65849   -343461.03148  21983852.725    21983852.3394   21983859.5674
       218.0004        217.0004
   -648317.55449   -508079.20147  21319524.721    21319525.2124   21319532.2024
       206.0004        206.0004
  -2094963.82348  -1603135.29946  23167476.003    23167475.8764   23167481.8994
       171.0004        172.0004
 21  2  1  0 37 30.0000000  0  9G01G21G04G17G14G07G08G09G30
  -1912831.07148  -1473977.51346  21626898.528    21626900.0034   21626908.5264
       186.0004        186.0004
  -1177612.85948   -911894.80746  21755905.952    21755905.1634   21755909.3874
       183.0004        183.0004
    -88268.61348    -81919.04546  22757202.180    22757202.2614   22757209.3744
       170.0004        171.0004
  -2232186.45147  -1727144.27145  23468454.419    23468454.4634   23468460.7654
       158.0004        158.0004
  -1473026.94847  -1139713.09946  23467546.416    23467546.0794   23467550.7864
       163.0004        164.0004
  -2008073.24349  -1546851.88647  21367892.671    21367893.5724   21367897.6224
       200.0004        201.0004
   -189023.24049   -275523.55848  22000443.354    22000443.4144   22000450.0654
       218.0004        217.0004
   -595634.81249   -467027.71147  21329549.203    21329549.9454   21329557.1234
       206.0004        206.0004
  -2182902.05148  -1671658.57746  23150740.597    23150741.0444   23150748.2914
       171.0004        173.0004
 21  2  1  0 38  0.0000000  0  9G01G21G04G17G14G07G08G09G30
  -1976086.14048  -1523267.14646  21614863.222    21614863.6334   21614871.3864
       187.0004        187.0004
  -1172747.16948   -908103.34046  21756831.933    21756831.4164   21756835.2284
       183.0004        183.0004
      7668.90248     -7162.55646  22775458.694    22775458.7504   22775465.5434
       170.0004        171.0004
  -2318033.48647  -1794037.95545  23452119.039    23452119.7754   23452123.4044
       156.0004        158.0004
  -1499153.21647  -1160071.21446  23462574.825    23462574.6454   23462578.7154
       163.0004        164.0004
  -2074742.88049  -1598802.24947  21355207.221    21355207.0074   21355210.7164
       200.0004        201.0004
   -101636.21549   -207429.76648  22017071.661    22017072.4414   22017079.1074
       218.0004        217.0004
   -542556.09249   -425667.66347  21339650.151    21339650.6654   21339657.9504
       206.0004        207.0004
  -2270831.20048  -1740174.76946  23134007.595    23134008.7854   23134015.8194
       171.0004        172.0004
 21  2  1  0 38 30.0000000  0  9G01G21G04G17G14G07G08G09G30
  -2039031.95048  -1572315.80246  21602884.900    21602885.5004   21602893.5414
       187.0004        187.0004
  -1167400.33048   -903936.95546  21757848.349    21757848.2694   21757852.2764
       182.0004        183.0004
    103721.40048     67683.53446  22793734.784    22793736.5504   22793742.8024
       169.0004        170.0004
  -2403571.35047  -1860690.73045  23435842.015    23435842.1804   23435846.6644
       158.0004        161.0004
  -1525254.84047  -1180410.06846  23457607.644    23457607.3844   23457612.3604
       163.0004        166.0004
  -2141199.90949  -1650586.94047  21342559.398    21342560.3044   21342564.7004
       201.0004        201.0004
    -14051.09049   -139181.61548  22033739.735    22033739.5014   22033745.9734
       217.0004        217.0004
   -489083.76349   -384000.91747  21349825.953    21349826.3244   21349833.4084
       206.0004        206.0004
  -2358748.93448  -1808682.07646  23117278.062    23117279.3344   23117286.0594
       172.0004        174.0004
 21  2  1  0 39  0.0000000  0  9G01G21G04G17G14G07G08G09G30
  -2101665.76348  -1621121.31047  21590965.873    21590966.7734   21590975.4034
       187.0004        188.0004
  -1161571.83348   -899395.23846  21758957.520    21758957.6154   21758960.8134
       182.0004        182.0004
    199885.42548    142616.56046  22812034.969    22812034.8034   22812043.0134
       167.0004        167.0004
  -2488798.22847  -1927101.19345  23419622.596    23419624.1264   23419627.3054
       158.0004        161.0004
  -1551333.43647  -1200731.02646  23452643.819    23452644.9744   23452649.5344
       163.0004        164.0004
  -2207441.77749  -1702203.95647  21329955.154    21329955.4944   21329958.8954
       202.0004        202.0004
     73728.99949    -70781.50848  22050442.251    22050443.0124   22050449.5734
       217.0004        216.0004
   -435220.98749   -342029.88547  21360075.376    21360075.6894   21360082.5884
       205.0004        205.0004
  -2446653.73748  -1877179.28446  23100550.295    23100550.9704   23100557.0344
       172.0004        172.0004
 21  2  1  0 39 30.0000000  0  9G01G21G04G17G14G07G08G09G30
  -2163982.51148  -1669679.79647  21579108.372    21579108.6984   21579116.3544
       188.0004        190.0004
  -1155259.01948   -894476.15546  21760159.959    21760159.4294   21760163.1584
       183.0004        183.0004
    296159.87448    217635.58546  22830355.759    22830356.3494   22830363.2884
       167.0004        168.0004
  -2573710.54847  -1993266.56945  23403465.943    23403466.1764   23403469.3954
       160.0004        162.0004
  -1577388.48347  -1221033.66846  23447686.363    23447686.5824   23447691.0424
       162.0004        163.0004
  -2273464.02549  -1753649.86747  21317391.801    21317391.6354   21317395.2334
       202.0004        201.0004
    161702.30249     -2230.88848  22067183.057    22067183.5064   22067190.6614
       216.0004        215.0004
   -380968.53549   -299755.25947  21370399.283    21370399.6194   21370406.7964
       205.0004        205.0004
  -2534541.61448  -1945663.34846  23083825.257    23083826.4664   23083832.2034
       169.0004        170.0004
 21  2  1  0 40  0.0000000  0  9G01G21G04G17G14G07G08G09G30
  -2225980.96348  -1717990.23646  21567309.644    21567310.4434   21567317.2864
       188.0004        187.0004
  -1148463.06648   -889180.56746  21761451.768    21761451.7164   21761456.7044
       183.0004        183.0004
    392539.79748    292736.84846  22848696.781    22848697.4694   22848703.6044
       168.0004        169.0004
  -2658308.32847  -2059186.83146  23387364.401    23387365.1944   23387371.8354
       162.0004        164.0004
  -1603423.10447  -1241320.33945  23442731.548    23442732.9064   23442736.5794
       159.0004        159.0004
  -2339265.96949  -1804924.08347  21304868.611    21304869.4934   21304873.8574
       201.0004        202.0004
    249864.32149     66466.81148  22083959.912    22083960.3844   22083967.8834
       215.0004        215.0004
   -326331.09049   -257180.59947  21380796.749    21380796.9234   21380804.0684
       204.0004        204.0004
  -2622412.46348  -2014134.11746  23067104.272    23067104.6754   23067112.0984
       170.0004        172.0004
 21  2  1  0 40 30.0000000  0  9G01G21G04G17G14G07G08G09G30
  -2287656.73948  -1766049.27646  21555571.918    21555572.9034   21555580.5814
       187.0004        187.0004
  -1141182.16848   -883507.16646  21762837.462    21762837.0674   21762842.2554
       183.0004        183.0004
    489023.50248    367918.92046  22867058.015    22867057.7444   22867064.6574
       168.0004        169.0004
  -2742589.31047  -2124860.26046  23371328.946    23371328.9344   23371333.3284
       164.0004        166.0004
  -1629437.31247  -1261591.11745  23437780.787    23437781.4224   23437787.0894
       158.0004        160.0004
  -2404843.89949  -1856023.78347  21292389.375    21292390.5734   21292394.8354
       202.0004        202.0004
    338213.59349    135310.37648  22100773.447    22100773.4704   22100780.0914
       216.0004        216.0004
   -271310.12349   -214307.13947  21391267.408    21391267.6864   21391273.8654
       204.0004        204.0004
  -2710262.98648  -2082589.05946  23050387.316    23050387.9434   23050395.2324
       172.0004        174.0004
 21  2  1  0 41  0.0000000  0  9G01G21G04G17G14G07G08G09G30
  -2349008.38348  -1813855.71747  21543898.541    21543898.6884   21543906.3924
       187.0004        188.0004
  -1133417.20448   -877456.50646  21764315.808    21764315.2354   21764320.0484
       183.0004        183.0004
    585606.30548    443178.24646  22885436.412    22885436.9404   22885443.7374
       168.0004        169.0004
  -2826553.36847  -2190286.71646  23355350.686    23355351.0604   23355355.7234
       164.0004        166.0004
  -1655433.92747  -1281848.20245  23432833.362    23432834.3134   23432839.5734
       159.0004        160.0004
  -2470196.50549  -1906947.87347  21279954.239    21279954.3454   21279958.1754
       202.0004        201.0004
    426744.79149    204295.74448  22117619.800    22117620.3114   22117627.3004
       216.0004        215.0004
   -215910.04549   -171138.23347  21401809.564    21401809.6114   21401816.3484
       204.0004        204.0004
  -2798092.84948  -2151027.87646  23033673.536    23033673.5844   23033681.0524
       172.0004        173.0004
 21  2  1  0 41 30.0000000  0  9G01G21G04G17G14G07G08G09G30
  -2410031.07848  -1861405.87147  21532286.401    21532287.2804   21532294.1984
       187.0004        188.0004
  -1125165.67948   -871026.74846  21765885.709    21765885.3354   21765890.2884
       184.0004        184.0004
    682286.83548    518513.68846  22903834.029    22903834.3464   22903840.7724
       169.0004        170.0004
  -2910196.59847  -2255463.19446  23339433.018    23339433.5624   23339438.4354
       164.0004        166.0004
  -1681412.64747  -1302091.33945  23427890.150    23427891.9334   23427897.2254
       158.0004        161.0004
  -2535319.55149  -1957693.12547  21267561.688    21267562.0454   21267565.7174
       202.0004        202.0004
    515457.65649    273422.63848  22134501.664    22134501.2894   22134508.5244
       215.0004        214.0004
   -160131.96449   -127674.81747  21412422.994    21412423.5984   21412430.3164
       203.0004        203.0004
  -2885898.21548  -2219447.66046  23016966.123    23016965.4924   23016972.5474
       172.0004        173.0004
 21  2  1  0 42  0.0000000  0  9G01G21G04G17G14G07G08G09G30
  -2470722.63448  -1908697.95647  21520737.837    21520737.7724   21520745.2744
       188.0004        188.0004
  -1116428.53148   -864218.55246  21767548.482    21767548.4384   21767553.4234
       185.0004        185.0004
    779061.20148    593922.29646  22922249.253    22922249.2384   22922255.8094
       168.0004        168.0004
  -2993518.49848  -2320389.26046  23323576.834    23323577.8964   23323583.5434
       165.0004        166.0004
  -1707375.62047  -1322322.16845  23422949.769    23422950.4624   23422956.2724
       160.0004        162.0004
  -2600211.22649  -2008258.05447  21255213.180    21255213.5344   21255217.7024
       202.0004        202.0004
    604348.01649    342687.84747  22151415.370    22151416.1284   22151423.2834
       213.0004        212.0004
   -103979.55349    -83919.67047  21423109.161    21423109.2784   21423115.7194
       203.0004        204.0004
  -2973677.96548  -2287847.44746  23000261.838    23000261.7544   23000268.6384
       173.0004        174.0004
 21  2  1  0 42 30.0000000  0  9G01G21G04G17G14G07G08G09G30
  -2531079.33648  -1955729.09847  21509250.352    21509250.9374   21509259.4314
       188.0004        188.0004
  -1107204.06448   -857030.62846  21769303.780    21769303.7834   21769308.2434
       185.0004        186.0004
    875927.02548    669402.14946  22940682.715    22940682.9804   22940689.0864
       168.0004        169.0004
  -3076516.79048  -2385063.15546  23307783.642    23307783.7194   23307789.4364
       167.0004        169.0004
  -1733323.43447  -1342541.18546  23418011.198    23418012.2514   23418017.6494
       161.0004        163.0004
  -2664868.10849  -2058640.01747  21242908.995    21242909.7894   21242913.8184
       202.0004        203.0004
    693413.47049    412089.50647  22168364.523    22168364.3444   22168371.6324
       212.0004        212.0004
    -47454.99449    -39874.54847  21433864.769    21433865.3464   21433872.4704
       203.0004        204.0004
  -3061429.43248  -2356225.20046  22983563.336    22983562.8584   22983568.9874
       172.0004        172.0004
 21  2  1  0 43  0.0000000  0  9G01G21G04G17G14G07G08G09G30
  -2591098.31648  -2002497.08747  21497828.831    21497829.0604   21497839.4424
       187.0004        188.0004
  -1097491.91148   -849462.68746  21771151.746    21771151.3244   21771155.8304
       185.0004        185.0004
    972881.05048    744950.74646  22959131.053    22959132.5024   22959138.2784
       168.0004        168.0004
  -3159190.29448  -2449483.97146  23292051.603    23292052.0634   23292057.3024
       168.0004        170.0004
  -1759257.60947  -1362749.58345  23413077.174    23413077.7824   23413082.5214
       161.0004        162.0004
  -2729287.64449  -2108837.05347  21230651.381    21230651.2044   21230654.7564
       202.0004        202.0004
    782650.93249    481625.19247  22185345.400    22185345.5364   22185352.9074
       212.0004        211.0004
      9438.71749      4458.22147  21444691.324    21444691.9204   21444699.0594
       203.0004        203.0004
  -3149150.72348  -2424579.42346  22966870.590    22966870.6014   22966877.6724
       173.0004        175.0004
 21  2  1  0 43 30.0000000  0 10G01G21G04G17G14G07G08G09G30G28
  -2650774.70148  -2048998.15647  21486474.753    21486476.0744   21486482.6994
       190.0004        193.0004
  -1087290.16248   -841513.26046  21773092.738    21773092.0934   21773098.5674
       185.0004        186.0004
   1069922.03348    820567.08746  22977599.083    22977599.0364   22977605.0504
       168.0004        168.0004
  -3241535.34748  -2513648.89846  23276381.208    23276381.6184   23276388.4214
       168.0004        169.0004
  -1785177.59647  -1382946.97045  23408145.632    23408145.9174   23408150.0054
       160.0004        161.0004
  -2793465.47649  -2158845.75647  21218437.495    21218438.0624   21218442.3414
       202.0004        202.0004
    872059.00749    551293.81547  22202358.318    22202359.2914   22202366.9584
       211.0004        211.0004
     66700.44349     49077.74547  21455587.846    21455588.3374   21455595.4834
       203.0004        203.0004
  -3236838.04548  -2492907.18546  22950184.106    22950182.9974   22950190.5814
       172.0004        172.0004
   -501896.36055   -384015.225 5                                  23711954.567
        88.0004        134.000
 21  2  1  0 44  0.0000000  0  9G01G21G04G17G14G07G08G09G30
  -2710107.83648  -2095231.75247  21475185.715    21475185.5314   21475191.8374
       193.0004        194.0004
  -1076600.54448   -833183.65346  21775126.801    21775126.4724   21775132.8374
       186.0004        186.0004
   1167044.55748    896246.96246  22996079.797    22996080.0524   22996086.8074
       167.0004        167.0004
  -3323552.70448  -2577558.44646  23260773.121    23260773.9084   23260780.3144
       166.0004        165.0004
  -1811087.15547  -1403136.19245  23403214.153    23403214.6284   23403220.4894
       158.0004        159.0004
  -2857401.86349  -2208666.30447  21206270.703    21206271.1674   21206275.7274
       202.0004        202.0004
    961632.38949    621091.26547  22219405.362    22219405.5084   22219412.6764
       212.0004        212.0004
    124324.93849     93979.96447  21466552.885    21466553.1634   21466560.8324
       202.0004        201.0004
  -3324491.72748  -2561208.73546  22933502.925    22933503.2334   22933510.7574
       170.0004        171.0004
 21  2  1  0 44 30.0000000  0  9G01G21G04G17G14G07G08G09G30
  -2769093.18848  -2141194.37047  21463958.796    21463960.0254   21463966.9024
       192.0004        191.0004
  -1065420.80748   -824472.17446  21777254.741    21777254.4044   21777259.7664
       186.0004        187.0004
   1264247.16148    971989.22246  23014576.371    23014577.6424   23014584.8314
       167.0004        168.0004
  -3405239.60748  -2641210.51246  23245229.887    23245230.6174   23245234.4384
       165.0004        166.0004
  -1836985.96347  -1423317.06345  23398284.279    23398285.5694   23398290.9114
       156.0004        157.0004
  -2921092.10449  -2258295.07047  21194151.606    21194151.6064   21194155.3794
       202.0004        203.0004
   1051369.65249    691016.39147  22236482.181    22236482.1044   22236489.0164
       212.0004        211.0004
    182310.94649    139163.85247  21477587.429    21477588.4534   21477595.4264
       201.0004        202.0004
  -3412108.09048  -2629481.20246  22916829.754    22916830.0064   22916837.5724
       170.0004        171.0004
 21  2  1  0 45  0.0000000  0  9G01G21G04G17G14G07G08G09G30
  -2827726.95148  -2186882.96346  21452799.087    21452800.0334   21452808.7164
       189.0004        187.0004
  -1053749.95048   -815377.95546  21779475.796    21779474.9374   21779480.4104
       186.0004        186.0004
   1361527.62848   1047792.17846  23033089.495    23033089.2884   23033095.3674
       167.0004        168.0004
  -3486593.59848  -2704603.15946  23229749.046    23229749.3614   23229753.6674
       165.0004        167.0004
  -1862874.47647  -1443489.89745  23393359.495    23393359.5694   23393365.0464
       155.0004        156.0004
  -2984533.05449  -2307729.56547  21182079.456    21182079.6874   21182082.9274
       203.0004        203.0004
   1141268.77349    761067.67047  22253588.517    22253588.2194   22253596.1934
       211.0004        210.0004
    240656.33949    184627.80247  21488690.833    21488691.2554   21488697.6204
       201.0004        201.0004
  -3499684.24148  -2697722.33946  22900164.558    22900165.8694   22900172.1724
       169.0004        171.0004
 21  2  1  0 45 30.0000000  0  9G01G21G04G17G14G07G08G09G30
  -2886007.22748  -2232296.14146  21441708.518    21441709.6384   21441718.6944
       187.0004        187.0004
  -1041588.58348   -805901.54846  21781790.654    21781790.0384   21781795.0504
       187.0004        187.0004
   1458881.76348   1123652.52346  23051614.696    23051615.1744   23051621.5124
       167.0004        167.0004
  -3567614.35147  -2767736.15546  23214331.353    23214332.7514   23214334.8724
       164.0004        165.0004
  -1888755.09847  -1463656.63245  23388435.221    23388435.0684   23388441.5004
       155.0004        158.0004
  -3047722.77149  -2356968.31447  21170053.968    21170054.5494   21170058.8314
       203.0004        203.0004
   1231325.86249    831242.01247  22270725.584    22270725.8384   22270733.4574
       211.0004        210.0004
    299357.05649    230368.61447  21499860.334    21499861.2564   21499868.5684
       202.0004        202.0004
  -3587219.25548  -2765931.43446  22883506.100    22883506.9084   22883516.4064
       171.0004        173.0004
 21  2  1  0 46  0.0000000  0  9G01G21G04G17G14G07G08G09G30
  -2943930.20848  -2277430.91247  21430687.577    21430688.4314   21430696.6214
       188.0004        190.0004
  -1028935.64348   -796042.10346  21784197.387    21784196.9374   21784202.1414
       187.0004        187.0004
   1556307.35048   1199568.54946  23070154.981    23070155.6934   23070161.1124
       167.0004        168.0004
  -3648299.45347  -2830607.60445  23198977.091    23198977.4464   23198979.2644
       162.0004        161.0004
  -1914628.40347  -1483817.64145  23383511.133    23383511.9974   23383515.5894
       155.0004        157.0004
  -3110658.18549  -2406008.89447  21158077.460    21158078.2724   21158082.4054
       203.0004        203.0004
   1321538.73349    901537.74647  22287893.063    22287893.2414   22287900.3654
       211.0004        211.0004
    358410.97149    276384.63747  21511099.079    21511099.3144   21511106.1204
       202.0004        203.0004
  -3674710.34448  -2834106.29946  22866858.371    22866858.9854   22866865.8334
       172.0004        173.0004
 21  2  1  0 46 30.0000000  0  9G01G21G04G17G14G07G08G09G30
  -3001494.51248  -2322286.18947  21419734.474    21419735.0674   21419741.9584
       190.0004        192.0004
  -1015792.40848   -785800.60946  21786698.737    21786698.6204   21786703.8534
       187.0004        187.0004
   1653799.79448   1275536.66646  23088706.950    23088707.4084   23088713.1374
       166.0004        166.0004
  -3728648.85947  -2893217.50045  23183686.979    23183687.3494   23183688.8804
       160.0004        160.0004
  -1940497.18747  -1503975.13945  23378587.993    23378588.8104   23378593.8194
       153.0004        154.0004
  -3173338.13949  -2454850.42447  21146150.522    21146150.7744   21146154.9604
       203.0004        203.0004
   1411902.35249    971950.94647  22305088.087    22305088.8254   22305095.5324
       210.0004        209.0004
    417813.54849    322672.36147  21522402.643    21522402.9874   21522409.7664
       202.0004        202.0004
  -3762156.89348  -2902246.44046  22850217.658    22850218.7504   22850226.1074
       172.0004        173.0004
 21  2  1  0 47  0.0000000  0  9G01G21G04G17G14G07G08G09G30
  -3058694.85748  -2366857.86047  21408849.684    21408850.0604   21408857.4594
       192.0004        192.0004
  -1002156.23148   -775174.99246  21789293.846    21789293.4154   21789298.1594
       187.0004        187.0004
   1751358.39147   1351556.34346  23107270.260    23107271.6384   23107278.1284
       164.0004        164.0004
  -3808658.87847  -2955562.92745  23168460.981    23168460.2634   23168462.4684
       157.0004        159.0004
  -1966360.41347  -1524128.25945  23373666.038    23373666.9364   23373672.5624
       154.0004        157.0004
  -3235757.72049  -2503489.03747  21134272.347    21134272.7414   21134276.9354
       203.0004        203.0004
   1502416.58649   1042481.53047  22322311.990    22322312.1964   22322320.0824
       209.0004        208.0004
    477564.21949    369231.33647  21533773.180    21533773.8554   21533780.4044
       203.0004        203.0004
  -3849554.48948  -2970348.45346  22833588.767    22833588.1184   22833593.8444
       173.0004        173.0004
 21  2  1  0 47 30.0000000  0  9G01G21G04G17G14G07G08G09G30
  -3115528.13448  -2411143.49647  21398034.909    21398035.0834   21398042.1794
       193.0004        193.0004
   -988026.65648   -764164.89546  21791981.419    21791981.3954   21791986.7654
       186.0004        186.0004
   1848980.23247   1427625.31046  23125847.915    23125848.2994   23125855.3114
       163.0004        164.0004
  -3888327.99547  -3017642.71045  23153299.335    23153300.9414   23153303.1874
       157.0004        159.0004
  -1992219.22147  -1544277.93045  23368746.145    23368746.4014   23368750.6634
       155.0004        157.0004
  -3297914.01749  -2551922.50547  21122444.124    21122444.5274   21122449.0154
       203.0004        204.0004
   1593078.27249   1113127.00547  22339563.901    22339565.1034   22339572.4684
       208.0004        208.0004
    537660.13449    416059.34447  21545209.664    21545209.2364   21545215.6894
       203.0004        203.0004
  -3936900.94148  -3038410.59346  22816965.153    22816966.3514   22816971.9804
       171.0004        174.0004
 21  2  1  0 48  0.0000000  0  9G01G21G04G17G14G07G08G09G30
  -3171991.26748  -2455140.72847  21387290.302    21387290.4804   21387298.1994
       193.0004        193.0004
   -973403.29448   -752770.06646  21794764.596    21794764.2154   21794769.5334
       186.0004        186.0004
   1946662.43547   1503741.30046  23144435.687    23144436.2804   23144443.1624
       163.0004        163.0004
  -3967654.69547  -3079455.68345  23138205.227    23138204.3224   23138208.8804
       158.0004        161.0004
  -2018074.72247  -1564425.04745  23363825.609    23363826.7574   23363831.4624
       156.0004        159.0004
  -3359804.41149  -2600148.79847  21110667.102    21110667.7184   21110671.4924
       204.0004        204.0004
   1683884.93349   1183885.43047  22356845.255    22356845.1114   22356852.1024
       208.0004        208.0004
    598098.48249    463154.15047  21556709.932    21556710.4454   21556717.1734
       203.0004        204.0004
  -4024193.95148  -3106431.13146  22800355.268    22800355.1584   22800361.5984
       175.0004        178.0004
 21  2  1  0 48 30.0000000  0 10G01G21G04G17G14G07G08G09G30G28
  -3228082.77948  -2498848.37747  21376615.461    21376616.2574   21376623.7974
       192.0004        192.0004
   -958287.31948   -740991.36546  21797640.973    21797641.2384   21797646.3054
       186.0004        187.0004
   2044400.56747   1579900.87846  23163033.781    23163034.9834   23163043.2444
       162.0004        163.0004
  -4046638.98047  -3141001.81546  23123175.127    23123175.5284   23123180.8144
       162.0004        166.0004
  -2043929.61347  -1584571.67845  23358906.211    23358906.1234   23358910.6784
       158.0004        161.0004
  -3421427.44749  -2648166.74747  21098940.555    21098941.0274   21098945.0324
       203.0004        203.0004
   1774832.21849   1254753.44847  22374152.274    22374151.9464   22374159.2384
       208.0004        208.0004
    658874.81649    510512.34247  21568275.121    21568275.5714   21568282.1814
       203.0004        203.0004
  -4111432.84548  -3174409.46046  22783753.531    22783753.9514   22783760.4954
       177.0004        178.0004
    -70012.94154    -49108.914 3                                  23681240.490
        74.0004         74.000
 21  2  1  0 49  0.0000000  0 10G01G21G04G17G14G07G08G09G30G28
  -3283798.99048  -2542263.58747  21366013.577    21366013.5064   21366021.6514
       191.0004        191.0004
   -942677.81448   -728828.11046  21800611.457    21800611.5094   21800615.9004
       186.0004        186.0004
   2142192.36347   1656102.24746  23181645.863    23181645.0734   23181652.0884
       162.0004        164.0004
  -4125278.87948  -3202279.60446  23108209.641    23108210.2554   23108217.4234
       166.0004        169.0004
  -2069784.43147  -1604718.26345  23353985.041    23353985.2414   23353990.3994
       159.0004        160.0004
  -3482780.12749  -2695974.02347  21087264.855    21087265.7824   21087270.3164
       203.0004        203.0004
   1865917.92249   1325729.31647  22391485.352    22391484.7384   22391492.2434
       207.0004        206.0004
    719986.92049    558132.15647  21579904.989    21579904.9974   21579912.2274
       203.0004        204.0004
  -4198614.77548  -3242343.43246  22767164.107    22767163.9054   22767170.3184
       178.0004        179.0004
    -85224.59944    -60961.94445  23678207.897
        74.0004        140.0004
 21  2  1  0 49 30.0000000  0 10G01G21G04G17G14G07G08G09G30G28
  -3339136.69448  -2585383.84647  21355482.050    21355482.9334   21355490.8134
       190.0004        189.0004
   -926574.45148   -716280.02246  21803675.761    21803675.6374   21803680.5404
       186.0004        185.0004
   2240035.17547   1732343.35946  23200264.066    23200264.1354   23200270.9214
       163.0004        165.0004
  -4203572.65648  -3263287.66346  23093310.731    23093311.8184   23093317.7624
       169.0004        173.0004
  -2095640.12647  -1624865.54245  23349065.201    23349066.1714   23349071.2154
       158.0004        159.0004
  -3543859.29549  -2743568.18447  21075642.916    21075643.5414   21075646.6674
       203.0004        204.0004
   1957139.44149   1396811.01947  22408842.377    22408842.6314   22408851.5124
       206.0004        205.0004
    781432.10249    606011.53347  21591596.854    21591597.6874   21591604.1944
       204.0004        203.0004
  -4285737.25648  -3310231.05146  22750584.283    22750584.8614   22750591.8064
       178.0004        179.0004
   -100173.27146    -72610.32345  23675364.687                    23675369.2704
       117.0004        144.0004
 21  2  1  0 50  0.0000000  0 10G01G21G04G17G14G07G08G09G30G28
  -3394093.14248  -2628207.02447  21345023.974    21345024.6874   21345032.8924
       189.0004        190.0004
   -909976.86148   -703346.81346  21806835.096    21806834.3294   21806839.5364
       186.0004        186.0004
   2337925.74547   1808621.69746  23218892.428    23218892.0884   23218898.7694
       163.0004        165.0004
  -4281518.71648  -3324024.79946  23078478.246    23078479.0974   23078485.8134
       170.0004        172.0004
  -2121498.17947  -1645014.64545  23344144.017    23344144.8094   23344149.8334
       157.0004        159.0004
  -3604662.52349  -2790947.31547  21064072.010    21064072.3194   21064076.4464
       204.0004        204.0004
   2048493.44949   1467995.95447  22426226.550    22426227.0274   22426235.3424
       205.0004        205.0004
    843207.17849    654147.94947  21603353.246    21603353.4964   21603359.8984
       203.0004        203.0004
  -4372798.34848  -3378070.84946  22734018.086    22734017.8274   22734024.3774
       180.0004        182.0004
   -115110.29047    -84249.54045  23672524.240    23672520.6084   23672525.4834
       138.0004        146.0004
 21  2  1  0 50 30.0000000  0 10G01G21G04G17G14G07G08G09G30G28
  -3448666.65448  -2670731.82547  21334638.707    21334639.8444   21334648.4924
       189.0004        190.0004
   -892886.22348   -690029.44846  21810087.057    21810086.1844   21810091.7084
       186.0004        186.0004
   2435859.91347   1884933.97845  23237529.633    23237528.8884   23237535.1044
       162.0004        162.0004
  -4359117.29248  -3384491.19546  23063712.692    23063713.1964   23063718.7614
       172.0004        175.0004
  -2147360.95247  -1665167.45545  23339223.735    23339224.8004   23339228.2454
       159.0004        162.0004
  -3665188.48149  -2838110.42547  21052554.021    21052554.5744   21052558.6794
       203.0004        203.0004
   2139976.04149   1539281.06247  22443636.417    22443636.3314   22443644.0344
       206.0004        207.0004
    905307.90549    702538.10047  21615169.803    21615170.4324   21615176.8304
       203.0004        202.0004
  -4459797.11448  -3445862.11446  22717463.318    22717463.4064   22717469.2384
       182.0004        184.0004
   -130038.64347    -95882.01745  23669679.431    23669679.8034   23669684.4764
       141.0004        146.0004
 21  2  1  0 51  0.0000000  0 10G01G21G04G17G14G07G08G09G30G28
  -3502854.21448  -2712955.85247  21324327.328    21324327.9954   21324336.6014
       190.0004        191.0004
   -875302.29248   -676327.64946  21813433.214    21813432.6334   21813437.5584
       186.0004        186.0004
   2533834.85447   1961278.11245  23256171.535    23256172.9184   23256177.6664
       160.0004        161.0004
  -4436366.67548  -3444685.42346  23049012.924    23049013.4364   23049017.8124
       173.0004        174.0004
  -2173229.56347  -1685324.77745  23334299.900    23334300.6314   23334305.2254
       161.0004        162.0004
  -3725434.22549  -2885055.13547  21041090.443    21041090.5594   21041093.9434
       203.0004        204.0004
   2231584.49249   1610664.29847  22461067.693    22461068.4554   22461076.5224
       206.0004        206.0004
    967731.47549    751179.86847  21627048.248    21627048.7204   21627056.1454
       202.0004        202.0004
  -4546731.19948  -3513602.91746  22700919.850    22700919.5264   22700926.3074
       181.0004        180.0004
   -144959.93647   -107508.96545  23666841.405    23666840.6884   23666845.0704
       145.0004        150.0004
 21  2  1  0 51 30.0000000  0 10G01G21G04G17G14G07G08G09G30G28
  -3556650.10948  -2754874.72147  21314091.426    21314092.3074   21314099.9994
       191.0004        192.0004
   -857222.28748   -662239.32946  21816872.755    21816872.5864   21816877.6534
       185.0004        184.0004
   2631850.41047   2037653.84545  23274823.675    23274823.9764   23274830.5924
       160.0004        162.0004
  -4513262.83648  -3504604.46546  23034378.800    23034379.5114   23034385.4574
       173.0004        173.0004
  -2199102.43847  -1705485.44446  23329377.542    23329378.3114   23329382.7274
       161.0004        163.0004
  -3785394.22649  -2931777.23147  21029680.388    21029680.6104   21029684.5424
       204.0004        204.0004
   2323318.85949   1682145.60447  22478524.631    22478524.8154   22478532.8984
       206.0004        205.0004
   1030477.62149    800072.95647  21638988.735    21638989.3504   21638995.9714
       201.0004        201.0004
  -4633595.60648  -3581289.46746  22684390.386    22684389.8584   22684395.9774
       179.0004        178.0004
   -159872.98447   -119129.48245  23664003.237    23664003.2544   23664008.1134
       148.0004        153.0004
 21  2  1  0 54  0.0000000  0  8G01G30G17G14G07G09G28G21
    -45249.72657    -18455.90147  19495659.539                    19495667.9754
       154.0004        195.0004
    -99481.68154    -63736.59144  20833569.599
        74.0004        107.0004
    -87504.16754    -57588.92444  21193847.049
        74.0004         99.0004
    -22755.64554     -3554.36843  21536357.332
        74.0004         74.0004
    -51603.72157    -19905.30847  19205079.070                    19205082.5204
       163.0004        204.0004
     32023.17048     20392.66147  19931211.105                    19931218.5954
       189.0004        199.0004
    -38619.10054    -18193.01443  21881444.046
        74.0004         74.0004
    -12012.66058     -7057.63346  20067111.377                    20067117.0644
       171.0004        186.0004
 21  2  1  0 54 30.0000000  0  9G01G30G17G14G07G08G09G28G21
   -130764.97848    -85091.15847  19479386.874    19479387.1394   19479394.9414
       190.0004        195.0004
   -220011.05744   -157840.20945  20810633.106
        74.0004        150.0004
   -196382.58347   -142429.20046  21173128.715                    21173132.1994
       158.0004        170.0004
    -82808.84644    -50349.47245  21524929.757
        74.0004        157.0004
   -143924.39649    -91843.49247  19187510.553    19187510.9174   19187514.7704
       199.0004        204.0004
     54726.03854     30698.42043  20808862.165
        74.0004         74.0004
     62512.11149     44150.27847  19937013.716    19937013.3504   19937020.5464
       197.0004        199.0004
    -87646.07046    -56395.85245  21872115.237                    21872119.9854
       133.0004        156.0004
    -25083.66348    -17242.81846  20064624.363    20064623.7444   20064628.6744
       183.0004        185.0004
 21  2  1  0 55  0.0000000  0 10G01G30G17G04G14G07G08G09G28G21
   -215894.46248   -151425.80847  21261941.213    21261942.2794   21261949.9954
       193.0004        194.0004
   -340473.88744   -251889.00944  22586463.941
        74.0004        125.0004
   -304919.96248   -227003.74846  22951229.448    22951229.2434   22951233.7494
       168.0004        172.0004
     15154.62154      3733.23543  23422932.759
        74.0004         74.0004
   -142905.43647    -97177.92245  23312247.915    23312248.4374   23312253.2464
       151.0004        160.0004
   -235965.45849   -163563.80147  20968750.452    20968751.1154   20968754.9684
       203.0004        205.0004
    113077.25848     76166.64447  22618719.751                    22618729.9414
       191.0004        202.0004
     93253.44549     68104.56247  21741618.246    21741618.2194   21741625.2744
       199.0004        200.0004
   -136708.95747    -94626.63745  23661533.729    23661532.3654   23661537.3234
       148.0004        153.0004
    -37698.56348    -27072.59846  21860978.963    21860978.4054   21860982.6754
       184.0004        185.0004
 21  2  1  0 55 30.0000000  0 10G01G30G17G04G14G07G08G09G28G21
   -300657.55648   -217474.95147  21245811.372    21245811.9364   21245820.3964
       194.0004        194.0004
   -460904.23044    -57061.93643  22563547.188
        74.0004         74.0004
   -413146.48748   -311336.07846  22930635.056    22930634.0764   22930638.9714
       171.0004        172.0004
     79186.22846     53628.09045  23435116.550                    23435123.8164
       112.0004        160.0004
   -203058.76447   -144050.62945  23300801.887    23300801.9114   23300806.1814
       157.0004        160.0004
   -327749.21049   -235083.60747  20951284.894    20951285.1434   20951289.3184
       205.0004        205.0004
    171512.17849    121700.32747  22629841.451    22629841.2284   22629849.5674
       199.0004        201.0004
    124268.32149     92272.00347  21747520.155    21747520.2224   21747527.1554
       199.0004        200.0004
   -185817.36847   -132892.88745  23652189.454    23652187.6314   23652193.0644
       151.0004        155.0004
    -49850.68848    -36541.77546  21858667.720    21858665.1814   21858671.0914
       185.0004        185.0004
 21  2  1  0 56  0.0000000  0 10G01G30G17G04G14G07G08G09G28G21
   -407934.02448   -301066.97847  21225398.075    21225398.3234   21225406.3144
       194.0004        195.0004
   -604175.29948   -168701.69346  22536283.610                    22536290.8764
       169.0004        180.0004
   -543938.94448   -413252.24346  22905745.239    22905745.3554   22905750.0604
       171.0004        172.0004
    120301.63247     85666.05645  23442941.374    23442941.0374   23442946.8894
       152.0004        159.0004
   -286157.53147   -208802.87846  23284987.082    23284987.8924   23284993.8874
       159.0004        163.0004
   -442154.17049   -324230.32047  20929514.097    20929514.5894   20929518.8494
       205.0004        206.0004
    207117.08849    149444.41947  22636615.728    22636616.6924   22636624.9064
       201.0004        201.0004
    132647.97449     98801.60547  21749114.276    21749114.6794   21749121.3934
       199.0004        199.0004
   -257862.71747   -189032.08245  23638478.567    23638477.8284   23638482.2314
       152.0004        154.0004
    -84437.20748    -63492.28346  21852083.326    21852083.9484   21852089.3244
       185.0004        185.0004
 21  2  1  0 56 30.0000000  0 10G01G30G17G04G14G07G08G09G28G21
   -457638.95648   -339798.06647  21215939.251    21215939.5034   21215947.5844
       194.0004        194.0004
   -690202.65348   -235735.97846  22519913.175    22519913.2684   22519919.7894
       176.0004        178.0004
   -617213.69848   -470349.40846  22891801.680    22891802.2114   22891806.3174
       171.0004        172.0004
    218579.85147    162246.46545  23461643.954    23461643.0454   23461648.4474
       157.0004        159.0004
   -312120.83047   -229033.99846  23280047.732    23280048.7464   23280052.1944
       161.0004        163.0004
   -499095.39549   -368600.10847  20918679.102    20918679.0974   20918683.3804
       206.0004        206.0004
    299970.92349    221798.05847  22654285.353    22654285.8024   22654294.7884
       201.0004        202.0004
    198471.26149    150092.47747  21761639.570    21761640.1644   21761646.8024
       198.0004        198.0004
   -272764.44047   -200643.79145  23635641.527    23635642.6704   23635648.8844
       150.0004        151.0004
    -61376.03648    -45522.52846  21856472.887    21856472.1904   21856477.3204
       185.0004        185.0004
 21  2  1  0 57  0.0000000  0 10G01G30G17G04G14G07G08G09G28G21
   -506925.62948   -378203.23347  21206559.356    21206560.1834   21206568.0994
       193.0004        192.0004
   -776140.08148   -302700.19646  22503560.839    22503560.3084   22503566.9644
       179.0004        180.0004
   -690125.85848   -527164.03646  22877926.526    22877926.5974   22877932.3084
       172.0004        174.0004
    316862.14147    238830.06345  23480346.117    23480346.1684   23480351.0784
       156.0004        156.0004
   -338105.87747   -249282.01646  23275102.138    23275102.5394   23275108.5574
       162.0004        163.0004
   -555726.59049   -412728.29447  20907902.315    20907902.4034   20907906.6964
       205.0004        206.0004
    392915.43449    294222.35747  22671972.318    22671972.2984   22671980.6824
       201.0004        200.0004
    264579.25749    201605.21047  21774219.192    21774220.0574   21774227.2774
       197.0004        198.0004
   -287680.21847   -212266.45145  23632804.055    23632804.4534   23632807.8474
       148.0004        151.0004
    -37823.23348    -27169.67546  21860954.417    21860954.1744   21860959.1394
       185.0004        186.0004
 21  2  1  0 57 30.0000000  0 10G01G30G17G04G14G07G08G09G28G21
   -555787.51748   -416277.42247  21197261.632    21197262.6564   21197270.2664
       193.0004        194.0004
   -861981.50248   -369589.60646  22487225.434    22487225.1044   22487231.6374
       180.0004        181.0004
   -762670.54248   -583692.32346  22864121.861    22864122.0434   22864126.9654
       173.0004        174.0004
    415149.40247    315417.51745  23499049.838    23499049.5534   23499054.1544
       154.0004        155.0004
   -364109.92247   -269544.89345  23270153.285    23270154.3964   23270158.3194
       160.0004        160.0004
   -612041.09449   -456609.72547  20897185.981    20897186.4644   20897190.2504
       206.0004        206.0004
    485951.13249    366717.70747  22689676.096    22689676.1764   22689685.0584
       199.0004        199.0004
    330972.64449    253340.31347  21786854.377    21786854.6384   21786861.5764
       197.0004        198.0004
   -302607.59447   -223898.15345  23629962.929    23629963.1374   23629968.4374
       149.0004        153.0004
    -13775.23648     -8430.97246  21865531.188    21865530.4974   21865535.6834
       185.0004        185.0004
 21  2  1  0 58  0.0000000  0 10G01G30G17G04G14G07G08G09G28G21
   -604222.62148   -454019.03647  21188044.998    21188045.4324   21188053.7784
       194.0004        194.0004
   -947725.32348   -436402.96946  22470908.462    22470908.4704   22470915.5954
       180.0004        181.0004
   -834846.90248   -639933.61646  22850387.425    22850388.1224   22850392.8154
       172.0004        173.0004
    513437.99647    392006.04445  23517752.645    23517753.2004   23517759.5734
       153.0004        156.0004
   -390134.88147   -289824.08745  23265202.528    23265202.5364   23265206.2284
       160.0004        161.0004
   -668036.88849   -500242.80947  20886530.395    20886530.5774   20886534.4024
       205.0004        206.0004
    579074.50749    439281.36547  22707397.442    22707397.0114   22707406.1844
       198.0004        198.0004
    397647.59949    305294.82247  21799542.415    21799542.4164   21799548.8884
       197.0004        197.0004
   -317548.73547   -235540.58545  23627120.402    23627119.5894   23627125.4344
       150.0004        154.0004
     10766.93448     10692.80646  21870201.171    21870201.1784   21870205.6394
       185.0004        185.0004
 21  2  1  0 58 30.0000000  0 10G01G30G17G04G14G07G08G09G28G21
   -652227.83148   -491425.65947  21178909.896    21178910.3514   21178918.3684
       194.0004        195.0004
  -1033368.88248   -503138.17846  22454610.468    22454610.4834   22454617.6604
       180.0004        180.0004
   -906654.01248   -695887.13946  22836723.089    22836723.5114   22836728.6824
       173.0004        176.0004
    611725.54247    468593.73345  23536456.465    23536457.0764   23536463.2314
       154.0004        156.0004
   -416181.51947   -310120.16346  23260245.254    23260245.1284   23260250.1064
       161.0004        163.0004
   -723711.18949   -543625.37747  20875935.581    20875935.9184   20875940.0174
       205.0004        206.0004
    672283.36549    511911.63347  22725134.316    22725134.8854   22725143.7034
       199.0004        199.0004
    464601.43549    357466.66647  21812283.369    21812283.4644   21812289.8534
       197.0004        198.0004
   -332505.19047   -247194.94945  23624273.671    23624274.0074   23624278.2544
       150.0004        152.0004
     35803.53948     30201.85546  21874966.140    21874965.2034   21874970.7644
       185.0004        185.0004
 21  2  1  0 59  0.0000000  0 10G01G30G17G04G14G07G08G09G28G21
   -699799.34748   -528494.32947  21169856.809    21169857.7124   21169865.9604
       194.0004        195.0004
  -1118908.74548   -569792.58946  22438333.344    22438333.3144   22438340.5994
       180.0004        180.0004
   -978089.37848   -751551.03246  22823128.987    22823129.1524   22823135.0994
       175.0004        176.0004
    710010.16347    545179.13545  23555159.097    23555159.0704   23555166.2694
       154.0004        157.0004
   -442249.85447   -330433.13946  23255284.596    23255285.3474   23255289.6484
       164.0004        165.0004
   -779060.30049   -586754.54447  20865402.337    20865403.1864   20865407.1754
       205.0004        206.0004
    765576.16749    584607.33647  22742886.953    22742887.1324   22742896.5364
       199.0004        200.0004
    531832.11749    409854.21147  21825077.530    21825077.4874   21825083.4174
       198.0004        198.0004
   -347477.44947   -258861.60145  23621425.268    23621424.7564   23621429.7934
       150.0004        153.0004
     61335.32648     50096.77146  21879823.863    21879823.5024   21879828.8594
       185.0004        185.0004
 21  2  1  0 59 30.0000000  0 10G01G30G17G04G14G07G08G09G28G21
   -746933.38649   -565222.13147  21160888.490    21160888.8524   21160896.4844
       195.0004        196.0004
  -1204341.42248   -636363.50046  22422074.995    22422076.0984   22422082.4934
       180.0004        181.0004
  -1049150.92048   -806923.62246  22809606.703    22809607.2974   22809612.5064
       175.0004        176.0004
    808290.17147    621760.93545  23573860.468    23573861.0624   23573868.0024
       155.0004        157.0004
   -468339.89948   -350762.99746  23250319.056    23250320.1794   23250324.8574
       165.0004        166.0004
   -834080.63049   -629627.52347  20854933.084    20854933.5254   20854937.6174
       205.0004        206.0004
    858951.09349    657367.02547  22760654.895    22760655.3574   22760664.9224
       199.0004        199.0004
    599337.72449    462455.98747  21837923.054    21837923.2024   21837930.1934
       198.0004        198.0004
   -362466.02047   -270540.98345  23618573.043    23618572.5844   23618577.8044
       151.0004        154.0004
     87363.42848     70378.42246  21884778.019    21884776.8844   21884781.2204
       185.0004        185.0004
 21  2  1  1  0  0.0000000  0 10G01G30G17G04G14G07G08G09G28G21
   -793626.80049   -601606.58747  21152002.909    21152003.1614   21152011.4084
       196.0004        196.0004
  -1289664.21048   -702848.79146  22405839.134    22405839.6404   22405846.5354
       181.0004        181.0004
  -1119836.65148   -862003.34746  22796155.640    22796156.0264   22796160.3374
       175.0004        175.0004
    906563.23947    698337.33745  23592561.105    23592560.8954   23592568.9544
       154.0004        156.0004
   -494452.25248   -371110.25346  23245350.483    23245351.1684   23245356.1614
       165.0004        166.0004
   -888768.96049   -672241.81247  20844526.954    20844526.9564   20844530.5724
       206.0004        206.0004
    952405.99449    730189.02147  22778437.797    22778438.9174   22778448.6654
       197.0004        196.0004
    667115.58949    515269.91447  21850819.688    21850819.9854   21850827.3414
       196.0004        196.0004
   -377471.83147   -282233.79645  23615716.572    23615716.9374   23615721.6064
       152.0004        156.0004
    113887.82648     91046.79146  21889825.043    21889824.0864   21889829.3204
       185.0004        185.0004
 21  2  1  1  0 30.0000000  0 10G01G30G17G04G14G07G08G09G28G21
   -839876.67649   -637645.40347  21143201.483    21143202.2764   21143209.8624
       196.0004        197.0004
  -1374874.43548   -769246.34146  22389624.845    22389624.5254   22389631.3384
       182.0004        182.0004
  -1190145.78648   -916789.63546  22782774.822    22782775.9194   22782781.3514
       173.0004        173.0004
   1004826.82047    774906.35945  23611260.584    23611260.6544   23611267.0594
       152.0004        154.0004
   -520587.78048   -391475.55546  23240377.790    23240378.4164   23240383.2834
       166.0004        168.0004
   -943122.30649   -714595.04847  20834182.199    20834183.0474   20834187.6914
       206.0004        206.0004
   1045938.67249    803071.64747  22796237.617    22796237.8934   22796247.7074
       195.0004        195.0004
    735162.87049    568293.78147  21863768.648    21863768.8574   21863776.4864
       195.0004        195.0004
   -392496.08647   -293940.95545  23612858.170    23612858.7564   23612862.4544
       153.0004        156.0004
    140908.27148    112101.71046  21894965.102    21894965.6494   21894971.4894
       185.0004        185.0004
 21  2  1  1  1  0.0000000  0 10G01G30G17G04G14G07G08G09G28G21
   -885680.54449   -673336.70347  21134484.812    21134485.9394   21134493.6624
       196.0004        197.0004
  -1459969.93948   -835554.51346  22373432.002    22373431.9244   22373438.3514
       182.0004        183.0004
  -1260077.25148   -971281.64046  22769469.080    22769468.7274   22769473.7184
       173.0004        175.0004
   1103077.84447    851465.56245  23629957.773    23629957.4314   23629962.9394
       153.0004        155.0004
   -546747.77048   -411859.92746  23235399.979    23235400.0084   23235404.8874
       167.0004        168.0004
   -997138.18949   -756685.34047  20823904.306    20823904.3634   20823908.8714
       206.0004        207.0004
   1139545.98148    876012.38747  22814051.126    22814051.2634   22814060.1514
       194.0004        194.0004
    803476.30149    621525.02747  21876768.567    21876768.5154   21876777.0174
       195.0004        195.0004
   -407540.56447   -305663.88145  23609996.184    23609995.1614   23609999.3054
       153.0004        157.0004
    168424.76048    133543.14746  21900202.354    21900202.0714   21900207.3084
       184.0004        184.0004
 21  2  1  1  1 30.0000000  0 10G01G30G17G04G14G07G08G09G28G21
   -931036.80349   -708679.22047  21125854.514    21125855.0034   21125863.0424
       197.0004        198.0004
  -1544949.40448   -901772.27846  22357260.339    22357261.3904   22357268.2884
       183.0004        185.0004
  -1329631.09748  -1025479.41146  22756234.039    22756233.9994   22756238.4674
       174.0004        177.0004
   1201312.44047    928011.99645  23648651.988    23648652.0504   23648657.0774
       154.0004        158.0004
   -572934.32848   -432265.03046  23230416.776    23230417.3004   23230421.0804
       168.0004        169.0004
  -1050815.10249   -798511.51847  20813690.352    20813690.5674   20813694.5014
       207.0004        207.0004
   1233224.14849    949008.35347  22831879.335    22831878.7794   22831886.0164
       195.0004        196.0004
    872051.71148    674960.40447  21889816.867    21889817.3894   21889825.8764
       194.0004        193.0004
   -422608.05447   -317404.75445  23607127.902    23607127.8874   23607132.2654
       154.0004        156.0004
    196435.62948    155369.80446  21905532.443    21905532.5464   21905537.9164
       184.0004        184.0004
 21  2  1  1  2  0.0000000  0 10G01G30G17G04G14G07G08G09G28G21
   -975942.46749   -743670.63647  21117308.790    21117309.2554   21117317.4094
       197.0004        197.0004
  -1629810.09048   -967897.49146  22341111.827    22341112.2074   22341118.8014
       185.0004        185.0004
  -1398805.87948  -1079381.81446  22743068.944    22743070.3974   22743074.9074
       174.0004        175.0004
   1299528.23247   1004543.73645  23667340.632    23667341.4654   23667347.8734
       154.0004        155.0004
   -599148.17848   -452691.40646  23225427.891    23225427.7004   23225432.7104
       167.0004        167.0004
  -1104150.16749   -840071.32247  20803540.347    20803540.6604   20803544.8824
       207.0004        207.0004
   1326971.15049   1022057.97347  22849717.928    22849718.0814   22849725.8224
       196.0004        197.0004
    940886.35548    728597.76047  21902915.075    21902915.5134   21902923.5144
       192.0004        191.0004
   -437699.38847   -329164.22645  23604256.286    23604256.1464   23604260.7754
       154.0004        156.0004
    224940.94948    177581.75146  21910956.508    21910956.3374   21910961.8094
       184.0004        185.0004
 21  2  1  1  2 30.0000000  0 10G01G30G17G04G14G07G08G09G28G21
  -1020392.78549   -778307.21147  21108849.632    21108850.7114   21108859.0884
       197.0004        198.0004
  -1714547.50148  -1033926.62746  22324986.673    22324987.1724   22324993.0774
       185.0004        186.0004
  -1467598.62448  -1132986.49546  22729978.827    22729977.5634   22729983.8994
       173.0004        173.0004
   1397724.51247   1081060.31345  23686026.038    23686026.5834   23686033.2184
       154.0004        157.0004
   -625388.27548   -473138.20846  23220433.726    23220434.4104   23220439.2234
       165.0004        164.0004
  -1157138.75649   -881361.11147  20793456.781    20793457.3264   20793461.6904
       206.0004        207.0004
   1420785.91149   1095160.38947  22867569.734    22867569.6104   22867578.8114
       196.0004        196.0004
   1009979.29848    782436.41647  21916063.685    21916064.3454   21916072.2494
       192.0004        193.0004
   -452814.28347   -340942.03445  23601380.150    23601379.8964   23601384.4624
       154.0004        157.0004
    253942.23248    200180.18446  21916475.130    21916474.9914   21916480.1374
       184.0004        183.0004
 21  2  1  1  3  0.0000000  0 10G01G30G17G04G14G07G08G09G28G21
  -1064386.58749   -812588.07347  21100478.526    21100479.1934   21100487.2484
       198.0004        198.0004
  -1799160.53648  -1099858.87446  22308886.044    22308885.8984   22308892.4524
       186.0004        187.0004
  -1536009.41748  -1186293.58646  22716960.678    22716960.7744   22716964.8264
       171.0004        172.0004
   1495897.15547   1157558.47245  23704707.493    23704708.4884   23704715.5964
       156.0004        158.0004
   -651656.96147   -493607.32246  23215435.786    23215435.8034   23215441.1034
       162.0004        164.0004
  -1209779.94249   -922380.22647  20783439.978    20783440.5344   20783444.6454
       207.0004        208.0004
   1514664.81048   1168312.76447  22885432.683    22885433.2794   22885443.0574
       194.0004        193.0004
   1079325.99348    836472.80047  21929261.258    21929261.7834   21929268.8164
       193.0004        195.0004
   -467955.50147   -352740.33645  23598499.634    23598499.5504   23598503.2014
       153.0004        156.0004
    283438.15948    223164.04346  21922089.188    21922088.3714   21922093.5734
       183.0004        183.0004
 21  2  1  1  3 30.0000000  0 10G01G30G17G04G14G07G08G09G28G21
  -1107919.76849   -846510.00147  21092194.544    21092194.9324   21092203.2734
       198.0004        198.0004
  -1883645.45348  -1165691.24546  22292808.747    22292808.4854   22292815.5394
       186.0004        187.0004
  -1604035.91248  -1239301.19846  22704014.356    22704014.9594   22704019.7494
       171.0004        172.0004
   1594044.80547   1234037.13945  23723384.412    23723385.2444   23723393.4484
       156.0004        158.0004
   -677953.89747   -514098.39746  23210431.749    23210432.1194   23210436.7504
       163.0004        166.0004
  -1262068.81849   -963124.79047  20773489.424    20773489.8224   20773494.4174
       207.0004        208.0004
   1608606.60248   1241514.15047  22903311.081    22903310.5484   22903319.1274
       193.0004        193.0004
   1148924.83449    890705.67847  21942506.884    21942506.6754   21942513.1884
       196.0004        197.0004
   -483122.96547   -364559.10345  23595612.725    23595611.8944   23595616.6354
       153.0004        155.0004
    313429.56948    246534.01146  21927796.306    21927795.2984   21927800.9094
       184.0004        185.0004
 21  2  1  1  4  0.0000000  0 10G01G30G17G04G14G07G08G09G28G21
  -1150990.65549   -880071.72247  21083998.044    21083998.9524   21084006.8504
       197.0004        197.0004
  -1968000.61548  -1231422.52746  22276757.060    22276756.7524   22276763.0044
       186.0004        187.0004
  -1671678.06948  -1292009.34946  22691143.290    22691142.9234   22691147.7694
       172.0004        172.0004
   1692163.93647   1310493.56245  23742056.260    23742056.5374   23742064.3664
       156.0004        157.0004
   -704280.95348   -534612.95346  23205421.151    23205421.7444   23205426.0284
       165.0004        167.0004
  -1314003.87549  -1003593.67347  20763606.540    20763607.2264   20763610.9814
       207.0004        207.0004
   1702607.71148   1314761.75947  22921198.604    22921197.9034   22921207.3864
       193.0004        193.0004
   1218771.81049    945131.89947  21955797.520    21955798.2164   21955803.6354
       196.0004        197.0004
   -498319.31247   -376400.38145  23592721.124    23592721.0444   23592725.6964
       153.0004        156.0004
    343915.00648    270288.91946  21933596.511    21933596.3994   21933602.1324
       184.0004        184.0004
 21  2  1  1  4 30.0000000  0 10G01G30G17G04G14G07G08G09G28G21
  -1193594.88149   -913269.79747  21075890.820    21075891.8814   21075899.2494
       197.0004        198.0004
  -2052221.78948  -1297049.44047  22260729.814    22260729.7074   22260736.3064
       187.0004        188.0004
  -1738933.19348  -1344415.89746  22678345.088    22678345.0374   22678350.1964
       172.0004        174.0004
   1790253.52147   1386926.96445  23760721.846    23760723.0514   23760729.1914
       155.0004        157.0004
   -730637.32947   -555150.38246  23200404.792    23200405.2534   23200410.5554
       164.0004        163.0004
  -1365581.07249  -1043783.70247  20753791.904    20753792.0714   20753796.5374
       207.0004        208.0004
   1796667.21948   1388054.88347  22939098.135    22939096.8614   22939105.5574
       192.0004        192.0004
   1288865.68249    999750.49747  21969136.856    21969137.3554   21969142.8534
       198.0004        199.0004
   -513543.96847   -388263.73445  23589823.366    23589823.3464   23589827.5064
       153.0004        156.0004
    374895.80348    294429.81446  21939492.010    21939491.2724   21939496.4784
       183.0004        183.0004
 21  2  1  1  5  0.0000000  0 10G01G30G17G04G14G07G08G09G28G21
  -1235731.98549   -946103.89547  21067871.832    21067872.8684   21067880.8554
       197.0004        197.0004
  -2136308.68648  -1362571.68947  22244727.608    22244728.8934   22244735.9004
       187.0004        188.0004
  -1805802.30348  -1396521.67446  22665619.358    22665620.4344   22665625.5764
       173.0004        174.0004
   1888308.80647   1463333.64045  23779381.331    23779382.0234   23779388.6154
       154.0004        156.0004
   -757026.14647   -575713.07146  23195384.937    23195384.6524   23195390.1824
       163.0004        164.0004
  -1416799.75849  -1083694.37747  20744045.534    20744045.8304   20744049.9134
       207.0004        208.0004
   1890780.86048   1461390.17547  22957008.014    22957007.1304   22957015.4324
       193.0004        194.0004
   1359201.23749   1054557.41547  21982520.581    21982520.7354   21982526.9954
       198.0004        197.0004
   -528800.61547   -400151.99745  23586920.775    23586919.7074   23586924.8464
       153.0004        154.0004
    406369.78248    318955.00246  21945481.095    21945480.8244   21945486.7034
       183.0004        184.0004
 21  2  1  1  5 30.0000000  0 10G01G30G17G04G14G07G08G09G28G21
  -1277399.46249   -978572.00547  21059943.444    21059944.3944   21059951.4934
       196.0004        197.0004
  -2220258.82648  -1427987.33847  22228754.861    22228753.8534   22228760.3784
       189.0004        191.0004
  -1872284.39148  -1448325.83246  22652969.795    22652969.6994   22652973.1554
       173.0004        175.0004
   1986327.04247   1539711.49045  23798032.926    23798034.1194   23798041.1954
       154.0004        156.0004
   -783448.37947   -596301.80746  23190356.989    23190357.1734   23190361.2294
       162.0004        163.0004
  -1467657.25449  -1123323.56247  20734367.244    20734367.6414   20734371.9014
       207.0004        208.0004
   1984945.91248   1534765.55547  22974925.635    22974926.1114   22974934.7614
       193.0004        193.0004
   1429775.36649   1109550.28547  21995949.475    21995949.8784   21995956.6414
       196.0004        196.0004
   -544090.46247   -412066.12445  23584009.968    23584010.3474   23584014.4264
       151.0004        153.0004
    438336.21748    343863.98346  21951564.515    21951564.4724   21951569.5304
       183.0004        184.0004
 21  2  1  1  6  0.0000000  0 10G01G30G17G04G14G07G08G09G28G21
  -1318593.17149  -1010671.00347  21052104.631    21052104.9104   21052112.6034
       196.0004        196.0004
  -2304068.13148  -1493293.31647  22212805.070    22212805.6004   22212812.2424
       191.0004        191.0004
  -1938377.30348  -1499826.79646  22640392.394    22640392.3994   22640395.4864
       174.0004        175.0004
   2084307.09147   1616059.51545  23816679.111    23816679.7574   23816686.4754
       155.0004        157.0004
   -809903.50047   -616916.21846  23185322.737    23185322.8784   23185327.3484
       162.0004        164.0004
  -1518149.46149  -1162668.16547  20724758.976    20724759.6464   20724763.8324
       207.0004        208.0004
   2079161.18448   1608180.02047  22992855.192    22992854.1304   22992863.2244
       192.0004        192.0004
   1500586.58049   1164727.82847  22009423.821    22009424.0544   22009431.9964
       195.0004        195.0004
   -559413.52847   -424006.19745  23581094.618    23581094.5214   23581098.0224
       148.0004        150.0004
    470796.26348    369157.51446  21957742.014    21957741.1284   21957747.1274
       183.0004        183.0004
 21  2  1  1  6 30.0000000  0 10G01G30G17G04G14G07G08G09G28G21
  -1359312.35349  -1042400.20247  21044355.646    21044356.1044   21044364.3754
       196.0004        197.0004
  -2387735.91548  -1558488.94947  22196882.673    22196883.3944   22196890.6284
       190.0004        190.0004
  -2004081.58948  -1551024.88246  22627889.738    22627889.4664   22627892.6034
       174.0004        175.0004
   2182244.58147   1692374.44945  23835317.446    23835317.2314   23835323.6384
       156.0004        157.0004
   -836394.13847   -637558.23646  23180280.694    23180281.0854   23180287.1574
       164.0004        165.0004
  -1568275.36849  -1201727.29547  20715220.546    20715220.9144   20715224.9324
       208.0004        208.0004
   2173422.44648   1681630.33947  23010791.807    23010791.2384   23010800.1634
       192.0004        192.0004
   1571630.05048   1220086.39247  22022942.473    22022943.3634   22022950.8464
       193.0004        192.0004
   -574772.94847   -435974.52245  23578172.500    23578171.9554   23578175.3104
       147.0004        151.0004
    503747.66248    394833.96746  21964012.096    21964011.3504   21964016.7824
       183.0004        183.0004
 21  2  1  1  7  0.0000000  0 10G01G30G17G04G14G07G08G09G28G21
  -1399552.86949  -1073756.42647  21036697.953    21036698.4434   21036706.4664
       196.0004        195.0004
  -2471258.05748  -1623571.12647  22180990.437    22180989.8164   22180996.3524
       189.0004        189.0004
  -2069394.68548  -1601918.17246  22615459.453    22615459.6184   22615464.8744
       175.0004        175.0004
   2280138.44447   1768655.36445  23853945.257    23853945.7614   23853952.2974
       155.0004        157.0004
   -862919.67048   -658227.45046  23175234.663    23175235.3554   23175238.2804
       166.0004        169.0004
  -1618030.99549  -1240497.91647  20705752.228    20705752.9774   20705756.8024
       208.0004        209.0004
   2267728.86848   1755115.86547  23028737.751    23028738.0314   23028746.4934
       193.0004        193.0004
   1642904.33848   1275624.79447  22036506.869    22036507.0834   22036513.5684
       192.0004        193.0004
   -590168.65447   -447971.15845  23575241.398    23575241.0344   23575246.7834
       147.0004        151.0004
    537191.34948    420894.01146  21970376.283    21970375.5234   21970381.4914
       183.0004        183.0004
 21  2  1  1  7 30.0000000  0 10G01G30G17G04G14G07G08G09G28G21
  -1439312.66249  -1104738.09147  21029131.693    21029132.5544   21029140.4274
       195.0004        196.0004
  -2554632.42748  -1688538.19647  22165124.767    22165124.9744   22165130.8604
       189.0004        190.0004
  -2134316.19548  -1652506.37246  22603105.580    22603105.8104   22603111.2964
       174.0004        176.0004
   2377985.62447   1844899.88145  23872564.860    23872565.3324   23872571.0054
       154.0004        155.0004
   -889481.46948   -678924.90646  23170181.164    23170181.4544   23170184.1314
       169.0004        172.0004
  -1667414.10949  -1278978.28147  20696355.154    20696355.2244   20696359.5924
       208.0004        209.0004
   2362077.57248   1828634.31747  23046691.794    23046691.8844   23046700.1414
       193.0004        194.0004
   1714405.89248   1331340.27947  22050111.664    22050112.6894   22050120.0754
       192.0004        193.0004
   -605602.46247   -459997.49845  23572304.881    23572304.6314   23572309.2914
       145.0004        146.0004
    571126.45748    447336.95946  21976833.454    21976832.6884   21976838.9004
       184.0004        183.0004
 21  2  1  1  8  0.0000000  0 11G01G30G17G04G14G19G07G08G09G28G21
  -1478588.95949  -1135342.97047  21021657.434    21021658.6204   21021666.2964
       196.0004        196.0004
  -2637856.28248  -1753387.92546  22149286.978    22149286.9384   22149294.0644
       188.0004        187.0004
  -2198844.96648  -1702788.49146  22590827.969    22590828.5224   22590830.9474
       176.0004        179.0004
   2475783.73947   1921106.19445  23891176.381    23891176.4744   23891181.6034
       153.0004        155.0004
   -916080.07348   -699651.04446  23165118.171    23165118.1814   23165122.7204
       170.0004        169.0004
  -2221529.42554  -1722960.991 4                                  23325115.144
        74.0004        107.000
  -1716421.56449  -1317165.90247  20687029.359    20687029.9324   20687033.7994
       208.0004        208.0004
   2456466.05048   1902183.78447  23064655.378    23064654.0564   23064662.0544
       194.0004        194.0004
   1786131.93448   1387230.69147  22063761.848    22063762.4944   22063769.0364
       192.0004        193.0004
   -621075.48347   -472054.34245  23569361.324    23569361.0974   23569364.6794
       143.0004        147.0004
    605552.83748    474162.74446  21983384.267    21983383.1824   21983389.7494
       183.0004        183.0004
 21  2  1  1  8 30.0000000  0 10G01G30G17G04G14G07G08G09G28G21
  -1517379.11249  -1165569.06447  21014275.514    21014276.5154   21014284.9804
       196.0004        196.0004
  -2720926.88448  -1818118.27547  22133479.478    22133479.2794   22133486.3134
       187.0004        188.0004
  -2262979.96748  -1752763.80646  22578622.107    22578622.0024   22578627.2314
       177.0004        177.0004
   2573530.35547   1997272.33345  23909776.005    23909776.3594   23909781.6234
       151.0004        153.0004
   -942716.22348   -720406.51046  23160045.805    23160046.7704   23160054.5704
       166.0004        163.0004
  -1765050.91749  -1355058.93047  20677775.569    20677776.0604   20677779.8504
       208.0004        209.0004
   2550892.17948   1975762.55647  23082621.686    23082622.3674   23082630.5694
       193.0004        193.0004
   1858079.56748   1443293.75147  22077453.554    22077453.3904   22077460.5984
       193.0004        193.0004
   -636588.70047   -484142.57445  23566409.227    23566408.3344   23566412.6754
       144.0004        149.0004
    640469.43048    501370.46746  21990029.208    21990029.3314   21990033.7474
       183.0004        183.0004
 21  2  1  1  9  0.0000000  0 10G01G30G17G04G14G07G08G09G28G21
  -1555680.58849  -1195414.33147  21006987.627    21006988.3264   21006996.6404
       196.0004        196.0004
  -2803841.63648  -1882727.15747  22117701.684    22117701.0814   22117707.2134
       187.0004        188.0004
  -2326720.21948  -1802431.49846  22566492.287    22566493.6044   22566497.8854
       178.0004        180.0004
   2671222.95747   2073396.41245  23928365.702    23928366.9294   23928372.4014
       150.0004        152.0004
   -969390.78647   -741191.88046  23154969.224    23154971.3554   23154978.5094
       163.0004        163.0004
  -1813299.24049  -1392655.00947  20668594.039    20668594.5954   20668598.2264
       209.0004        209.0004
   2645353.48448   2049368.76447  23100596.784    23100597.1564   23100606.1864
       192.0004        192.0004
   1930245.85948   1499527.25247  22091185.978    22091186.4384   22091193.1504
       193.0004        193.0004
   -652143.54947   -496263.19345  23563447.833    23563448.8274   23563452.6044
       148.0004        154.0004
    675876.31848    528960.30646  21996767.575    21996766.5874   21996771.3644
       183.0004        183.0004
 21  2  1  1  9 30.0000000  0 10G01G30G17G04G14G07G08G09G28G21
  -1593489.23149  -1224875.58947  20999792.632    20999793.6334   20999801.4204
       195.0004        195.0004
  -2886596.24648  -1947211.25647  22101953.149    22101952.5914   22101960.4284
       188.0004        189.0004
  -2390063.33748  -1851789.74246  22554439.174    22554439.3874   22554443.0224
       178.0004        179.0004
   2768860.60247   2149477.66945  23946944.587    23946945.4844   23946953.1774
       149.0004        151.0004
   -996102.95147   -762006.54446  23149890.666    23149890.8364   23149894.4354
       164.0004        167.0004
  -1861162.53449  -1429951.08747  20659486.380    20659486.4854   20659490.4284
       209.0004        210.0004
   2739849.67348   2123002.14347  23118578.858    23118579.0104   23118587.9544
       191.0004        191.0004
   2002629.41948   1555930.03347  22104960.078    22104960.2654   22104967.8104
       193.0004        194.0004
   -667739.61547   -508415.97545  23560479.482    23560479.7704   23560485.3284
       150.0004        153.0004
    711774.58048    556933.00146  22003597.827    22003597.2434   22003602.6544
       183.0004        182.0004
 21  2  1  1 10  0.0000000  0 11G01G30G17G04G14G19G07G08G09G28G21
  -1630805.07149  -1253952.86547  20992691.613    20992692.9544   20992700.9544
       196.0004        197.0004
  -2969190.60548  -2011570.50947  22086236.773    22086236.3684   22086243.2624
       188.0004        189.0004
  -2453010.82848  -1900839.72446  22542460.325    22542460.1764   22542465.8674
       178.0004        179.0004
   2866438.31147   2225512.19645  23965514.142    23965514.2554   23965521.1324
       149.0004        152.0004
  -1022856.02348   -782853.05946  23144801.047    23144800.2854   23144804.2524
       167.0004        169.0004
   -779826.91054   -583566.979 3                                  24876135.847
        74.0004         92.000
  -1908640.39549  -1466946.84247  20650451.519    20650451.9894   20650455.7774
       209.0004        210.0004
   2834375.43548   2196658.56447  23136565.689    23136566.4164   23136576.6874
       191.0004        193.0004
   2075224.77348   1612497.83447  22118773.562    22118774.6394   22118781.8624
       192.0004        193.0004
   -683381.00847   -520604.06845  23557504.277    23557503.6264   23557508.9574
       149.0004        151.0004
    748161.20548    585286.20946  22010522.977    22010522.3754   22010526.9974
       183.0004        183.0004
 21  2  1  1 10 30.0000000  0 11G01G30G17G04G14G19G07G08G09G28G21
  -1667626.14849  -1282644.59447  20985685.791    20985686.6474   20985694.0104
       196.0004        197.0004
  -3051622.58148  -2075803.20347  22070550.079    22070550.0284   22070556.9274
       188.0004        189.0004
  -2515562.15048  -1949580.98746  22530556.151    22530556.7624   22530562.4154
       179.0004        180.0004
   2963953.10047   2301497.72345  23984071.674    23984070.9544   23984078.6884
       149.0004        152.0004
  -1049651.30848   -803732.45846  23139699.688    23139699.6854   23139703.7114
       165.0004        164.0004
   -873389.73544   -656472.92945  24858324.714
        74.0004        144.0004
  -1955730.93149  -1503640.76147  20641490.285    20641490.5274   20641494.8514
       209.0004        210.0004
   2928927.96748   2270335.87447  23154558.229    23154559.1624   23154568.8654
       192.0004        192.0004
   2148028.41948   1669227.94547  22132628.861    22132629.3624   22132635.4994
       192.0004        191.0004
   -699069.16847   -532828.54945  23554519.769    23554519.5074   23554523.5774
       149.0004        151.0004
    785034.87348    614018.96346  22017540.022    22017538.9044   22017543.4544
       183.0004        184.0004
 21  2  1  1 11  0.0000000  0 11G01G30G17G04G14G19G07G08G09G28G21
  -1703949.03549  -1310948.14347  20978774.714    20978774.8224   20978781.8604
       197.0004        198.0004
  -3133888.58648  -2139906.57247  22054894.315    22054894.1474   22054901.8744
       187.0004        188.0004
  -2577715.61148  -1998012.24346  22518730.918    22518730.2914   22518734.6184
       180.0004        180.0004
   3061403.40747   2377432.97145  24002615.426    24002615.7004   24002621.8894
       148.0004        150.0004
  -1076488.49947   -824644.59046  23134591.945    23134592.5814   23134597.6484
       164.0004        166.0004
   -965214.95546   -728024.91645  24840851.149                    24840856.0714
       130.0004        150.0004
  -2002430.06549  -1540029.71047  20632603.703    20632604.1994   20632608.2694
       209.0004        210.0004
   3023505.84748   2344032.89447  23172556.626    23172557.4414   23172566.0134
       192.0004        192.0004
   2221038.36648   1726118.79747  22146522.150    22146522.4904   22146529.3854
       191.0004        192.0004
   -714804.52747   -545089.87245  23551524.522    23551524.0934   23551527.8664
       148.0004        150.0004
    822396.20448    643131.69846  22024648.573    22024648.6464   22024653.5554
       183.0004        183.0004
 21  2  1  1 11 30.0000000  0 11G01G30G17G04G14G19G07G08G09G28G21
  -1739771.72749  -1338861.90147  20971956.935    20971957.6434   20971965.1434
       198.0004        197.0004
  -3215986.37148  -2203878.85747  22039273.157    22039272.9334   22039279.4724
       187.0004        188.0004
  -2639470.69848  -2046133.04946  22506978.161    22506978.1874   22506983.3214
       180.0004        181.0004
   3158786.29547   2453315.73245  24021144.824    24021145.4834   24021152.5514
       146.0004        149.0004
  -1103368.96048   -845590.36446  23129476.499    23129477.7914   23129482.3944
       165.0004        168.0004
  -1056836.76847   -799418.35245  24823416.278    24823414.8354   24823420.1784
       145.0004        151.0004
  -2048735.88549  -1576112.15647  20623792.387    20623792.5884   20623796.7224
       210.0004        210.0004
   3118106.12448   2417747.39647  23190559.610    23190559.7694   23190567.7454
       190.0004        190.0004
   2294251.13748   1783167.72447  22160453.806    22160454.2794   22160460.6324
       191.0004        192.0004
   -730588.54947   -557389.08045  23548520.318    23548521.1324   23548525.2694
       147.0004        151.0004
    860244.02048    672623.52846  22031851.032    22031850.8934   22031855.3184
       183.0004        183.0004
 21  2  1  1 12  0.0000000  0 11G01G30G17G04G14G19G07G08G09G28G21
  -1775092.24949  -1366384.36947  20965234.025    20965235.7294   20965243.6274
       197.0004        198.0004
  -3297913.78748  -2267718.39846  22023682.551    22023682.5124   22023688.2364
       187.0004        187.0004
  -2700827.23348  -2093943.31546  22495302.016    22495302.3524   22495306.4524
       180.0004        180.0004
   3256098.86447   2529143.68345  24039663.719    24039665.2544   24039671.7614
       144.0004        148.0004
  -1130293.86448   -866570.78546  23124353.195    23124353.3234   23124359.3514
       165.0004        165.0004
  -1148254.47447   -870652.76145  24806018.526    24806017.8614   24806025.4424
       149.0004        152.0004
  -2094646.15749  -1611886.40147  20615055.373    20615055.9384   20615060.2024
       209.0004        210.0004
   3212726.74448   2491477.73147  23208564.979    23208565.1554   23208574.0044
       190.0004        191.0004
   2367663.30548   1840372.00847  22174423.851    22174424.3854   22174431.3214
       192.0004        193.0004
   -746422.75147   -569727.37045  23545507.601    23545507.0604   23545513.2544
       148.0004        151.0004
    898577.05248    702493.43646  22039144.605    22039144.8584   22039149.7134
       183.0004        183.0004
 21  2  1  1 12 30.0000000  0 11G01G30G17G04G14G19G07G08G09G28G21
  -1809908.56449  -1393513.93847  20958609.371    20958610.3844   20958618.4234
       198.0004        198.0004
  -3379668.49048  -2331423.35346  22008123.564    22008124.1174   22008131.4264
       187.0004        187.0004
  -2761784.50548  -2141442.44746  22483701.934    22483703.2504   22483708.7064
       180.0004        183.0004
   3353338.29447   2604914.63945  24058170.710    24058169.1664   24058174.3534
       143.0004        146.0004
  -1157264.30647   -887586.69546  23119220.360    23119220.8714   23119227.6674
       162.0004        163.0004
  -1239466.40647   -941726.85345  24788662.263    24788661.2064   24788667.0534
       147.0004        149.0004
  -2140158.74849  -1647350.75547  20606395.184    20606395.4864   20606399.3344
       210.0004        210.0004
   3307364.09748   2565221.11847  23226574.959    23226574.1634   23226582.5314
       190.0004        189.0004
   2441271.56048   1897729.08747  22188431.471    22188431.9224   22188437.9574
       192.0004        191.0004
   -762309.16247   -582106.37045  23542484.508    23542484.4084   23542488.7984
       150.0004        154.0004
    937394.34948    732740.70246  22046531.409    22046531.9514   22046536.3424
       183.0004        183.0004
 21  2  1  1 13  0.0000000  0 11G01G30G17G04G14G19G07G08G09G28G21
  -1844217.18349  -1420247.92547  20952081.773    20952082.1794   20952089.7034
       198.0004        199.0004
  -3461246.70148  -2394990.79947  21992600.667    21992600.7904   21992608.0314
       187.0004        189.0004
  -2822340.92348  -2188629.26346  22472178.670    22472179.5154   22472184.1254
       181.0004        181.0004
   3450503.30947   2680627.55845  24076659.533    24076658.4974   24076663.8264
       143.0004        147.0004
  -1184279.87847   -908637.80445  23114080.912    23114080.3344   23114086.8704
       161.0004        162.0004
  -1330469.88747  -1012638.53145  24771343.807    24771343.4944   24771347.6194
       145.0004        148.0004
  -2185269.72949  -1682502.19047  20597809.884    20597810.6914   20597814.9804
       210.0004        210.0004
   3402017.58148   2638977.05247  23244587.171    23244586.4864   23244594.0574
       189.0004        189.0004
   2515074.01048   1955237.47147  22202474.413    22202475.1284   22202482.5804
       190.0004        190.0004
   -778247.92847   -594526.18345  23539450.635    23539450.9694   23539456.0744
       150.0004        153.0004
    976696.32648    763365.61846  22054010.780    22054010.4924   22054015.7494
       182.0004        182.0004
 21  2  1  1 13 30.0000000  0 11G01G30G17G04G14G19G07G08G09G28G21
  -1878015.06449  -1446583.92147  20945650.463    20945650.5714   20945658.2434
       198.0004        199.0004
  -3542645.11948  -2458418.12847  21977111.620    21977111.2384   21977117.8434
       189.0004        190.0004
  -2882495.22348  -2235502.70946  22460731.233    22460732.2734   22460736.7964
       181.0004        183.0004
   3547592.01247   2756281.05045  24095133.290    24095133.9984   24095140.4284
       144.0004        148.0004
  -1211340.73747   -929724.16146  23108928.748    23108930.3554   23108935.8704
       161.0004        163.0004
  -1421262.68247  -1083386.00445  24754065.945    24754065.1374   24754071.9454
       143.0004        147.0004
  -2229975.95749  -1717338.21747  20589303.038    20589303.6074   20589307.6654
       210.0004        210.0004
   3496685.71448   2712744.40147  23262601.974    23262601.1224   23262608.4654
       189.0004        189.0004
   2589068.35148   2012895.40747  22216555.843    22216556.3144   22216563.2594
       190.0004        190.0004
   -794239.48947   -606987.14245  23536409.018    23536408.4374   23536412.4864
       152.0004        155.0004
   1016483.06148    794368.27746  22061582.932    22061581.9874   22061587.2354
       182.0004        182.0004
 21  2  1  1 14  0.0000000  0 11G01G30G17G04G14G19G07G08G09G28G21
  -1911299.78749  -1472520.06647  20939315.806    20939316.7714   20939324.6514
       199.0004        199.0004
  -3623860.94648  -2521703.19947  21961657.078    21961657.0494   21961662.9094
       189.0004        190.0004
  -2942246.13548  -2282061.84746  22449362.499    22449362.2624   22449366.4524
       182.0004        181.0004
   3644602.02747   2831873.21345  24113594.226    24113594.3024   24113600.7474
       145.0004        150.0004
  -1238447.47747   -950846.30046  23103771.544    23103771.6314   23103778.0714
       163.0004        166.0004
  -1511842.73147  -1153967.76145  24736830.053    24736829.3644   24736834.8654
       142.0004        146.0004
  -2274274.81549  -1751856.82347  20580873.357    20580873.8004   20580877.9284
       210.0004        211.0004
   3591365.99448   2786521.22846  23280616.394    23280616.6684   23280626.7764
       188.0004        187.0004
   2663251.63848   2070700.55947  22230671.673    22230672.0724   22230679.6034
       189.0004        189.0004
   -810284.76647   -619489.95245  23533356.529    23533355.7904   23533359.6904
       151.0004        152.0004
   1056753.95648    825748.20446  22069244.668    22069245.2034   22069250.3114
       181.0004        181.0004
 21  2  1  1 14 30.0000000  0 11G01G30G17G04G14G19G07G08G09G28G21
  -1944068.84849  -1498054.35247  20933080.219    20933081.1834   20933088.5634
       199.0004        200.0004
  -3704891.27048  -2584843.67447  21946237.398    21946237.5094   21946243.5954
       190.0004        191.0004
  -3001592.89248  -2328306.01846  22438068.224    22438068.4034   22438073.4234
       181.0004        181.0004
   3741531.25347   2907402.47245  24132039.963    24132040.0474   24132046.3254
       146.0004        149.0004
  -1265600.61248   -972004.53846  23098605.857    23098606.0624   23098610.7394
       166.0004        168.0004
  -1602208.41547  -1224382.43945  24719632.862    24719634.0384   24719638.2764
       143.0004        147.0004
  -2318163.32149  -1786055.62747  20572521.332    20572522.1344   20572526.0894
       210.0004        210.0004
   3686056.36148   2860305.96146  23298636.097    23298635.5664   23298645.4094
       187.0004        187.0004
   2737621.19348   2128650.87947  22244825.091    22244825.2904   22244832.1224
       190.0004        191.0004
   -826384.92947   -632035.47045  23530290.977    23530291.0964   23530295.3774
       148.0004        151.0004
   1097508.31448    857504.89646  22077000.902    22077000.9414   22077004.9164
       181.0004        182.0004
 21  2  1  1 15  0.0000000  0 11G01G30G17G04G14G19G07G08G09G28G21
  -1976319.94749  -1523185.09047  20926943.185    20926943.8234   20926951.4054
       199.0004        200.0004
  -3785733.44348  -2647837.59747  21930854.260    21930854.1684   21930860.3084
       191.0004        193.0004
  -3060534.44048  -2374234.49346  22426851.923    22426852.3424   22426857.0114
       181.0004        182.0004
   3838377.18247   2982866.74945  24150468.890    24150467.7434   24150475.4374
       147.0004        150.0004
  -1292800.91748   -993199.58346  23093429.910    23093430.1394   23093434.9394
       166.0004        167.0004
  -1692357.92947  -1294628.71745  24702478.557    24702477.3484   24702482.6664
       143.0004        146.0004
  -2361639.05049  -1819932.84847  20564248.467    20564248.8054   20564252.9314
       210.0004        211.0004
   3780754.39948   2934096.60846  23316654.297    23316655.8214   23316665.5604
       187.0004        187.0004
   2812173.97248   2186743.93347  22259011.430    22259011.8364   22259018.5304
       190.0004        189.0004
   -842541.09647   -644624.71845  23527216.452    23527216.6804   23527219.6374
       147.0004        149.0004
   1138745.25248    889637.56746  22084848.246    22084847.5194   22084852.4264
       181.0004        182.0004
 21  2  1  1 15 30.0000000  0 11G01G30G17G04G14G19G07G08G09G28G21
  -2008051.65449  -1547911.09347  20920904.745    20920905.6254   20920913.3034
       199.0004        200.0004
  -3866385.64248  -2710683.46247  21915506.195    21915505.7354   21915512.6584
       192.0004        192.0004
  -3119071.03448  -2419847.40946  22415713.503    22415713.9564   22415717.5034
       182.0004        184.0004
   3935136.63147   3058263.67245  24168881.473    24168881.0724   24168888.2074
       146.0004        149.0004
  -1320049.92847  -1014432.54046  23088243.235    23088244.5884   23088248.9904
       164.0004        165.0004
  -1782290.65447  -1364706.07345  24685367.293    24685366.8074   24685367.9184
       145.0004        149.0004
  -2404700.50949  -1853487.23347  20556054.119    20556054.6184   20556058.5714
       210.0004        210.0004
   3875457.66648   3007891.34646  23334675.959    23334677.2754   23334686.7664
       185.0004        184.0004
   2886906.13948   2244976.77946  22273231.977    22273232.4234   22273238.8674
       188.0004        186.0004
   -858755.40347   -657259.21745  23524132.579    23524132.2554   23524134.3374
       147.0004        151.0004
   1180463.30848    922145.15746  22092787.046    22092786.3044   22092790.4384
       181.0004        181.0004
 21  2  1  1 16  0.0000000  0 11G01G30G17G04G14G19G07G08G09G28G21
  -2039262.67149  -1572231.35547  20914966.069    20914966.4474   20914973.5934
       200.0004        200.0004
  -3946846.07548  -2773379.89947  21900193.869    21900195.0574   21900201.4054
       191.0004        192.0004
  -3177203.16248  -2465145.14246  22404651.425    22404651.7914   22404656.0814
       184.0004        185.0004
   4031806.29747   3133590.62645  24187276.900    24187277.7244   24187283.0704
       144.0004        148.0004
  -1347349.16748  -1035704.68146  23083049.243    23083049.8354   23083053.7344
       165.0004        167.0004
  -1872005.86347  -1434613.91645  24668294.293    24668293.5074   24668295.7934
       142.0004        145.0004
  -2447345.63049  -1886717.21147  20547939.564    20547939.8424   20547943.2144
       210.0004        211.0004
   3970162.41648   3081687.25146  23352699.837    23352700.3844   23352709.0254
       185.0004        186.0004
   2961813.77648   2303346.36046  22287485.873    22287486.4634   22287493.7464
       186.0004        186.0004
   -875029.96047   -669940.66145  23521033.035    23521033.3104   23521040.5034
       148.0004        151.0004
   1222660.74548    955026.28346  22100816.650    22100815.8364   22100820.6154
       181.0004        180.0004
 21  2  1  1 16 30.0000000  0 11G01G30G17G04G14G19G07G08G09G28G21
  -2069950.38749  -1596143.85147  20909126.076    20909126.8524   20909134.2544
       200.0004        200.0004
  -4027111.71548  -2835924.54647  21884920.763    21884921.1574   21884927.4074
       193.0004        194.0004
  -3234929.69648  -2510126.85446  22393665.634    22393666.2894   22393671.4744
       184.0004        184.0004
   4128383.99547   3208845.91645  24205655.100    24205654.8574   24205660.2224
       145.0004        150.0004
  -1374699.06848  -1057016.28346  23077844.901    23077845.5004   23077849.6314
       167.0004        168.0004
  -1961501.54747  -1504350.69745  24651263.280    24651261.4184   24651264.2164
       141.0004        145.0004
  -2489571.56849  -1919620.54247  20539904.018    20539904.1624   20539908.0594
       210.0004        210.0004
   4064866.83648   3155482.88746  23370724.852    23370723.1394   23370730.9614
       186.0004        187.0004
   3036894.30648   2361850.66146  22301774.212    22301774.0634   22301781.1914
       185.0004        186.0004
   -891365.47147   -682669.60045  23517926.532    23517925.8834   23517929.4694
       147.0004        150.0004
   1265337.03348    988280.53746  22108936.460    22108936.8774   22108941.5174
       180.0004        181.0004
 21  2  1  1 17  0.0000000  0 11G01G30G17G04G14G19G07G08G09G28G21
  -2100112.36349  -1619646.68647  20903386.308    20903387.2194   20903394.4574
       200.0004        200.0004
  -4107179.61648  -2898315.11447  21869684.198    21869684.4454   21869691.3184
       194.0004        195.0004
  -3292249.80848  -2554791.87346  22382759.071    22382758.7444   22382763.0264
       183.0004        183.0004
   4224867.69647   3284027.97945  24224014.253    24224015.7424   24224021.4754
       148.0004        151.0004
  -1402100.08148  -1078367.68546  23072629.277    23072629.8244   23072636.0544
       166.0004        167.0004
  -2050775.80147  -1573914.91745  24634271.828    24634272.6414   24634277.9764
       139.0004        143.0004
  -2531375.76049  -1952195.24147  20531948.367    20531948.9784   20531953.4424
       210.0004        211.0004
   4159569.00848   3229276.73946  23388746.577    23388745.5214   23388750.9754
       187.0004        187.0004
   3112144.98648   2420487.54746  22316093.299    22316093.8194   22316101.5104
       185.0004        187.0004
   -907762.92947   -695446.83845  23514805.727    23514806.6554   23514809.3474
       147.0004        151.0004
   1308491.56948   1021907.46346  22117149.574    22117149.1854   22117153.7474
       180.0004        180.0004
 21  2  1  1 17 30.0000000  0 11G01G30G17G04G14G19G07G08G09G28G21
  -2129747.15849  -1642738.71647  20897747.039    20897747.0494   20897755.2854
       200.0004        200.0004
  -4187047.86748  -2960550.09447  21854485.217    21854485.7334   21854492.8194
       194.0004        194.0004
  -3349163.81648  -2599140.43246  22371928.229    22371928.2514   22371931.6984
       182.0004        182.0004
   4321254.18047   3359134.28445  24242356.571    24242356.7444   24242363.3454
       148.0004        151.0004
  -1429553.59048  -1099760.02246  23067407.189    23067406.7394   23067411.1504
       166.0004        168.0004
  -2139827.96247  -1643306.17845  24617327.787    24617326.3224   24617330.2694
       138.0004        143.0004
  -2572756.28449  -1984439.80647  20524074.368    20524074.8184   20524078.5794
       210.0004        211.0004
   4254266.23948   3303066.78146  23406764.725    23406764.7704   23406770.9084
       186.0004        186.0004
   3187562.02748   2479254.07946  22330444.852    22330444.6774   22330451.9474
       185.0004        186.0004
   -924224.27947   -708273.84545  23511674.464    23511674.2584   23511678.4824
       151.0004        154.0004
   1352122.55548   1055905.64946  22125452.126    22125452.3354   22125457.8424
       180.0004        181.0004
 21  2  1  1 18  0.0000000  0 11G01G30G17G04G14G19G07G08G09G28G21
  -2158851.53949  -1665417.44047  20892208.534    20892209.3614   20892217.3414
       200.0004        201.0004
  -4266712.60948  -3022626.50847  21839326.648    21839326.4554   21839332.6444
       194.0004        195.0004
  -3405669.31348  -2643170.63846  22361175.562    22361175.8394   22361179.8994
       181.0004        181.0004
   4417542.26947   3434163.93945  24260678.717    24260680.4024   24260686.6434
       147.0004        150.0004
  -1457059.22048  -1121192.95646  23062171.415    23062171.7984   23062176.9624
       165.0004        166.0004
  -2228655.25647  -1712522.16645  24600424.804    24600424.1194   24600427.1144
       138.0004        143.0004
  -2613709.53349  -2016351.42047  20516281.052    20516281.5414   20516285.2974
       210.0004        211.0004
   4348957.10848   3376851.86746  23424783.717    23424783.4904   23424791.5094
       186.0004        187.0004
   3263143.57148   2538148.79346  22344827.397    22344827.9294   22344834.2574
       185.0004        185.0004
   -940749.44547   -721150.59645  23508527.283    23508527.5314   23508531.9444
       148.0004        150.0004
   1396230.47248   1090275.47546  22133846.673    22133844.6834   22133849.6714
       180.0004        180.0004
 21  2  1  1 18 30.0000000  0 11G01G30G17G04G14G19G07G08G09G28G21
  -2187423.00149  -1687680.89647  20886771.563    20886771.9334   20886780.2514
       200.0004        200.0004
  -4346170.74849  -3084541.92847  21824205.430    21824205.4824   21824212.3954
       195.0004        195.0004
  -3461766.09948  -2686882.38746  22350499.775    22350500.4664   22350504.9994
       180.0004        181.0004
   4513730.02847   3509115.39445  24278983.548    24278983.3314   24278991.0744
       146.0004        149.0004
  -1484617.17448  -1142666.66246  23056927.629    23056928.7284   23056932.9134
       165.0004        166.0004
  -2317255.72547  -1781561.38145  24583562.415    24583562.0084   24583568.9904
       139.0004        144.0004
  -2654232.66749  -2047927.88547  20508569.651    20508570.2484   20508574.6524
       211.0004        212.0004
   4443639.84248   3450630.59346  23442801.604    23442801.6474   23442808.0934
       185.0004        184.0004
   3338887.02148   2597169.66846  22359241.111    22359241.5874   22359248.0534
       185.0004        185.0004
   -957339.34547   -734077.77645  23505370.736    23505370.9324   23505375.6664
       147.0004        150.0004
   1440814.68148   1125016.44346  22142330.016    22142329.4114   22142333.7694
       180.0004        180.0004
 21  2  1  1 19  0.0000000  0 11G01G30G17G04G14G19G07G08G09G28G21
  -2215459.17249  -1709527.27347  20881436.346    20881437.1874   20881444.7684
       200.0004        199.0004
  -4425419.49649  -3146294.20947  21809124.638    21809125.3484   21809132.2194
       195.0004        195.0004
  -3517453.35748  -2730275.05246  22339903.577    22339904.0064   22339907.9614
       181.0004        182.0004
   4609815.19247   3583986.87545  24297266.334    24297267.7894   24297274.8044
       145.0004        149.0004
  -1512227.90448  -1164181.51546  23051672.794    23051673.9394   23051679.7404
       167.0004        168.0004
  -2405627.95547  -1850422.76545  24566746.948    24566745.7984   24566750.7634
       141.0004        146.0004
  -2694323.25149  -2079167.32047  20500940.643    20500941.3174   20500945.3304
       211.0004        212.0004
   4538312.35448   3524401.37546  23460814.977    23460815.7734   23460823.9274
       184.0004        184.0004
   3414789.65348   2656314.56346  22373685.517    22373685.9224   22373692.3344
       185.0004        186.0004
   -973995.53447   -747056.62045  23502202.814    23502203.0674   23502207.2224
       149.0004        152.0004
   1485874.23848   1160127.77646  22150903.454    22150903.7334   22150908.6114
       180.0004        181.0004
 21  2  1  1 19 30.0000000  0 11G01G30G17G04G14G19G07G08G09G28G21
  -2242958.44049  -1730955.26447  20876204.066    20876204.2354   20876211.5874
       199.0004        199.0004
  -4504456.35249  -3207881.37347  21794085.599    21794085.1404   21794091.5294
       195.0004        195.0004
  -3572730.64248  -2773348.26846  22329384.154    22329384.9484   22329388.8524
       181.0004        180.0004
   4705795.13347   3658776.36545  24315530.829    24315532.4464   24315539.3264
       145.0004        148.0004
  -1539892.47248  -1185738.31346  23046407.547    23046409.3484   23046415.5304
       168.0004        169.0004
  -2493770.07847  -1919104.86445  24549974.997    24549974.7534   24549978.8524
       144.0004        148.0004
  -2733978.75249  -2110067.71147  20493394.869    20493395.1434   20493399.2084
       211.0004        212.0004
   4632972.21648   3598162.28546  23478827.918    23478827.7004   23478837.2874
       182.0004        182.0004
   3490848.03348   2715580.83146  22388158.348    22388158.8164   22388165.2744
       184.0004        184.0004
   -990718.34547   -760087.36345  23499019.831    23499019.1164   23499024.0654
       149.0004        151.0004
   1531407.68648   1195608.38246  22159569.622    22159568.3404   22159574.1244
       179.0004        179.0004
 21  2  1  1 20  0.0000000  0 11G01G30G17G04G14G19G07G08G09G28G21
  -2269919.90549  -1751964.19147  20871071.901    20871072.9764   20871081.1244
       199.0004        198.0004
  -4583279.91649  -3269302.32147  21779085.771    21779085.6724   21779092.2294
       195.0004        196.0004
  -3627598.56148  -2816102.45846  22318942.458    22318943.6654   22318948.8994
       181.0004        183.0004
   4801666.20547   3733481.02545  24333775.953    24333776.9144   24333782.9574
       145.0004        149.0004
  -1567612.70448  -1207338.48646  23041134.601    23041135.3444   23041139.2774
       167.0004        167.0004
  -2581681.94547  -1987607.56545  24533246.345    24533245.4794   24533250.5434
       146.0004        151.0004
  -2773198.26549  -2140628.36947  20485930.637    20485931.5594   20485935.7784
       211.0004        211.0004
   4727616.32048   3671910.93546  23496838.349    23496838.7894   23496847.2064
       183.0004        185.0004
   3567057.98848   2774965.19346  22402660.584    22402660.8114   22402668.2014
       184.0004        184.0004
  -1007510.43547   -773172.10345  23495823.604    23495823.5844   23495827.2984
       148.0004        151.0004
   1577413.13848   1231456.81046  22168323.566    22168323.1994   22168327.3284
       180.0004        180.0004
 21  2  1  1 20 30.0000000  0 11G01G30G17G04G14G19G07G08G09G28G21
  -2296341.37649  -1772552.37647  20866044.829    20866045.9234   20866053.3124
       199.0004        199.0004
  -4661887.26849  -3330554.83047  21764126.507    21764127.0104   21764133.0074
       195.0004        195.0004
  -3682056.43348  -2858537.17446  22308581.918    22308581.6824   22308585.1464
       183.0004        184.0004
   4897426.33647   3808099.23045  24351997.866    24351999.7464   24352006.0114
       145.0004        149.0004
  -1595389.14248  -1228982.46946  23035848.112    23035848.4014   23035855.1334
       167.0004        169.0004
  -2669362.12247  -2055929.70845  24516561.956    24516560.2174   24516564.9874
       150.0004        154.0004
  -2811979.19449  -2170847.30747  20478552.180    20478552.1454   20478556.1574
       211.0004        212.0004
   4822242.48548   3745645.58846  23514845.803    23514845.6494   23514853.9874
       184.0004        184.0004
   3643416.70048   2834465.45546  22417190.476    22417191.8434   22417198.2264
       184.0004        184.0004
  -1024372.94347   -786311.72845  23492614.149    23492614.5874   23492620.4604
       151.0004        156.0004
   1623890.02948   1267672.54046  22177167.195    22177167.4644   22177171.6334
       179.0004        179.0004
 21  2  1  1 21  0.0000000  0 11G01G30G17G04G14G19G07G08G09G28G21
  -2322220.29749  -1792717.73747  20861119.502    20861120.6024   20861128.6914
       199.0004        199.0004
  -4740275.16349  -3391636.28947  21749210.524    21749210.5484   21749216.9154
       195.0004        196.0004
  -3736103.45948  -2900651.70546  22298295.295    22298296.6964   22298300.4784
       183.0004        183.0004
   4993073.73147   3882629.60345  24370199.162    24370200.0874   24370207.4004
       144.0004        147.0004
  -1623221.78248  -1250670.20046  23030550.846    23030552.4854   23030558.2364
       168.0004        168.0004
  -2756808.32547  -2124069.53345  24499920.155    24499919.3054   24499924.3614
       150.0004        152.0004
  -2850318.57549  -2200722.13447  20471256.010    20471256.4744   20471260.4664
       211.0004        212.0004
   4916849.05548   3819364.97046  23532849.310    23532849.3264   23532858.0914
       185.0004        186.0004
   3719921.78048   2894079.81946  22431750.824    22431750.9624   22431757.4214
       184.0004        185.0004
  -1041306.48847   -799506.69245  23489394.147    23489394.0124   23489397.8984
       156.0004        159.0004
   1670837.62748   1304255.11446  22186101.495    22186101.1414   22186106.4084
       179.0004        180.0004
 21  2  1  1 21 30.0000000  0 11G01G30G17G04G14G19G07G08G09G28G21
  -2347555.36849  -1812459.33847  20856298.984    20856299.7054   20856307.4644
       199.0004        199.0004
  -4818441.60149  -3452545.20547  21734335.801    21734336.0014   21734342.1804
       196.0004        197.0004
  -3789739.94348  -2942446.34446  22288088.428    22288089.0074   22288093.2664
       182.0004        182.0004
   5088605.40647   3957069.83245  24388378.737    24388379.4144   24388386.1974
       143.0004        146.0004
  -1651111.94348  -1272402.80646  23025245.794    23025246.0264   23025249.6604
       167.0004        168.0004
  -2844019.82147  -2192026.47645  24483323.621    24483323.5584   24483328.0484
       150.0004        153.0004
  -2888214.54449  -2230251.48047  20464044.362    20464044.9174   20464048.7884
       211.0004        211.0004
   5011433.19648   3893066.90346  23550848.257    23550848.9164   23550856.5734
       185.0004        186.0004
   3796569.49948   2953805.32646  22446334.939    22446335.3704   22446342.7234
       184.0004        184.0004
  -1058313.09447   -812758.55145  23486158.238    23486156.9914   23486160.6534
       156.0004        158.0004
   1718253.91048   1341202.88046  22195125.324    22195124.4114   22195129.1594
       179.0004        179.0004
 21  2  1  1 22  0.0000000  0 11G01G30G17G04G14G19G07G08G09G28G21
  -2372344.80249  -1831775.76547  20851581.247    20851582.1414   20851590.1964
       199.0004        199.0004
  -4896384.00949  -3513279.54647  21719503.662    21719504.0904   21719510.4914
       197.0004        197.0004
  -3842965.42548  -2983920.73446  22277959.829    22277961.1334   22277964.5094
       182.0004        183.0004
   5184018.83547   4031417.87745  24406534.053    24406536.1214   24406543.5444
       140.0004        143.0004
  -1679060.41048  -1294180.82746  23019927.015    23019927.3704   23019932.2124
       168.0004        170.0004
  -2930995.59047  -2259799.74645  24466772.883    24466772.1894   24466776.8744
       150.0004        153.0004
  -2925664.69449  -2259433.42747  20456917.770    20456918.2924   20456922.5074
       211.0004        212.0004
   5105992.84548   3966749.72446  23568844.302    23568843.5374   23568850.7904
       186.0004        186.0004
   3873356.78648   3013639.56246  22460948.046    22460947.6184   22460954.8024
       184.0004        184.0004
  -1075393.50747   -826067.95845  23482906.539    23482907.1944   23482910.4404
       155.0004        157.0004
   1766137.95448   1378515.12846  22204237.190    22204236.1454   22204241.8934
       179.0004        180.0004
 21  2  1  1 22 30.0000000  0 11G01G30G17G04G14G19G07G08G09G28G21
  -2396586.43349  -1850665.34547  20846969.033    20846969.6964   20846977.3664
       199.0004        199.0004
  -4974099.46449  -3573837.03947  21704715.153    21704715.4244   21704721.6894
       197.0004        197.0004
  -3895779.37648  -3025074.44346  22267911.171    22267910.9504   22267915.4694
       184.0004        186.0004
   5279312.04447   4105672.25445  24424671.186    24424670.8084   24424676.5864
       137.0004        142.0004
  -1707067.57648  -1316004.54846  23014596.372    23014597.5684   23014601.7514
       168.0004        167.0004
  -3017733.48047  -2327387.65145  24450267.192    24450266.1964   24450270.9074
       150.0004        153.0004
  -2962666.69949  -2288266.16847  20449876.930    20449876.9384   20449881.2754
       211.0004        212.0004
   5200525.81248   4040411.76646  23586833.075    23586832.5024   23586838.8144
       185.0004        185.0004
   3950280.87548   3073580.40446  22475586.255    22475586.8294   22475592.9724
       183.0004        184.0004
  -1092548.80947   -839435.69245  23479643.249    23479642.5414   23479646.5794
       156.0004        158.0004
   1814488.45548   1416190.84946  22213438.185    22213436.8514   22213441.5214
       179.0004        179.0004
 21  2  1  1 23  0.0000000  0 11G01G30G17G04G14G19G07G08G09G28G21
  -2420277.41349  -1869125.85247  20842459.861    20842461.1084   20842469.2134
       199.0004        199.0004
  -5051584.26449  -3634214.80447  21689970.874    21689970.2974   21689976.8874
       197.0004        198.0004
  -3948180.42348  -3065906.39446  22257938.770    22257938.7004   22257943.5714
       185.0004        186.0004
   5374483.66047   4179831.85245  24442779.479    24442781.6944   24442787.4294
       137.0004        141.0004
  -1735133.03748  -1337873.73646  23009257.529    23009257.7574   23009261.0924
       166.0004        167.0004
  -3104231.29747  -2394788.50145  24433806.759    24433806.4094   24433810.4814
       149.0004        152.0004
  -2999217.26449  -2316747.13747  20442921.585    20442921.8284   20442925.7654
       211.0004        212.0004
   5295031.00748   4114052.13546  23604815.453    23604814.8554   23604822.9714
       183.0004        182.0004
   4027339.71948   3133626.26246  22490249.234    22490249.8874   22490256.5204
       183.0004        183.0004
  -1109779.16947   -852861.93945  23476365.144    23476363.9964   23476366.3494
       155.0004        155.0004
   1863305.50948   1454230.11746  22222726.254    22222726.4794   22222731.7264
       178.0004        179.0004
 21  2  1  1 23 30.0000000  0 11G01G30G17G04G14G19G07G08G09G28G21
  -2443415.92049  -1887155.84447  20838057.435    20838058.0344   20838065.5624
       198.0004        199.0004
  -5128835.77749  -3694410.77247  21675269.263    21675269.4334   21675276.7234
       197.0004        197.0004
  -4000168.14948  -3106416.29146  22248045.451    22248046.0584   22248050.9044
       186.0004        186.0004
   5469531.38047   4253894.93645  24460866.705    24460867.3044   24460874.2534
       137.0004        143.0004
  -1763257.44848  -1359788.85646  23003905.309    23003904.7564   23003909.0934
       165.0004        166.0004
  -3190487.76747  -2462001.21545  24417392.882    24417392.4804   24417397.2884
       148.0004        150.0004
  -3035314.00649  -2344874.46547  20436053.006    20436053.0664   20436056.7394
       211.0004        212.0004
   5389506.58648   4187669.46046  23622793.310    23622792.6934   23622801.1064
       182.0004        182.0004
   4104530.30848   3193774.76946  22504936.265    22504938.2874   22504944.9344
       180.0004        181.0004
  -1127085.90447   -866347.66545  23473070.342    23473069.4424   23473074.3494
       151.0004        152.0004
   1912588.06548   1492632.12446  22232105.093    22232104.3374   22232109.9924
       178.0004        179.0004
 21  2  1  1 24  0.0000000  0 11G01G30G17G04G14G19G07G08G09G28G21
  -2465999.95549  -1904753.78947  20833759.204    20833760.1724   20833767.8894
       198.0004        198.0004
  -5205851.09749  -3754422.71947  21660613.694    21660614.2924   21660620.3594
       197.0004        197.0004
  -4051742.19548  -3146603.85446  22238230.594    22238231.2804   22238237.1154
       185.0004        186.0004
   5564452.99547   4327859.79745  24478928.664    24478930.4214   24478938.8564
       138.0004        143.0004
  -1791441.26448  -1381750.27146  22998540.143    22998541.8634   22998545.9824
       166.0004        167.0004
  -3276500.96247  -2529024.44145  24401025.724    24401024.8424   24401029.2674
       149.0004        152.0004
  -3070954.23549  -2372646.09047  20429270.453    20429270.7634   20429275.0494
       212.0004        212.0004
   5483950.46348   4261262.07146  23640761.490    23640763.7914   23640773.1354
       181.0004        182.0004
   4181849.78248   3254023.70446  22519652.817    22519652.4384   22519658.9114
       181.0004        183.0004
  -1144469.67647   -879893.49445  23469757.970    23469759.7464   23469766.3104
       148.0004        150.0004
   1962335.01148   1531395.98046  22241571.691    22241571.3044   22241577.1504
       179.0004        179.0004
 21  2  1  1 24 30.0000000  0 11G01G30G17G04G14G19G07G08G09G28G21
  -2488026.52049  -1921917.33547  20829568.785    20829569.1494   20829576.6024
       198.0004        199.0004
  -5282626.48349  -3814247.69047  21646004.370    21646003.8314   21646011.1384
       196.0004        196.0004
  -4102901.05448  -3186467.89946  22228496.039    22228496.3794   22228500.5054
       185.0004        184.0004
   5659247.40547   4401725.48245  24496969.031    24496969.2134   24496977.4104
       138.0004        142.0004
  -1819683.96048  -1403757.54646  22993166.956    22993166.7984   22993172.5034
       167.0004        168.0004
  -3362268.54447  -2595856.33545  24384705.437    24384704.3824   24384707.0814
       148.0004        152.0004
  -3106134.81049  -2400059.52547  20422575.612    20422576.2904   20422580.2914
       212.0004        212.0004
   5578361.72248   4334829.29546  23658730.365    23658730.3934   23658738.9644
       180.0004        180.0004
   4259296.30148   3314371.63246  22534389.666    22534389.6364   22534397.6664
       182.0004        183.0004
  -1161930.51447   -893499.36745  23466437.002    23466438.5514   23466443.6554
       147.0004        152.0004
   2012545.86248   1570521.32546  22251126.431    22251125.5664   22251131.9884
       179.0004        179.0004
 21  2  1  1 25  0.0000000  0 11G01G30G17G04G14G19G07G08G09G28G21
  -2509496.83149  -1938647.42247  20825482.344    20825483.0754   20825490.9194
       198.0004        198.0004
  -5359162.04649  -3873885.76847  21631438.693    21631439.4174   21631446.8454
       196.0004        196.0004
  -4153647.04548  -3226010.19546  22218838.959    22218840.0154   22218843.9124
       185.0004        186.0004
   5753909.44347   4475488.06545  24514980.940    24514980.7764   24514990.3064
       139.0004        144.0004
  -1847988.93848  -1425813.35046  22987780.420    22987780.6904   22987785.2004
       167.0004        168.0004
  -3447791.77247  -2662497.74545  24368430.970    24368429.7094   24368432.4674
       149.0004        152.0004
  -3140856.11849  -2427115.09347  20415968.801    20415968.9904   20415972.7304
       212.0004        212.0004
   5672735.30048   4408367.13846  23676689.387    23676689.6894   23676697.3234
       179.0004        180.0004
   4336864.02048   3374814.01046  22549150.872    22549151.1804   22549157.1454
       183.0004        183.0004
  -1179472.46247   -907168.36945  23463103.132    23463102.1284   23463105.0714
       151.0004        156.0004
   2063217.24648   1610005.54846  22260768.143    22260767.9114   22260774.0754
       178.0004        179.0004
 21  2  1  1 25 30.0000000  0 11G01G30G17G04G14G19G07G08G09G28G21
  -2530407.92949  -1954941.77847  20821502.669    20821503.7094   20821511.7564
       198.0004        198.0004
  -5435453.92549  -3933333.99747  21616922.619    21616922.1824   21616928.4414
       197.0004        197.0004
  -4203978.95648  -3265229.84846  22209262.333    22209262.3204   22209266.5814
       186.0004        187.0004
   5848438.10647   4549146.65945  24532971.127    24532970.7704   24532979.8344
       139.0004        144.0004
  -1876355.63048  -1447917.27546  22982383.331    22982383.7774   22982387.6414
       167.0004        169.0004
  -3533068.20647  -2728946.83945  24352203.344    24352202.2304   24352205.7734
       153.0004        156.0004
  -3175114.89949  -2453810.25748  20409448.903    20409449.7754   20409453.8354
       211.0004        213.0004
   5767070.13248   4481874.77946  23694642.451    23694641.0244   23694649.4844
       180.0004        180.0004
   4414551.09048   3435349.38846  22563933.740    22563933.6024   22563940.0004
       182.0004        182.0004
  -1197095.39447   -920900.52345  23459749.323    23459748.2104   23459750.8564
       153.0004        157.0004
   2114348.95848   1649848.43846  22270499.174    22270498.7374   22270504.1074
       178.0004        179.0004
 21  2  1  1 26  0.0000000  0 11G01G30G17G04G14G19G07G08G09G28G21
  -2550759.96749  -1970800.50447  20817630.821    20817631.0084   20817638.7874
       198.0004        198.0004
  -5511501.33149  -3992591.71547  21602450.395    21602450.7014   21602457.3244
       197.0004        197.0004
  -4253898.55048  -3304128.21846  22199762.266    22199762.4214   22199767.2674
       186.0004        187.0004
   5942829.17147   4622698.04045  24550933.201    24550933.6964   24550941.1544
       140.0004        145.0004
  -1904786.49948  -1470071.19946  22976972.563    22976973.1114   22976977.5224
       169.0004        171.0004
  -3618098.47447  -2795204.15245  24336020.557    24336020.2874   24336024.8384
       152.0004        155.0004
  -3208910.79049  -2480144.72448  20403018.732    20403018.7814   20403022.6404
       212.0004        213.0004
   5861362.29748   4555349.16746  23712583.150    23712583.8454   23712592.1914
       179.0004        179.0004
   4492352.66548   3495973.98146  22578737.996    22578738.9454   22578745.9634
       181.0004        182.0004
  -1214802.22147   -934698.05545  23456377.199    23456377.2804   23456382.3114
       153.0004        154.0004
   2165937.55948   1690047.35646  22280314.987    22280315.1584   22280320.1354
       178.0004        178.0004
 21  2  1  1 26 30.0000000  0 11G01G30G17G04G14G19G07G08G09G28G21
  -2570547.19549  -1986219.10547  20813865.001    20813865.6804   20813873.4414
       198.0004        198.0004
  -5587297.48149  -4051653.64347  21588027.438    21588027.4814   21588034.1484
       197.0004        197.0004
  -4303401.49148  -3342701.92346  22190341.757    22190342.8894   22190347.2784
       187.0004        187.0004
   6037084.48547   4696143.64245  24568868.938    24568869.8364   24568877.6784
       140.0004        144.0004
  -1933278.03148  -1492272.38646  22971550.487    22971551.2284   22971555.5974
       171.0004        171.0004
  -3702876.88247  -2861265.17045  24319888.067    24319888.2554   24319892.7274
       153.0004        156.0004
  -3242237.20249  -2506113.36048  20396676.265    20396676.7824   20396680.8844
       212.0004        213.0004
   5955614.34748   4628792.30746  23730517.547    23730518.2754   23730527.6884
       178.0004        178.0004
   4570269.83648   3556688.64446  22593565.541    22593566.0924   22593573.8514
       181.0004        182.0004
  -1232589.93747   -948558.60545  23452990.889    23452991.4144   23452996.0304
       150.0004        152.0004
   2217985.74248   1730604.39446  22290219.628    22290219.6184   22290225.3284
       177.0004        177.0004
 21  2  1  1 27  0.0000000  0 11G01G30G17G04G14G19G07G08G09G28G21
  -2589769.81049  -2001197.74547  20810206.546    20810207.6024   20810215.4004
       199.0004        199.0004
  -5662841.59949  -4110519.17447  21573651.635    21573651.6334   21573657.4954
       197.0004        197.0004
  -4352489.30148  -3380952.14446  22181000.575    22181001.5424   22181005.8084
       186.0004        186.0004
   6131199.89147   4769480.25645  24586778.431    24586779.6664   24586785.3734
       138.0004        142.0004
  -1961832.64648  -1514522.70046  22966117.138    22966117.4774   22966122.1964
       170.0004        170.0004
  -3787404.10347  -2927130.47445  24303804.438    24303803.2054   24303807.2304
       154.0004        157.0004
  -3275094.43749  -2531716.39948  20390424.501    20390424.6934   20390428.2294
       212.0004        213.0004
   6049821.68348   4702200.60346  23748443.982    23748444.7634   23748455.0284
       177.0004        177.0004
   4648297.73848   3617489.61946  22608413.797    22608414.2764   22608421.0974
       182.0004        183.0004
  -1250461.64147   -962484.58445  23449591.398    23449592.1964   23449594.6804
       149.0004        152.0004
   2270490.37648   1771517.11646  22300211.029    22300210.6494   22300216.8544
       177.0004        178.0004
 21  2  1  1 27 30.0000000  0 11G01G30G17G04G14G19G07G08G09G28G21
  -2608425.67349  -2015734.77547  20806656.245    20806657.5744   20806665.3264
       199.0004        199.0004
  -5738130.45849  -4169185.82347  21559324.282    21559324.3364   21559330.9204
       196.0004        197.0004
  -4401161.31148  -3418878.37546  22171739.557    22171739.2324   22171744.3484
       185.0004        185.0004
   6225173.63147   4842706.46145  24604661.062    24604661.6334   24604668.0374
       136.0004        141.0004
  -1990450.43848  -1536822.27046  22960671.343    22960671.7204   22960676.2144
       170.0004        171.0004
  -3871678.37547  -2992798.71745  24287766.354    24287765.6074   24287770.6274
       154.0004        156.0004
  -3307479.24849  -2556951.32148  20384261.047    20384261.7384   20384265.5754
       213.0004        214.0004
   6143983.35248   4775573.29846  23766363.635    23766364.2294   23766373.5924
       178.0004        179.0004
   4726433.81348   3678374.87746  22623282.909    22623283.5754   22623290.1214
       182.0004        183.0004
  -1268417.77847   -976476.37945  23446176.175    23446175.5244   23446178.8944
       152.0004        156.0004
   2323450.57748   1812784.81946  22310289.942    22310289.3384   22310294.1334
       177.0004        178.0004
 21  2  1  1 28  0.0000000  0 11G01G30G17G04G14G19G07G08G09G28G21
  -2626514.42449  -2029829.89647  20803214.939    20803215.8124   20803223.1614
       199.0004        199.0004
  -5813162.63149  -4227652.44747  21545046.415    21545046.4634   21545053.3334
       197.0004        198.0004
  -4449418.82348  -3456481.61646  22162555.759    22162555.8974   22162560.5714
       185.0004        185.0004
   6319002.34647   4915819.67045  24622516.090    24622516.2504   24622523.1164
       135.0004        140.0004
  -2019133.14748  -1559172.43946  22955213.809    22955213.9884   22955217.7324
       170.0004        171.0004
  -3955699.47447  -3058269.64445  24271777.218    24271777.1044   24271781.7074
       151.0004        152.0004
  -3339390.77049  -2581817.44548  20378188.429    20378188.8944   20378193.0744
       212.0004        213.0004
   6238095.46848   4848907.39346  23784271.816    23784273.1124   23784281.9024
       176.0004        177.0004
   4804673.92548   3739341.18746  22638171.799    22638171.5724   22638177.6094
       182.0004        182.0004
  -1286460.44147   -990535.58945  23442741.423    23442741.7314   23442746.4494
       154.0004        157.0004
   2376864.15448   1854405.79646  22320453.550    22320452.8554   22320458.8534
       176.0004        177.0004
 21  2  1  1 28 30.0000000  0 11G01G30G17G04G14G19G07G08G09G28G21
  -2644034.64249  -2043481.99047  20799880.291    20799880.9324   20799889.0644
       199.0004        198.0004
  -5887935.56649  -4285917.07047  21530817.475    21530817.8234   21530824.2754
       198.0004        199.0004
  -4497261.05048  -3493761.24646  22153451.741    22153451.9594   22153456.7624
       185.0004        185.0004
   6412683.59047   4988818.01045  24640342.868    24640344.3814   24640351.0534
       137.0004        143.0004
  -2047881.44848  -1581573.72046  22949742.157    22949742.8024   22949747.1504
       170.0004        170.0004
  -4039466.42447  -3123542.54745  24255838.140    24255836.8334   24255840.1264
       149.0004        151.0004
  -3370827.02049  -2606313.22248  20372206.525    20372206.7704   20372210.8964
       212.0004        213.0004
   6332156.25148   4922201.52846  23802172.356    23802172.6424   23802182.7634
       177.0004        178.0004
   4883014.93648   3800386.13346  22653078.907    22653079.2154   22653086.8754
       182.0004        183.0004
  -1304591.01447  -1004663.30045  23439291.618    23439291.6844   23439296.3314
       155.0004        158.0004
   2430729.29848   1896378.65146  22330704.200    22330703.7624   22330708.3614
       176.0004        177.0004
 21  2  1  1 29  0.0000000  0 11G01G30G17G04G14G19G07G08G09G28G21
  -2660984.16949  -2056689.40347  20796655.241    20796655.5614   20796663.8654
       198.0004        198.0004
  -5962445.98849  -4343977.13547  21516638.899    21516639.0744   21516645.2434
       199.0004        199.0004
  -4544688.17648  -3530717.44446  22144426.837    22144426.8784   22144431.3294
       185.0004        186.0004
   6506215.80247   5061700.19045  24658142.914    24658143.3244   24658149.8194
       139.0004        144.0004
  -2076695.33648  -1604026.08046  22944259.213    22944259.1464   22944263.9244
       169.0004        170.0004
  -4122977.27047  -3188615.87145  24239945.004    24239945.1134   24239950.5024
       147.0004        151.0004
  -3401785.53849  -2630436.75348  20366315.434    20366315.6804   20366319.3804
       212.0004        213.0004
   6426164.26948   4995454.49646  23820062.135    23820062.7334   23820070.9404
       177.0004        178.0004
   4961454.42448   3861507.81346  22668005.699    22668005.9144   22668013.7474
       182.0004        184.0004
  -1322809.92947  -1018859.83245  23435825.799    23435825.1954   23435828.2254
       155.0004        157.0004
   2485045.24348   1938702.77946  22341040.830    22341038.7074   22341044.1794
       176.0004        177.0004
 21  2  1  1 29 30.0000000  0 11G01G30G17G04G14G19G07G08G09G28G21
  -2677361.78749  -2069451.17647  20793538.671    20793539.1924   20793547.2374
       199.0004        199.0004
  -6036691.49849  -4401830.77647  21502510.852    21502510.3234   21502516.9904
       200.0004        200.0004
  -4591700.39748  -3567350.32547  22135481.314    22135481.8574   22135485.4594
       187.0004        190.0004
   6599596.47347   5134464.32445  24675911.895    24675913.0784   24675919.2234
       140.0004        144.0004
  -2105575.51948  -1626530.10646  22938763.648    22938764.2294   22938768.2634
       170.0004        173.0004
  -4206230.57647  -3253488.52845  24224103.545    24224102.6034   24224106.8594
       147.0004        151.0004
  -3432264.22149  -2654186.37848  20360515.063    20360515.6574   20360520.1324
       212.0004        213.0004
   6520117.14848   5068664.50746  23837941.569    23837941.1264   23837949.3584
       176.0004        176.0004
   5039989.15848   3922703.71146  22682950.304    22682950.7874   22682957.8604
       182.0004        182.0004
  -1341118.52447  -1033126.25645  23432341.743    23432340.5314   23432344.2154
       155.0004        157.0004
   2539810.32348   1981376.87746  22351461.075    22351459.8174   22351466.4654
       176.0004        176.0004
 21  2  1  1 30  0.0000000  0 11G01G30G17G04G14G19G07G08G09G28G21
  -2693165.32349  -2081765.59947  20790531.681    20790532.3104   20790540.0934
       199.0004        200.0004
  -6110668.75649  -4459475.38347  21488433.088    21488432.8694   21488439.6434
       200.0004        201.0004
  -4638296.24848  -3603658.74947  22126613.727    22126613.8804   22126618.7754
       188.0004        189.0004
   6692824.06947   5207109.12645  24693652.261    24693652.2854   24693660.2784
       139.0004        143.0004
  -2134521.91548  -1649085.73446  22933255.718    22933255.4634   22933260.2684
       172.0004        172.0004
  -4289224.64447  -3318159.20145  24208310.970    24208310.6634   24208313.0344
       149.0004        153.0004
  -3462260.25749  -2677559.91048  20354806.804    20354807.3464   20354811.7174
       212.0004        213.0004
   6614013.53148   5141830.48746  23855809.841    23855809.7544   23855816.8074
       175.0004        176.0004
   5118616.82748   3983972.02246  22697912.992    22697912.9974   22697920.2674
       181.0004        181.0004
  -1359516.87247  -1047462.63145  23428839.794    23428839.8684   23428844.1714
       155.0004        158.0004
   2595023.67848   2024400.27746  22361967.479    22361967.6894   22361972.6324
       175.0004        176.0004
 21  2  1  1 30 30.0000000  0 11G01G30G17G04G14G19G07G08G09G28G21
  -2708393.52549  -2093631.71447  20787633.586    20787634.6094   20787642.1304
       199.0004        200.0004
  -6184375.28449  -4516909.03647  21474406.571    21474406.9934   21474413.2604
       200.0004        200.0004
  -4684476.49948  -3639643.35947  22117825.987    22117826.5124   22117831.1764
       189.0004        188.0004
   6785896.23147   5279632.81045  24711363.173    24711363.3164   24711369.8144
       139.0004        142.0004
  -2163535.20148  -1671693.49246  22927733.324    22927734.7874   22927738.8644
       170.0004        171.0004
  -4371958.78647  -3382627.32545  24192566.450    24192565.2164   24192569.7324
       151.0004        154.0004
  -3491771.68249  -2700555.82948  20349191.238    20349191.7824   20349195.6434
       212.0004        213.0004
   6707851.62948   5214951.05946  23873666.874    23873665.7114   23873674.1234
       174.0004        175.0004
   5197334.29448   4045310.29946  22712891.961    22712892.4354   22712899.3534
       180.0004        180.0004
  -1378006.41947  -1061870.07945  23425321.984    23425321.5344   23425324.1624
       156.0004        158.0004
   2650683.84948   2067771.84646  22372558.957    22372559.5324   22372564.6534
       175.0004        175.0004
 21  2  1  1 31  0.0000000  0 11G01G30G17G04G14G19G07G08G09G28G21
  -2723044.27349  -2105047.85347  20784845.022    20784846.1004   20784854.3624
       199.0004        200.0004
  -6257807.76149  -4574129.15247  21460433.766    21460433.4024   21460439.4664
       200.0004        200.0004
  -4730240.57648  -3675303.65847  22109118.010    22109118.1444   22109122.2684
       189.0004        190.0004
   6878811.36347   5352034.13345  24729044.509    24729045.0644   24729051.5394
       137.0004        143.0004
  -2192615.19148  -1694353.21646  22922200.492    22922201.0504   22922205.4724
       170.0004        171.0004
  -4454430.96447  -3446891.30745  24176871.961    24176871.2374   24176875.9214
       153.0004        157.0004
  -3520796.00349  -2723172.18848  20343668.495    20343668.8704   20343672.6194
       213.0004        214.0004
   6801629.60048   5288024.77446  23891509.038    23891510.9394   23891519.0254
       175.0004        176.0004
   5276139.15148   4106716.68246  22727887.404    22727888.1984   22727895.2354
       179.0004        179.0004
  -1396587.46047  -1076348.80445  23421785.977    23421785.4914   23421789.1264
       156.0004        159.0004
   2706789.90648   2111490.86646  22383237.023    22383236.5784   22383240.8864
       175.0004        176.0004
 21  2  1  1 31 30.0000000  0 10G01G30G17G14G19G07G08G09G28G21
  -2737114.30449  -2116011.51047  20782167.696    20782168.3614   20782176.5174
       199.0004        199.0004
  -6330961.58649  -4631132.14147  21446511.769    21446512.3384   21446519.3444
       201.0004        201.0004
  -4775586.21448  -3710637.92247  22100488.582    22100488.8504   22100493.5994
       189.0004        189.0004
  -2221760.54248  -1717063.88346  22916653.859    22916654.5964   22916658.3104
       170.0004        170.0004
  -4536637.76947  -3510948.48545  24161227.908    24161227.2994   24161232.0364
       155.0004        157.0004
  -3549329.41749  -2745406.03348  20338238.348    20338238.7834   20338243.0924
       213.0004        214.0004
   6895347.79548   5361051.95446  23909345.339    23909345.2154   23909353.8684
       178.0004        181.0004
   5355030.40248   4168190.36546  22742900.542    22742900.7314   22742907.9374
       178.0004        178.0004
  -1415259.37647  -1090898.33345  23418232.659    23418231.6374   23418235.8444
       156.0004        158.0004
   2763342.32948   2155557.68446  22393998.195    22393998.0764   22394002.9494
       175.0004        176.0004
 21  2  1  1 32  0.0000000  0 10G01G30G17G14G19G07G08G09G28G21
  -2750604.02949  -2126522.97347  20779600.386    20779601.5304   20779609.5394
       199.0004        199.0004
  -6403835.89249  -4687917.31347  21432645.289    21432644.8874   21432651.8154
       201.0004        202.0004
  -4820515.01448  -3745647.35847  22091938.833    22091938.9964   22091943.1314
       188.0004        189.0004
  -2250973.46248  -1739827.18246  22911095.033    22911095.2404   22911100.8974
       169.0004        170.0004
  -4618579.88647  -3574799.43345  24145634.470    24145634.6994   24145640.0344
       155.0004        157.0004
  -3577371.58849  -2767257.08248  20332902.292    20332902.8984   20332906.6994
       213.0004        214.0004
   6989002.26948   5434029.41146  23927167.998    23927167.4914   23927175.9454
       178.0004        178.0004
   5434003.25748   4229727.65346  22757929.472    22757929.4214   22757935.9574
       178.0004        179.0004
  -1434024.42347  -1105520.42245  23414660.938    23414661.4894   23414664.0784
       156.0004        159.0004
   2820337.53848   2199969.54346  22404843.994    22404842.8744   22404848.0514
       174.0004        176.0004
 21  2  1  1 32 30.0000000  0 10G01G30G17G14G19G07G08G09G28G21
  -2763512.93949  -2136581.84747  20777145.176    20777145.2554   20777153.1754
       199.0004        200.0004
  -6476428.83549  -4744483.23247  21418830.632    21418831.0884   21418837.8164
       201.0004        201.0004
  -4865028.02748  -3780332.80247  22083468.429    22083468.8894   22083473.3894
       190.0004        191.0004
  -2280255.29548  -1762644.18846  22905522.439    22905524.2024   22905528.8424
       170.0004        171.0004
  -4700257.11947  -3638443.98645  24130092.856    24130091.7134   24130096.9124
       154.0004        156.0004
  -3604921.02149  -2788724.17848  20327660.503    20327660.5794   20327664.3604
       213.0004        214.0004
   7082590.17148   5506955.06446  23944976.559    23944976.8844   23944985.0544
       177.0004        178.0004
   5513053.97348   4291325.59946  22772971.650    22772972.1054   22772978.7664
       178.0004        179.0004
  -1452884.72947  -1120216.76345  23411073.167    23411072.7224   23411076.4384
       156.0004        158.0004
   2877773.30348   2244724.69846  22415774.168    22415773.5694   22415776.9924
       174.0004        175.0004
 21  2  1  1 33  0.0000000  0 10G01G30G17G14G19G07G08G09G28G21
  -2775840.14249  -2146187.44347  20774798.671    20774799.2884   20774806.8774
       199.0004        199.0004
  -6548738.20649  -4800828.19547  21405070.470    21405070.7124   21405077.5074
       201.0004        201.0004
  -4909126.05348  -3814694.89647  22075076.440    22075076.5874   22075081.3494
       190.0004        190.0004
  -2309606.92548  -1785515.58246  22899937.441    22899937.8504   22899941.5334
       170.0004        171.0004
  -4781668.46647  -3701881.36345  24114600.274    24114599.4974   24114605.1194
       153.0004        156.0004
  -3631976.40049  -2809806.29448  20322511.164    20322511.8454   20322516.0014
       213.0004        214.0004
   7176109.45148   5579827.18646  23962773.241    23962773.3314   23962781.3084
       178.0004        179.0004
   5592179.16248   4352981.57946  22788028.398    22788028.5284   22788035.1784
       178.0004        178.0004
  -1471841.74147  -1134988.45745  23407465.940    23407465.2064   23407468.6024
       157.0004        159.0004
   2935647.53748   2289821.52346  22426787.033    22426786.3364   22426790.2544
       174.0004        173.0004
 21  2  1  1 33 30.0000000  0 10G01G30G17G14G19G07G08G09G28G21
  -2787583.42649  -2155338.04747  20772564.865    20772565.1044   20772572.2294
       199.0004        200.0004
  -6620760.44549  -4856949.41447  21391365.081    21391364.8444   21391371.7554
       200.0004        200.0004
  -4952807.88848  -3848732.66947  22066764.091    22066764.5784   22066769.1194
       190.0004        190.0004
  -2339027.89848  -1808441.02646  22894338.270    22894339.0644   22894343.4964
       169.0004        169.0004
  -4862811.87547  -3765109.95845  24099160.846    24099159.8764   24099163.6684
       156.0004        159.0004
  -3658534.79249  -2830501.14948  20317458.082    20317458.2614   20317462.0174
       213.0004        215.0004
   7269558.83848   5652644.86546  23980555.560    23980555.4344   23980563.1084
       176.0004        176.0004
   5671376.72648   4414693.96046  22803098.671    22803099.5574   22803107.4414
       177.0004        178.0004
  -1490895.51047  -1149835.52045  23403837.726    23403838.4684   23403843.5094
       156.0004        157.0004
   2993959.97348   2335259.80146  22437883.252    22437882.6854   22437886.8364
       173.0004        173.0004
 21  2  1  1 34  0.0000000  0 10G01G30G17G14G19G07G08G09G28G21
  -2798741.22449  -2164032.44147  20770440.283    20770441.3954   20770449.8154
       199.0004        200.0004
  -6692492.51149  -4912844.54247  21377715.101    21377715.3274   21377721.9404
       201.0004        201.0004
  -4996073.49148  -3882446.11847  22058530.742    22058531.0714   22058535.0134
       190.0004        190.0004
  -2368518.33548  -1831420.56846  22888726.726    22888727.3024   22888731.7974
       168.0004        170.0004
  -4943685.98447  -3828128.72445  24083769.591    24083769.5644   24083772.5294
       154.0004        156.0004
  -3684594.05749  -2850807.09148  20312498.732    20312499.1334   20312503.1614
       214.0004        215.0004
   7362936.84048   5725406.90546  23998326.390    23998325.7074   23998332.8044
       174.0004        175.0004
   5750644.08848   4476460.71346  22818183.575    22818183.4584   22818191.4874
       177.0004        177.0004
  -1510046.58547  -1164758.46445  23400195.432    23400194.6094   23400198.4634
       155.0004        158.0004
   3052709.23548   2381038.44546  22449063.469    22449063.0174   22449066.4764
       173.0004        174.0004
 21  2  1  1 34 30.0000000  0 10G01G30G17G14G19G07G08G09G28G21
  -2809313.05349  -2172270.23147  20768429.288    20768429.8504   20768437.8944
       200.0004        200.0004
  -6763932.50149  -4968512.07247  21364120.913    21364120.6754   21364127.2634
       201.0004        201.0004
  -5038923.57348  -3915835.77547  22050377.461    22050377.6444   22050382.4264
       190.0004        191.0004
  -2398079.41448  -1854455.18446  22883101.454    22883102.1764   22883106.4264
       169.0004        170.0004
  -5024290.20947  -3890937.13745  24068431.222    24068431.0964   24068435.4014
       155.0004        159.0004
  -3710152.89849  -2870723.07748  20307634.719    20307635.4784   20307639.5204
       214.0004        215.0004
   7456240.55948   5798111.09246  24016081.291    24016080.5034   24016087.6944
       175.0004        176.0004
   5829977.53248   4538278.98946  22833280.498    22833280.9194   22833287.0984
       176.0004        176.0004
  -1529296.62747  -1179758.46345  23396531.318    23396531.0824   23396534.1924
       154.0004        157.0004
   3111892.81548   2427155.53246  22460325.958    22460324.9424   22460329.0094
       173.0004        172.0004
 21  2  1  1 35  0.0000000  0 10G01G30G17G14G19G07G08G09G28G21
  -2819296.99949  -2180049.91147  20766530.320    20766530.3504   20766537.7764
       200.0004        200.0004
  -6835076.97449  -5023949.31247  21350582.017    21350582.2344   21350589.4574
       200.0004        201.0004
  -5081357.69548  -3948901.31547  22042301.961    22042302.4964   22042306.8834
       191.0004        191.0004
  -2427710.82648  -1877544.59746  22877461.928    22877462.8794   22877468.2174
       169.0004        170.0004
  -5104622.51647  -3953533.70945  24053144.781    24053143.3554   24053149.7134
       157.0004        160.0004
  -3735208.67949  -2890247.06248  20302867.399    20302867.6374   20302871.3324
       214.0004        215.0004
   7549469.19448   5870756.77646  24033819.064    24033819.3494   24033828.1904
       172.0004        172.0004
   5909374.86848   4600147.04946  22848388.621    22848388.5164   22848396.6054
       175.0004        176.0004
  -1548645.88047  -1194835.79145  23392849.292    23392849.7074   23392853.9354
       156.0004        159.0004
   3171509.76948   2473610.32646  22471669.344    22471669.2514   22471673.3874
       172.0004        173.0004
 21  2  1  1 35 30.0000000  0 10G01G30G17G14G19G07G08G09G28G21
  -2828690.84249  -2187369.78347  20764741.492    20764742.4504   20764750.5574
       200.0004        200.0004
  -6905922.52649  -5079153.64047  21337100.700    21337101.2024   21337108.0924
       201.0004        202.0004
  -5123375.10748  -3981642.15047  22034306.607    22034307.1074   22034310.6674
       191.0004        191.0004
  -2457412.06748  -1900688.42846  22871811.092    22871811.9114   22871816.2074
       170.0004        172.0004
  -5184681.29247  -4015917.12245  24037910.615    24037909.3584   24037913.2954
       157.0004        158.0004
  -3759758.57949  -2909376.86548  20298195.686    20298196.1214   20298199.9544
       214.0004        215.0004
   7642621.54348   5943343.00546  24051544.841    24051546.0984   24051555.3504
       176.0004        178.0004
   5988834.04448   4662063.28246  22863509.147    22863509.6684   22863516.1544
       174.0004        175.0004
  -1568094.37547  -1209990.46745  23389148.957    23389147.6074   23389152.4424
       156.0004        158.0004
   3231559.01648   2520401.95046  22483096.411    22483095.8474   22483099.4754
       172.0004        173.0004
 21  2  1  1 36  0.0000000  0 10G01G30G17G14G19G07G08G09G28G21
  -2837493.61249  -2194229.06247  20763066.660    20763067.5274   20763074.9324
       200.0004        200.0004
  -6976466.36149  -5134122.85347  21323677.077    21323676.7984   21323683.7784
       202.0004        202.0004
  -5164975.68448  -4014058.16947  22026390.167    22026390.1444   22026394.5444
       190.0004        190.0004
  -2487183.51648  -1923886.95246  22866145.718    22866145.7514   22866150.7054
       169.0004        169.0004
  -5264465.41347  -4078086.56145  24022727.585    24022726.8334   24022730.1514
       156.0004        159.0004
  -3783800.81949  -2928111.07548  20293620.286    20293620.7354   20293624.9814
       214.0004        215.0004
   7735696.08648   6015868.57446  24069255.323    24069256.3324   24069266.5434
       174.0004        174.0004
   6068352.22448   4724025.50046  22878641.498    22878641.3674   22878649.5594
       175.0004        177.0004
  -1587642.87047  -1225223.02945  23385428.024    23385427.4674   23385432.0664
       154.0004        155.0004
   3292039.83448   2567529.86946  22494606.244    22494605.3114   22494609.3654
       172.0004        172.0004
 21  2  1  1 36 30.0000000  0 10G01G30G17G14G19G07G08G09G28G21
  -2845704.97749  -2200627.52547  20761504.115    20761504.2764   20761512.2514
       200.0004        200.0004
  -7046706.69449  -5188855.59347  21310310.148    21310310.4444   21310317.2084
       202.0004        202.0004
  -5206160.58748  -4046150.30347  22018552.388    22018553.1554   22018557.3104
       190.0004        190.0004
  -2517026.40648  -1947141.13346  22860466.275    22860467.0264   22860471.4794
       168.0004        170.0004
  -5343974.16247  -4140041.39445  24007597.553    24007596.9644   24007599.9364
       156.0004        158.0004
  -3807334.11949  -2946448.73048  20289141.995    20289142.6344   20289146.5934
       214.0004        215.0004
   7828689.95548   6088331.28846  24086952.463    24086953.2854   24086962.7554
       172.0004        173.0004
   6147925.60948   4786030.70746  22893783.540    22893783.8214   22893791.8274
       177.0004        178.0004
  -1607293.28447  -1240535.05545  23381690.171    23381689.8514   23381693.9354
       155.0004        160.0004
   3352948.97448   2614991.54846  22506197.233    22506196.2674   22506199.2544
       171.0004        172.0004
 21  2  1  1 37  0.0000000  0 10G01G30G17G14G19G07G08G09G28G21
  -2853324.07849  -2206564.47747  20760054.435    20760055.0414   20760062.3664
       200.0004        199.0004
  -7116641.12749  -5243349.96147  21297002.459    21297002.6524   21297008.8944
       202.0004        202.0004
  -5246930.52748  -4077919.07747  22010794.838    22010794.6884   22010798.2344
       189.0004        190.0004
  -2546941.36648  -1970451.50346  22854774.723    22854774.5294   22854779.5284
       170.0004        171.0004
  -5423206.94247  -4201781.19345  23992520.493    23992519.7044   23992521.6814
       154.0004        156.0004
  -3830357.16849  -2964388.77048  20284760.310    20284761.2844   20284765.4774
       214.0004        215.0004
   7921601.05548   6160729.56346  24104633.831    24104634.5364   24104644.0484
       174.0004        175.0004
   6227550.99948   4848076.44246  22908935.614    22908936.5154   22908943.2784
       175.0004        175.0004
  -1627046.76747  -1255927.37645  23377929.906    23377929.8374   23377935.1964
       156.0004        157.0004
   3414285.04348   2662785.89046  22517868.797    22517867.8734   22517872.0534
       171.0004        172.0004
 21  2  1  1 37 30.0000000  0 10G01G30G17G14G19G07G08G09G28G21
  -2860349.91549  -2212039.15047  20758718.094    20758718.1794   20758725.6174
       200.0004        200.0004
  -7186267.03049  -5297603.90847  21283752.588    21283753.0334   21283760.4644
       202.0004        202.0004
  -5287285.36348  -4109364.38847  22003115.768    22003115.6334   22003120.4454
       189.0004        189.0004
  -2576928.93248  -1993818.40846  22849067.104    22849069.1004   22849072.7914
       171.0004        172.0004
  -5502162.60847  -4263305.05645  23977494.714    23977494.6244   23977497.0234
       152.0004        155.0004
  -3852868.17649  -2981929.82148  20280477.808    20280478.0614   20280481.4534
       214.0004        216.0004
   8014427.54448   6233061.82046  24122300.806    24122299.9194   24122307.4644
       174.0004        175.0004
   6307225.50348   4910160.45746  22924098.521    22924098.1894   22924104.2194
       175.0004        175.0004
  -1646904.18447  -1271400.66445  23374150.636    23374151.2604   23374155.5684
       155.0004        159.0004
   3476045.80648   2710911.16546  22529620.733    22529620.6894   22529623.8894
       171.0004        172.0004
 21  2  1  1 38  0.0000000  0 10G01G30G17G14G19G07G08G09G28G21
  -2866781.46549  -2217050.73347  20757493.392    20757494.1614   20757501.5554
       200.0004        200.0004
  -7255581.85349  -5351615.44647  21270563.152    21270563.0424   21270569.7754
       202.0004        202.0004
  -5327225.51548  -4140486.56047  21995513.957    21995514.8634   21995519.8354
       189.0004        189.0004
  -2606989.33348  -2017242.10146  22843348.035    22843347.9744   22843351.1764
       170.0004        169.0004
  -5580840.07447  -4324612.15945  23962522.811    23962521.8504   23962527.2084
       156.0004        160.0004
  -3874865.28749  -2999070.43748  20276291.626    20276292.1564   20276295.5314
       214.0004        216.0004
   8107167.46048   6305326.65046  24139949.237    24139948.3764   24139956.4254
       177.0004        178.0004
   6386946.17548   4972280.46546  22939266.882    22939267.8004   22939274.5634
       173.0004        173.0004
  -1666866.53747  -1286955.74745  23370352.740    23370352.1684   23370356.8994
       156.0004        158.0004
   3538229.71148   2759366.17146  22541455.353    22541453.6834   22541458.4724
       172.0004        172.0004
 21  2  1  1 38 30.0000000  0 10G01G30G17G14G19G07G08G09G28G21
  -2872617.03749  -2221597.91947  20756382.303    20756383.1624   20756390.7954
       199.0004        199.0004
  -7324582.15449  -5405381.91547  21257432.910    21257432.8334   21257439.7054
       202.0004        203.0004
  -5366750.87448  -4171285.54047  21987993.904    21987994.0804   21987998.4254
       189.0004        190.0004
  -2637122.31048  -2040722.34746  22837613.019    22837613.4534   22837618.2444
       168.0004        169.0004
  -5659237.77347  -4385701.21645  23947603.934    23947603.8694   23947606.9224
       156.0004        159.0004
  -3896345.95449  -3015808.61848  20272203.505    20272204.0004   20272208.2574
       215.0004        216.0004
   8199819.60248   6377523.07046  24157578.265    24157578.8464   24157586.8344
       176.0004        177.0004
   6466710.78148   5034434.68946  22954447.218    22954447.9804   22954453.2904
       174.0004        176.0004
  -1686933.93847  -1302592.67545  23366534.457    23366533.4304   23366538.2554
       156.0004        158.0004
   3600835.57448   2808149.96646  22553367.535    22553367.6824   22553371.4174
       172.0004        173.0004
 21  2  1  1 39  0.0000000  0 10G01G30G17G14G19G07G08G09G28G21
  -2877855.58549  -2225679.89647  20755385.380    20755386.0944   20755394.2274
       199.0004        199.0004
  -7393265.28449  -5458901.22847  21244362.667    21244362.8044   21244369.6464
       202.0004        203.0004
  -5405861.43348  -4201761.28547  21980550.760    21980551.4314   21980555.8994
       189.0004        190.0004
  -2667328.09248  -2064259.32046  22831865.393    22831866.3334   22831869.7054
       169.0004        170.0004
  -5737354.43847  -4446571.33245  23932740.046    23932739.1464   23932742.6174
       158.0004        160.0004
  -3917308.38749  -3032142.99048  20268215.002    20268215.1054   20268219.0554
       215.0004        216.0004
   8292382.52648   6449649.97846  24175192.180    24175192.2654   24175201.9924
       177.0004        178.0004
   6546516.54548   5096620.99446  22969633.427    22969634.0174   22969641.0244
       175.0004        176.0004
  -1707107.24547  -1318312.13145  23362694.918    23362694.7984   23362699.0774
       155.0004        156.0004
   3663862.26148   2857261.67046  22565361.771    22565361.3234   22565365.0614
       173.0004        174.0004
 21  2  1  1 39 30.0000000  0 10G01G30G17G14G19G07G08G09G28G21
  -2882496.06349  -2229295.84147  20754503.096    20754503.5434   20754510.8904
       199.0004        199.0004
  -7461628.46549  -5512171.24547  21231353.537    21231353.3344   21231360.3574
       203.0004        203.0004
  -5444556.84048  -4231913.53347  21973187.755    21973187.6214   21973191.5854
       189.0004        188.0004
  -2697606.91048  -2087853.22246  22826103.905    22826104.2034   22826107.6914
       171.0004        171.0004
  -5815188.88047  -4507221.50545  23917928.669    23917928.0234   23917931.1144
       157.0004        159.0004
  -3937750.91749  -3048072.24848  20264324.372    20264324.9954   20264328.9424
       214.0004        216.0004
   8384854.60648   6521706.11746  24192789.536    24192789.3104   24192797.4844
       174.0004        174.0004
   6626360.67748   5158837.18246  22984826.062    22984827.1624   22984834.4384
       174.0004        175.0004
  -1727386.73247  -1334114.30945  23358836.995    23358835.8394   23358840.0764
       156.0004        157.0004
   3727307.87348   2906699.83046  22577435.318    22577434.9184   22577439.4324
       173.0004        174.0004
 21  2  1  1 40  0.0000000  0 10G01G30G17G14G19G07G08G09G28G21
  -2886537.69349  -2232445.15647  20753734.014    20753734.5604   20753742.0774
       199.0004        200.0004
  -7529669.28349  -5565190.06347  21218404.778    21218405.3934   21218412.9484
       202.0004        203.0004
  -5482838.54548  -4261743.41747  21965902.123    21965902.6474   21965906.9284
       187.0004        188.0004
  -2727959.24548  -2111504.38346  22820327.423    22820328.1364   22820332.6274
       169.0004        169.0004
  -5892740.19947  -4567651.07145  23903170.508    23903169.3524   23903174.3284
       159.0004        162.0004
  -3957671.96449  -3063595.16248  20260533.590    20260533.9554   20260538.1454
       215.0004        216.0004
   8477233.91448   6593689.94846  24210367.842    24210368.0144   24210378.0904
       172.0004        173.0004
   6706240.11348   5221080.89146  23000027.315    23000028.1824   23000035.6224
       175.0004        176.0004
  -1747774.05947  -1350000.52545  23354955.636    23354955.5244   23354959.9084
       156.0004        157.0004
   3791170.31848   2956462.76446  22589587.206    22589587.8844   22589592.5644
       174.0004        176.0004
 21  2  1  1 40 30.0000000  0 10G01G30G17G14G19G07G08G09G28G21
  -2889979.05149  -2235126.72647  20753078.997    20753079.5204   20753087.2514
       200.0004        200.0004
  -7597384.48049  -5617955.14847  21205520.086    21205520.0854   21205526.8664
       203.0004        204.0004
  -5520705.92948  -4291250.45947  21958697.193    21958697.1214   21958701.0884
       188.0004        189.0004
  -2758384.89648  -2135212.67146  22814537.434    22814538.8284   22814543.0574
       169.0004        170.0004
  -5970006.85447  -4627858.81346  23888468.009    23888467.2744   23888470.7784
       161.0004        163.0004
  -3977068.95449  -3078709.70648  20256842.878    20256843.2744   20256847.5444
       215.0004        216.0004
   8569519.19548   6665600.50646  24227926.829    24227929.3114   24227939.6524
       175.0004        177.0004
   6786152.60248   5283350.36246  23015234.388    23015234.6504   23015241.5604
       174.0004        173.0004
  -1768269.29347  -1365970.83645  23351056.056    23351056.4874   23351059.2264
       153.0004        155.0004
   3855448.37448   3006549.56046  22601820.043    22601818.3564   22601824.9964
       175.0004        176.0004
 21  2  1  1 41  0.0000000  0 10G01G30G17G14G19G07G08G09G28G21
  -2892819.18149  -2237339.80047  20752537.576    20752539.1774   20752547.0374
       200.0004        200.0004
  -7664771.36249  -5670464.40847  21192696.647    21192696.9494   21192703.2464
       204.0004        204.0004
  -5558158.91248  -4320434.58347  21951569.040    21951569.4944   21951574.0934
       189.0004        190.0004
  -2788883.99048  -2158978.20346  22808733.698    22808734.3024   22808739.2394
       169.0004        171.0004
  -6046987.92347  -4687844.04946  23873818.433    23873818.1564   23873822.1164
       161.0004        163.0004
  -3995940.47249  -3093414.79748  20253251.734    20253252.2284   20253255.9094
       215.0004        216.0004
   8661708.46248   6737436.24346  24245473.518    24245473.2104   24245481.9044
       175.0004        176.0004
   6866095.41448   5345643.44746  23030448.219    23030447.4094   23030454.0584
       173.0004        173.0004
  -1788873.34047  -1382025.94145  23347136.295    23347135.6074   23347139.4884
       154.0004        157.0004
   3920140.12048   3056958.71846  22614130.328    22614129.2564   22614134.8184
       175.0004        175.0004
 21  2  1  1 41 30.0000000  0 10G01G30G17G14G19G07G08G09G28G21
  -2895058.47849  -2239084.68947  20752111.947    20752113.0744   20752120.5934
       200.0004        200.0004
  -7731828.48949  -5722716.71147  21179936.206    21179936.0604   21179943.3074
       204.0004        204.0004
  -5595199.17048  -4349297.11447  21944520.838    21944521.2084   21944525.9684
       190.0004        191.0004
  -2819458.05048  -2182802.12246  22802916.220    22802916.4294   22802921.1554
       170.0004        171.0004
  -6123683.47747  -4747606.78746  23859224.610    23859222.9504   23859227.5084
       162.0004        164.0004
  -4014285.79749  -3107709.86348  20249760.758    20249760.9924   20249765.1084
       215.0004        216.0004
   8753799.47248   6809195.42346  24263000.069    24262999.0554   24263006.1494
       176.0004        178.0004
   6946064.41048   5407956.95046  23045664.161    23045664.8544   23045671.5434
       173.0004        174.0004
  -1809587.94547  -1398167.17345  23343192.739    23343193.1824   23343198.5994
       155.0004        158.0004
   3985242.63848   3107687.95646  22626518.596    22626518.0224   22626523.5344
       175.0004        176.0004
 21  2  1  1 42  0.0000000  0 10G01G30G17G14G19G07G08G09G28G21
  -2896695.09749  -2240359.95147  20751800.415    20751801.5154   20751809.0674
       200.0004        199.0004
  -7798552.21849  -5774709.22147  21167238.537    21167239.2174   21167246.2834
       204.0004        205.0004
  -5631826.60048  -4377837.96047  21937551.277    21937551.3934   21937555.9494
       191.0004        191.0004
  -2850106.35348  -2206683.89046  22797083.979    22797083.6894   22797088.9054
       170.0004        171.0004
  -6200091.52347  -4807145.48145  23844682.887    23844682.9154   23844687.4884
       161.0004        161.0004
  -4032102.45349  -3121592.97348  20246369.792    20246370.4894   20246375.1264
       215.0004        217.0004
   8845790.96148   6880877.07346  24280503.645    24280503.2184   24280511.4724
       175.0004        175.0004
   7026057.81648   5470289.46646  23060887.018    23060887.3074   23060894.4034
       173.0004        173.0004
  -1830412.76847  -1414394.30445  23339230.257    23339230.8094   23339234.5014
       155.0004        158.0004
   4050755.57248   3158736.99646  22638984.949    22638984.0164   22638990.3024
       175.0004        176.0004
 21  2  1  1 42 30.0000000  0 10G01G30G17G14G19G07G08G09G28G21
  -2897728.40549  -2241165.12447  20751603.944    20751604.8174   20751612.6574
       200.0004        200.0004
  -7864940.08049  -5826440.02047  21154606.744    21154606.3194   21154613.3824
       205.0004        206.0004
  -5668041.47048  -4406057.32747  21930658.967    21930660.0974   21930664.4764
       191.0004        191.0004
  -2880829.23648  -2230623.80746  22791237.141    22791238.1774   22791241.5784
       169.0004        170.0004
  -6276211.24847  -4866459.53046  23830198.308    23830197.8904   23830201.9324
       161.0004        163.0004
  -4049388.99749  -3135063.01848  20243080.736    20243080.9604   20243085.2544
       215.0004        216.0004
   8937681.58548   6952480.10046  24297989.245    24297989.6744   24297997.8214
       174.0004        175.0004
   7106072.63648   5532638.66846  23076112.955    23076113.4924   23076120.1144
       173.0004        174.0004
  -1851348.86947  -1430708.14345  23335246.029    23335246.6354   23335252.0764
       155.0004        158.0004
   4116676.81248   3210104.17846  22651528.830    22651529.3074   22651534.5774
       175.0004        176.0004
 21  2  1  1 43  0.0000000  0 10G01G30G17G14G19G07G08G09G28G21
  -2898157.30849  -2241499.33247  20751522.746    20751523.3344   20751530.7634
       200.0004        200.0004
  -7930989.08449  -5877906.78047  21142037.216    21142037.0314   21142044.0644
       205.0004        205.0004
  -5703843.73048  -4433955.18847  21923845.811    21923846.4434   21923851.0374
       190.0004        191.0004
  -2911626.60948  -2254621.76746  22785376.934    22785377.2464   22785381.0204
       168.0004        169.0004
  -6352041.29947  -4925547.84546  23815769.092    23815767.9134   23815771.9744
       162.0004        164.0004
  -4066143.31749  -3148118.34248  20239891.968    20239892.4994   20239897.0374
       215.0004        216.0004
   9029469.52548   7024003.13646  24315455.976    24315455.4374   24315464.6574
       173.0004        173.0004
   7186106.41948   5595002.62846  23091342.184    23091342.6404   23091350.2044
       171.0004        171.0004
  -1872396.56047  -1447108.92745  23331239.811    23331240.7434   23331244.5834
       153.0004        156.0004
   4183004.73748   3261788.28646  22664150.400    22664150.2074   22664156.9234
       175.0004        176.0004
 21  2  1  1 43 30.0000000  0 10G01G30G17G14G19G07G08G09G28G21
  -2897980.85549  -2241361.82547  20751556.620    20751557.0844   20751564.8254
       200.0004        201.0004
  -7996696.39849  -5929107.29747  21129533.723    21129534.1194   21129540.5854
       205.0004        206.0004
  -5739233.61748  -4461531.71347  21917112.099    21917112.1584   21917116.0424
       190.0004        190.0004
  -2942498.53748  -2278677.82146  22779502.180    22779503.3634   22779506.3014
       168.0004        169.0004
  -6427580.47747  -4984409.53446  23801393.468    23801392.9364   23801396.9304
       162.0004        163.0004
  -4082363.37549  -3160757.36148  20236805.955    20236806.1804   20236810.5254
       215.0004        216.0004
   9121153.58548   7095445.20546  24332902.051    24332902.1634   24332911.1154
       170.0004        170.0004
   7266156.54848   5657379.33746  23106576.264    23106576.7294   23106584.7044
       171.0004        172.0004
  -1893556.60247  -1463597.27445  23327213.108    23327214.1544   23327219.2604
       153.0004        157.0004
   4249737.44648   3313787.79346  22676850.047    22676848.5824   22676856.1324
       175.0004        176.0004
 21  2  1  1 44  0.0000000  0 10G01G30G17G14G19G07G08G09G28G21
  -2897198.80449  -2240752.42547  20751705.297    20751705.8374   20751713.1994
       200.0004        201.0004
  -8062059.83549  -5980039.84347  21117095.407    21117095.5664   21117102.4494
       206.0004        207.0004
  -5774212.03948  -4488787.61747  21910455.999    21910456.3394   21910459.9394
       191.0004        191.0004
  -2973445.59348  -2302792.41046  22773613.649    22773613.6374   22773618.4164
       169.0004        170.0004
  -6502828.30147  -5043044.17646  23787074.316    23787072.9414   23787077.7184
       161.0004        163.0004
  -4098048.50049  -3172979.54248  20233820.954    20233821.3664   20233825.5664
       215.0004        217.0004
   9212731.56148   7166804.61046  24350330.623    24350329.5494   24350338.2684
       172.0004        174.0004
   7346219.78848   5719766.26646  23121812.157    23121812.0704   23121818.4484
       171.0004        171.0004
  -1914830.17847  -1480174.08645  23323168.134    23323167.3584   23323170.8804
       155.0004        157.0004
   4316872.51448   3366100.82146  22689624.095    22689624.0504   22689631.1924
       175.0004        176.0004
 21  2  1  1 44 30.0000000  0 10G01G30G17G14G19G07G08G09G28G21
  -2895810.58649  -2239670.68247  20751969.438    20751969.8864   20751977.3504
       200.0004        200.0004
  -8127076.86249  -6030702.45147  21104723.227    21104723.2174   21104730.1454
       207.0004        207.0004
  -5808779.63348  -4515723.37947  21903878.224    21903878.0644   21903882.0194
       190.0004        190.0004
  -3004468.11148  -2326965.79746  22767709.592    22767709.3394   22767715.5384
       169.0004        169.0004
  -6577783.89947  -5101451.12246  23772811.073    23772810.8494   23772813.6364
       161.0004        163.0004
  -4113197.11949  -3184783.66948  20230938.012    20230938.3954   20230943.0784
       215.0004        216.0004
   9304201.71848   7238079.96546  24367736.549    24367736.8354   24367744.4084
       172.0004        173.0004
   7426293.26648   5782161.17846  23137049.701    23137050.4594   23137056.2574
       170.0004        171.0004
  -1936217.76847  -1496839.72645  23319096.368    23319096.4464   23319100.6954
       153.0004        154.0004
   4384408.77348   3418726.46746  22702476.807    22702476.4754   22702481.7254
       175.0004        175.0004
 21  2  1  1 45  0.0000000  0 10G01G30G17G14G19G07G08G09G28G21
  -2893815.75949  -2238116.27347  20752348.862    20752349.3664   20752356.8454
       200.0004        200.0004
  -8191745.12949  -6081093.32047  21092417.187    21092417.3014   21092423.9824
       207.0004        207.0004
  -5842937.10748  -4542339.57947  21897377.722    21897378.0934   21897382.3954
       190.0004        191.0004
  -3035566.55548  -2351198.33846  22761790.313    22761791.9644   22761796.5264
       167.0004        168.0004
  -6652446.46247  -5159629.71246  23758602.992    23758601.5114   23758605.8094
       162.0004        164.0004
  -4127807.84949  -3196168.66448  20228157.630    20228158.4344   20228162.6444
       215.0004        217.0004
   9395562.68648   7309270.28946  24385121.644    24385121.7054   24385128.7144
       171.0004        171.0004
   7506373.94748   5844561.68546  23152288.199    23152288.3634   23152295.0964
       169.0004        169.0004
  -1957720.64647  -1513595.22445  23315005.866    23315005.4244   23315009.0534
       153.0004        156.0004
   4452343.74648   3471662.80546  22715404.529    22715403.9934   22715409.4584
       174.0004        175.0004
 21  2  1  1 45 30.0000000  0 10G01G30G17G14G19G07G08G09G28G21
  -2891212.61049  -2236087.83547  20752844.022    20752845.3684   20752852.4994
       200.0004        200.0004
  -8256060.87649  -6131209.48647  21080178.275    21080178.1884   21080185.2024
       207.0004        207.0004
  -5876683.65348  -4568635.56747  21890956.304    21890956.1144   21890960.6284
       191.0004        191.0004
  -3066739.89048  -2375489.24946  22755859.985    22755861.0594   22755864.6654
       168.0004        170.0004
  -6726814.15047  -5217578.55046  23744450.805    23744450.5734   23744454.7134
       163.0004        165.0004
  -4141878.08949  -3207132.50048  20225480.693    20225481.0614   20225485.3114
       216.0004        217.0004
   9486813.33448   7380374.64346  24402483.194    24402484.7164   24402493.7354
       170.0004        170.0004
   7586460.23848   5906966.55046  23167528.443    23167528.3654   23167534.4714
       168.0004        168.0004
  -1979338.20947  -1530440.05045  23310890.796    23310890.7464   23310895.3304
       154.0004        157.0004
   4520676.20448   3524908.87146  22728407.476    22728407.3284   22728412.7334
       173.0004        172.0004
 21  2  1  1 46  0.0000000  0 10G01G30G17G14G19G07G08G09G28G21
  -2888000.98749  -2233585.25947  20753455.872    20753456.3364   20753463.2764
       200.0004        200.0004
  -8320021.92649  -6181049.26447  21068006.618    21068007.0974   21068013.4034
       207.0004        207.0004
  -5910020.49148  -4594612.32247  21884612.066    21884612.7004   21884617.3034
       191.0004        192.0004
  -3097988.76848  -2399839.00646  22749913.399    22749913.8784   22749918.7114
       170.0004        171.0004
  -6800886.49447  -5275297.25146  23730354.898    23730354.9324   23730358.5704
       163.0004        165.0004
  -4155406.86949  -3217674.41048  20222905.716    20222906.4204   20222910.6924
       215.0004        217.0004
   9577951.93948   7451391.67646  24419830.280    24419829.9794   24419836.6444
       170.0004        170.0004
   7666548.92248   5969373.29246  23182768.658    23182769.1744   23182776.4234
       170.0004        173.0004
  -2001071.73447  -1547375.26145  23306754.989    23306755.1914   23306759.6674
       155.0004        158.0004
   4589404.13648   3578463.09746  22741486.162    22741485.8054   22741491.1014
       173.0004        174.0004
 21  2  1  1 46 30.0000000  0 10G01G30G17G14G19G07G08G09G28G21
  -2884180.70449  -2230608.41047  20754182.163    20754182.7594   20754190.4864
       200.0004        200.0004
  -8383626.06149  -6230610.93147  21055903.950    21055903.6714   21055909.9744
       207.0004        208.0004
  -5942948.29348  -4620270.33847  21878346.416    21878346.6944   21878350.9394
       191.0004        191.0004
  -3129313.70348  -2424248.05346  22743952.528    22743952.9034   22743958.0394
       171.0004        172.0004
  -6874662.67747  -5332785.14246  23716317.073    23716316.5174   23716318.9934
       164.0004        165.0004
  -4168393.17649  -3227793.61848  20220435.056    20220435.2864   20220439.5594
       216.0004        217.0004
   9668976.59148   7522319.94146  24437149.975    24437150.0864   24437159.8374
       170.0004        172.0004
   7746636.81848   6031779.44446  23198008.757    23198009.0024   23198016.8394
       171.0004        171.0004
  -2022922.24847  -1564401.66745  23302599.097    23302598.7354   23302601.3754
       157.0004        160.0004
   4658525.32448   3632323.77246  22754640.143    22754638.9754   22754644.1544
       173.0004        174.0004
 21  2  1  1 47  0.0000000  0 10G01G30G17G14G19G07G08G09G28G21
  -2879750.93349  -2227156.62747  20755025.213    20755025.5534   20755033.1874
       200.0004        200.0004
  -8446870.33549  -6279892.18047  21043868.303    21043868.4274   21043875.4654
       207.0004        208.0004
  -5975467.57448  -4645610.03547  21872158.076    21872158.4284   21872162.4704
       190.0004        191.0004
  -3160714.51448  -2448716.20446  22737976.993    22737978.0654   22737981.4944
       171.0004        172.0004
  -6948141.83547  -5390041.61246  23702333.244    23702333.6974   23702337.3744
       163.0004        164.0004
  -4180835.11949  -3237488.64748  20218066.714    20218067.4074   20218072.0794
       215.0004        217.0004
   9759886.18648   7593158.55546  24454450.971    24454450.4054   24454458.2194
       170.0004        171.0004
   7826721.59248   6094183.14846  23213246.566    23213247.5524   23213255.7034
       168.0004        168.0004
  -2044889.93447  -1581519.31445  23298414.817    23298415.7324   23298421.0664
       155.0004        156.0004
   4728037.98048   3686489.48946  22767867.478    22767866.9164   22767872.9844
       172.0004        172.0004
 21  2  1  1 47 30.0000000  0 10G01G30G17G14G19G07G08G09G28G21
  -2874711.12849  -2223229.50047  20755984.579    20755985.1504   20755992.4954
       200.0004        200.0004
  -8509752.20349  -6328891.04247  21031902.252    21031902.4254   21031908.9234
       208.0004        208.0004
  -6007578.74148  -4670631.71147  21866047.716    21866047.7894   21866052.0334
       191.0004        191.0004
  -3192191.30848  -2473243.57246  22731986.219    22731987.1524   22731992.1874
       171.0004        171.0004
  -7021322.91847  -5447065.80946  23688409.278    23688407.4614   23688411.3244
       163.0004        164.0004
  -4192731.00249  -3246758.17848  20215803.663    20215803.8704   20215808.1104
       215.0004        217.0004
   9850678.78348   7663905.97646  24471726.585    24471727.4784   24471736.5894
       172.0004        174.0004
   7906800.44348   6156582.23546  23228486.335    23228486.9344   23228493.6074
       166.0004        167.0004
  -2066975.53947  -1598728.88045  23294214.124    23294214.3504   23294218.4864
       155.0004        158.0004
   4797940.17948   3740958.72046  22781169.390    22781168.9734   22781174.2194
       171.0004        173.0004
 21  2  1  1 48  0.0000000  0 10G01G30G17G14G19G07G08G09G28G21
  -2869060.29049  -2218826.24547  20757060.071    20757060.5494   20757067.9604
       200.0004        201.0004
  -8572268.42549  -6377604.98947  21020006.620    21020006.1304   21020012.4924
       208.0004        208.0004
  -6039281.71548  -4695335.31547  21860014.909    21860014.9334   21860019.4274
       191.0004        192.0004
  -3223743.64248  -2497829.80646  22725982.614    22725983.0394   22725988.4464
       171.0004        171.0004
  -7094204.58247  -5503856.69146  23674540.024    23674539.4334   23674542.0564
       162.0004        163.0004
  -4204079.17049  -3255600.91348  20213643.889    20213644.3904   20213648.9134
       215.0004        217.0004
   9941353.87748   7734561.84746  24488978.644    24488980.5804   24488990.9724
       169.0004        168.0004
   7986871.28348   6218975.08846  23243723.188    23243724.3204   23243731.1024
       166.0004        168.0004
  -2089179.26747  -1616030.48145  23289988.786    23289988.7014   23289993.5234
       156.0004        158.0004
   4868230.87148   3795730.70246  22794543.680    22794543.8444   22794548.9704
       170.0004        170.0004
 21  2  1  1 48 30.0000000  0 10G01G30G17G14G19G07G08G09G28G21
  -2862798.50649  -2213946.92147  20758251.433    20758251.9594   20758259.4794
       200.0004        201.0004
  -8634416.98549  -6426032.43847  21008179.420    21008179.6224   21008186.4104
       208.0004        208.0004
  -6070577.52848  -4719721.65147  21854059.318    21854059.8224   21854064.2414
       191.0004        191.0004
  -3255372.14748  -2522475.41546  22719964.665    22719965.0034   22719969.1654
       170.0004        169.0004
  -7166786.50747  -5560414.02646  23660727.645    23660727.2804   23660730.2244
       162.0004        165.0004
  -4214878.80149  -3264016.21948  20211588.530    20211589.0384   20211593.9754
       215.0004        217.0004
  10031909.22748   7805124.43346  24506215.924    24506215.5614   24506222.5014
       169.0004        171.0004
   8066930.81948   6281359.11046  23258958.604    23258958.8494   23258966.1294
       180.0004        185.0004
  -2111502.15647  -1633424.94145  23285742.230    23285741.4384   23285744.7934
       155.0004        157.0004
   4938907.10848   3850803.10046  22807994.548    22807994.1664   22807998.6514
       170.0004        171.0004
 21  2  1  1 49  0.0000000  0 10G01G30G17G14G19G07G08G09G28G21
  -2855926.33149  -2208591.97647  20759559.340    20759559.5254   20759567.1744
       200.0004        200.0004
  -8696196.26349  -6474172.13847  20996423.103    20996423.3954   20996429.9064
       208.0004        208.0004
  -6101468.06148  -4743792.18547  21848181.180    21848181.4374   21848185.8784
       191.0004        192.0004
  -3287077.91548  -2547181.18546  22713930.133    22713930.5304   22713936.2694
       168.0004        168.0004
  -7239068.65047  -5616737.73946  23646972.855    23646971.5814   23646976.5004
       163.0004        165.0004
  -4225129.43349  -3272003.73448  20209638.036    20209638.7334   20209642.7554
       215.0004        217.0004
  10122342.33648   7875591.76446  24523421.260    24523423.3524   24523431.6514
       167.0004        166.0004
   8146975.39648   6343731.49046  23274189.490    23274190.0994   23274198.4694
       184.0004        185.0004
  -2133945.74147  -1650913.43245  23281470.389    23281470.1144   23281475.1394
       155.0004        157.0004
   5009965.84648   3906173.55546  22821518.265    22821516.3004   22821520.8104
       170.0004        169.0004
 21  2  1  1 49 30.0000000  0 10G01G30G17G14G19G07G08G09G28G21
  -2848442.33949  -2202760.27947  20760982.984    20760983.4384   20760991.3114
       200.0004        200.0004
  -8757602.70949  -6522021.31047  20984737.724    20984737.8724   20984745.0394
       208.0004        208.0004
  -6131953.13648  -4767546.78247  21842379.396    21842379.6174   21842384.9044
       191.0004        191.0004
  -3318859.96748  -2571946.41046  22707882.156    22707883.5424   22707887.1964
       168.0004        170.0004
  -7311049.37647  -5672826.60846  23633275.128    23633274.9104   23633278.8484
       163.0004        165.0004
  -4234828.97249  -3279561.81748  20207792.472    20207792.6744   20207797.0344
       215.0004        217.0004
  10212652.36947   7945963.17046  24540607.297    24540607.9824   24540617.0844
       164.0004        165.0004
   8227003.34049   6406090.93447  23289420.214    23289420.7104   23289426.7584
       195.0004        202.0004
  -2156509.64947  -1668495.68245  23277175.853    23277176.8584   23277181.1144
       155.0004        158.0004
   5081406.52948   3961841.61146  22835110.376    22835110.5734   22835114.1654
       168.0004        167.0004
 21  2  1  1 50  0.0000000  0 10G01G30G17G14G19G07G08G09G28G21
  -2840345.75749  -2196451.24247  20762524.114    20762525.0124   20762532.2304
       200.0004        200.0004
  -8818633.24949  -6569577.57547  20973124.471    20973124.4884   20973131.0854
       209.0004        209.0004
  -6162032.54348  -4790985.26147  21836656.533    21836656.4704   21836660.8954
       191.0004        192.0004
  -3350717.86148  -2596770.74246  22701820.395    22701820.7834   22701826.5884
       170.0004        172.0004
  -7382727.37747  -5728679.57246  23619634.431    23619634.5824   23619638.7474
       162.0004        164.0004
  -4243975.27449  -3286688.80848  20206052.325    20206052.7174   20206056.9634
       216.0004        217.0004
  10302839.02448   8016238.42246  24557768.286    24557770.1894   24557780.5434
       165.0004        166.0004
   8307012.35049   6468435.63747  23304644.988    23304645.0014   23304651.8124
       200.0004        200.0004
  -2179194.09347  -1686171.86845  23272860.295    23272859.9504   23272864.5704
       156.0004        158.0004
   5153227.08948   4017805.69146  22848777.091    22848777.5314   22848781.9534
       168.0004        168.0004
 21  2  1  1 50 30.0000000  0 10G01G30G17G14G19G07G08G09G28G21
  -2831636.20949  -2189664.56247  20764181.173    20764181.8094   20764189.4614
       200.0004        200.0004
  -8879285.33849  -6616838.94747  20961582.854    20961582.9514   20961588.7854
       209.0004        208.0004
  -6191706.90248  -4814108.12747  21831009.131    21831009.3184   21831014.3014
       191.0004        192.0004
  -3382651.71648  -2621654.24746  22695743.910    22695744.1164   22695749.2884
       171.0004        173.0004
  -7454101.69947  -5784295.91745  23606053.614    23606051.7074   23606055.5374
       162.0004        161.0004
  -4252567.17349  -3293383.79748  20204417.187    20204417.6124   20204421.8534
       216.0004        217.0004
  10392900.50848   8086416.14846  24574907.922    24574908.6804   24574918.0874
       166.0004        167.0004
   8386999.83749   6530763.53347  23319864.202    23319865.3614   23319873.0714
       199.0004        198.0004
  -2201999.65147  -1703942.43345  23268520.018    23268520.0064   23268523.4904
       156.0004        159.0004
   5225426.16848   4074064.72846  22862516.426    22862515.6494   22862521.0824
       167.0004        168.0004
 21  2  1  1 51  0.0000000  0 10G01G30G17G14G19G07G08G09G28G21
  -2822313.92549  -2182400.44447  20765955.155    20765955.9394   20765963.0184
       200.0004        200.0004
  -8939556.91549  -6663803.81147  20950113.227    20950113.3024   20950119.9304
       208.0004        208.0004
  -6220977.36448  -4836916.26847  21825439.401    21825439.7524   21825444.5094
       192.0004        193.0004
  -3414662.04148  -2646597.36446  22689652.063    22689652.9154   22689656.9534
       170.0004        170.0004
  -7525172.20547  -5839675.53746  23592528.579    23592528.8494   23592533.0084
       162.0004        166.0004
  -4260604.02749  -3299646.29548  20202887.584    20202887.8634   20202892.1224
       216.0004        217.0004
  10482834.86947   8156494.83346  24592023.486    24592022.8994   24592031.5874
       162.0004        163.0004
   8466962.63249   6593072.18847  23335082.290    23335082.5854   23335089.2134
       198.0004        198.0004
  -2224927.35747  -1721808.18245  23264156.397    23264156.7954   23264161.0134
       157.0004        159.0004
   5298000.89548   4130616.44846  22876327.425    22876326.4824   22876331.0204
       166.0004        168.0004
 21  2  1  1 51 30.0000000  0 10G01G30G17G14G19G07G08G09G28G21
  -2812378.83449  -2174658.80247  20767845.371    20767846.0034   20767853.9444
       200.0004        200.0004
  -8999445.59049  -6710470.31247  20938716.989    20938717.2434   20938723.4734
       209.0004        209.0004
  -6249845.04848  -4859410.56047  21819945.950    21819946.1964   21819950.5944
       193.0004        194.0004
  -3446749.03148  -2671600.23046  22683546.592    22683546.1944   22683551.1204
       169.0004        169.0004
  -7595938.15147  -5894817.80046  23579060.847    23579061.2584   23579065.5764
       163.0004        165.0004
  -4268084.65549  -3305475.36748  20201464.188    20201464.6314   20201468.8074
       216.0004        217.0004
  10572640.06447   8226472.85446  24609113.715    24609113.6044   24609121.4424
       163.0004        165.0004
   8546897.86449   6655359.37547  23350293.081    23350293.4114   23350300.4184
       198.0004        198.0004
  -2247978.01247  -1739769.73545  23259769.775    23259770.2064   23259775.1274
       157.0004        160.0004
   5370949.17748   4187459.27546  22890208.468    22890208.6424   22890211.9914
       165.0004        166.0004
 21  2  1  1 52  0.0000000  0 10G01G30G17G14G19G07G08G09G28G21
  -2801830.12249  -2166439.03147  20769852.950    20769853.8244   20769861.0694
       199.0004        199.0004
  -9058948.27349  -6756836.05647  20927394.279    20927394.2504   20927400.6824
       209.0004        209.0004
  -6278310.18348  -4881591.18547  21814529.336    21814529.8804   21814533.5004
       193.0004        193.0004
  -3478912.18748  -2696662.39946  22677424.796    22677425.7714   22677431.1204
       169.0004        171.0004
  -7666398.40547  -5949721.87946  23565654.349    23565653.3704   23565657.7934
       164.0004        166.0004
  -4275007.11349  -3310869.50448  20200146.770    20200147.2534   20200151.8514
       216.0004        218.0004
  10662316.06357   8296350.21845  24626173.560    24626175.4855   24626186.2434
       161.0004        162.0004
   8626803.46649   6717623.46647  23365497.903    23365498.7394   23365506.4504
       198.0004        198.0004
  -2271151.61747  -1757827.09445  23255360.901    23255359.8384   23255364.0694
       158.0004        160.0004
   5444269.16948   4244591.73246  22904161.678    22904160.9774   22904164.6764
       165.0004        167.0004
 21  2  1  1 52 30.0000000  0 10G01G30G17G14G19G07G08G09G28G21
  -2790667.61649  -2157740.95947  20771976.630    20771977.3854   20771985.1414
       199.0004        199.0004
  -9118062.48249  -6802899.07447  20916144.646    20916144.7114   20916151.6364
       209.0004        209.0004
  -6306373.46148  -4903458.65947  21809188.251    21809188.4804   21809193.6134
       193.0004        192.0004
  -3511151.48148  -2721783.92146  22671289.943    22671291.4684   22671296.0244
       170.0004        171.0004
  -7736552.12547  -6004387.09246  23552304.660    23552304.3304   23552307.7274
       164.0004        167.0004
  -4281370.51749  -3315828.00448  20198936.166    20198936.4084   20198940.6204
       216.0004        217.0004
  10751861.00847   8366125.44046  24643216.639    24643216.7784   24643225.6354
       163.0004        166.0004
   8706676.77949   6779862.39847  23380699.132    23380699.1064   23380705.3504
       199.0004        200.0004
  -2294448.59647  -1775980.57245  23250926.883    23250927.4444   23250932.0324
       158.0004        161.0004
   5517959.25848   4302012.58146  22918184.165    22918183.9424   22918188.5744
       166.0004        167.0004
 21  2  1  1 53  0.0000000  0 10G01G30G17G14G19G07G08G09G28G21
  -2778891.70549  -2148564.90847  20774217.953    20774218.5164   20774225.8404
       199.0004        199.0004
  -9176786.19249  -6848657.81047  20904969.809    20904969.8644   20904976.7404
       209.0004        209.0004
  -6334035.84848  -4925013.75647  21803924.566    21803924.5054   21803929.5434
       192.0004        192.0004
  -3543467.42748  -2746965.18146  22665142.200    22665142.7034   22665146.6824
       172.0004        174.0004
  -7806399.17447  -6058813.35446  23539012.791    23539012.0064   23539015.0534
       163.0004        163.0004
  -4287174.22249  -3320350.38448  20197831.901    20197832.1424   20197836.2784
       216.0004        217.0004
  10841272.76847   8435796.90346  24660228.592    24660230.1734   24660239.8664
       163.0004        164.0004
   8786514.58249   6842073.66347  23395891.045    23395892.0184   23395897.7994
       200.0004        200.0004
  -2317869.99147  -1794231.01045  23246471.732    23246470.6904   23246474.8314
       159.0004        161.0004
   5592016.83548   4359719.77146  22932276.635    22932276.6404   22932280.0214
       165.0004        167.0004
 21  2  1  1 53 30.0000000  0 10G01G30G17G14G19G07G08G09G28G21
  -2766502.67749  -2138911.11047  20776575.608    20776576.2514   20776583.7594
       199.0004        199.0004
  -9235117.37249  -6894110.68747  20893870.372    20893870.3254   20893876.7114
       209.0004        209.0004
  -6361299.14448  -4946257.86347  21798736.487    21798736.7014   21798741.9014
       192.0004        193.0004
  -3575860.53048  -2772206.56546  22658977.543    22658979.0034   22658983.1304
       175.0004        178.0004
  -7875939.29447  -6113000.45146  23525780.515    23525779.9934   23525782.0294
       161.0004        163.0004
  -4292417.32949  -3324435.92248  20196833.437    20196834.0324   20196838.9564
       216.0004        217.0004
  10930549.79348   8505363.38646  24677222.802    24677222.3254   24677229.0904
       166.0004        169.0004
   8866313.77849   6904254.85247  23411076.254    23411076.5954   23411082.3984
       199.0004        197.0004
  -2341416.82847  -1812579.20045  23241989.829    23241989.4924   23241994.2494
       159.0004        162.0004
   5666438.90048   4417710.99046  22946439.624    22946439.1154   22946443.4314
       166.0004        168.0004
 21  2  1  1 54  0.0000000  0 10G01G30G17G14G19G07G08G09G28G21
  -2753499.84549  -2128779.01747  20779050.651    20779050.9034   20779058.4434
       199.0004        200.0004
  -9293052.92049  -6939255.27047  20882844.841    20882845.2744   20882851.7054
       209.0004        209.0004
  -6388163.29848  -4967190.95447  21793624.487    21793625.1704   21793629.4544
       194.0004        194.0004
  -3608330.15348  -2797507.55146  22652799.167    22652798.8014   22652803.6064
       176.0004        176.0004
  -7945170.97447  -6166947.19745  23512604.647    23512604.7024   23512608.0444
       160.0004        162.0004
  -4297098.20249  -3328083.36848  20195943.030    20195943.6204   20195948.0774
       216.0004        217.0004
  11019691.23748   8574824.25946  24694183.608    24694184.0414   24694191.9734
       167.0004        169.0004
   8946072.45549   6966404.48647  23426253.873    23426254.1584   23426260.6054
       197.0004        196.0004
  -2365089.02947  -1831025.07145  23237484.854    23237484.2264   23237489.1364
       158.0004        160.0004
   5741224.03348   4475985.12346  22960670.174    22960669.5524   22960674.7464
       166.0004        168.0004
 21  2  1  1 54 30.0000000  0 10G01G30G17G14G19G07G08G09G28G21
  -2739882.73649  -2118168.27447  20781640.786    20781641.6924   20781649.0734
       199.0004        199.0004
  -9350589.92849  -6984089.31047  20871896.529    20871896.2264   20871903.1464
       209.0004        209.0004
  -6414628.64448  -4987813.30247  21788588.658    21788588.8774   21788593.4494
       194.0004        194.0004
  -3640875.84548  -2822867.82746  22646604.771    22646605.8274   22646610.0884
       176.0004        176.0004
  -8014093.26447  -6220652.86346  23499490.010    23499489.3554   23499493.4294
       163.0004        166.0004
  -4301215.43149  -3331291.61348  20195159.788    20195160.0494   20195163.9114
       216.0004        217.0004
  11108696.15448   8644178.73946  24711119.214    24711119.6194   24711129.2074
       166.0004        167.0004
   9025788.36049   7028520.75647  23441423.426    23441423.6994   23441430.9324
       196.0004        196.0004
  -2388886.71147  -1849568.69545  23232957.080    23232957.0474   23232961.0854
       159.0004        162.0004
   5816370.90948   4534541.12546  22974970.274    22974969.7694   22974975.7464
       167.0004        168.0004
 21  2  1  1 55  0.0000000  0 10G01G30G17G14G19G07G08G09G28G21
  -2725650.88949  -2107078.51347  20784349.344    20784349.8794   20784357.4354
       199.0004        199.0004
  -9407725.50949  -7028610.54947  20861024.005    20861024.2114   20861030.7884
       209.0004        209.0004
  -6440695.78948  -5008125.36547  21783628.117    21783628.1714   21783632.6474
       194.0004        194.0004
  -3673497.15948  -2848287.03146  22640397.421    22640398.0804   22640402.1364
       175.0004        175.0004
  -8082705.11547  -6274116.62946  23486433.494    23486432.9464   23486436.2934
       163.0004        163.0004
  -4304767.53349  -3334059.50348  20194483.758    20194484.3334   20194488.6644
       216.0004        218.0004
  11197563.79647   8713426.25946  24728029.460    24728030.5664   24728039.2674
       163.0004        163.0004
   9105459.24149   7090601.94047  23456584.223    23456584.3284   23456590.9914
       197.0004        197.0004
  -2412809.84647  -1868210.09445  23228404.790    23228404.0654   23228407.9304
       160.0004        161.0004
   5891877.83748   4593377.69246  22989339.017    22989338.6744   22989344.2914
       167.0004        168.0004
 21  2  1  1 55 30.0000000  0 10G01G30G17G14G19G07G08G09G28G21
  -2710804.52949  -2095509.91447  20787173.913    20787174.8164   20787182.3534
       199.0004        199.0004
  -9464457.49749  -7072817.29147  20850227.753    20850228.0894   20850234.8084
       209.0004        209.0004
  -6466365.50148  -5028127.73047  21778743.067    21778743.0534   21778747.5694
       193.0004        193.0004
  -3706194.35748  -2873765.34546  22634175.214    22634176.2764   22634180.8254
       175.0004        175.0004
  -8151006.16947  -6327338.18846  23473436.537    23473435.7104   23473439.5904
       163.0004        164.0004
  -4307754.06049  -3336386.67848  20193915.343    20193915.6424   20193920.3954
       216.0004        217.0004
  11286292.20647   8782565.25445  24744917.191    24744915.7614   24744923.2354
       160.0004        162.0004
   9185082.20449   7152645.81947  23471736.670    23471736.3614   23471744.0444
       199.0004        200.0004
  -2436859.45847  -1886950.05845  23223826.763    23223827.0564   23223832.2744
       160.0004        162.0004
   5967742.05048   4652492.66146  23003775.372    23003774.7574   23003780.6564
       167.0004        169.0004
 21  2  1  1 56  0.0000000  0  9G01G30G17G14G19G07G09G28G21
  -2695342.61249  -2083461.65247  20790116.421    20790116.9814   20790125.0904
       199.0004        199.0004
  -9520782.25549  -7116706.72247  20839509.856    20839510.0184   20839516.4754
       209.0004        209.0004
  -6491638.19548  -5047820.73147  21773933.864    21773934.1704   21773938.2814
       193.0004        194.0004
  -3738966.21648  -2899301.84646  22627939.363    22627940.0574   22627943.8774
       174.0004        175.0004
  -8218994.70847  -6380316.27846  23460497.712    23460497.4074   23460501.2404
       163.0004        165.0004
  -4310172.45349  -3338271.14048  20193454.658    20193455.4654   20193459.7724
       215.0004        217.0004
   9264655.85849   7214651.24847  23486877.649    23486878.3314   23486885.6564
       199.0004        197.0004
  -2461034.90447  -1905788.05545  23219226.667    23219226.8804   23219231.5484
       160.0004        162.0004
   6043962.28348   4711885.04446  23018279.713    23018279.1544   23018284.4854
       168.0004        169.0004
 21  2  1  1 56 30.0000000  0  9G01G30G17G14G19G07G09G28G21
  -2679265.98449  -2070934.39347  20793176.095    20793176.7884   20793184.1624
       199.0004        199.0004
  -9576698.19049  -7160277.57747  20828869.304    20828869.3124   20828876.1034
       209.0004        209.0004
  -6516514.87248  -5067205.13247  21769199.943    21769200.9564   21769204.5764
       194.0004        195.0004
  -3771813.41848  -2924897.07546  22621689.128    22621689.7684   22621693.8324
       176.0004        177.0004
  -8286670.95748  -6433050.99446  23447621.177    23447619.7694   23447622.9034
       165.0004        167.0004
  -4312022.74349  -3339712.93048  20193103.721    20193103.9114   20193107.8924
       216.0004        217.0004
   9344176.83549   7276615.64447  23502010.034    23502010.3404   23502017.3724
       195.0004        193.0004
  -2485337.37247  -1924725.02445  23214602.730    23214602.9764   23214606.1104
       159.0004        161.0004
   6120535.78048   4771552.70846  23032849.458    23032849.8264   23032856.5294
       167.0004        168.0004
 21  2  1  1 57  0.0000000  0  9G01G30G17G14G19G07G09G28G21
  -2662575.74349  -2057929.01547  20796352.734    20796353.0894   20796360.1054
       199.0004        199.0004
  -9632203.86649  -7203528.76647  20818306.752    20818306.9614   20818314.0484
       209.0004        209.0004
  -6540997.56148  -5086282.54647  21764541.580    21764541.8764   21764545.7014
       194.0004        195.0004
  -3804736.96448  -2950551.78046  22615423.200    22615424.4274   22615429.4264
       177.0004        179.0004
  -8354034.91447  -6485542.37846  23434800.759    23434800.6784   23434804.6394
       164.0004        166.0004
  -4313304.77949  -3340711.93548  20192858.989    20192859.5474   20192864.0684
       216.0004        217.0004
   9423641.44548   7338536.09847  23517131.432    23517132.1744   23517139.0254
       192.0004        192.0004
  -2509768.00247  -1943761.90745  23209954.256    23209954.2114   23209957.8474
       160.0004        161.0004
   6197460.05148   4831493.68446  23047488.790    23047488.4044   23047494.1644
       167.0004        168.0004
 21  2  1  1 57 30.0000000  0  9G01G30G17G14G19G07G09G28G21
  -2645271.90949  -2044445.49447  20799644.363    20799645.1724   20799653.5094
       199.0004        199.0004
  -9687296.69749  -7246458.24747  20807822.738    20807822.9854   20807829.8624
       209.0004        209.0004
  -6565087.34949  -5105053.80847  21759956.861    21759957.1084   21759961.9064
       195.0004        195.0004
  -3837736.60548  -2976265.77946  22609144.220    22609144.3764   22609148.6134
       178.0004        177.0004
  -8421086.20447  -6537790.10146  23422042.107    23422041.0854   23422045.1944
       164.0004        165.0004
  -4314018.04949  -3341267.73648  20192723.205    20192723.8054   20192728.3794
       216.0004        217.0004
   9503047.26248   7400410.74747  23532242.842    23532242.7834   23532249.5684
       192.0004        193.0004
  -2534327.39447  -1962899.08045  23205279.209    23205279.6664   23205284.2334
       159.0004        161.0004
   6274732.41448   4891705.90246  23062194.305    23062193.7024   23062198.4634
       167.0004        169.0004
 21  2  1  1 58  0.0000000  0  9G01G30G17G14G19G07G09G28G21
  -2627354.80849  -2030484.11347  20803054.636    20803055.0584   20803063.0424
       199.0004        200.0004
  -9741974.53549  -7289064.37147  20797417.990    20797417.9764   20797425.2294
       209.0004        209.0004
  -6588784.81249  -5123519.37747  21755447.552    21755447.4984   21755451.7614
       195.0004        195.0004
  -3870812.49148  -3002039.19746  22602849.240    22602849.8324   22602854.0864
       176.0004        175.0004
  -8487824.31947  -6589793.84546  23409341.041    23409340.4664   23409345.0644
       163.0004        164.0004
  -4314161.18049  -3341379.28648  20192696.383    20192696.7584   20192701.1254
       216.0004        217.0004
   9582391.55148   7462237.44047  23547340.527    23547341.5644   23547349.4164
       193.0004        194.0004
  -2559016.15547  -1982137.08045  23200581.817    23200582.2914   23200586.4434
       159.0004        161.0004
   6352350.56848   4952187.57446  23076964.611    23076963.5844   23076968.1874
       167.0004        167.0004
 21  2  1  1 58 30.0000000  0  9G01G30G17G14G19G07G09G28G21
  -2608823.69349  -2016044.27247  20806580.520    20806581.3314   20806589.2574
       199.0004        199.0004
  -9796233.97549  -7331344.44547  20787092.590    20787092.8304   20787100.0654
       209.0004        209.0004
  -6612090.39549  -5141679.55847  21751013.194    21751013.4724   21751017.0494
       195.0004        195.0004
  -3903963.47348  -3027871.13246  22596542.142    22596542.0454   22596545.5234
       174.0004        175.0004
  -8554247.84247  -6641552.41546  23396702.311    23396701.8614   23396705.0364
       163.0004        166.0004
  -4313732.59049  -3341045.33148  20192777.795    20192778.3444   20192782.2684
       216.0004        216.0004
   9661672.75648   7524014.98047  23562428.108    23562428.0404   23562435.4184
       193.0004        193.0004
  -2583833.94347  -2001475.59745  23195860.103    23195859.1964   23195863.3694
       158.0004        159.0004
   6430313.22148   5012937.69146  23091798.388    23091798.5194   23091805.0634
       166.0004        167.0004
 21  2  1  1 59  0.0000000  0  9G01G30G17G14G19G07G09G28G21
  -2589678.76849  -2001126.14047  20810223.604    20810224.4924   20810232.3364
       199.0004        199.0004
  -9850072.73849  -7373296.73547  20776847.533    20776847.8694   20776854.5524
       209.0004        210.0004
  -6635005.64349  -5159535.56947  21746651.984    21746652.3224   21746656.7524
       195.0004        195.0004
  -3937189.52748  -3053761.55846  22590219.771    22590220.4534   22590222.8974
       175.0004        177.0004
  -8620356.25848  -6693065.46046  23384122.720    23384120.8444   23384125.7614
       165.0004        166.0004
  -4312732.06349  -3340265.71148  20192968.064    20192968.5774   20192972.8784
       215.0004        217.0004
   9740888.21448   7585741.29647  23577502.693    23577502.5994   23577509.6954
       192.0004        193.0004
  -2608780.67047  -2020914.61945  23191112.371    23191112.8764   23191115.4874
       158.0004        161.0004
   6508618.50748   5073954.79246  23106700.251    23106700.1544   23106704.1804
       165.0004        166.0004
 21  2  1  1 59 30.0000000  0  9G01G30G17G14G19G07G09G28G21
  -2569921.05749  -1985730.51347  20813983.333    20813984.2894   20813992.1044
       198.0004        199.0004
  -9903489.10949  -7414919.88447  20766682.717    20766682.8234   20766689.7244
       209.0004        209.0004
  -6657531.95149  -5177088.53247  21742365.382    21742365.8184   21742370.2724
       195.0004        195.0004
  -3970491.22248  -3079710.94246  22583881.837    22583881.8924   22583885.5044
       176.0004        175.0004
  -8686149.92647  -6744333.23746  23371600.877    23371600.6644   23371605.0574
       163.0004        164.0004
  -4311158.77349  -3339039.77648  20193267.781    20193268.0384   20193272.4654
       215.0004        217.0004
   9820034.83848   7647413.97047  23592563.493    23592563.7224   23592570.3274
       193.0004        194.0004
  -2633858.15847  -2040455.52446  23186340.798    23186340.2914   23186344.5624
       160.0004        163.0004
   6587262.64748   5135235.92146  23121666.379    23121666.1364   23121669.4674
       165.0004        167.0004
 21  2  1  2  0  0.0000000  0  9G01G30G17G14G19G07G09G28G21
  -2549549.77549  -1969856.77247  20817860.237    20817860.9314   20817869.0664
       198.0004        199.0004
  -9956479.69549  -7456211.25047  20756599.122    20756599.2814   20756606.2084
       209.0004        209.0004
  -6679668.89649  -5194338.09747  21738153.230    21738153.5274   21738158.0004
       196.0004        196.0004
  -4003867.36548  -3105718.33746  22577529.550    22577530.6814   22577534.5014
       175.0004        176.0004
  -8751627.03947  -6795354.33345  23359141.778    23359140.4644   23359144.6144
       160.0004        162.0004
  -4309010.82049  -3337366.06348  20193676.436    20193676.7494   20193681.1374
       215.0004        217.0004
   9899110.88748   7709031.65747  23607611.210    23607611.5204   23607618.7134
       193.0004        193.0004
  -2659065.52847  -2060097.62645  23181542.412    23181542.9064   23181548.2884
       160.0004        161.0004
   6666245.11047   5196780.71146  23136696.955    23136696.1274   23136698.2554
       164.0004        166.0004
 21  2  1  2  0 30.0000000  0  9G01G30G17G14G19G07G09G28G21
  -2528565.51249  -1953505.40347  20821852.778    20821853.9214   20821861.5194
       198.0004        198.0004
 -10009042.48449  -7497169.27147  20746596.201    20746596.4954   20746603.7094
       209.0004        209.0004
  -6701417.99349  -5211285.44547  21734014.362    21734014.7754   21734018.5524
       196.0004        196.0004
  -4037318.14848  -3131783.86346  22571164.426    22571165.0204   22571170.2534
       176.0004        177.0004
  -8816787.49447  -6846128.69646  23346742.516    23346741.8644   23346745.9714
       161.0004        163.0004
  -4306288.35649  -3335244.67848  20194194.091    20194194.5664   20194198.9534
       215.0004        216.0004
   9978113.63548   7770592.24947  23622644.209    23622644.5884   23622652.4904
       191.0004        190.0004
  -2684403.32047  -2079841.33945  23176720.868    23176721.1384   23176725.0904
       160.0004        161.0004
   6745563.08747   5258586.91646  23151789.920    23151788.5474   23151792.1914
       163.0004        163.0004
 21  2  1  2  1  0.0000000  0  9G01G30G17G14G19G07G09G28G21
  -2506967.96549  -1936676.13347  20825963.706    20825963.8804   20825970.7864
       198.0004        198.0004
 -10061174.43949  -7537791.57047  20736676.076    20736676.0524   20736683.0254
       209.0004        209.0004
  -6722779.77349  -5227930.97047  21729949.099    21729949.5884   21729953.9564
       195.0004        196.0004
  -4070842.70548  -3157906.90346  22564786.266    22564785.5564   22564790.0414
       177.0004        177.0004
  -8881630.03147  -6896655.34046  23334402.247    23334402.5234   23334406.4034
       162.0004        163.0004
  -4302989.77149  -3332674.35848  20194822.286    20194822.5244   20194826.7404
       215.0004        217.0004
  10057041.29248   7832094.28947  23637665.878    23637665.1714   23637671.4444
       190.0004        190.0004
  -2709871.35847  -2099686.56545  23171873.960    23171874.2474   23171879.0394
       159.0004        161.0004
   6825215.13947   5320653.47346  23166945.450    23166945.2444   23166948.8304
       162.0004        164.0004
 21  2  1  2  1 30.0000000  0  9G01G30G17G14G19G07G09G28G21
  -2484757.92249  -1919369.60147  20830189.167    20830190.4794   20830197.5764
       198.0004        198.0004
 -10112873.62249  -7578076.65847  20726838.396    20726838.2654   20726845.0444
       209.0004        210.0004
  -6743755.65049  -5244275.80747  21725957.612    21725958.0884   21725962.5954
       195.0004        196.0004
  -4104441.29748  -3184087.60946  22558391.241    22558392.3134   22558397.0594
       177.0004        178.0004
  -8946154.53447  -6946934.14146  23322125.285    23322123.6714   23322128.1284
       162.0004        165.0004
  -4299114.76149  -3329654.88548  20195559.893    20195560.1244   20195564.4384
       216.0004        217.0004
  10135890.87748   7893535.50547  23652668.520    23652669.1784   23652676.1234
       190.0004        190.0004
  -2735470.68547  -2119634.09945  23167003.756    23167003.6574   23167007.4684
       159.0004        160.0004
   6905198.64547   5382978.26546  23182167.153    23182167.2484   23182170.5124
       162.0004        163.0004
 21  2  1  2  2  0.0000000  0  9G01G30G17G14G19G07G09G28G21
  -2461936.15749  -1901586.38847  20834533.060    20834533.2334   20834541.1014
       198.0004        199.0004
 -10164138.10749  -7618023.01347  20717083.332    20717083.4464   20717089.8504
       210.0004        211.0004
  -6764347.14649  -5260321.11247  21722038.866    21722039.3114   21722043.7694
       196.0004        197.0004
  -4138114.05448  -3210326.11846  22551984.040    22551984.5954   22551988.1024
       178.0004        178.0004
  -9010361.07747  -6996965.18746  23309906.453    23309905.1944   23309909.2764
       163.0004        164.0004
  -4294662.86349  -3326185.87248  20196406.677    20196407.1284   20196411.4104
       215.0004        216.0004
  10214659.55048   7954913.67247  23667657.947    23667658.4694   23667665.1744
       190.0004        191.0004
  -2761201.33047  -2139683.93945  23162106.719    23162106.8644   23162110.9454
       158.0004        160.0004
   6985510.60147   5445559.02246  23197450.464    23197449.3104   23197454.5554
       164.0004        165.0004
 21  2  1  2  2 30.0000000  0  9G01G30G17G14G19G07G09G28G21
  -2438502.73349  -1883326.56947  20838991.923    20838992.8384   20839000.0234
       198.0004        198.0004
 -10214965.29149  -7657628.60647  20707410.868    20707411.2434   20707418.0194
       210.0004        211.0004
  -6784554.90849  -5276067.41147  21718193.854    21718194.1254   21718198.4294
       196.0004        197.0004
  -4171860.45748  -3236622.02146  22545562.562    22545563.0074   22545567.3514
       178.0004        178.0004
  -9074248.89047  -7046747.90846  23297747.708    23297748.3294   23297751.7174
       162.0004        164.0004
  -4289633.11549  -3322266.59848  20197364.060    20197364.5324   20197368.5404
       215.0004        217.0004
  10293345.16548   8016227.13547  23682631.787    23682631.5124   23682638.9734
       190.0004        190.0004
  -2787063.60647  -2159836.35945  23157186.233    23157186.0394   23157188.9844
       159.0004        162.0004
   7066149.32147   5508394.38746  23212795.168    23212795.0374   23212798.5284
       164.0004        164.0004
 21  2  1  2  3  0.0000000  0 10G01G30G17G14G19G07G09G22G28G21
  -2414460.60749  -1864592.43547  20843567.893    20843567.9204   20843574.4034
       198.0004        198.0004
 -10265355.30649  -7696893.56647  20697822.194    20697822.4264   20697828.8104
       211.0004        211.0004
  -6804382.51149  -5291517.48647  21714421.024    21714421.0254   21714425.5474
       196.0004        196.0004
  -4205682.80748  -3262977.07746  22539125.034    22539126.4874   22539131.2004
       178.0004        178.0004
  -9137819.89947  -7096283.74446  23285651.548    23285650.7674   23285655.6184
       163.0004        165.0004
  -4284027.44549  -3317898.56348  20198430.701    20198431.3464   20198435.4624
       215.0004        217.0004
  10371942.81148   8077472.01147  23697588.797    23697588.6314   23697595.2754
       190.0004        189.0004
  -6017712.11256  -4675403.52745  24785986.868    24785985.8365   24785989.5594
       134.0004        138.0004
  -2813060.58447  -2180093.76145  23152239.175    23152239.2644   23152241.5484
       159.0004        162.0004
   7147110.05547   5571480.67046  23228200.633    23228200.9994   23228207.1134
       163.0004        163.0004
 21  2  1  2  3 30.0000000  0 10G01G30G17G14G19G07G09G22G28G21
  -2389807.22949  -1845381.99247  20848257.921    20848259.0504   20848265.6654
       198.0004        198.0004
 -10315302.84249  -7735813.73347  20688317.380    20688317.5114   20688324.0004
       211.0004        211.0004
  -6823827.45849  -5306669.39247  21710720.728    21710721.0024   21710724.9734
       196.0004        195.0004
  -4239577.77648  -3289388.75746  22532676.281    22532676.6154   22532680.2334
       178.0004        178.0004
  -9201070.62747  -7145569.99446  23273616.156    23273615.4164   23273618.3864
       163.0004        165.0004
  -4277842.39349  -3313079.04148  20199607.773    20199608.0474   20199612.5224
       216.0004        217.0004
  10450452.99948   8138648.77547  23712527.988    23712527.9404   23712535.1684
       189.0004        189.0004
  -6040184.88546  -4692914.79645  24781710.109    24781709.4894   24781711.1604
       133.0004        138.0004
  -2839189.46447  -2200453.92645  23147266.973    23147266.8534   23147271.7794
       159.0004        161.0004
   7228393.45747   5634818.37546  23243668.842    23243668.4654   23243673.8444
       163.0004        164.0004
 21  2  1  2  4  0.0000000  0 10G01G30G17G14G19G07G09G22G28G21
  -2364542.41849  -1825695.13147  20853065.818    20853066.3264   20853074.3644
       198.0004        198.0004
 -10364804.92649  -7774386.79347  20678897.785    20678897.4364   20678904.2354
       211.0004        212.0004
  -6842891.25349  -5321524.31047  21707093.006    21707093.4804   21707097.1384
       195.0004        195.0004
  -4273544.48448  -3315856.34246  22526212.448    22526212.8014   22526218.1334
       179.0004        178.0004
  -9264000.25447  -7194606.05446  23261640.268    23261638.8024   23261643.2884
       163.0004        164.0004
  -4271076.68549  -3307807.08148  20200894.954    20200895.4764   20200899.7884
       215.0004        216.0004
  10528874.09348   8199756.11847  23727449.658    23727450.3754   23727459.2574
       189.0004        189.0004
  -6062561.33247  -4710350.96045  24777450.310    24777450.0314   24777452.7484
       135.0004        141.0004
  -2865449.63847  -2220916.40346  23142269.793    23142270.1224   23142273.8554
       160.0004        163.0004
   7309998.02347   5698406.33846  23259197.785    23259197.7384   23259203.3844
       163.0004        166.0004
 21  2  1  2  4 30.0000000  0 10G01G30G17G14G19G07G09G22G28G21
  -2338667.42749  -1805532.78647  20857989.482    20857990.4884   20857997.5024
       198.0004        198.0004
 -10413860.02649  -7812611.53947  20669562.610    20669562.8214   20669569.4834
       211.0004        212.0004
  -6861575.47849  -5336083.42847  21703537.477    21703537.8104   21703541.8654
       195.0004        195.0004
  -4307583.40348  -3342380.13546  22519734.629    22519735.7674   22519739.9244
       178.0004        178.0004
  -9326608.89647  -7243392.00346  23249726.288    23249724.0204   23249729.0624
       163.0004        164.0004
  -4263730.62049  -3302082.88148  20202293.528    20202293.6504   20202297.7974
       215.0004        217.0004
  10607202.82648   8260791.47147  23742356.314    23742356.7934   23742363.8764
       189.0004        189.0004
  -6084839.69147  -4727710.70445  24773210.571    24773211.2714   24773216.0844
       135.0004        140.0004
  -2891842.18947  -2241482.02445  23137247.156    23137246.3014   23137251.7184
       160.0004        161.0004
   7391921.02547   5762242.44846  23274787.812    23274787.6514   23274792.4124
       164.0004        165.0004
 21  2  1  2  5  0.0000000  0 10G01G30G17G14G19G07G09G22G28G21
  -2312182.52349  -1784895.18947  20863030.069    20863030.6424   20863037.5414
       197.0004        198.0004
 -10462465.62649  -7850486.04448  20660314.122    20660314.0094   20660320.4124
       212.0004        213.0004
  -6879880.95748  -5350347.42747  21700053.389    21700053.9714   21700058.1014
       194.0004        194.0004
  -4341693.93848  -3368959.77246  22513243.575    22513244.5574   22513248.7204
       178.0004        178.0004
  -9388895.61648  -7291927.12546  23237873.904    23237874.0134   23237876.2004
       165.0004        167.0004
  -4255802.64949  -3295905.25248  20203801.657    20203801.8664   20203806.3394
       215.0004        216.0004
  10685437.08848   8321753.21147  23757243.900    23757244.2854   23757251.2164
       189.0004        189.0004
  -6107017.28747  -4744991.96345  24768993.492    24768991.9454   24768994.8404
       137.0004        144.0004
  -2918367.57747  -2262151.13645  23132199.507    23132199.3894   23132204.5974
       158.0004        159.0004
   7474160.01547   5826324.76146  23290435.803    23290435.2844   23290442.2194
       163.0004        164.0004
 21  2  1  2  5 30.0000000  0 10G01G30G17G14G19G07G09G22G28G21
  -2285089.56449  -1763783.78847  20868185.652    20868186.2154   20868192.8744
       198.0004        198.0004
 -10510620.67649  -7888009.46148  20651149.887    20651150.1134   20651156.8544
       213.0004        213.0004
  -6897809.70749  -5364317.87247  21696642.277    21696642.3334   21696646.8844
       195.0004        195.0004
  -4375877.03148  -3395595.95446  22506739.163    22506739.5124   22506743.6424
       179.0004        179.0004
  -9450861.66548  -7340212.32446  23226082.073    23226081.3604   23226084.8454
       165.0004        166.0004
  -4247294.13949  -3289275.25248  20205420.484    20205421.4004   20205425.4414
       215.0004        216.0004
  10763573.27248   8382638.55447  23772113.585    23772113.3304   23772120.0314
       189.0004        189.0004
  -6129093.20747  -4762193.99645  24764789.279    24764790.4234   24764793.4804
       136.0004        140.0004
  -2945026.63547  -2282924.42046  23127126.388    23127127.0284   23127130.8654
       159.0004        163.0004
   7556711.52447   5890650.59246  23306144.740    23306145.2224   23306151.3184
       162.0004        164.0004
 21  2  1  2  6  0.0000000  0 10G01G30G17G14G19G07G09G22G28G21
  -2257388.49949  -1742198.53147  20873456.299    20873456.9844   20873464.7224
       197.0004        197.0004
 -10558322.35149  -7925179.60448  20642072.127    20642072.5224   20642079.5014
       213.0004        213.0004
  -6915362.85849  -5377995.63447  21693302.125    21693302.1224   21693305.6934
       195.0004        195.0004
  -4410131.72748  -3422287.93646  22500220.888    22500220.6564   22500226.0844
       179.0004        180.0004
  -9512506.05047  -7388246.90546  23214349.633    23214349.8354   23214353.9074
       163.0004        164.0004
  -4238203.77149  -3282191.85548  20207150.875    20207151.3014   20207155.3924
       215.0004        216.0004
  10841609.62448   8443446.08447  23786962.229    23786962.3954   23786970.3234
       188.0004        188.0004
  -6151064.59747  -4779314.55945  24760609.763    24760609.5634   24760612.5484
       135.0004        142.0004
  -2971818.98947  -2303801.58546  23122028.473    23122028.3804   23122032.8864
       161.0004        163.0004
   7639574.12347   5955218.85246  23321915.349    23321914.8064   23321919.7664
       162.0004        164.0004
 21  2  1  2  6 30.0000000  0 10G01G30G17G14G19G07G09G22G28G21
  -2229080.35649  -1720140.23747  20878843.715    20878843.9594   20878851.7794
       197.0004        198.0004
 -10605568.78349  -7961995.01748  20633081.558    20633081.6604   20633088.6744
       213.0004        213.0004
  -6932541.35649  -5391381.48547  21690032.873    21690033.5404   21690037.1834
       195.0004        195.0004
  -4444458.14348  -3449035.79546  22493687.760    22493689.3064   22493694.2764
       178.0004        177.0004
  -9573828.57148  -7436030.67946  23202682.775    23202681.3854   23202685.5824
       165.0004        168.0004
  -4228531.55349  -3274655.07748  20208991.466    20208992.0214   20208995.7874
       215.0004        217.0004
  10919543.35148   8504173.64147  23801793.864    23801794.2134   23801799.6724
       190.0004        191.0004
  -6172929.53047  -4796352.13345  24756450.783    24756449.1864   24756452.8724
       137.0004        142.0004
  -2998745.42847  -2324783.21846  23116904.549    23116904.5714   23116908.7784
       161.0004        163.0004
   7722744.91447   6020027.24045  23337741.602    23337741.9304   23337745.6914
       161.0004        161.0004
 21  2  1  2  7  0.0000000  0 10G01G30G17G14G19G07G09G22G28G21
  -2200166.00349  -1697609.57247  20884345.485    20884346.6194   20884354.1804
       197.0004        198.0004
 -10652357.95349  -7998454.11548  20624178.137    20624178.2554   20624184.6154
       213.0004        213.0004
  -6949347.44849  -5404477.12347  21686834.637    21686835.0114   21686838.5274
       195.0004        195.0004
  -4478856.08048  -3475839.37046  22487142.924    22487143.7164   22487147.6214
       178.0004        178.0004
  -9634829.22748  -7483563.63446  23191074.344    23191074.3464   23191077.0094
       166.0004        167.0004
  -4218277.30149  -3266664.75248  20210942.727    20210943.0054   20210947.0654
       215.0004        216.0004
  10997371.90748   8564819.24947  23816604.758    23816604.6224   23816609.9434
       191.0004        192.0004
  -6194686.06147  -4813305.28345  24752310.041    24752308.5364   24752310.0864
       138.0004        143.0004
  -3025806.32747  -2345869.65245  23111755.170    23111753.6774   23111759.1884
       160.0004        161.0004
   7806221.30047   6085073.76945  23353625.542    23353625.4644   23353631.4374
       160.0004        162.0004
 21  2  1  2  7 30.0000000  0 10G01G30G17G14G19G07G09G22G28G21
  -2170645.08849  -1674606.25347  20889963.743    20889963.9334   20889971.4584
       198.0004        197.0004
 -10698686.60149  -8034554.36648  20615361.735    20615361.9494   20615368.6484
       212.0004        213.0004
  -6965780.83149  -5417282.36147  21683708.127    21683708.7054   21683711.5834
       196.0004        196.0004
  -4513324.20048  -3502697.64646  22480582.629    22480583.7054   22480588.1754
       177.0004        176.0004
  -9695506.49248  -7530844.61946  23179527.273    23179527.1454   23179530.0274
       165.0004        166.0004
  -4207439.45549  -3258219.68948  20213004.999    20213005.6504   20213009.3384
       215.0004        216.0004
  11075093.98948   8625381.90147  23831391.635    23831392.9404   23831400.9054
       191.0004        192.0004
  -6216330.35547  -4830170.98445  24748189.972    24748189.6024   24748192.9804
       139.0004        145.0004
  -3053001.09947  -2367060.40145  23106578.467    23106579.3944   23106584.0234
       158.0004        159.0004
   7890002.31747   6150357.66645  23369567.266    23369568.3954   23369573.5264
       159.0004        161.0004
 21  2  1  2  8  0.0000000  0 10G01G30G17G14G19G07G09G22G28G21
  -2140518.17049  -1651130.72547  20895695.670    20895696.7284   20895704.7324
       197.0004        197.0004
 -10744552.35349  -8070293.91848  20606634.230    20606634.3344   20606640.8604
       213.0004        213.0004
  -6981842.49449  -5429797.93747  21680651.111    21680651.2884   21680655.4694
       196.0004        196.0004
  -4547861.93048  -3529610.17246  22474012.008    22474012.9274   22474016.5444
       177.0004        178.0004
  -9755860.02748  -7577873.32046  23168042.735    23168041.8334   23168045.1774
       166.0004        168.0004
  -4196017.93649  -3249319.80448  20215178.548    20215179.0564   20215183.0304
       215.0004        216.0004
  11152707.46748   8685859.91247  23846162.067    23846162.6744   23846170.6764
       192.0004        192.0004
  -6237860.05747  -4846947.37245  24744092.244    24744091.7444   24744097.1144
       139.0004        143.0004
  -3080329.45747  -2388355.19845  23101379.968    23101378.6514   23101384.0664
       159.0004        162.0004
   7974085.86247   6215877.32045  23385568.116    23385568.4434   23385572.9324
       158.0004        160.0004
 21  2  1  2  8 30.0000000  0 10G01G30G17G14G19G07G09G22G28G21
  -2109785.82749  -1627183.43447  20901544.539    20901545.2654   20901553.2004
       197.0004        198.0004
 -10789952.91949  -8105670.98148  20597994.590    20597994.5474   20598001.6464
       213.0004        214.0004
  -6997533.61349  -5442024.77947  21677665.604    21677665.9224   21677669.8984
       196.0004        197.0004
  -4582468.79248  -3556576.54446  22467424.986    22467426.3844   22467431.8804
       178.0004        177.0004
  -9815889.42348  -7624649.46846  23156619.186    23156618.5664   23156622.5444
       166.0004        167.0004
  -4184011.44149  -3239964.08948  20217463.126    20217463.5944   20217467.8514
       215.0004        216.0004
  11230210.13148   8746251.58747  23860910.132    23860910.8884   23860918.4664
       193.0004        193.0004
  -6259273.01747  -4863632.78145  24740017.541    24740017.6164   24740021.7454
       139.0004        144.0004
  -3107791.51647  -2409754.19345  23096153.990    23096153.3114   23096156.8754
       160.0004        162.0004
   8058469.17947   6281630.57045  23401626.253    23401626.2174   23401630.2324
       156.0004        158.0004
 21  2  1  2  9  0.0000000  0 10G01G30G17G14G19G07G09G22G28G21
  -2078450.04049  -1602765.93847  20907508.047    20907508.5154   20907515.9754
       198.0004        197.0004
 -10834887.32149  -8140684.80548  20589443.890    20589443.9474   20589450.7704
       213.0004        214.0004
  -7012856.83249  -5453964.94347  21674749.249    21674749.9734   21674754.4074
       197.0004        198.0004
  -4617145.52648  -3583597.38246  22460827.766    22460827.6714   22460832.9144
       178.0004        179.0004
  -9875595.27348  -7671173.48146  23145257.180    23145257.3734   23145259.8734
       166.0004        169.0004
  -4171421.24849  -3230153.55248  20219859.501    20219859.7794   20219863.6004
       215.0004        216.0004
  11307598.48648   8806554.18347  23875636.243    23875637.2764   23875644.7874
       190.0004        189.0004
  -6280567.86147  -4880226.15545  24735966.241    24735964.0274   24735969.7074
       139.0004        145.0004
  -3135388.64447  -2431258.44846  23090902.504    23090902.3184   23090906.2244
       161.0004        163.0004
   8143148.79047   6347614.69045  23417740.840    23417740.2714   23417744.9574
       155.0004        157.0004
 21  2  1  2  9 30.0000000  0 10G01G30G17G14G19G07G09G22G28G21
  -2046511.33049  -1577878.62847  20913585.280    20913585.5444   20913593.3454
       197.0004        197.0004
 -10879353.08149  -8175333.45648  20580982.370    20580982.3644   20580989.0984
       213.0004        214.0004
  -7027812.92449  -5465619.02447  21671903.325    21671904.1274   21671908.0654
       198.0004        198.0004
  -4651891.45148  -3610672.12746  22454214.709    22454215.6224   22454220.3684
       178.0004        178.0004
  -9934977.20148  -7717445.13246  23133958.165    23133956.8784   23133961.4204
       170.0004        172.0004
  -4158246.87349  -3219887.82748  20222366.098    20222366.5684   20222370.5064
       215.0004        216.0004
  11384870.54748   8866766.17247  23890342.526    23890342.2054   23890349.1014
       189.0004        188.0004
  -6301741.89247  -4896725.37245  24731937.296    24731936.5094   24731941.1944
       142.0004        147.0004
  -3163120.79947  -2452867.91146  23085624.702    23085624.6684   23085629.5514
       161.0004        163.0004
   8228123.17547   6413828.49545  23433911.238    23433911.1184   23433915.0944
       156.0004        158.0004
 21  2  1  2 10  0.0000000  0 10G01G30G17G14G19G07G09G22G28G21
  -2013971.01149  -1552522.53747  20919777.151    20919777.6394   20919786.0804
       197.0004        197.0004
 -10923348.60149  -8209615.68848  20572610.180    20572610.4974   20572616.8384
       214.0004        214.0004
  -7042403.83549  -5476988.56447  21669126.689    21669127.0314   21669131.6354
       198.0004        198.0004
  -4686706.64548  -3637800.86046  22447591.142    22447591.9664   22447595.0584
       178.0004        178.0004
  -9994035.44548  -7763464.52046  23122719.045    23122718.6254   23122722.8974
       170.0004        173.0004
  -4144488.27449  -3209166.84848  20224984.539    20224984.8804   20224989.2034
       215.0004        216.0004
  11462023.52148   8926885.35947  23905024.152    23905024.4694   23905030.4264
       188.0004        189.0004
  -6322793.61147  -4913129.31445  24727933.450    24727931.4524   24727934.8234
       144.0004        148.0004
  -3190988.35047  -2474582.89746  23080321.964    23080322.0794   23080326.6384
       161.0004        163.0004
   8313389.58447   6480269.85545  23450136.147    23450135.7814   23450141.0144
       156.0004        158.0004
 21  2  1  2 10 30.0000000  0 10G01G30G17G14G19G07G09G22G28G21
  -1980829.52649  -1526697.99147  20926083.214    20926084.1344   20926092.5134
       196.0004        196.0004
 -10966871.30249  -8243529.47948  20564327.976    20564328.2514   20564334.8584
       213.0004        214.0004
  -7056630.37249  -5488074.16347  21666419.781    21666420.2034   21666423.7694
       197.0004        197.0004
  -4721590.27548  -3664982.90746  22440951.095    22440952.4104   22440956.8254
       177.0004        176.0004
 -10052769.27048  -7809231.12646  23111541.855    23111542.0304   23111545.9694
       172.0004        174.0004
  -4130144.78049  -3197990.10848  20227713.928    20227714.1884   20227718.4724
       215.0004        216.0004
  11539055.54448   8986910.28047  23919683.629    23919683.5964   23919689.1824
       189.0004        189.0004
  -6343720.10247  -4929435.66745  24723950.714    24723948.5844   24723952.1344
       144.0004        147.0004
  -3218991.06447  -2496403.15645  23074992.241    23074993.5114   23074997.9464
       160.0004        161.0004
   8398945.60347   6546936.87845  23466416.878    23466416.8414   23466422.6994
       157.0004        158.0004
 21  2  1  2 11  0.0000000  0 10G01G30G17G14G19G07G09G22G28G21
  -1947087.14149  -1500405.22547  20932505.431    20932505.5744   20932513.5794
       196.0004        196.0004
 -11009918.49049  -8277072.74748  20556137.006    20556136.9484   20556143.2684
       214.0004        214.0004
  -7070492.96649  -5498876.18547  21663781.318    21663782.1224   21663786.1414
       196.0004        196.0004
  -4756541.30948  -3692217.45846  22434299.712    22434299.7404   22434306.2054
       175.0004        176.0004
 -10111177.79848  -7854744.27346  23100428.488    23100427.1844   23100431.3574
       172.0004        173.0004
  -4115215.78549  -3186357.14248  20230554.515    20230554.9794   20230559.3134
       214.0004        216.0004
  11615964.95348   9046839.66246  23934318.342    23934318.2794   23934324.8204
       188.0004        187.0004
  -6364518.40047  -4945642.11845  24719991.735    24719990.2374   24719995.4704
       141.0004        145.0004
  -3247128.58947  -2518328.51545  23069640.854    23069638.6224   23069642.3424
       160.0004        161.0004
   8484789.35047   6613828.07545  23482752.930    23482753.6264   23482758.9304
       158.0004        161.0004
 21  2  1  2 11 30.0000000  0 10G01G30G17G14G19G07G09G22G28G21
  -1912745.66949  -1473645.62647  20939040.129    20939040.9594   20939048.2484
       196.0004        196.0004
 -11052488.91549  -8310244.51348  20548036.122    20548036.1594   20548042.6834
       214.0004        215.0004
  -7083994.03349  -5509396.49347  21661211.480    21661212.0914   21661217.5254
       195.0004        195.0004
  -4791560.09048  -3719504.83646  22427637.539    22427637.9924   22427642.2884
       176.0004        176.0004
 -10169261.82948  -7900004.54246  23089375.555    23089375.8414   23089377.6854
       172.0004        174.0004
  -4099701.78149  -3174268.31648  20233507.170    20233507.2244   20233511.6754
       214.0004        215.0004
  11692748.56948   9106671.05946  23948927.987    23948928.9824   23948936.1244
       186.0004        185.0004
  -6385187.05547  -4961747.53745  24716056.611    24716056.1664   24716060.5644
       139.0004        143.0004
  -3275401.44447  -2540359.29745  23064257.179    23064258.1544   23064263.9394
       159.0004        160.0004
   8570918.33147   6680941.57145  23499143.534    23499143.3624   23499148.8484
       160.0004        162.0004
 21  2  1  2 12  0.0000000  0 10G01G30G17G14G19G07G09G22G28G21
  -1877804.49849  -1446418.74147  20945688.709    20945689.4334   20945697.2274
       196.0004        196.0004
 -11094579.01949  -8343042.00348  20540026.533    20540026.4834   20540033.1664
       214.0004        215.0004
  -7097133.29749  -5519634.87947  21658711.735    21658711.7584   21658716.5434
       195.0004        196.0004
  -4826644.68548  -3746843.47546  22420960.816    22420961.8214   22420965.7474
       176.0004        176.0004
 -10227019.62048  -7945010.61246  23078383.317    23078383.0234   23078386.3024
       171.0004        171.0004
  -4083601.19749  -3161722.41248  20236570.450    20236571.0694   20236575.3434
       214.0004        215.0004
  11769405.73048   9166403.90146  23963515.666    23963516.5294   23963524.0344
       185.0004        185.0004
  -6405722.40247  -4977749.11245  24712150.445    24712148.5234   24712152.8334
       139.0004        144.0004
  -3303808.93147  -2562495.00745  23058852.071    23058852.1554   23058856.3614
       159.0004        161.0004
   8657331.20447   6748276.26046  23515585.724    23515586.4264   23515593.0714
       160.0004        163.0004
 21  2  1  2 12 30.0000000  0 10G01G30G17G14G19G07G09G22G28G21
  -1842265.43249  -1418725.96247  20952451.390    20952452.5624   20952460.1084
       196.0004        196.0004
 -11136187.56049  -8375464.24748  20532108.150    20532108.4144   20532114.9974
       214.0004        214.0004
  -7109913.31449  -5529593.33647  21656280.083    21656280.6204   21656284.6794
       196.0004        197.0004
  -4861795.46448  -3774233.71046  22414272.354    22414273.0644   22414276.1204
       176.0004        176.0004
 -10284451.65248  -7989762.83746  23067454.405    23067454.2684   23067458.1784
       169.0004        170.0004
  -4066914.80449  -3148720.04048  20239746.336    20239746.5434   20239750.6954
       214.0004        215.0004
  11845933.38048   9226035.82046  23978079.521    23978079.5694   23978085.9434
       185.0004        185.0004
  -6426122.92547  -4993645.64545  24708269.059    24708268.8164   24708272.0954
       139.0004        144.0004
  -3332351.41047  -2584735.90745  23053422.133    23053420.7944   23053425.4504
       159.0004        161.0004
   8744025.04547   6815829.88745  23532084.282    23532083.3204   23532089.7874
       160.0004        161.0004
 21  2  1  2 13  0.0000000  0 10G01G30G17G14G19G07G09G22G28G21
  -1806130.21249  -1390568.64947  20959328.276    20959329.3514   20959336.2994
       196.0004        196.0004
 -11177313.22349  -8407510.23648  20524282.316    20524282.7294   20524288.9174
       214.0004        214.0004
  -7122336.15149  -5539273.46147  21653916.396    21653916.7824   21653919.9944
       196.0004        196.0004
  -4897012.61848  -3801675.65846  22407570.398    22407571.0514   22407575.0724
       175.0004        174.0004
 -10341558.80048  -8034261.91746  23056587.974    23056587.5984   23056590.7384
       169.0004        170.0004
  -4049643.42349  -3135261.83348  20243032.592    20243032.6864   20243037.3064
       214.0004        214.0004
  11922328.59348   9285564.53846  23992617.572    23992618.1714   23992623.2784
       186.0004        187.0004
  -6446387.17347  -5009435.97245  24704411.582    24704410.6534   24704415.3034
       139.0004        144.0004
  -3361029.73347  -2607082.65845  23047963.281    23047963.1284   23047967.1544
       160.0004        162.0004
   8830996.41447   6883599.76445  23548634.325    23548634.2864   23548640.2584
       159.0004        161.0004
 21  2  1  2 13 30.0000000  0 10G01G30G17G14G19G07G09G22G28G21
  -1769399.59349  -1361947.37847  20966318.919    20966318.8164   20966326.2684
       196.0004        197.0004
 -11217953.66849  -8439178.12648  20516548.691    20516548.7384   20516555.6474
       214.0004        214.0004
  -7134402.24449  -5548675.58847  21651619.664    21651620.0604   21651624.1394
       196.0004        196.0004
  -4932295.35248  -3829168.69946  22400857.068    22400858.2004   22400861.3474
       176.0004        176.0004
 -10398340.06148  -8078507.02746  23045782.455    23045782.3374   23045786.4774
       171.0004        173.0004
  -4031786.19749  -3121347.12148  20246430.324    20246431.0224   20246435.2844
       213.0004        215.0004
  11998589.42748   9344988.55446  24007128.927    24007129.2324   24007136.4534
       185.0004        185.0004
  -6466512.16747  -5025117.74345  24700580.194    24700580.2644   24700585.0164
       135.0004        140.0004
  -3389844.00047  -2629535.32545  23042480.168    23042480.2924   23042483.8954
       158.0004        161.0004
   8918243.13947   6951584.23245  23565237.078    23565236.5064   23565242.5694
       159.0004        161.0004
 21  2  1  2 14  0.0000000  0 11G01G30G17G14G19G07G06G09G22G28G21
  -1732074.74149  -1332863.07347  20973420.303    20973421.1334   20973428.7414
       196.0004        196.0004
 -11258107.05749  -8470466.48148  20508908.089    20508908.0294   20508915.0044
       214.0004        215.0004
  -7146113.65749  -5557801.36247  21649391.150    21649391.2444   21649396.0114
       196.0004        197.0004
  -4967643.30648  -3856712.55546  22394129.637    22394129.7294   22394134.2174
       176.0004        177.0004
 -10454795.42548  -8122498.20946  23035040.114    23035038.9494   23035043.5704
       172.0004        174.0004
  -4013343.20949  -3106975.96948  20249940.386    20249940.7744   20249945.1884
       213.0004        214.0004
  -1418792.28357  -1083724.19545  24303550.284    24303551.0215   24303560.1904
       138.0004        147.0004
  12074713.57048   9404306.05346  24021614.285    24021614.8574   24021622.7154
       183.0004        183.0004
  -6486495.84647  -5040689.41545  24696778.484    24696777.2684   24696782.3634
       136.0004        141.0004
  -3418794.04447  -2652093.79145  23036972.153    23036971.4334   23036976.5534
       159.0004        160.0004
   9005763.32647   7019781.77545  23581891.906    23581891.8304   23581895.9034
       159.0004        160.0004
 21  2  1  2 14 30.0000000  0 11G01G30G17G14G19G07G06G09G22G28G21
  -1694156.08949  -1303316.06547  20980636.234    20980636.4924   20980644.1484
       195.0004        196.0004
 -11297770.69949  -8501373.22048  20501360.321    20501360.2084   20501367.2014
       215.0004        215.0004
  -7157470.88049  -5566651.14947  21647230.084    21647230.4104   21647234.9144
       196.0004        197.0004
  -5003055.34048  -3884306.33646  22387390.204    22387391.2114   22387395.9774
       176.0004        177.0004
 -10510924.54648  -8166235.16646  23024358.806    23024357.7884   23024360.7444
       172.0004        172.0004
  -3994313.90549  -3092147.94448  20253560.842    20253561.5784   20253566.5704
       213.0004        214.0004
  -1527381.81747  -1168339.34145  24282887.511    24282887.5334   24282895.8584
       143.0004        148.0004
  12150699.39048   9463515.79146  24036072.941    24036074.0374   24036082.7524
       183.0004        184.0004
  -6506335.53947  -5056148.90345  24693004.924    24693003.8564   24693008.4444
       138.0004        144.0004
  -3447878.87847  -2674757.29145  23031436.708    23031436.2614   23031441.0184
       158.0004        161.0004
   9093554.96347   7088190.82745  23598597.586    23598597.2544   23598602.1034
       157.0004        159.0004
 21  2  1  2 15  0.0000000  0 11G01G30G17G14G19G07G06G09G22G28G21
  -1655645.47049  -1273307.79147  20987964.056    20987964.9184   20987972.6944
       195.0004        195.0004
 -11336943.36149  -8531897.38648  20493906.031    20493906.0294   20493912.7494
       215.0004        215.0004
  -7168476.26649  -5575226.77347  21645135.737    21645135.9724   21645140.9544
       197.0004        197.0004
  -5038531.59348  -3911950.16146  22380640.331    22380640.4844   22380643.9674
       176.0004        176.0004
 -10566727.82448  -8209718.24246  23013739.412    23013738.4374   23013743.2724
       172.0004        173.0004
  -3974699.03649  -3076863.64448  20257294.089    20257294.4104   20257298.6404
       214.0004        214.0004
  -1635953.70347  -1252940.75145  24262227.401    24262227.6154   24262236.1614
       144.0004        148.0004
  12226544.05448   9522615.51346  24050506.241    24050507.7204   24050514.9214
       183.0004        184.0004
  -6526029.45047  -5071494.79745  24689255.322    24689255.6404   24689260.6654
       140.0004        146.0004
  -3477099.91047  -2697526.93345  23025875.906    23025876.3624   23025880.6974
       158.0004        161.0004
   9181614.74447   7156808.81945  23615354.939    23615354.1714   23615359.8454
       157.0004        158.0004
