     2.11           OBSERVATION DATA    G (GPS)             RINEX VERSION / TYPE
teqc  2018Jun8                          20210202 03:10:44UTCPGM / RUN BY / DATE
Linux2.6.32-573.12.1.el6.x86_64|x86_64|gcc|Win64-MinGW64|=+ COMMENT
BIT 2 OF LLI FLAGS DATA COLLECTED UNDER A/S CONDITION       COMMENT
-Unknown-                                                   MARKER NAME
CRNO                                                        MARKER NUMBER
-Unknown-           -Unknown-                               OBSERVER / AGENCY
-Unknown-           ASHTECH             -Unknown-           REC # / TYPE / VERS
-Unknown-           -Unknown-                               ANT # / TYPE
   408079.1861 -6158375.0155  1605162.9745                  APPROX POSITION XYZ
        0.0000        0.0000        0.0000                  ANTENNA: DELTA H/E/N
     1     1                                                WAVELENGTH FACT L1/2
     7    L1    L2    C1    P1    P2    S1    S2            # / TYPES OF OBSERV
    30.0000                                                 INTERVAL
Forced Modulo Decimation to 30 seconds                      COMMENT
 SNR is mapped to RINEX snr flag value [1-9]                COMMENT
  L1: 1 -> 1;  90 -> 5; 210 -> 9                            COMMENT
  L2: 1 -> 1; 150 -> 5; 250 -> 9                            COMMENT
pseudorange smoothing corrections not applied               COMMENT
  2021     2     3     0     0   30.0000000     GPS         TIME OF FIRST OBS
                                                            END OF HEADER
 21  2  3  0  0 30.0000000  0  8G08G09G21G30G07G27G04G01
 -18557122.00349 -14417260.03047  21118367.272    21118368.0194   21118375.4184
       199.0004        200.0004
 -18118208.84749 -13765146.45948  20889206.775    20889207.1254   20889214.5864
       212.0004        213.0004
 -15741036.27648 -11948544.70546  21847419.802    21847419.7474   21847424.9224
       178.0004        179.0004
  -2167118.30047  -1669564.08945  24114235.940    24114236.2644   24114243.7774
       156.0004        158.0004
 -13333679.01648 -10373364.94747  22147819.765    22147820.4274   22147825.3464
       188.0004        189.0004
  -5175324.23448  -4016563.29846  23983005.315    23983004.4614   23983011.3974
       176.0004        175.0004
 -14258785.53248 -11059352.08146  21764789.340    21764789.1454   21764795.0794
       189.0004        187.0004
 -11927532.60048  -9282708.86746  22400138.506    22400139.8404   22400148.7144
       171.0004        173.0004
 21  2  3  0  1  0.0000000  0  8G08G09G21G30G07G27G04G01
 -18486211.13049 -14362004.79547  21131861.633    21131862.4204   21131869.4414
       199.0004        199.0004
 -18091603.11649 -13744414.73348  20894270.155    20894270.6344   20894277.5004
       212.0004        213.0004
 -15761899.68148 -11964801.85946  21843448.508    21843448.6684   21843454.0694
       178.0004        178.0004
  -2252542.67847  -1736128.49645  24097982.284    24097981.2304   24097988.0734
       155.0004        157.0004
 -13408098.10348 -10431353.82347  22133657.785    22133658.9514   22133664.2354
       190.0004        191.0004
  -5067729.72948  -3932723.44646  24003479.303    24003479.7014   24003485.9804
       173.0004        174.0004
 -14174426.27748 -10993617.59647  21780841.901    21780842.5754   21780848.4904
       188.0004        188.0004
 -12003087.09748  -9341582.44246  22385761.824    22385761.8454   22385771.1954
       172.0004        172.0004
 21  2  3  0  1 30.0000000  0  8G08G09G21G30G07G27G04G01
 -18414932.42649 -14306462.91647  21145425.645    21145425.4514   21145433.0664
       198.0004        198.0004
 -18064478.91549 -13723278.98348  20899431.487    20899431.6264   20899439.2034
       212.0004        213.0004
 -15782364.52548 -11980748.45246  21839555.087    21839555.7814   21839560.5324
       178.0004        178.0004
  -2338057.78547  -1802763.61245  24081708.151    24081708.9924   24081715.2744
       156.0004        159.0004
 -13482452.17348 -10489292.04047  22119510.680    22119510.5524   22119514.4164
       191.0004        192.0004
  -4960061.40648  -3848826.03646  24023966.530    24023966.9004   24023974.5494
       171.0004        170.0004
 -14089780.34048 -10927659.70146  21796949.220    21796950.1234   21796956.1314
       188.0004        187.0004
 -12078521.32748  -9400362.29646  22371406.448    22371407.1094   22371416.3484
       172.0004        174.0004
 21  2  3  0  2  0.0000000  0  8G08G09G21G30G07G27G04G01
 -18343290.74349 -14250638.23747  21159058.036    21159058.2894   21159066.1704
       197.0004        197.0004
 -18036838.81149 -13701741.25547  20904690.681    20904691.3634   20904698.8554
       212.0004        212.0004
 -15802429.77348 -11996383.67746  21835737.447    21835736.4424   21835742.5924
       179.0004        180.0004
  -2423663.13347  -1869469.01645  24065418.360    24065418.0724   24065425.5994
       157.0004        160.0004
 -13556739.58148 -10547178.33347  22105373.048    22105373.1934   22105378.0084
       191.0004        190.0004
  -4852323.06148  -3764874.10446  24044469.812    24044469.4654   24044476.6204
       172.0004        173.0004
 -14004851.59248 -10861481.47046  21813110.797    21813111.1434   21813117.4614
       188.0004        187.0004
 -12153833.00248  -9459046.66546  22357075.326    22357076.0724   22357084.5384
       173.0004        174.0004
 21  2  3  0  2 30.0000000  0  8G08G09G21G30G07G27G04G01
 -18271287.56149 -14194531.85147  21172759.955    21172760.4624   21172767.7734
       197.0004        197.0004
 -18008683.89349 -13679802.36247  20910048.741    20910049.0534   20910056.7744
       212.0004        212.0004
 -15822092.62948 -12011705.34746  21831995.330    21831994.3934   21832000.5104
       179.0004        179.0004
  -2509356.71047  -1936243.17545  24049110.521    24049111.0394   24049118.6764
       158.0004        161.0004
 -13630957.60948 -10605010.55047  22091249.472    22091250.2684   22091254.2954
       189.0004        189.0004
  -4744516.72748  -3680869.17546  24064984.618    24064983.8904   24064991.5504
       171.0004        172.0004
 -13919642.47948 -10795084.76946  21829325.199    21829325.5264   21829332.4914
       187.0004        187.0004
 -12229018.37548  -9517632.61146  22342769.204    22342769.6534   22342777.1134
       173.0004        174.0004
 21  2  3  0  3  0.0000000  0  8G08G09G21G30G07G27G04G01
 -18198926.31049 -14138146.47247  21186529.745    21186529.8744   21186537.4944
       197.0004        198.0004
 -17980016.26649 -13657463.96247  20915503.433    20915504.1964   20915512.0604
       211.0004        212.0004
 -15841351.75048 -12026712.42446  21828330.237    21828329.3994   21828335.8904
       179.0004        180.0004
  -2595137.47647  -2003085.30046  24032787.573    24032787.4804   24032795.8964
       161.0004        163.0004
 -13705104.24448 -10662787.13747  22077140.909    22077141.3604   22077144.8464
       190.0004        192.0004
  -4636645.60548  -3596813.77946  24085509.980    24085511.0044   24085518.3804
       172.0004        173.0004
 -13834156.36048 -10728472.21746  21845592.985    21845593.4924   21845599.5524
       187.0004        185.0004
 -12304074.62948  -9576117.95146  22328486.868    22328486.9894   22328494.9414
       174.0004        176.0004
 21  2  3  0  3 30.0000000  0  8G08G09G21G30G07G27G04G01
 -18126209.51549 -14081484.02547  21200367.512    21200367.8474   21200375.0314
       197.0004        198.0004
 -17950837.55249 -13634727.29247  20921056.477    20921056.8904   20921064.6214
       212.0004        212.0004
 -15860205.68348 -12041403.76746  21824741.817    21824741.6774   21824748.4904
       179.0004        179.0004
  -2681003.91747  -2069994.16245  24016448.891    24016447.8164   24016455.3524
       160.0004        161.0004
 -13779177.13948 -10720506.26147  22063044.842    22063045.4164   22063049.5174
       191.0004        191.0004
  -4528712.30248  -3512709.87746  24106049.058    24106050.2434   24106058.5464
       172.0004        173.0004
 -13748396.06348 -10661646.02246  21861912.106    21861912.4784   21861919.2804
       185.0004        185.0004
 -12378998.38548  -9634500.03546  22314228.368    22314228.6004   22314237.7444
       175.0004        176.0004
 21  2  3  0  4  0.0000000  0  8G08G09G21G30G07G27G04G01
 -18053140.30049 -14024546.96447  21214271.936    21214272.2554   21214279.6134
       197.0004        197.0004
 -17921148.94549 -13611593.31147  20926705.965    20926706.4634   20926713.6114
       212.0004        212.0004
 -15878651.50248 -12055777.09146  21821231.658    21821232.6714   21821237.3484
       179.0004        179.0004
  -2766954.00747  -2136968.21545  24000091.293    24000091.8314   24000098.2044
       157.0004        157.0004
 -13853173.34348 -10778165.62247  22048963.314    22048963.9024   22048967.7294
       191.0004        191.0004
  -4420719.03748  -3428559.30646  24126600.564    24126601.7964   24126607.4324
       172.0004        173.0004
 -13662364.13548 -10594608.16046  21878283.683    21878284.0894   21878290.9664
       185.0004        185.0004
 -12453785.94248  -9692775.96546  22299995.675    22299996.7694   22300005.7854
       175.0004        176.0004
 21  2  3  0  4 30.0000000  0  8G08G09G21G30G07G27G04G01
 -17979721.41449 -13967337.44947  21228242.554    21228243.3864   21228250.7134
       196.0004        196.0004
 -17890952.61849 -13588063.70047  20932452.081    20932452.7584   20932459.9474
       212.0004        212.0004
 -15896687.66248 -12069831.22046  21817801.141    21817800.4554   21817805.8034
       179.0004        180.0004
  -2852986.67147  -2204006.64345  23983721.339    23983720.8994   23983727.0184
       155.0004        156.0004
 -13927091.01548 -10835763.79447  22034897.123    22034897.7434   22034901.9194
       191.0004        191.0004
  -4312668.89248  -3344364.35846  24147163.479    24147163.3864   24147170.3604
       173.0004        175.0004
 -13576063.84048 -10527361.19546  21894706.287    21894706.7204   21894713.2434
       186.0004        185.0004
 -12528434.38948  -9750943.50546  22285789.753    22285791.4104   22285799.8884
       174.0004        175.0004
 21  2  3  0  5  0.0000000  0  8G08G09G21G30G07G27G04G01
 -17905956.21849 -13909858.06947  21242280.122    21242280.4564   21242287.5574
       196.0004        196.0004
 -17860250.78149 -13564140.18047  20938294.740    20938294.8514   20938302.6604
       211.0004        212.0004
 -15914312.75048 -12083565.01746  21814446.213    21814446.4384   21814450.5814
       180.0004        181.0004
  -2939100.79047  -2271108.52045  23967333.909    23967334.2374   23967340.9524
       155.0004        157.0004
 -14000927.89248 -10893299.00847  22020847.072    22020847.0224   22020851.4144
       191.0004        192.0004
  -4204564.97848  -3260127.57846  24167735.048    24167734.6964   24167741.3274
       175.0004        176.0004
 -13489498.64048 -10459907.79746  21911179.376    21911179.8394   21911186.2474
       185.0004        185.0004
 -12602940.98048  -9809000.51246  22271613.416    22271613.0864   22271622.1344
       174.0004        175.0004
 21  2  3  0  5 30.0000000  0  8G08G09G21G30G07G27G04G01
 -17831847.88049 -13852111.31347  21256382.701    21256383.1404   21256390.2854
       196.0004        196.0004
 -17829045.43749 -13539824.33447  20944232.973    20944233.3634   20944240.5104
       211.0004        212.0004
 -15931525.51448 -12096977.53046  21811170.566    21811170.6354   21811175.4784
       180.0004        180.0004
  -3025295.14047  -2338272.91245  23950929.551    23950930.2304   23950938.4724
       155.0004        158.0004
 -14074681.98148 -10950769.71247  22006811.856    22006812.4604   22006816.4114
       192.0004        192.0004
  -4096410.18948  -3175851.12946  24188314.450    24188315.2654   24188322.9064
       174.0004        175.0004
 -13402671.76448 -10392250.48646  21927701.588    21927702.0644   21927708.7724
       185.0004        184.0004
 -12677302.66548  -9866944.61046  22257462.360    22257463.1454   22257471.5144
       175.0004        177.0004
 21  2  3  0  6  0.0000000  0  8G08G09G21G30G07G27G04G01
 -17757397.66849 -13794098.16247  21270550.265    21270550.4974   21270557.5884
       196.0004        197.0004
 -17797336.25649 -13515115.88247  20950266.450    20950267.0064   20950274.5324
       211.0004        211.0004
 -15948321.69148 -12110065.42346  21807974.521    21807974.0524   21807979.6214
       180.0004        181.0004
  -3111565.99547  -2405496.88345  23934514.360    23934513.5424   23934521.3554
       155.0004        159.0004
 -14148348.60448 -11008172.27647  21992793.817    21992794.7104   21992798.5704
       193.0004        193.0004
  -3988205.05348  -3091535.46646  24208906.325    24208906.3944   24208913.0284
       174.0004        175.0004
 -13315583.97348 -10324389.87646  21944274.728    21944274.6634   21944281.1984
       185.0004        185.0004
 -12751514.06348  -9924771.60646  22243340.416    22243342.0674   22243349.5894
       176.0004        177.0004
 21  2  3  0  6 30.0000000  0  9G08G09G21G30G07G27G04G01G17
 -17682609.11449 -13735821.35547  21284781.674    21284782.2954   21284789.3724
       196.0004        197.0004
 -17765126.38849 -13490017.28647  20956396.528    20956396.9954   20956404.0074
       211.0004        212.0004
 -15964700.91648 -12122828.43246  21804858.034    21804857.2554   21804862.7664
       181.0004        181.0004
  -3197913.19547  -2472780.37945  23918081.817    23918082.3594   23918089.7164
       155.0004        158.0004
 -14221926.75448 -11065505.88147  21978792.524    21978792.8054   21978796.9554
       193.0004        193.0004
  -3879953.59648  -3007183.66946  24229504.771    24229505.7104   24229512.2574
       176.0004        177.0004
 -13228239.64948 -10256329.37446  21960895.322    21960895.4274   21960902.5274
       185.0004        184.0004
 -12825573.23548  -9982480.01146  22229247.146    22229248.3914   22229256.0224
       176.0004        177.0004
  -1532677.36054  -1176605.63745  24256637.235
        74.0004        140.0004
 21  2  3  0  7  0.0000000  0  9G08G09G21G30G07G27G04G01G17
 -17607485.47749 -13677283.43847  21299076.730    21299077.4034   21299085.1044
       196.0004        196.0004
 -17732417.59549 -13464529.91047  20962620.436    20962620.7254   20962628.2274
       212.0004        212.0004
 -15980661.38748 -12135265.13946  21801820.397    21801820.2024   21801825.2954
       180.0004        180.0004
  -3284335.06547  -2540122.07345  23901636.924    23901637.6454   23901644.3024
       157.0004        160.0004
 -14295414.25248 -11122768.86747  21964807.969    21964808.4764   21964812.4684
       192.0004        192.0004
  -3771658.38048  -2922797.78046  24250112.734    24250114.0154   24250120.0104
       176.0004        177.0004
 -13140641.72248 -10188071.26246  21977564.464    21977565.0624   21977571.4974
       185.0004        184.0004
 -12899476.90048 -10040067.23446  22215184.152    22215184.5404   22215192.7224
       176.0004        178.0004
  -1630446.58646  -1252788.88345  24238030.834    24238030.4754   24238040.4464
       133.0004        143.0004
 21  2  3  0  7 30.0000000  0  9G08G09G21G30G07G27G04G01G17
 -17532031.56649 -13618488.15947  21313435.102    21313435.9254   21313443.3734
       195.0004        196.0004
 -17699214.18149 -13438657.10447  20968938.555    20968939.6604   20968946.2544
       211.0004        211.0004
 -15996203.72748 -12147376.01046  21798862.807    21798862.6244   21798867.9864
       181.0004        181.0004
  -3370832.46247  -2607522.59945  23885178.319    23885177.7044   23885184.3234
       157.0004        159.0004
 -14368810.79648 -11179960.96947  21950840.855    21950841.4524   21950845.8844
       192.0004        193.0004
  -3663324.43748  -2838381.71146  24270727.875    24270729.0254   24270735.9674
       178.0004        179.0004
 -13052795.52948 -10119619.67146  21994279.991    21994281.4254   21994287.1864
       183.0004        183.0004
 -12973224.15348 -10097532.59646  22201150.036    22201150.2924   22201159.7624
       176.0004        177.0004
  -1728002.02246  -1328805.67545  24219466.853    24219466.7134   24219475.0914
       134.0004        140.0004
 21  2  3  0  8  0.0000000  0  9G08G09G21G30G07G27G04G01G17
 -17456250.51849 -13559437.97847  21327856.895    21327856.9794   21327863.9274
       196.0004        197.0004
 -17665517.80549 -13412400.18947  20975351.043    20975351.8854   20975358.7834
       211.0004        211.0004
 -16011325.54248 -12159159.22346  21795985.248    21795984.7544   21795990.9754
       182.0004        182.0004
  -3457403.63647  -2674980.60245  23868702.306    23868702.7704   23868710.5594
       155.0004        156.0004
 -14442113.63948 -11237080.05247  21936891.668    21936892.5214   21936896.7504
       193.0004        193.0004
  -3554954.13248  -2753937.33046  24291350.830    24291350.9524   24291357.5614
       177.0004        176.0004
 -12964703.85948 -10050976.81246  22011043.991    22011044.5484   22011050.8214
       183.0004        183.0004
 -13046811.42148 -10154873.31046  22187146.826    22187147.8704   22187156.3784
       177.0004        178.0004
  -1825341.10346  -1404653.91945  24200941.585    24200942.8684   24200949.6554
       134.0004        141.0004
 21  2  3  0  8 30.0000000  0  9G08G09G21G30G07G27G04G01G17
 -17380142.50349 -13500133.01047  21342340.322    21342340.4384   21342347.0804
       197.0004        197.0004
 -17631327.59449 -13385758.46047  20981858.555    20981858.0314   20981865.8134
       212.0004        212.0004
 -16026022.64548 -12170611.47846  21793188.013    21793187.7294   21793194.2894
       182.0004        182.0004
  -3544044.14247  -2742492.65745  23852215.747    23852216.3324   23852223.0964
       154.0004        155.0004
 -14515317.09848 -11294121.69347  21922961.960    21922962.7324   21922965.9864
       193.0004        194.0004
  -3446547.36748  -2669464.52446  24311982.324    24311981.0244   24311985.5254
       173.0004        172.0004
 -12876366.91248  -9982142.84546  22027854.125    22027854.7724   22027861.4594
       184.0004        182.0004
 -13120232.69748 -10212084.67046  22173174.605    22173175.2904   22173183.6034
       177.0004        177.0004
  -1922458.88847  -1480329.70345  24182462.836    24182462.2674   24182470.8814
       137.0004        143.0004
 21  2  3  0  9  0.0000000  0  9G08G09G21G30G07G27G04G01G17
 -17303710.97749 -13440575.98147  21356883.578    21356884.5224   21356891.0744
       196.0004        196.0004
 -17596645.71649 -13358733.63147  20988457.305    20988457.9144   20988464.2744
       212.0004        212.0004
 -16040293.33048 -12181731.48446  21790473.016    21790473.1494   21790477.8204
       182.0004        182.0004
  -3630752.65047  -2810057.70945  23835716.016    23835715.6264   23835723.3654
       152.0004        154.0004
 -14588419.48948 -11351084.59647  21909050.636    21909051.1394   21909055.6914
       193.0004        193.0004
  -3338106.94548  -2584965.46746  24332615.772    24332616.1754   24332622.6504
       172.0004        172.0004
 -12787787.93948  -9913120.28646  22044710.001    22044710.8734   22044717.2184
       183.0004        181.0004
 -13193484.93648 -10269164.32946  22159236.055    22159236.1614   22159244.4434
       177.0004        178.0004
  -2019353.52747  -1555831.60345  24164023.300    24164025.3304   24164031.8684
       142.0004        148.0004
 21  2  3  0  9 30.0000000  0  9G08G09G21G30G07G27G04G01G17
 -17226957.70349 -13380768.19547  21371489.526    21371489.7034   21371497.0834
       195.0004        195.0004
 -17561473.64249 -13331326.80047  20995150.343    20995150.3154   20995158.0304
       212.0004        212.0004
 -16054135.65648 -12192517.67746  21787838.954    21787837.6964   21787843.4664
       181.0004        181.0004
  -3717527.11147  -2877674.14045  23819202.594    23819202.6824   23819211.0234
       152.0004        155.0004
 -14661417.93648 -11407966.46847  21895158.582    21895160.1814   21895164.3584
       193.0004        193.0004
  -3229634.98048  -2500441.87546  24353257.916    24353257.7584   24353261.9554
       168.0004        168.0004
 -12698969.41748  -9843911.04646  22061611.057    22061611.9304   22061618.7634
       183.0004        182.0004
 -13266564.34848 -10326109.27046  22145328.356    22145329.3744   22145337.9604
       177.0004        177.0004
  -2116022.36047  -1631157.56245  24145627.823    24145628.6054   24145636.4794
       145.0004        150.0004
 21  2  3  0 10  0.0000000  0  9G08G09G21G30G07G27G04G01G17
 -17149885.69549 -13320712.06647  21386155.640    21386155.9714   21386163.2384
       195.0004        196.0004
 -17525813.07649 -13303539.34047  21001935.693    21001936.6944   21001944.1874
       212.0004        212.0004
 -16067547.27148 -12202968.25646  21785285.851    21785285.2484   21785291.0424
       180.0004        181.0004
  -3804365.57947  -2945340.42345  23802677.525    23802678.5684   23802685.8994
       153.0004        157.0004
 -14734309.54548 -11464765.10147  21881288.560    21881288.8814   21881293.2884
       192.0004        193.0004
  -3121133.91448  -2415895.52046  24373906.042    24373905.5904   24373910.4434
       168.0004        170.0004
 -12609914.10148  -9774517.30446  22078557.875    22078558.6644   22078566.1784
       183.0004        183.0004
 -13339467.41448 -10382916.82146  22131456.092    22131456.0674   22131466.2914
       177.0004        178.0004
  -2212462.72447  -1706305.53145  24127275.560    24127275.4604   24127284.5824
       146.0004        149.0004
 21  2  3  0 10 30.0000000  0  9G08G09G21G30G07G27G04G01G17
 -17072499.31149 -13260410.97547  21400882.072    21400882.6504   21400889.4814
       195.0004        195.0004
 -17489667.23849 -13275373.75347  21008814.592    21008814.9834   21008822.2244
       211.0004        211.0004
 -16080528.24848 -12213083.28646  21782815.597    21782815.6244   21782820.4634
       180.0004        179.0004
  -3891267.65147  -3013056.29445  23786141.146    23786141.8134   23786149.0924
       156.0004        159.0004
 -14807092.96448 -11521479.43147  21867438.767    21867439.0284   21867443.1514
       193.0004        194.0004
  -3012607.45748  -2331329.45846  24394556.286    24394556.6454   24394562.7714
       170.0004        171.0004
 -12520626.23948  -9704942.36846  22095549.552    22095549.7474   22095556.5204
       183.0004        184.0004
 -13412192.00448 -10439585.25646  22117616.240    22117617.7814   22117626.5584
       178.0004        179.0004
  -2308673.62647  -1781274.70445  24108966.922    24108967.6024   24108975.6594
       146.0004        149.0004
 21  2  3  0 11  0.0000000  0  9G08G09G21G30G07G27G04G01G17
 -16994800.31449 -13199866.28547  21415667.808    21415668.1584   21415674.7634
       195.0004        195.0004
 -17453037.41049 -13246831.01947  21015784.757    21015784.9634   21015792.5574
       210.0004        211.0004
 -16093075.84248 -12222860.59246  21780429.113    21780428.4994   21780433.5374
       181.0004        182.0004
  -3978230.91747  -3080819.86545  23769593.381    23769593.3934   23769600.2954
       158.0004        161.0004
 -14879764.86648 -11578106.85547  21853610.258    21853610.6934   21853614.7324
       194.0004        196.0004
  -2904057.42048  -2246745.05146  24415213.362    24415213.7974   24415219.2894
       171.0004        172.0004
 -12431108.08548  -9635187.97046  22112584.922    22112585.2294   22112591.0434
       184.0004        184.0004
 -13484734.16548 -10496111.56446  22103812.637    22103813.0704   22103821.1864
       178.0004        177.0004
  -2404652.16647  -1856062.79645  24090701.600    24090701.6884   24090709.9794
       147.0004        151.0004
 21  2  3  0 11 30.0000000  0  9G08G09G21G30G07G27G04G01G17
 -16916792.62549 -13139081.07847  21430512.727    21430512.8204   21430519.0074
       195.0004        195.0004
 -17415926.29449 -13217913.28547  21022846.967    21022847.5134   21022854.8214
       210.0004        211.0004
 -16105189.39548 -12232299.71646  21778124.136    21778123.2394   21778128.4904
       181.0004        182.0004
  -4065254.49047  -3148630.38245  23753031.933    23753031.8024   23753041.4084
       159.0004        162.0004
 -14952323.74149 -11634646.22347  21839802.207    21839803.1404   21839807.3264
       195.0004        195.0004
  -2795487.09848  -2162144.77446  24435873.445    24435874.1054   24435878.9544
       168.0004        169.0004
 -12341363.31848  -9565256.99346  22129662.148    22129662.8654   22129669.7064
       184.0004        183.0004
 -13557091.30748 -10552493.69246  22090042.952    22090043.8124   22090052.4124
       178.0004        179.0004
  -2500396.83847  -1930668.68245  24072482.386    24072482.4574   24072490.6634
       150.0004        155.0004
 21  2  3  0 12  0.0000000  0  9G08G09G21G30G07G27G04G01G17
 -16838478.83548 -13078057.34947  21445413.998    21445414.9714   21445422.1264
       194.0004        194.0004
 -17378335.72849 -13188621.93747  21029999.713    21030000.2574   21030007.4414
       210.0004        209.0004
 -16116867.07248 -12241399.17546  21775901.554    21775901.2054   21775906.1894
       182.0004        182.0004
  -4152336.41347  -3216486.37545  23736461.602    23736462.0524   23736470.0944
       159.0004        160.0004
 -15024766.46749 -11691095.09547  21826017.384    21826017.1294   21826021.5774
       195.0004        195.0004
  -2686898.70748  -2077530.45746  24456536.748    24456536.9574   24456543.8534
       167.0004        168.0004
 -12251394.73448  -9495151.61746  22146782.769    22146783.1694   22146789.6274
       183.0004        183.0004
 -13629259.88548 -10608728.89246  22076311.092    22076311.5794   22076320.0974
       179.0004        181.0004
  -2595905.19047  -2005090.43745  24054308.223    24054308.4734   24054315.6894
       154.0004        158.0004
 21  2  3  0 12 30.0000000  0  9G08G09G21G30G07G27G04G01G17
 -16759862.31249 -13016797.73047  21460375.253    21460375.1934   21460382.4594
       210.0004        212.0004
 -17340268.05849 -13158958.81547  21037243.372    21037244.0234   21037251.5164
       209.0004        209.0004
 -16128107.32348 -12250157.78346  21773762.537    21773761.9754   21773767.2114
       182.0004        183.0004
  -4239475.26347  -3284386.76345  23719879.812    23719880.2374   23719886.3374
       157.0004        158.0004
 -15097091.00948 -11747451.87647  21812253.861    21812254.2364   21812258.2434
       194.0004        194.0004
  -2578295.26648  -1992904.39446  24477203.957    24477204.1144   24477209.4654
       168.0004        169.0004
 -12161205.57148  -9424874.35746  22163945.309    22163945.8374   22163952.2284
       183.0004        182.0004
 -13701236.89248 -10664814.82246  22062614.203    22062613.9494   22062623.5544
       180.0004        180.0004
  -2691175.45147  -2079326.67945  24036178.822    24036179.3574   24036185.8684
       154.0004        156.0004
 21  2  3  0 13  0.0000000  0  9G08G09G21G30G07G27G04G01G17
 -16680946.24049 -12955304.69547  21475393.245    21475393.2744   21475399.0864
       214.0004        212.0004
 -17301725.85649 -13128925.93547  21044578.195    21044578.2494   21044586.2294
       209.0004        209.0004
 -16138909.59348 -12258575.10946  21771706.283    21771706.0474   21771712.1754
       182.0004        182.0004
  -4326669.89447  -3352330.61745  23703286.817    23703287.6794   23703294.3744
       155.0004        157.0004
 -15169295.37148 -11803715.01147  21798513.614    21798514.1914   21798518.7864
       194.0004        194.0004
  -2469679.67348  -1908268.89446  24497873.085    24497872.4794   24497879.3254
       168.0004        169.0004
 -12070799.37348  -9354427.97846  22181148.795    22181149.3424   22181156.2584
       182.0004        182.0004
 -13773019.51948 -10720749.30546  22048954.351    22048954.6544   22048962.3454
       179.0004        180.0004
  -2786205.72347  -2153375.93945  24018094.295    24018094.6784   24018101.2874
       152.0004        154.0004
 21  2  3  0 13 30.0000000  0  9G08G09G21G30G07G27G04G01G17
 -16601732.52949 -12893579.72048  21490466.497    21490466.5634   21490473.3164
       222.0004        226.0004
 -17262710.13449 -13098524.07347  21052002.897    21052003.2794   21052010.7434
       209.0004        210.0004
 -16149270.63148 -12266648.62446  21769735.072    21769734.9964   21769739.9144
       182.0004        181.0004
  -4413917.48747  -3420315.72145  23686684.606    23686683.8704   23686690.8914
       155.0004        158.0004
 -15241376.00348 -11859881.72247  21784797.012    21784798.1504   21784802.5514
       194.0004        195.0004
  -2361053.39248  -1823625.07746  24518542.719    24518543.2474   24518549.7824
       167.0004        168.0004
 -11980178.05148  -9283813.96446  22198393.529    22198393.7184   22198399.7894
       182.0004        181.0004
 -13844603.41048 -10776528.92346  22035332.183    22035333.1974   22035339.7214
       179.0004        180.0004
  -2880993.19547  -2227236.04345  24000057.494    24000058.0144   24000062.7404
       148.0004        150.0004
 21  2  3  0 14  0.0000000  0  9G08G09G21G30G07G27G04G01G17
 -16522224.79549 -12831625.66948  21505595.510    21505595.9294   21505602.4284
       225.0004        224.0004
 -17223223.35249 -13067755.16047  21059516.862    21059517.2114   21059524.6664
       209.0004        210.0004
 -16159189.29848 -12274377.43346  21767848.557    21767847.7304   21767852.3184
       181.0004        182.0004
  -4501216.70047  -3488341.07545  23670071.688    23670071.6874   23670079.7324
       156.0004        159.0004
 -15313330.73248 -11915950.34547  21771104.388    21771105.1434   21771109.5444
       194.0004        195.0004
  -2252419.32648  -1738975.10246  24539213.441    24539215.4074   24539221.7714
       167.0004        169.0004
 -11889344.93348  -9213034.92346  22215678.216    22215678.7804   22215684.1264
       180.0004        180.0004
 -13915985.59248 -10832151.35746  22021747.490    22021748.9844   22021756.4884
       179.0004        180.0004
  -2975535.70247  -2300905.24745  23982066.209    23982066.7584   23982072.6584
       150.0004        153.0004
 21  2  3  0 14 30.0000000  0  9G08G09G21G30G07G27G04G01G17
 -16442425.05849 -12769444.06248  21520780.808    21520781.4384   21520788.4944
       225.0004        224.0004
 -17183267.05549 -13036620.36947  21067120.960    21067120.7584   21067128.2924
       210.0004        210.0004
 -16168663.47148 -12281759.87746  21766045.013    21766044.3324   21766048.9134
       181.0004        181.0004
  -4588565.15647  -3556404.78045  23653449.265    23653449.8894   23653458.0854
       158.0004        162.0004
 -15385156.09448 -11971918.15747  21757437.128    21757437.2884   21757441.6034
       194.0004        194.0004
  -2143779.24148  -1654320.52546  24559886.910    24559887.6974   24559896.9464
       165.0004        166.0004
 -11798302.42148  -9142092.69746  22233003.501    22233004.3394   22233010.3544
       180.0004        180.0004
 -13987162.15948 -10887613.56046  22008202.599    22008203.9004   22008212.1494
       179.0004        180.0004
  -3069830.48947  -2374381.42745  23964122.332    23964122.5294   23964127.8394
       151.0004        155.0004
 21  2  3  0 15  0.0000000  0  9G08G09G21G30G07G27G04G01G17
 -16362336.16149 -12707037.11148  21536021.671    21536021.8524   21536028.9064
       225.0004        225.0004
 -17142843.28049 -13005121.30947  21074812.404    21074812.9764   21074820.3454
       209.0004        209.0004
 -16177691.83848 -12288794.94046  21764327.131    21764326.3644   21764329.9374
       182.0004        181.0004
  -4675961.00847  -3624505.42346  23636818.975    23636819.3414   23636826.6954
       160.0004        163.0004
 -15456849.59649 -12027783.19447  21743794.048    21743794.4594   21743798.8284
       195.0004        195.0004
  -2035135.64448  -1569663.21046  24580561.528    24580562.5164   24580570.3644
       168.0004        170.0004
 -11707053.45248  -9070989.59746  22250368.552    22250368.1854   22250374.9024
       181.0004        180.0004
 -14058129.67048 -10942912.88446  21994699.322    21994699.7114   21994708.2544
       179.0004        180.0004
  -3163875.57747  -2447663.06645  23946225.025    23946226.0164   23946232.2864
       150.0004        152.0004
 21  2  3  0 15 30.0000000  0  8G08G09G21G30G07G04G01G17
 -16281961.38049 -12644407.39748  21551317.089    21551317.2144   21551323.6004
       226.0004        225.0004
 -17101954.32349 -12973259.76647  21082592.833    21082593.5664   21082601.1774
       208.0004        208.0004
 -16186272.85948 -12295481.43746  21762694.443    21762693.4664   21762697.4044
       182.0004        182.0004
  -4763402.65547  -3692641.72545  23620178.708    23620178.6184   23620186.9404
       159.0004        160.0004
 -15528408.51349 -12083543.38247  21730176.543    21730176.9854   21730181.2344
       195.0004        195.0004
 -11615601.08348  -8999728.00646  22267769.864    22267771.3994   22267777.2654
       180.0004        180.0004
 -14128884.98848 -10998046.84646  21981234.826    21981235.6044   21981243.3694
       179.0004        180.0004
  -3257668.54347  -2520748.17345  23928375.764    23928376.8484   23928383.9784
       152.0004        156.0004
 21  2  3  0 16  0.0000000  0  8G08G09G21G30G07G04G01G17
 -16201304.80949 -12581558.12148  21566665.818    21566665.8754   21566671.7804
       225.0004        224.0004
 -17060603.49949 -12941038.34747  21090462.525    21090463.0934   21090470.0214
       208.0004        209.0004
 -16194406.43848 -12301819.27846  21761145.449    21761145.0674   21761150.0904
       182.0004        182.0004
  -4850889.38947  -3760813.17145  23603530.755    23603530.9744   23603539.1344
       159.0004        162.0004
 -15599831.62649 -12139197.74147  21716585.545    21716585.6444   21716590.3824
       195.0004        195.0004
 -11523949.45148  -8928311.15946  22285211.255    22285211.8234   22285217.5614
       179.0004        178.0004
 -14199425.86348 -11053013.74446  21967811.621    21967812.2414   21967819.7344
       180.0004        180.0004
  -3351208.62547  -2593636.30145  23910577.581    23910576.7654   23910583.7874
       155.0004        158.0004
 21  2  3  0 16 30.0000000  0  9G14G08G09G21G30G07G04G01G17
   -685445.39156   -527213.75645  23600558.269                    23600559.1774
       129.0004        141.0004
 -16120369.05549 -12518491.28748  21582066.798    21582066.6924   21582073.1484
       224.0004        223.0004
 -17018793.35049 -12908459.00747  21098419.186    21098419.3164   21098426.5424
       209.0004        209.0004
 -16202090.85248 -12307807.10746  21759683.135    21759683.0014   21759687.6024
       182.0004        182.0004
  -4938419.84547  -3829018.69846  23586875.998    23586876.2814   23586882.2174
       161.0004        164.0004
 -15671116.48449 -12194744.35947  21703020.643    21703020.8274   21703024.9294
       195.0004        196.0004
 -11432101.96048  -8856741.68146  22302688.624    22302689.3464   22302695.7454
       177.0004        176.0004
 -14269749.37648 -11107811.24746  21954429.209    21954429.8024   21954437.6424
       180.0004        180.0004
  -3444494.08047  -2666326.06445  23892825.148    23892825.3654   23892831.2404
       155.0004        157.0004
 21  2  3  0 17  0.0000000  0  9G14G08G09G21G30G07G04G01G17
   -712664.63646   -548423.50345  23595375.598    23595377.6264   23595379.8454
       134.0004        141.0004
 -16039156.63949 -12455208.88748  21597520.554    21597521.0294   21597527.4114
       224.0004        222.0004
 -16976524.88149 -12875522.52447  21106461.445    21106462.2484   21106469.6824
       209.0004        209.0004
 -16209323.63748 -12313443.02746  21758306.603    21758306.8814   21758312.2294
       183.0004        183.0004
  -5025990.97047  -3897255.91645  23570209.387    23570210.5934   23570218.4954
       161.0004        162.0004
 -15742259.59349 -12250180.54047  21689482.389    21689482.9484   21689487.0184
       196.0004        196.0004
 -11340060.31748  -8785020.91146  22320204.145    22320205.0904   22320210.4724
       177.0004        177.0004
 -14339850.98448 -11162435.83746  21941089.454    21941089.6704   21941098.0784
       180.0004        182.0004
  -3537521.32447  -2738814.56245  23875121.730    23875122.7934   23875130.3414
       157.0004        160.0004
 21  2  3  0 17 30.0000000  0  9G14G08G09G21G30G07G04G01G17
   -739828.08747   -569589.74945  23590209.118    23590209.1664   23590214.1784
       137.0004        142.0004
 -15957670.97049 -12391713.55148  21613027.129    21613027.4674   21613034.1904
       224.0004        223.0004
 -16933801.10849 -12842231.26947  21114591.519    21114591.8604   21114599.7864
       208.0004        209.0004
 -16216104.60948 -12318726.86546  21757017.512    21757016.7004   21757021.5144
       183.0004        184.0004
  -5113601.72747  -3965524.02046  23553538.421    23553538.6384   23553545.9464
       161.0004        164.0004
 -15813259.06549 -12305504.79047  21675971.199    21675971.8244   21675975.8654
       196.0004        196.0004
 -11247828.32348  -8713151.81446  22337754.352    22337755.4504   22337762.2914
       178.0004        179.0004
 -14409728.15548 -11216885.53546  21927792.001    21927792.2264   21927800.7564
       180.0004        180.0004
  -3630289.10347  -2811100.90245  23857469.645    23857469.4484   23857476.3984
       157.0004        158.0004
 21  2  3  0 18  0.0000000  0  9G14G08G09G21G30G07G04G01G17
   -766938.16947   -590714.44945  23585048.129    23585048.6964   23585059.3854
       142.0004        148.0004
 -15875916.10849 -12328008.45148  21628584.356    21628584.8904   21628591.5594
       224.0004        224.0004
 -16890625.51349 -12808587.94947  21122808.844    21122808.7824   21122816.0454
       209.0004        209.0004
 -16222433.13248 -12323658.16846  21755813.005    21755812.0554   21755817.6294
       184.0004        183.0004
  -5201251.55547  -4033822.57246  23536859.159    23536859.7454   23536867.0964
       163.0004        166.0004
 -15884113.32849 -12360715.88047  21662488.732    21662488.7074   21662492.7234
       196.0004        196.0004
 -11155410.22448  -8641137.69046  22355340.028    22355341.2644   22355348.5064
       177.0004        177.0004
 -14479378.79248 -11271158.72746  21914537.710    21914538.3334   21914545.9154
       180.0004        181.0004
  -3722796.62947  -2883184.50245  23839865.283    23839865.1574   23839871.6444
       156.0004        158.0004
 21  2  3  0 18 30.0000000  0  9G14G08G09G21G30G07G04G01G17
   -793993.59047   -611796.58445  23579900.522    23579901.7414   23579910.1084
       150.0004        155.0004
 -15793893.15549 -12264094.44748  21644192.922    21644193.3664   21644200.3174
       225.0004        224.0004
 -16846997.78049 -12774592.30647  21131110.213    21131110.5124   21131117.8504
       208.0004        209.0004
 -16228305.58748 -12328234.08146  21754694.956    21754694.6114   21754700.4634
       184.0004        184.0004
  -5288936.01047  -4102148.06446  23520173.220    23520173.5474   23520181.2284
       164.0004        165.0004
 -15954817.13849 -12415809.72347  21649033.063    21649034.1004   21649038.3514
       196.0004        197.0004
 -11062806.41148  -8568978.86946  22372962.459    22372963.4074   22372970.8214
       177.0004        177.0004
 -14548796.99048 -11325250.79246  21901327.988    21901329.2544   21901336.8964
       181.0004        182.0004
  -3815039.24547  -2955061.66045  23822310.418    23822311.3684   23822319.8784
       155.0004        157.0004
 21  2  3  0 19  0.0000000  0  9G14G08G09G21G30G07G04G01G17
   -820996.78747   -632838.03445  23574762.614    23574763.5874   23574771.7014
       155.0004        159.0004
 -15711605.19249 -12199973.95148  21659851.250    21659851.6514   21659858.9774
       224.0004        222.0004
 -16802921.37549 -12740247.05547  21139498.160    21139498.5414   21139505.7354
       209.0004        209.0004
 -16233721.67348 -12332454.39246  21753663.862    21753664.3034   21753669.3024
       183.0004        182.0004
  -5376654.46248  -4170500.05746  23503481.779    23503481.4024   23503488.9694
       165.0004        166.0004
 -16025369.17349 -12470785.31847  21635608.062    21635608.5464   21635612.9294
       196.0004        197.0004
 -10970021.08348  -8496678.63946  22390619.493    22390619.8284   22390627.4324
       176.0004        176.0004
 -14617980.66448 -11379160.10946  21888162.742    21888163.6044   21888171.3324
       182.0004        183.0004
  -3907016.30047  -3026731.92845  23804809.919    23804809.9174   23804816.4044
       156.0004        159.0004
 21  2  3  0 19 30.0000000  0  9G14G08G09G21G30G07G04G01G17
   -847948.68047   -653839.47845  23569634.095    23569635.2934   23569640.9204
       155.0004        157.0004
 -15629055.38549 -12135649.42548  21675559.957    21675560.6084   21675567.5704
       223.0004        222.0004
 -16758398.32949 -12705553.76947  21147970.230    21147970.5774   21147977.7744
       209.0004        209.0004
 -16238679.20048 -12336317.39246  21752720.975    21752720.0934   21752725.7464
       183.0004        183.0004
  -5464404.70948  -4238876.84346  23486783.882    23486783.5244   23486790.5344
       165.0004        166.0004
 -16095766.53049 -12525640.39347  21622211.596    21622211.7314   21622216.5734
       196.0004        196.0004
 -10877056.91448  -8424239.03146  22408310.718    22408311.1644   22408317.9044
       177.0004        177.0004
 -14686926.20448 -11432883.86246  21875042.293    21875042.5824   21875051.8854
       182.0004        181.0004
  -3998725.18447  -3098193.21645  23787356.680    23787356.5484   23787364.8154
       154.0004        155.0004
 21  2  3  0 20  0.0000000  0  9G14G08G09G21G30G07G04G01G17
   -874851.22547   -674802.46045  23564515.262    23564515.6194   23564519.1764
       154.0004        155.0004
 -15546247.30449 -12071123.64648  21691318.009    21691318.6204   21691325.6154
       223.0004        223.0004
 -16713431.58249 -12670514.74447  21156526.419    21156527.2684   21156534.8604
       209.0004        209.0004
 -16243178.17548 -12339823.07346  21751865.371    21751864.8554   21751870.3284
       183.0004        183.0004
  -5552185.59647  -4307277.50846  23470078.858    23470079.0114   23470086.4624
       164.0004        166.0004
 -16166007.02449 -12580373.24447  21608846.304    21608846.2404   21608850.2764
       197.0004        197.0004
 -10783917.59048  -8351662.93046  22426034.761    22426034.5904   22426040.8924
       177.0004        176.0004
 -14755630.91848 -11486419.96346  21861968.533    21861968.6294   21861977.5294
       182.0004        182.0004
  -4090164.50147  -3169444.43345  23769955.936    23769956.4284   23769963.2174
       151.0004        153.0004
 21  2  3  0 20 30.0000000  0  9G14G08G09G21G30G07G04G01G17
   -901705.37047   -695727.71945  23559402.832    23559403.5444   23559409.1974
       152.0004        154.0004
 -15463183.42649 -12006398.55248  21707124.895    21707125.4874   21707131.9094
       224.0004        223.0004
 -16668023.20649 -12635131.60747  21165167.965    21165168.5924   21165175.5374
       209.0004        210.0004
 -16247216.94148 -12342970.14746  21751096.287    21751096.1124   21751100.3214
       183.0004        183.0004
  -5639994.96347  -4375700.38546  23453369.560    23453369.4704   23453376.0084
       164.0004        165.0004
 -16236087.77049 -12634981.62247  21595510.115    21595510.5524   21595514.5134
       197.0004        197.0004
 -10690605.77648  -8278952.42846  22443791.054    22443791.4014   22443797.3434
       176.0004        176.0004
 -14824091.22948 -11539765.63046  21848941.515    21848942.1334   21848949.5734
       182.0004        183.0004
  -4181331.59547  -3240483.57545  23752607.860    23752608.2254   23752614.9364
       153.0004        158.0004
 21  2  3  0 21  0.0000000  0  9G14G08G09G21G30G07G04G01G17
   -928511.00747   -716615.19145  23554303.175    23554304.1354   23554308.5144
       155.0004        158.0004
 -15379865.72249 -11941475.66348  21722980.612    21722980.3804   21722986.5534
       223.0004        222.0004
 -16622174.23449 -12599405.14247  21173893.548    21173893.3864   21173900.6704
       209.0004        210.0004
 -16250792.96048 -12345756.64646  21750415.813    21750414.8974   21750420.0204
       183.0004        183.0004
  -5727829.61647  -4444142.94846  23436654.385    23436654.5174   23436662.3544
       162.0004        164.0004
 -16306005.08849 -12689462.65047  21582205.078    21582205.2984   21582209.9074
       198.0004        198.0004
 -10597123.17248  -8206108.83646  22461580.321    22461581.1474   22461587.3854
       176.0004        176.0004
 -14892302.52048 -11592917.26346  21835960.858    21835960.9754   21835969.0744
       182.0004        182.0004
  -4272223.35247  -3311308.16645  23735311.992    23735311.9024   23735317.8794
       155.0004        158.0004
 21  2  3  0 21 30.0000000  0  9G14G08G09G21G30G07G04G01G17
   -955270.78347   -737466.91245  23549211.384    23549211.8034   23549217.0544
       157.0004        159.0004
 -15296297.89349 -11876357.86048  21738882.396    21738882.3174   21738889.0084
       222.0004        221.0004
 -16575888.34949 -12563338.21547  21182700.369    21182701.2594   21182708.5424
       209.0004        209.0004
 -16253906.37848 -12348182.67446  21749823.007    21749821.9244   21749827.8054
       183.0004        183.0004
  -5815688.99647  -4512604.77646  23419934.881    23419935.8764   23419942.2464
       162.0004        164.0004
 -16375757.36949 -12743815.08247  21568931.851    21568932.3734   21568936.1784
       198.0004        198.0004
 -10503474.03748  -8133135.47946  22479401.856    22479401.2484   22479408.1124
       177.0004        176.0004
 -14960262.82548 -11645873.29146  21823028.669    21823028.7674   21823037.6094
       182.0004        184.0004
  -4362839.35747  -3381917.87345  23718068.135    23718068.0354   23718074.3654
       155.0004        157.0004
 21  2  3  0 22  0.0000000  0  9G14G08G09G21G30G07G04G01G17
   -981985.18747   -758283.30045  23544128.075    23544127.8924   23544133.2704
       156.0004        157.0004
 -15212482.68549 -11811047.30348  21754831.276    21754831.7234   21754838.5274
       221.0004        220.0004
 -16529167.16749 -12526932.10347  21191591.772    21191592.0384   21191598.8934
       209.0004        209.0004
 -16256555.09948 -12350246.59746  21749318.647    21749318.7034   21749323.5994
       184.0004        186.0004
  -5903570.44647  -4581083.79646  23403212.465    23403212.2104   23403220.4904
       163.0004        165.0004
 -16445341.27649 -12798036.30047  21555690.505    21555690.4114   21555694.2714
       197.0004        197.0004
 -10409660.66748  -8060034.14646  22497252.070    22497253.3734   22497260.6314
       176.0004        176.0004
 -15027968.07448 -11698630.61346  21810144.004    21810145.1134   21810153.5404
       183.0004        184.0004
  -4453176.43547  -3452310.23445  23700877.215    23700878.0054   23700884.5174
       158.0004        162.0004
 21  2  3  0 22 30.0000000  0  9G14G08G09G21G30G07G04G01G17
  -1008656.24447   -779065.91445  23539051.995    23539053.1214   23539057.8124
       157.0004        160.0004
 -15128423.38349 -11745546.55148  21770827.969    21770827.8684   21770834.8034
       222.0004        221.0004
 -16482013.98049 -12490189.36347  21200565.078    21200564.9924   21200572.2184
       209.0004        209.0004
 -16258738.65248 -12351948.04846  21748904.386    21748903.4624   21748909.2874
       185.0004        185.0004
  -5991472.83048  -4649579.13346  23386484.657    23386484.7514   23386493.2084
       165.0004        167.0004
 -16514754.97749 -12852124.88647  21542480.660    21542481.3554   21542485.9734
       197.0004        197.0004
 -10315686.85148  -7986807.78846  22515135.569    22515135.5794   22515142.1954
       176.0004        177.0004
 -15095415.85748 -11751187.28646  21797308.767    21797310.0114   21797318.5164
       183.0004        185.0004
  -4543233.47247  -3522484.40245  23683740.866    23683741.5804   23683747.3474
       159.0004        161.0004
 21  2  3  0 23  0.0000000  0  9G14G08G09G21G30G07G04G01G17
  -1035284.99447   -799815.54746  23533984.935    23533985.5024   23533990.8034
       160.0004        163.0004
 -15044123.14149 -11679858.04348  21786870.149    21786870.3144   21786876.3324
       222.0004        221.0004
 -16434430.93249 -12453111.65447  21209619.065    21209619.3984   21209626.6744
       208.0004        208.0004
 -16260455.58948 -12353285.89146  21748577.089    21748576.3174   21748582.6724
       186.0004        186.0004
  -6079393.99847  -4718089.14246  23369754.251    23369754.6624   23369761.7734
       163.0004        164.0004
 -16583995.59749 -12906078.60847  21529305.142    21529305.7944   21529309.5314
       198.0004        198.0004
 -10221555.33848  -7913458.52846  22533047.830    22533048.9814   22533055.1114
       177.0004        178.0004
 -15162602.57648 -11803540.54946  21784524.277    21784525.2044   21784533.6154
       184.0004        186.0004
  -4633008.34347  -3592438.72845  23666657.895    23666657.8614   23666663.3514
       159.0004        160.0004
 21  2  3  0 23 30.0000000  0  9G14G08G09G21G30G07G04G01G17
  -1061873.09847   -820533.51246  23528925.630    23528925.7724   23528931.3164
       164.0004        166.0004
 -14959584.75949 -11613983.95748  21802957.011    21802957.0624   21802963.5634
       221.0004        220.0004
 -16386420.92649 -12415701.24547  21218755.903    21218755.8854   21218762.4444
       208.0004        208.0004
 -16261705.32148 -12354259.68346  21748338.792    21748338.1844   21748345.3524
       187.0004        187.0004
  -6167332.55147  -4786612.68046  23353020.782    23353021.2064   23353027.9804
       163.0004        165.0004
 -16653060.59849 -12959895.47047  21516163.176    21516163.3234   21516166.6444
       198.0004        199.0004
 -10127269.61648  -7839989.11046  22550990.246    22550990.6804   22550997.2984
       176.0004        176.0004
 -15229525.40448 -11855688.16246  21771788.828    21771789.4744   21771798.1674
       184.0004        184.0004
  -4722499.79247  -3662172.19945  23649627.445    23649628.6014   23649632.8384
       158.0004        159.0004
 21  2  3  0 24  0.0000000  0  9G14G08G09G21G30G07G04G01G17
  -1088421.28848   -841220.38846  23523873.261    23523874.2194   23523879.8094
       166.0004        168.0004
 -14874810.99249 -11547926.47948  21819088.119    21819088.7174   21819095.4854
       220.0004        219.0004
 -16337985.93749 -12377959.69747  21227972.065    21227972.5434   21227980.2104
       208.0004        209.0004
 -16262486.15248 -12354868.09347  21748190.950    21748190.2494   21748197.4104
       187.0004        188.0004
  -6255286.05647  -4855147.82346  23336283.144    23336283.6584   23336290.9904
       164.0004        167.0004
 -16721947.03249 -13013573.20547  21503054.045    21503054.6634   21503057.8684
       198.0004        198.0004
 -10032832.21348  -7766401.50846  22568960.555    22568961.6404   22568968.0174
       176.0004        176.0004
 -15296180.60648 -11907627.25346  21759104.812    21759105.9774   21759113.9634
       184.0004        184.0004
  -4811704.93647  -3731682.58345  23632649.852    23632651.0014   23632657.0004
       157.0004        160.0004
 21  2  3  0 24 30.0000000  0  9G14G08G09G21G30G07G04G01G17
  -1114929.93348   -861876.43046  23518828.941    23518829.8034   23518835.4194
       165.0004        166.0004
 -14789803.84349 -11481687.14748  21835264.738    21835264.8734   21835271.7944
       220.0004        219.0004
 -16289127.46049 -12339888.15047  21237269.368    21237269.6104   21237277.2554
       208.0004        208.0004
 -16262796.31048 -12355109.73647  21748131.862    21748131.3164   21748138.3984
       188.0004        188.0004
  -6343251.52647  -4923692.31346  23319543.277    23319543.5674   23319551.9574
       164.0004        166.0004
 -16790651.22149 -13067108.91947  21489979.960    21489980.1324   21489984.3844
       198.0004        199.0004
  -9938245.10948  -7692697.27546  22586959.730    22586960.8814   22586966.9584
       176.0004        175.0004
 -15362563.91148 -11959354.47346  21746473.501    21746474.1054   21746481.6584
       184.0004        186.0004
  -4900621.04647  -3800967.72445  23615730.407    23615731.3194   23615737.5054
       158.0004        160.0004
 21  2  3  0 25  0.0000000  0  9G14G08G09G21G30G07G04G01G17
  -1141401.98447   -882503.98846  23513790.907    23513791.6574   23513798.2704
       164.0004        164.0004
 -14704568.19849 -11415269.76748  21851484.852    21851484.7294   21851491.5284
       220.0004        219.0004
 -16239849.73249 -12301489.92547  21246646.156    21246646.8714   21246654.5424
       207.0004        207.0004
 -16262636.34948 -12354985.06247  21748161.795    21748161.6284   21748168.8804
       188.0004        189.0004
  -6431228.78447  -4992245.99746  23302802.176    23302802.5204   23302809.3644
       164.0004        166.0004
 -16859172.11449 -13120501.81147  21476940.610    21476941.1714   21476944.9214
       198.0004        198.0004
  -9843513.06448  -7618880.10446  22604986.705    22604987.5784   22604994.0334
       175.0004        176.0004
 -15428673.80448 -12010868.64746  21733892.294    21733892.3294   21733900.9684
       185.0004        185.0004
  -4989247.86147  -3870027.46145  23598866.023    23598866.1254   23598870.2284
       157.0004        158.0004
 21  2  3  0 25 30.0000000  0  9G14G08G09G21G30G07G04G01G17
  -1167837.47647   -903103.04846  23508761.056    23508761.4584   23508766.9814
       163.0004        164.0004
 -14619105.35749 -11348675.35648  21867747.658    21867748.1314   21867754.8204
       220.0004        220.0004
 -16190154.03849 -12262766.01247  21256103.572    21256103.9034   21256110.8384
       207.0004        207.0004
 -16262003.82048 -12354492.15547  21748281.648    21748281.5664   21748288.9004
       188.0004        188.0004
  -6519214.65347  -5060806.39046  23286058.875    23286058.8144   23286066.5894
       164.0004        165.0004
 -16927506.30949 -13173749.22247  21463937.041    21463937.6004   21463941.6784
       198.0004        198.0004
  -9748637.85348  -7544951.38246  22623041.301    22623042.3674   22623047.5754
       176.0004        176.0004
 -15494505.78748 -12062166.26246  21721363.859    21721365.6724   21721373.3964
       184.0004        185.0004
  -5077582.54847  -3938859.61045  23582055.177    23582055.2994   23582061.3364
       155.0004        155.0004
 21  2  3  0 26  0.0000000  0  9G14G08G09G21G30G07G04G01G17
  -1194237.76347   -923674.66046  23503737.320    23503737.4774   23503743.1944
       164.0004        166.0004
 -14533418.56149 -11281906.41148  21884053.242    21884053.4114   21884060.3024
       220.0004        219.0004
 -16140043.06349 -12223718.49047  21265639.105    21265639.2284   21265647.0434
       207.0004        207.0004
 -16260897.59648 -12353630.13746  21748492.756    21748491.9474   21748498.9804
       187.0004        186.0004
  -6607207.33247  -5129372.06346  23269315.179    23269314.6974   23269321.9864
       164.0004        166.0004
 -16995650.99949 -13226848.97047  21450969.660    21450970.4844   21450974.4974
       198.0004        199.0004
  -9653622.53748  -7470913.48246  22641122.289    22641122.7184   22641129.8394
       175.0004        174.0004
 -15560056.75748 -12113244.91246  21708890.996    21708891.6814   21708900.2814
       184.0004        186.0004
  -5165622.90647  -4007462.41645  23565303.220    23565303.6064   23565308.1204
       157.0004        161.0004
 21  2  3  0 26 30.0000000  0  9G14G08G09G21G30G07G04G01G17
  -1220604.71748   -944220.29946  23498719.229    23498720.0744   23498726.2614
       165.0004        166.0004
 -14447511.40649 -11214965.75748  21900400.243    21900400.9964   21900407.9684
       219.0004        218.0004
 -16089519.87349 -12184349.75647  21275253.020    21275253.6144   21275261.6884
       207.0004        207.0004
 -16259317.82948 -12352399.12546  21748794.155    21748792.6934   21748798.8574
       186.0004        186.0004
  -6695205.37348  -5197941.95346  23252568.513    23252569.3514   23252577.0004
       167.0004        170.0004
 -17063603.73249 -13279799.15247  21438038.188    21438039.0554   21438043.4474
       199.0004        199.0004
  -9558470.80948  -7396769.28646  22659229.405    22659230.1134   22659235.5394
       174.0004        174.0004
 -15625324.10048 -12164102.54146  21696471.146    21696471.9674   21696479.4864
       185.0004        186.0004
  -5253367.71347  -4075834.93745  23548605.955    23548605.4514   23548611.3424
       159.0004        161.0004
 21  2  3  0 27  0.0000000  0  9G14G08G09G21G30G07G04G01G17
  -1246939.31147   -964740.73646  23493708.662    23493709.1504   23493713.8004
       164.0004        165.0004
 -14361386.38049 -11147855.35048  21916789.998    21916789.9944   21916796.3374
       218.0004        217.0004
 -16038586.86949 -12144661.70347  21284945.529    21284945.8704   21284953.6954
       207.0004        206.0004
 -16257262.65948 -12350797.67246  21749184.872    21749184.3204   21749189.5784
       185.0004        185.0004
  -6783206.59748  -5266514.28546  23235821.927    23235822.5364   23235830.9264
       168.0004        169.0004
 -17131362.08649 -13332597.86247  21425144.768    21425144.9614   21425149.3454
       199.0004        199.0004
  -9463185.36848  -7322520.88846  22677361.615    22677362.4694   22677368.3984
       174.0004        175.0004
 -15690304.24548 -12214736.38246  21684106.504    21684106.9284   21684114.4734
       186.0004        187.0004
  -5340814.97347  -4143975.56445  23531964.624    23531964.5694   23531970.4714
       159.0004        161.0004
 21  2  3  0 27 30.0000000  0  9G14G08G09G21G30G07G04G01G17
  -1273242.76248   -985236.88346  23488702.589    23488703.7724   23488708.9864
       165.0004        166.0004
 -14275046.50549 -11080577.52248  21933220.315    21933220.3834   21933226.4084
       219.0004        218.0004
 -15987246.56149 -12104656.27247  21294715.516    21294715.5754   21294722.9704
       206.0004        206.0004
 -16254731.72348 -12348825.49946  21749665.564    21749666.1494   21749670.5614
       185.0004        184.0004
  -6871208.97248  -5335087.54446  23219076.456    23219076.1124   23219083.6484
       166.0004        167.0004
 -17198923.02849 -13385242.73047  21412287.551    21412288.1394   21412292.6754
       199.0004        199.0004
  -9367769.18448  -7248170.62346  22695518.298    22695519.2104   22695525.1514
       174.0004        173.0004
 -15754993.98648 -12265143.94446  21671794.828    21671795.6024   21671804.2894
       186.0004        186.0004
  -5427962.59247  -4211882.73245  23515382.047    23515381.4254   23515387.1954
       158.0004        160.0004
 21  2  3  0 28  0.0000000  0  9G14G08G09G21G30G07G04G01G17
  -1299515.73248  -1005709.29046  23483704.472    23483704.1244   23483709.6954
       166.0004        167.0004
 -14188494.11349 -11013134.09048  21949690.187    21949690.8924   21949697.0694
       218.0004        218.0004
 -15935500.94149 -12064335.01247  21304561.777    21304562.3984   21304569.4394
       205.0004        206.0004
 -16251723.18148 -12346481.14046  21750238.215    21750237.8024   21750242.4454
       184.0004        184.0004
  -6959209.88748  -5403659.66046  23202330.717    23202330.7334   23202337.8734
       167.0004        170.0004
 -17266283.30449 -13437731.25647  21399470.321    21399470.6994   21399475.0044
       199.0004        200.0004
  -9272224.64848  -7173720.34046  22713699.567    22713700.1644   22713706.3454
       171.0004        170.0004
 -15819389.46448 -12315322.19646  21659541.274    21659542.0794   21659550.3314
       186.0004        187.0004
  -5514808.39147  -4279554.70645  23498854.299    23498854.7794   23498860.1904
       156.0004        156.0004
 21  2  3  0 28 30.0000000  0  9G14G08G09G21G30G07G04G01G17
  -1325759.54348  -1026158.96746  23478707.900    23478709.5824   23478715.9494
       165.0004        165.0004
 -14101732.33849 -10945527.49248  21966199.451    21966200.3124   21966207.6884
       218.0004        217.0004
 -15883352.67749 -12023700.01147  21314485.512    21314486.2554   21314493.4844
       206.0004        206.0004
 -16248236.35848 -12343764.12046  21750901.615    21750900.9914   21750905.7594
       183.0004        183.0004
  -7047207.39148  -5472229.11446  23185585.730    23185585.3334   23185592.9404
       169.0004        172.0004
 -17333440.25349 -13490061.35147  21386690.513    21386691.0514   21386695.0434
       200.0004        201.0004
  -9176554.81848  -7099172.42146  22731905.691    22731905.3974   22731911.3464
       170.0004        171.0004
 -15883487.54648 -12365268.73146  21647344.678    21647344.9244   21647353.0354
       186.0004        187.0004
  -5601350.38947  -4346989.94645  23482385.127    23482386.1834   23482393.6334
       157.0004        161.0004
 21  2  3  0 29  0.0000000  0  9G14G08G09G21G30G07G04G01G17
  -1351975.03247  -1046586.57946  23473719.359    23473720.5184   23473726.4614
       163.0004        164.0004
 -14014763.46549 -10877759.54248  21982750.229    21982750.2994   21982757.3664
       217.0004        217.0004
 -15830803.99549 -11982752.99447  21324484.983    21324485.6864   21324492.7934
       206.0004        206.0004
 -16244269.90448 -12340673.37746  21751657.042    21751656.8334   21751660.5554
       183.0004        183.0004
  -7135199.13848  -5540794.11846  23168842.115    23168841.8254   23168847.6514
       171.0004        172.0004
 -17400390.84049 -13542230.67247  21373950.352    21373950.7884   21373954.7934
       200.0004        200.0004
  -9080762.33748  -7024528.93446  22750133.683    22750134.1574   22750141.6864
       170.0004        171.0004
 -15947284.63848 -12414980.73046  21635203.790    21635204.1214   21635212.4324
       186.0004        187.0004
  -5687586.56247  -4414186.89245  23465975.129    23465975.2934   23465982.3794
       158.0004        160.0004
 21  2  3  0 29 30.0000000  0  9G14G08G09G21G30G07G04G01G17
  -1378164.24547  -1066993.73146  23468737.863    23468737.3644   23468742.9244
       163.0004        165.0004
 -13927591.58849 -10809833.40648  21999337.989    21999338.3464   21999345.4724
       217.0004        217.0004
 -15777858.39649 -11941496.67747  21334560.124    21334560.7234   21334568.9864
       206.0004        206.0004
 -16239823.80248 -12337208.86346  21752503.870    21752502.8654   21752506.6824
       183.0004        183.0004
  -7223183.90648  -5609353.65846  23152098.348    23152097.9954   23152105.7424
       171.0004        172.0004
 -17467133.31849 -13594237.80847  21361249.591    21361250.2224   21361254.4764
       200.0004        201.0004
  -8984850.98348  -6949792.81146  22768386.043    22768386.1234   22768391.7454
       170.0004        171.0004
 -16010778.33048 -12464456.29246  21623120.919    21623122.0744   21623129.7924
       186.0004        187.0004
  -5773515.53347  -4481144.45545  23449623.706    23449624.1654   23449630.2534
       157.0004        159.0004
 21  2  3  0 30  0.0000000  0  9G14G08G09G21G30G07G04G01G17
  -1404329.12447  -1087381.90046  23463757.883    23463758.8134   23463763.9054
       163.0004        165.0004
 -13840219.82649 -10741751.50448  22015964.025    22015964.7444   22015971.4434
       217.0004        216.0004
 -15724519.12749 -11899933.60947  21344710.604    21344711.2074   21344718.6224
       205.0004        205.0004
 -16234897.80248 -12333370.40446  21753440.111    21753439.8324   21753444.1164
       182.0004        183.0004
  -7311160.33248  -5677906.69146  23135355.907    23135356.1814   23135363.9624
       171.0004        172.0004
 -17533665.63449 -13646081.15547  21348589.308    21348589.3194   21348593.7414
       201.0004        201.0004
  -8888824.42948  -6874966.92846  22786657.946    22786658.5994   22786664.5704
       170.0004        170.0004
 -16073966.06648 -12513693.47046  21611097.543    21611098.0524   21611105.5674
       187.0004        187.0004
  -5859136.46647  -4547861.99145  23433332.564    23433331.8364   23433337.0344
       159.0004        162.0004
 21  2  3  0 30 30.0000000  0  9G14G08G09G21G30G07G04G01G17
  -1430468.92547  -1107750.52446  23458784.477    23458784.8944   23458789.6254
       164.0004        166.0004
 -13752649.50649 -10673514.87848  22032628.738    22032628.7214   22032635.6064
       217.0004        216.0004
 -15670786.94149 -11858064.36947  21354935.672    21354935.9164   21354942.9874
       205.0004        205.0004
 -16229489.17548 -12329155.87246  21754468.455    21754468.9344   21754472.9334
       182.0004        182.0004
  -7399124.33148  -5746450.04146  23118617.563    23118618.6124   23118625.6004
       171.0004        173.0004
 -17599982.87849 -13697756.90047  21335969.462    21335970.1294   21335973.7334
       201.0004        202.0004
  -8792683.69448  -6800052.07046  22804952.195    22804953.5694   22804960.1694
       168.0004        168.0004
 -16136842.72048 -12562688.23647  21599132.731    21599132.6714   21599141.5394
       187.0004        188.0004
  -5944445.61347  -4614336.58745  23417097.098    23417097.5264   23417101.2114
       159.0004        161.0004
 21  2  3  0 31  0.0000000  0  9G14G08G09G21G30G07G04G01G17
  -1456585.40347  -1128101.01046  23453813.307    23453814.3894   23453819.7144
       163.0004        163.0004
 -13664884.07849 -10605126.22648  22049329.489    22049329.8824   22049336.9324
       217.0004        216.0004
 -15616665.04949 -11815891.47647  21365235.220    21365235.1854   21365242.3654
       205.0004        206.0004
 -16223597.90748 -12324565.27446  21755590.697    21755590.8324   21755594.1584
       182.0004        182.0004
  -7487074.51048  -5814982.62546  23101881.804    23101881.4474   23101888.5304
       172.0004        172.0004
 -17666082.88549 -13749263.39447  21323391.264    21323391.2184   21323395.2004
       201.0004        200.0004
  -8696432.29948  -6725050.98546  22823268.820    22823268.8484   22823276.5714
       166.0004        166.0004
 -16199405.67548 -12611438.56847  21587227.467    21587228.0594   21587235.4344
       188.0004        189.0004
  -6029441.64347  -4680567.20345  23400923.161    23400923.4784   23400928.2254
       160.0004        162.0004
 21  2  3  0 31 30.0000000  0  9G14G08G09G21G30G07G04G01G17
  -1482679.50047  -1148434.05345  23448847.929    23448848.4704   23448853.8214
       160.0004        160.0004
 -13576926.23049 -10536587.64348  22066066.858    22066067.4754   22066074.7534
       216.0004        214.0004
 -15562155.77549 -11773416.70447  21375607.510    21375607.6274   21375615.5934
       205.0004        204.0004
 -16217222.66348 -12319597.52946  21756803.939    21756803.3594   21756807.3364
       182.0004        183.0004
  -7575008.37748  -5883502.53746  23085146.941    23085148.3494   23085154.8694
       170.0004        169.0004
 -17731962.70249 -13800598.30847  21310853.987    21310854.4844   21310858.4574
       201.0004        201.0004
  -8600072.83448  -6649965.65646  22841605.594    22841606.9864   22841612.8284
       167.0004        169.0004
 -16261651.30748 -12659941.63047  21575382.765    21575383.2454   21575390.2764
       189.0004        189.0004
  -6114122.38647  -4746552.12746  23384808.905    23384808.3934   23384814.9404
       162.0004        165.0004
 21  2  3  0 32  0.0000000  0  9G14G08G09G21G30G07G04G01G17
  -1508753.14147  -1168751.11345  23443885.680    23443886.6794   23443892.7064
       158.0004        160.0004
 -13488779.34649 -10467901.76348  22082841.073    22082841.4524   22082848.6164
       215.0004        215.0004
 -15507262.55649 -11730642.76147  21386053.841    21386053.7984   21386060.9674
       204.0004        203.0004
 -16210363.33548 -12314252.58746  21758108.357    21758108.5494   21758111.9404
       182.0004        182.0004
  -7662924.66448  -5952008.72246  23068417.750    23068418.1034   23068425.4584
       170.0004        171.0004
 -17797620.14549 -13851759.95147  21298359.457    21298360.3534   21298364.8274
       201.0004        202.0004
  -8503609.09848  -6574799.05646  22859964.173    22859964.1514   22859969.1014
       169.0004        170.0004
 -16323577.23948 -12708195.59647  21563597.589    21563598.1084   21563605.7624
       188.0004        188.0004
  -6198487.01147  -4812290.73046  23368753.287    23368754.4994   23368759.8264
       162.0004        163.0004
 21  2  3  0 32 30.0000000  0  9G14G08G09G21G30G07G04G01G17
  -1534807.21847  -1189052.92645  23438927.726    23438929.2464   23438934.0704
       159.0004        161.0004
 -13400446.13949 -10399070.69548  22099651.551    22099651.3744   22099658.0294
       216.0004        216.0004
 -15451987.73849 -11687571.46947  21396572.294    21396572.5784   21396579.2404
       203.0004        204.0004
 -16203019.13148 -12308529.81246  21759505.342    21759505.7714   21759511.2134
       182.0004        182.0004
  -7750820.90448  -6020499.25646  23051691.622    23051692.1564   23051700.1334
       171.0004        173.0004
 -17863052.65349 -13902746.31247  21285908.590    21285909.1524   21285912.8424
       202.0004        201.0004
  -8407043.70648  -6499553.28946  22878338.320    22878339.0764   22878345.3464
       169.0004        169.0004
 -16385179.98448 -12756197.70546  21551874.967    21551875.5874   21551882.9154
       187.0004        187.0004
  -6282533.56447  -4877781.48746  23352762.246    23352761.8774   23352766.7504
       162.0004        164.0004
 21  2  3  0 33  0.0000000  0  9G14G08G09G21G30G07G04G01G17
  -1560843.23947  -1209340.71345  23433972.265    23433974.0424   23433978.7814
       159.0004        160.0004
 -13311929.67149 -10330096.82748  22116494.960    22116495.2764   22116502.3024
       216.0004        215.0004
 -15396334.41749 -11644205.22447  21407162.184    21407162.2234   21407170.0864
       203.0004        203.0004
 -16195189.18248 -12302428.53046  21760996.521    21760996.4504   21761000.6364
       183.0004        183.0004
  -7838695.31948  -6088972.80146  23034968.741    23034969.1924   23034977.2304
       171.0004        172.0004
 -17928257.66449 -13953555.38247  21273500.699    21273501.0904   21273505.0044
       201.0004        202.0004
  -8310379.88348  -6424230.79746  22896732.534    22896732.5334   22896739.9634
       169.0004        171.0004
 -16446456.61648 -12803945.70246  21540214.665    21540215.2684   21540222.9564
       187.0004        187.0004
  -6366260.17948  -4943022.94446  23336827.957    23336828.2064   23336834.2914
       165.0004        166.0004
 21  2  3  0 33 30.0000000  0  9G14G08G09G21G30G07G04G01G17
  -1586862.49247  -1229615.39845  23429022.376    23429023.4404   23429028.0974
       158.0004        160.0004
 -13223232.84749 -10260982.43348  22133374.119    22133373.6074   22133380.4024
       215.0004        213.0004
 -15340305.36149 -11600546.21047  21417824.083    21417824.5144   21417831.3334
       203.0004        203.0004
 -16186873.22748 -12295948.54846  21762579.823    21762578.4364   21762582.9574
       183.0004        183.0004
  -7926545.85448  -6157427.75946  23018253.517    23018252.5784   23018260.0804
       171.0004        173.0004
 -17993232.19049 -14004184.86547  21261136.005    21261136.7004   21261140.5974
       201.0004        202.0004
  -8213620.69248  -6348834.02846  22915145.008    22915145.5804   22915152.5044
       169.0004        169.0004
 -16507404.04148 -12851437.19047  21528617.103    21528617.7264   21528625.0364
       187.0004        188.0004
  -6449665.21347  -5008013.81446  23320955.921    23320956.1344   23320962.6964
       163.0004        165.0004
 21  2  3  0 34  0.0000000  0  9G14G08G09G21G30G07G04G01G17
  -1612866.13047  -1249877.91545  23424074.073    23424074.8724   23424080.1614
       160.0004        162.0004
 -13134358.62249 -10191729.79447  22150282.995    22150284.4884   22150291.9774
       213.0004        211.0004
 -15283903.28149 -11556596.53747  21428556.985    21428557.4694   21428564.8674
       202.0004        203.0004
 -16178070.60548 -12289089.33846  21764254.272    21764253.3464   21764259.1584
       184.0004        185.0004
  -8014370.36148  -6225862.43246  23001540.712    23001541.1534   23001547.0334
       172.0004        173.0004
 -18057973.65949 -14054632.75047  21248816.592    21248816.6994   21248821.2934
       202.0004        202.0004
  -8116769.12248  -6273365.27346  22933575.369    22933575.8344   22933583.8324
       168.0004        168.0004
 -16568019.10148 -12898669.68447  21517083.386    21517082.9134   21517090.6934
       188.0004        188.0004
  -6532747.28848  -5072753.01246  23305146.111    23305146.9274   23305153.2224
       165.0004        168.0004
 21  2  3  0 34 30.0000000  0  9G14G08G09G21G30G07G04G01G17
  -1638854.94747  -1270128.88945  23419128.170    23419129.4014   23419134.8094
       161.0004        162.0004
 -13045309.39049 -10122340.78647  22167228.872    22167229.6854   22167237.4794
       211.0004        211.0004
 -15227130.42449 -11512357.94547  21439360.446    21439360.7974   21439368.5924
       203.0004        203.0004
 -16168780.23648 -12281850.08346  21766021.488    21766021.5764   21766026.0214
       184.0004        184.0004
  -8102166.24648  -6294274.80146  22984833.503    22984833.0974   22984840.4194
       171.0004        171.0004
 -18122479.03649 -14104896.70647  21236541.420    21236542.0184   21236545.8044
       202.0004        202.0004
  -8019827.61848  -6197826.44346  22952023.111    22952024.0054   22952029.8664
       168.0004        169.0004
 -16628298.18248 -12945640.36346  21505610.684    21505611.0244   21505619.8824
       187.0004        187.0004
  -6615504.31548  -5137238.91546  23289398.867    23289399.1704   23289404.7814
       167.0004        170.0004
 21  2  3  0 35  0.0000000  0  9G14G08G09G21G30G07G04G01G17
  -1664829.84047  -1290369.03445  23414186.104    23414186.4244   23414191.2514
       161.0004        162.0004
 -12956087.74349 -10052817.42347  22184208.519    22184208.6834   22184216.0074
       212.0004        211.0004
 -15169989.35749 -11467832.43447  21450234.490    21450234.7184   21450242.4804
       203.0004        203.0004
 -16159001.22048 -12274230.04146  21767882.703    21767881.9764   21767887.7784
       184.0004        185.0004
  -8189931.18148  -6362663.04046  22968133.363    22968132.6344   22968139.5534
       173.0004        175.0004
 -18186745.24849 -14154974.28447  21224312.013    21224312.6264   21224316.5784
       202.0004        202.0004
  -7922798.84548  -6122219.62046  22970487.885    22970488.0834   22970493.6304
       169.0004        170.0004
 -16688237.91348 -12992346.61947  21494204.832    21494205.6754   21494214.3254
       188.0004        190.0004
  -6697934.35448  -5201470.05746  23273712.165    23273713.0374   23273719.2514
       168.0004        169.0004
 21  2  3  0 35 30.0000000  0  9G14G08G09G21G30G07G04G01G17
  -1690792.93347  -1310599.98545  23409245.047    23409246.2264   23409251.1364
       159.0004        160.0004
 -12866697.32449  -9983162.55847  22201218.768    22201219.1824   22201226.9624
       212.0004        211.0004
 -15112483.73149 -11423022.85647  21461177.206    21461177.4104   21461184.8254
       202.0004        202.0004
 -16148733.84348 -12266229.46946  21769836.361    21769835.5514   21769841.3064
       185.0004        186.0004
  -8277663.90448  -6431026.19446  22951437.390    22951436.1644   22951443.7474
       171.0004        170.0004
 -18250770.42949 -14204864.02947  21212127.912    21212128.4974   21212133.2214
       202.0004        202.0004
  -7825686.68348  -6046547.79646  22988966.455    22988967.7344   22988973.7874
       168.0004        167.0004
 -16747835.98148 -13038786.65947  21482865.792    21482866.4694   21482873.0324
       192.0004        194.0004
  -6780036.20348  -5265445.46446  23258088.371    23258088.6204   23258096.4204
       167.0004        167.0004
 21  2  3  0 36  0.0000000  0  9G14G08G09G21G30G07G04G01G17
  -1716745.09847  -1330822.43245  23404307.388    23404307.3494   23404312.5954
       158.0004        159.0004
 -12777141.00849  -9913378.41447  22218261.941    22218261.7844   22218268.8504
       212.0004        212.0004
 -15054615.99049 -11377931.09247  21472188.393    21472189.0114   21472196.6934
       202.0004        202.0004
 -16137977.40348 -12257847.79246  21771883.303    21771882.4464   21771888.0274
       185.0004        185.0004
  -8365361.99548  -6499362.33846  22934747.050    22934747.5444   22934756.6194
       169.0004        170.0004
 -18314551.51149 -14254563.56547  21199991.180    21199991.4964   21199995.4754
       202.0004        202.0004
  -7728493.75748  -5970813.05146  23007460.433    23007462.0944   23007469.0154
       167.0004        167.0004
 -16807088.96648 -13084957.80547  21471590.229    21471590.5054   21471597.0404
       194.0004        194.0004
  -6861808.50148  -5329164.08346  23242528.162    23242528.8994   23242534.1724
       166.0004        166.0004
 21  2  3  0 36 30.0000000  0  9G14G08G09G21G30G07G04G01G17
  -1742686.54547  -1351036.51645  23399368.962    23399370.2384   23399376.3464
       156.0004        157.0004
 -12687420.44549  -9843466.30747  22235335.274    22235335.2364   22235341.7154
       212.0004        210.0004
 -14996387.88649 -11332558.53947  21483270.360    21483270.4684   21483277.1284
       202.0004        203.0004
 -16126730.14848 -12249083.69146  21774023.825    21774023.5834   21774028.8524
       186.0004        186.0004
  -8453022.11148  -6567668.91946  22918065.861    22918065.9284   22918073.9344
       169.0004        170.0004
 -18378084.60649 -14304069.87147  21187901.420    21187901.7384   21187905.7544
       202.0004        203.0004
  -7631221.93448  -5895016.87346  23025972.620    23025972.7254   23025979.3674
       167.0004        169.0004
 -16865992.76748 -13130856.87147  21460379.348    21460380.2384   21460387.8834
       192.0004        190.0004
  -6943248.24548  -5392623.57046  23227031.474    23227031.5494   23227035.9664
       166.0004        167.0004
 21  2  3  0 37  0.0000000  0  9G14G08G09G21G30G07G04G01G17
  -1768619.03947  -1371243.64145  23394435.480    23394435.1924   23394440.9194
       155.0004        157.0004
 -12597539.22049  -9773428.99447  22252438.279    22252438.2794   22252445.6754
       211.0004        209.0004
 -14937802.94649 -11286907.91247  21494417.908    21494418.0714   21494425.6894
       202.0004        202.0004
 -16114991.99748 -12239937.05446  21776257.051    21776256.9384   21776262.2004
       186.0004        186.0004
  -8540642.83548  -6635944.81846  22901393.084    22901393.6194   22901400.7384
       169.0004        170.0004
 -18441367.76649 -14353381.41947  21175858.828    21175859.3374   21175863.6704
       203.0004        203.0004
  -7533874.87348  -5819162.05946  23044495.747    23044496.6314   23044503.9514
       168.0004        169.0004
 -16924544.97548 -13176481.92346  21449235.585    21449236.3754   21449245.6554
       189.0004        187.0004
  -7024354.26047  -5455823.00146  23211597.755    23211597.8294   23211601.9954
       164.0004        165.0004
 21  2  3  0 37 30.0000000  0  9G14G08G09G21G30G07G04G01G17
  -1794543.48147  -1391444.50145  23389501.627    23389502.9344   23389508.2394
       155.0004        157.0004
 -12507499.85149  -9703268.44047  22269570.940    22269572.0584   22269579.7524
       210.0004        210.0004
 -14878863.62349 -11240981.15247  21505633.273    21505633.8484   21505641.0384
       202.0004        202.0004
 -16102762.34848 -12230407.43446  21778584.935    21778584.3434   21778589.5674
       186.0004        187.0004
  -8628221.68348  -6704188.05346  22884726.992    22884727.1234   22884736.3124
       171.0004        172.0004
 -18504397.86149 -14402495.77247  21163864.273    21163864.8764   21163869.1964
       203.0004        203.0004
  -7436455.16948  -5743250.63246  23063035.173    23063035.6864   23063042.1844
       167.0004        167.0004
 -16982742.10948 -13221830.29747  21438161.133    21438162.3664   21438171.5674
       187.0004        188.0004
  -7105124.84447  -5518761.05346  23196226.298    23196226.9614   23196230.2364
       163.0004        163.0004
 21  2  3  0 38  0.0000000  0  9G14G08G09G21G30G07G04G01G17
  -1820461.10047  -1411640.03445  23384570.911    23384571.1414   23384575.2464
       155.0004        156.0004
 -12417305.07949  -9632986.80747  22286735.901    22286736.0034   22286743.1374
       210.0004        210.0004
 -14819572.86949 -11194780.53747  21516916.273    21516916.6744   21516923.9664
       202.0004        202.0004
 -16090041.28148 -12220494.89846  21781005.346    21781004.4124   21781010.3034
       186.0004        185.0004
  -8715756.49748  -6772396.96746  22868070.663    22868070.7994   22868078.0274
       171.0004        172.0004
 -18567172.50449 -14451411.08047  21151919.139    21151919.3684   21151923.6424
       203.0004        203.0004
  -7338965.75648  -5667284.88846  23081587.432    23081587.5794   23081592.9264
       166.0004        167.0004
 -17040581.12348 -13266899.63247  21427156.390    21427156.8714   21427164.7654
       189.0004        190.0004
  -7185558.61647  -5581436.68845  23180920.817    23180921.6664   23180922.6024
       161.0004        159.0004
 21  2  3  0 38 30.0000000  0  9G14G08G09G21G30G07G04G01G17
  -1846373.63247  -1431831.62045  23379639.508    23379638.8544   23379645.7634
       154.0004        156.0004
 -12326958.35149  -9562586.76747  22303926.857    22303928.2014   22303935.5664
       210.0004        208.0004
 -14759934.02249 -11148308.69947  21528265.383    21528265.5834   21528272.8984
       203.0004        203.0004
 -16076828.58648 -12210199.27746  21783519.893    21783519.1484   21783524.5544
       186.0004        186.0004
  -8803245.65348  -6840570.30346  22851421.412    22851421.1834   22851429.6284
       171.0004        172.0004
 -18629689.57749 -14500125.68147  21140022.164    21140022.7934   21140027.0374
       203.0004        203.0004
  -7241410.05948  -5591267.49046  23100150.122    23100151.2484   23100158.0224
       165.0004        165.0004
 -17098059.50448 -13311687.97447  21416219.390    21416219.5574   21416226.3004
       190.0004        192.0004
  -7265654.41647  -5643848.97945  23165678.683    23165679.1264   23165680.5014
       157.0004        158.0004
 21  2  3  0 39  0.0000000  0 10G14G08G09G21G30G28G07G04G01G17
  -1872281.36847  -1452019.42345  23374708.937    23374709.2324   23374715.7194
       154.0004        156.0004
 -12236462.10049  -9492070.20047  22321148.534    22321148.6714   22321156.4174
       209.0004        208.0004
 -14699949.06449 -11101567.16947  21539680.895    21539680.7984   21539687.6134
       203.0004        203.0004
 -16063122.48548 -12199519.18846  21786127.993    21786127.4704   21786132.5034
       186.0004        186.0004
  -8890686.03548  -6908705.65246  22834782.898    22834783.3074   22834789.5114
       172.0004        173.0004
   -703660.01256   -538027.66845  23688293.405                    23688297.4654
       125.0004        143.0004
 -18691944.82349 -14548636.26547  21128175.463    21128175.9184   21128180.1294
       203.0004        203.0004
  -7143790.14147  -5515200.00946  23118726.252    23118727.8864   23118734.4504
       163.0004        164.0004
 -17155173.29648 -13356192.21147  21405350.645    21405351.3894   21405358.6214
       192.0004        193.0004
  -7345409.57747  -5705995.81145  23150501.325    23150502.1194   23150504.9284
       156.0004        158.0004
 21  2  3  0 39 30.0000000  0 10G14G08G09G21G30G28G07G04G01G17
  -1898185.60747  -1472204.51545  23369779.306    23369779.6674   23369785.2484
       155.0004        157.0004
 -12145818.90949  -9421439.14047  22338396.285    22338397.6454   22338405.4684
       208.0004        207.0004
 -14639621.07149 -11054558.33547  21551159.859    21551160.0334   21551167.7324
       202.0004        202.0004
 -16048923.11448 -12188454.71746  21788829.438    21788829.1204   21788834.7274
       186.0004        187.0004
  -8978075.64848  -6976801.45346  22818151.916    22818152.8414   22818159.7904
       171.0004        171.0004
   -718674.42446   -549727.16145  23685435.794    23685435.9784   23685440.9244
       134.0004        142.0004
 -18753935.78449 -14596940.90947  21116379.340    21116379.5884   21116383.7924
       203.0004        204.0004
  -7046109.08547  -5439084.86646  23137314.856    23137315.3024   23137322.3854
       163.0004        164.0004
 -17211919.63048 -13400410.10947  21394553.221    21394553.0914   21394560.2404
       193.0004        194.0004
  -7424823.24847  -5767876.55645  23135389.327    23135388.2224   23135394.5284
       157.0004        159.0004
 21  2  3  0 40  0.0000000  0 10G14G08G09G21G30G28G07G04G01G17
  -1924088.56547  -1492388.60345  23364849.930    23364851.0654   23364856.6584
       157.0004        161.0004
 -12055032.64649  -9350696.60047  22355675.329    22355674.3354   22355680.9114
       208.0004        208.0004
 -14578953.82449 -11007285.16447  21562705.271    21562705.1004   21562712.0614
       202.0004        203.0004
 -16034231.12948 -12177006.40446  21791625.599    21791625.3724   21791630.2474
       186.0004        186.0004
  -9065413.24948  -7044856.72346  22801533.991    22801533.8474   22801540.5034
       175.0004        178.0004
   -733672.29047   -561413.78245  23682581.224    23682581.4814   23682586.2694
       136.0004        142.0004
 -18815661.07149 -14645038.53847  21104633.071    21104633.4164   21104637.9224
       203.0004        203.0004
  -6948370.87147  -5362925.15245  23155912.421    23155913.7454   23155921.4004
       162.0004        162.0004
 -17268296.49148 -13444340.12247  21383823.738    21383824.2674   21383831.7434
       193.0004        193.0004
  -7503894.61847  -5829490.54146  23120343.997    23120343.0724   23120348.5434
       160.0004        165.0004
 21  2  3  0 40 30.0000000  0 10G14G08G09G21G30G28G07G04G01G17
  -1949992.33347  -1512573.31445  23359921.877    23359921.6554   23359927.3514
       159.0004        161.0004
 -11964106.71949  -9279845.24047  22372976.812    22372977.2234   22372983.7024
       208.0004        208.0004
 -14517951.22149 -10959750.66347  21574313.963    21574313.7734   21574321.2534
       203.0004        203.0004
 -16019047.36648 -12165174.89146  21794515.624    21794514.7244   21794519.8214
       186.0004        187.0004
  -9152697.63248  -7112870.50946  22784923.944    22784923.8884   22784931.1014
       177.0004        178.0004
   -748656.09847   -573089.43445  23679730.472    23679731.3104   23679736.4824
       139.0004        143.0004
 -18877118.82249 -14692927.69847  21092938.009    21092938.3264   21092942.8144
       203.0004        202.0004
  -6850579.31047  -5286723.90645  23174523.837    23174523.1754   23174530.6714
       160.0004        162.0004
 -17324301.77448 -13487980.58847  21373166.222    21373166.6204   21373174.3184
       192.0004        191.0004
  -7582623.22548  -5890837.43246  23105360.557    23105361.5524   23105368.5324
       165.0004        168.0004
 21  2  3  0 41  0.0000000  0 10G14G08G09G21G30G28G07G04G01G17
  -1975897.30347  -1532758.97045  23354990.576    23354991.9744   23354997.0464
       160.0004        161.0004
 -11873043.36849  -9208886.77747  22390305.379    22390305.4644   22390312.4904
       207.0004        206.0004
 -14456615.32149 -10911956.44147  21585985.006    21585985.5934   21585992.7614
       203.0004        204.0004
 -16003370.38348 -12152959.04346  21797498.021    21797497.5184   21797502.5124
       186.0004        185.0004
  -9239925.64448  -7180840.37646  22768325.547    22768325.2274   22768331.2654
       178.0004        179.0004
   -763626.55847   -584754.69845  23676881.481    23676880.8094   23676888.6994
       141.0004        145.0004
 -18938305.48049 -14740605.61147  21081294.667    21081295.4254   21081298.6794
       203.0004        203.0004
  -6752736.58647  -5210482.80746  23193143.161    23193142.5174   23193150.4574
       161.0004        163.0004
 -17379931.65348 -13531328.52047  21362580.114    21362580.5554   21362588.1744
       191.0004        190.0004
  -7661006.59048  -5951915.31346  23090444.106    23090445.4054   23090452.7704
       168.0004        170.0004
 21  2  3  0 41 30.0000000  0 10G14G08G09G21G30G28G07G04G01G17
  -2001802.14847  -1552944.54745  23350061.260    23350061.7434   23350066.8954
       159.0004        160.0004
 -11781843.11149  -9137821.63347  22407659.193    22407659.2014   22407667.6214
       206.0004        206.0004
 -14394946.61349 -10863902.89647  21597720.405    21597720.2084   21597727.5574
       203.0004        202.0004
 -15987197.43848 -12140356.72946  21800575.194    21800574.9654   21800580.3584
       186.0004        185.0004
  -9327092.67448  -7248762.72146  22751736.583    22751738.2094   22751743.6364
       177.0004        178.0004
   -778582.82847   -596408.91945  23674036.149    23674036.1474   23674041.4044
       142.0004        147.0004
 -18999215.95449 -14788068.31947  21069703.583    21069704.2754   21069708.4474
       203.0004        203.0004
  -6654843.14647  -5134202.21046  23211770.970    23211771.8484   23211778.0874
       163.0004        165.0004
 -17435180.68048 -13574379.68447  21352066.185    21352066.1274   21352075.2694
       190.0004        190.0004
  -7739040.77148  -6012721.11046  23075595.665    23075596.3854   23075604.0614
       169.0004        171.0004
 21  2  3  0 42  0.0000000  0 10G14G08G09G21G30G28G07G04G01G17
  -2027707.93347  -1573130.84545  23345132.001    23345132.9894   23345137.7514
       158.0004        160.0004
 -11690508.77249  -9066652.03647  22425039.167    22425039.5364   22425048.1414
       205.0004        205.0004
 -14332947.88849 -10815592.19947  21609517.959    21609518.6144   21609525.4024
       202.0004        202.0004
 -15970528.45848 -12127367.90646  21803747.934    21803747.6964   21803752.8744
       186.0004        186.0004
  -9414196.33448  -7316635.68346  22735162.332    22735162.5094   22735169.1514
       179.0004        180.0004
   -793526.21747   -608053.09545  23671191.838    23671191.2624   23671198.4254
       143.0004        148.0004
 -19059847.40849 -14835313.58747  21058165.578    21058166.0934   21058170.3854
       203.0004        203.0004
  -6556901.78647  -5057884.31946  23230410.289    23230409.3014   23230415.6874
       162.0004        163.0004
 -17490045.73648 -13617131.65247  21341624.835    21341625.6014   21341634.8404
       190.0004        190.0004
  -7816724.37048  -6073253.71746  23060812.651    23060813.9104   23060820.9734
       172.0004        174.0004
 21  2  3  0 42 30.0000000  0 10G14G08G09G21G30G28G07G04G01G17
  -2053616.35747  -1593319.20246  23340202.881    23340203.1214   23340207.0514
       160.0004        163.0004
 -11599043.61449  -8995380.48647  22442445.385    22442445.8824   22442453.4914
       206.0004        207.0004
 -14270622.57949 -10767027.01247  21621377.755    21621378.4514   21621386.0434
       202.0004        202.0004
 -15953363.71748 -12113992.75946  21807014.301    21807013.8244   21807018.8404
       186.0004        185.0004
  -9501234.96548  -7384457.97246  22718599.694    22718599.8214   22718606.1694
       181.0004        182.0004
   -808459.15147   -619689.12245  23668351.196    23668350.6344   23668355.0574
       145.0004        149.0004
 -19120197.48449 -14882339.59947  21046681.946    21046682.4774   21046685.8004
       203.0004        203.0004
  -6458915.94447  -4981531.75345  23249054.331    23249055.4454   23249060.5724
       160.0004        161.0004
 -17544524.41148 -13659582.53747  21331258.244    21331258.9554   21331267.3234
       190.0004        191.0004
  -7894056.67648  -6133512.57646  23046098.702    23046098.6114   23046103.3974
       174.0004        175.0004
 21  2  3  0 43  0.0000000  0 10G14G08G09G21G30G28G07G04G01G17
  -2079529.46247  -1613511.21645  23335270.578    23335271.8634   23335275.4134
       161.0004        162.0004
 -11507451.43949  -8924009.95947  22459874.203    22459874.9294   22459882.9384
       206.0004        207.0004
 -14207974.54149 -10718210.37447  21633299.369    21633299.7174   21633307.6284
       201.0004        201.0004
 -15935703.63148 -12100231.64546  21810375.281    21810373.8094   21810379.2204
       185.0004        185.0004
  -9588207.20648  -7452228.55646  22702049.837    22702049.1364   22702055.8964
       180.0004        179.0004
   -823384.03947   -631318.86445  23665510.819    23665510.9364   23665515.9944
       147.0004        152.0004
 -19180264.52349 -14929145.09647  21035251.623    21035252.1984   21035255.8394
       203.0004        204.0004
  -6360889.36847  -4905147.44845  23267708.308    23267709.2744   23267714.6394
       160.0004        162.0004
 -17598614.60548 -13701730.73247  21320965.115    21320966.0334   21320974.4634
       190.0004        191.0004
  -7971036.92648  -6193497.11346  23031448.089    23031448.1964   23031454.5734
       172.0004        172.0004
 21  2  3  0 43 30.0000000  0 10G14G08G09G21G30G28G07G04G01G17
  -2105446.97847  -1633706.65245  23330339.475    23330339.7914   23330344.7204
       160.0004        161.0004
 -11415733.51149  -8852541.43947  22477327.010    22477327.5494   22477336.2744
       206.0004        205.0004
 -14145005.31049 -10669143.43447  21645282.273    21645282.5684   21645289.5644
       200.0004        200.0004
 -15917546.96448 -12086083.58246  21813829.014    21813829.0834   21813833.7674
       184.0004        184.0004
  -9675109.39448  -7519944.52446  22685512.321    22685511.6994   22685518.9084
       179.0004        178.0004
   -838300.70947   -642942.20945  23662671.443    23662672.0984   23662677.0064
       149.0004        152.0004
 -19240044.06849 -14975726.54947  21023875.662    21023876.0264   21023880.9864
       204.0004        205.0004
  -6262823.50347  -4828732.54145  23286370.027    23286370.2194   23286376.9014
       160.0004        162.0004
 -17652311.97448 -13743572.82447  21310747.989    21310748.6094   21310756.0294
       191.0004        192.0004
  -8047662.14548  -6253204.98946  23016866.429    23016867.0394   23016873.1594
       171.0004        173.0004
 21  2  3  0 44  0.0000000  0 10G14G08G09G21G30G28G07G04G01G17
  -2131370.77647  -1653906.98945  23325406.318    23325406.3544   23325410.8814
       159.0004        160.0004
 -11323893.23949  -8780977.59147  22494805.023    22494804.9374   22494812.7824
       205.0004        205.0004
 -14081718.52349 -10619829.05847  21657325.028    21657325.3254   21657332.6844
       199.0004        199.0004
 -15898893.95648 -12071548.76146  21817378.968    21817378.7894   21817383.5884
       184.0004        185.0004
  -9761939.90748  -7587604.68446  22668988.574    22668989.0914   22668993.8804
       177.0004        178.0004
   -853211.79647   -654561.20545  23659834.131    23659834.3524   23659839.9524
       150.0004        152.0004
 -19299534.63849 -15022082.83447  21012554.816    21012555.7434   21012559.6784
       204.0004        204.0004
  -6164721.94347  -4752289.80446  23305037.982    23305037.9744   23305045.0404
       161.0004        163.0004
 -17705614.21948 -13785107.03247  21300604.313    21300605.2024   21300613.0254
       192.0004        193.0004
  -8123931.62948  -6312635.73046  23002353.706    23002354.2114   23002359.4774
       171.0004        171.0004
 21  2  3  0 44 30.0000000  0 10G14G08G09G21G30G28G07G04G01G17
  -2157302.18447  -1674113.24345  23320470.868    23320472.2094   23320476.2974
       157.0004        157.0004
 -11231933.75349  -8709320.83947  22512303.026    22512303.5514   22512311.4484
       204.0004        203.0004
 -14018117.34649 -10570269.69347  21669427.433    21669428.0874   21669435.7084
       199.0004        199.0004
 -15879744.66648 -12056627.23046  21821022.614    21821022.1054   21821028.0434
       185.0004        185.0004
  -9848696.68948  -7655207.37446  22652479.664    22652479.4964   22652485.7214
       179.0004        182.0004
   -868119.09247   -666177.26845  23656997.262    23656997.2334   23657001.9884
       150.0004        153.0004
 -19358733.55449 -15068211.85547  21001290.079    21001290.2644   21001294.0864
       204.0004        204.0004
  -6066587.70847  -4675821.57046  23323711.402    23323713.1474   23323718.7294
       162.0004        163.0004
 -17758518.68648 -13826331.27447  21290537.066    21290537.7154   21290545.9574
       193.0004        194.0004
  -8199844.70648  -6371788.72246  22987907.758    22987907.5684   22987913.5184
       171.0004        172.0004
 21  2  3  0 45  0.0000000  0 10G14G08G09G21G30G28G07G04G01G17
  -2183241.23247  -1694325.46445  23315535.073    23315535.8084   23315541.4834
       157.0004        159.0004
 -11139856.48349  -8637572.30547  22529824.745    22529825.0294   22529833.4174
       202.0004        202.0004
 -13954203.66949 -10520466.80147  21681590.772    21681590.9994   21681597.7494
       198.0004        198.0004
 -15860097.93548 -12041318.07146  21824761.841    21824761.8254   21824766.7444
       185.0004        185.0004
  -9935376.39248  -7722749.96746  22635984.569    22635985.0484   22635991.7284
       181.0004        182.0004
   -883022.94447   -677790.64145  23654161.871    23654161.6664   23654167.0744
       152.0004        155.0004
 -19417636.80249 -15114110.48147  20990080.730    20990081.2094   20990085.5214
       204.0004        204.0004
  -5968422.70647  -4599329.35445  23342391.711    23342392.1804   23342399.6484
       161.0004        162.0004
 -17811021.35348 -13867242.43447  21280546.368    21280547.1784   21280554.8724
       194.0004        195.0004
  -8275398.55648  -6430661.78646  22973530.579    22973530.6024   22973534.6924
       171.0004        172.0004
 21  2  3  0 45 30.0000000  0 10G14G08G09G21G30G28G07G04G01G17
  -2209190.14347  -1714545.39745  23310597.763    23310597.7744   23310602.8924
       158.0004        160.0004
 -11047665.37349  -8565735.10047  22547368.343    22547368.7154   22547376.9754
       202.0004        203.0004
 -13889981.54749 -10470423.59147  21693811.157    21693811.5404   21693819.3354
       198.0004        198.0004
 -15839954.96448 -12025622.22746  21828595.156    21828594.5274   21828600.0304
       185.0004        185.0004
 -10021977.79948  -7790231.57346  22619505.324    22619504.9894   22619511.8384
       181.0004        182.0004
   -897925.79847   -689403.21445  23651324.252    23651324.7164   23651329.9584
       151.0004        154.0004
 -19476242.93149 -15159777.58847  20978928.924    20978929.3204   20978933.0374
       204.0004        204.0004
  -5870230.79947  -4522816.18245  23361078.399    23361078.2514   23361084.3014
       160.0004        161.0004
 -17863120.37049 -13907839.04947  21270632.905    21270633.2734   21270640.8464
       195.0004        195.0004
  -8350593.03148  -6489254.85646  22959220.516    22959220.9864   22959224.5204
       169.0004        168.0004
 21  2  3  0 46  0.0000000  0 10G14G08G09G21G30G28G07G04G01G17
  -2235149.61247  -1734773.53245  23305656.585    23305657.7554   23305661.7044
       156.0004        157.0004
 -10955363.01449  -8493811.17147  22564932.786    22564933.3464   22564942.1824
       203.0004        203.0004
 -13825453.54249 -10420142.02347  21706090.128    21706090.7764   21706098.4974
       198.0004        199.0004
 -15819315.07848 -12009539.19746  21832522.149    21832521.7614   21832527.1054
       185.0004        185.0004
 -10108498.12548  -7857649.99546  22603041.641    22603040.9714   22603047.7574
       181.0004        182.0004
   -912828.92647   -701016.02745  23648489.967    23648490.2144   23648494.1954
       153.0004        155.0004
 -19534548.87749 -15205210.79547  20967833.564    20967834.0904   20967837.4624
       204.0004        204.0004
  -5772014.47247  -4446283.97245  23379768.051    23379769.2214   23379775.1364
       160.0004        162.0004
 -17914812.42649 -13948118.56947  21260795.857    21260795.8594   21260803.7744
       195.0004        195.0004
  -8425426.16848  -6547566.34046  22944979.755    22944980.1744   22944984.4954
       167.0004        168.0004
 21  2  3  0 46 30.0000000  0 10G14G08G09G21G30G28G07G04G01G17
  -2261121.05947  -1755010.98645  23300714.648    23300715.9404   23300720.6124
       156.0004        159.0004
 -10862952.16949  -8421802.73247  22582517.721    22582518.2734   22582527.2504
       203.0004        203.0004
 -13760622.94349 -10369624.65147  21718427.809    21718428.0854   21718435.5404
       199.0004        199.0004
 -15798178.81248 -11993069.35746  21836545.202    21836544.2394   21836549.7544
       185.0004        185.0004
 -10194935.43548  -7925003.73246  22586592.738    22586592.0694   22586599.1054
       180.0004        180.0004
   -927734.49047   -712630.74545  23645653.416    23645652.5224   23645657.4014
       153.0004        155.0004
 -19592552.15449 -15250408.12847  20956795.363    20956795.8584   20956800.1164
       204.0004        204.0004
  -5673776.89447  -4369735.18945  23398463.164    23398463.4444   23398468.3584
       161.0004        162.0004
 -17966094.93549 -13988078.94247  21251036.835    21251037.6464   21251045.2454
       195.0004        195.0004
  -8499897.30948  -6605595.74946  22930809.390    22930809.6934   22930813.3624
       168.0004        170.0004
 21  2  3  0 47  0.0000000  0 10G14G08G09G21G30G28G07G04G01G17
  -2287106.06747  -1775259.03145  23295771.065    23295771.3034   23295774.7094
       157.0004        159.0004
 -10770436.14549  -8349712.32247  22600121.985    22600123.4944   22600132.1834
       202.0004        202.0004
 -13695493.19249 -10318874.18947  21730821.667    21730821.6014   21730829.4364
       198.0004        199.0004
 -15776546.27148 -11976212.82146  21840661.296    21840660.7814   21840665.9734
       185.0004        184.0004
 -10281287.85948  -7992291.32046  22570159.339    22570160.1674   22570167.0104
       180.0004        180.0004
   -942644.12447   -724248.59645  23642814.720    23642814.7084   23642821.0944
       151.0004        153.0004
 -19650250.48049 -15295367.85147  20945816.582    20945816.6144   20945820.9204
       204.0004        205.0004
  -5575521.34247  -4293172.41045  23417159.355    23417160.0994   23417165.9894
       159.0004        161.0004
 -18016965.54349 -14027718.37047  21241356.570    21241356.9264   21241365.1724
       195.0004        195.0004
  -8574005.39148  -6663342.26746  22916708.342    22916707.5694   22916712.7274
       171.0004        173.0004
 21  2  3  0 47 30.0000000  0 10G14G08G09G21G30G28G07G04G01G17
  -2313103.61547  -1795516.83745  23290823.456    23290823.6044   23290828.2264
       158.0004        161.0004
 -10677815.75049  -8277540.61847  22617748.947    22617749.0214   22617757.3444
       201.0004        201.0004
 -13630065.22249 -10267891.35147  21743271.669    21743272.1704   21743279.4084
       198.0004        198.0004
 -15754415.61748 -11958968.13246  21844873.011    21844871.8964   21844877.2994
       184.0004        185.0004
 -10367550.96848  -8059509.32846  22553744.465    22553744.6904   22553750.9334
       179.0004        179.0004
   -957557.34247   -735869.23645  23639978.332    23639978.4554   23639983.1304
       153.0004        156.0004
 -19707639.14549 -15340086.26747  20934895.797    20934895.6984   20934899.8204
       205.0004        205.0004
  -5477248.55447  -4216596.20545  23435859.963    23435860.3104   23435866.1634
       158.0004        159.0004
 -18067419.24748 -14067032.92847  21231755.290    21231755.6264   21231764.1144
       194.0004        195.0004
  -8647747.16348  -6720803.34846  22902673.738    22902674.4104   22902679.2134
       171.0004        172.0004
 21  2  3  0 48  0.0000000  0 10G14G08G09G21G30G28G07G04G01G17
  -2339117.29447  -1815787.20545  23285872.429    23285872.6164   23285878.4294
       159.0004        161.0004
 -10585095.82149  -8205291.34247  22635393.339    22635393.2054   22635401.3064
       201.0004        201.0004
 -13564344.46149 -10216680.36847  21755778.230    21755778.2964   21755785.5714
       198.0004        198.0004
 -15731789.26148 -11941337.19046  21849177.765    21849177.8564   21849182.6954
       185.0004        185.0004
 -10453724.89448  -8126657.82846  22537345.675    22537346.6924   22537353.7834
       179.0004        179.0004
   -972478.13347   -747495.78245  23637138.731    23637138.6294   23637143.1274
       151.0004        153.0004
 -19764718.01049 -15384563.30547  20924033.713    20924034.4294   20924038.3384
       205.0004        206.0004
  -5378963.83647  -4140010.71445  23454563.884    23454563.3044   23454569.8874
       158.0004        158.0004
 -18117455.66148 -14106022.31647  21222233.550    21222234.4354   21222242.0484
       194.0004        194.0004
  -8721123.49748  -6777979.66246  22888711.568    22888711.7324   22888716.1704
       171.0004        172.0004
 21  2  3  0 48 30.0000000  0 10G14G08G09G21G30G28G07G04G01G17
  -2365146.68347  -1836069.82245  23280919.655    23280919.9694   23280925.4304
       160.0004        162.0004
 -10492277.95949  -8132965.74947  22653054.530    22653055.1974   22653063.9854
       201.0004        201.0004
 -13498332.44949 -10165242.42847  21768339.040    21768339.4024   21768347.2804
       197.0004        197.0004
 -15708665.90248 -11923318.98746  21853577.956    21853577.4814   21853583.8444
       185.0004        184.0004
 -10539805.79748  -8193733.83846  22520965.109    22520964.6254   22520972.4604
       177.0004        178.0004
   -987406.57447   -759128.33145  23634297.471    23634297.1904   23634302.8654
       150.0004        153.0004
 -19821482.66549 -15428795.49847  20913231.989    20913232.0654   20913236.4754
       205.0004        205.0004
  -5280668.53147  -4063416.98245  23473268.119    23473268.3814   23473274.4074
       157.0004        159.0004
 -18167070.46848 -14144683.19147  21212792.400    21212792.6114   21212800.5084
       193.0004        193.0004
  -8794132.18148  -6834869.50146  22874818.198    22874818.6824   22874824.4014
       172.0004        173.0004
 21  2  3  0 49  0.0000000  0 10G14G08G09G21G30G28G07G04G01G17
  -2391192.74647  -1856365.41445  23275962.494    23275963.6814   23275968.3124
       161.0004        161.0004
 -10399364.28149  -8060565.49647  22670736.134    22670735.7014   22670744.2264
       200.0004        199.0004
 -13432032.02649 -10113579.74747  21780956.943    21780957.1384   21780964.1474
       197.0004        198.0004
 -15685045.03648 -11904913.08846  21858073.209    21858072.8234   21858078.8394
       184.0004        184.0004
 -10625791.14548  -8260735.39746  22504604.060    22504604.0484   22504609.9574
       178.0004        180.0004
  -1002344.13347   -770767.96845  23631455.354    23631454.7424   23631460.1534
       150.0004        153.0004
 -19877930.01849 -15472780.44447  20902489.813    20902490.6754   20902494.5554
       205.0004        205.0004
  -5182365.25547  -3986817.02645  23491975.236    23491975.6754   23491981.4304
       156.0004        156.0004
 -18216260.73248 -14183013.23647  21203430.741    21203431.9944   21203439.8164
       193.0004        193.0004
  -8866771.63848  -6891471.63046  22860994.646    22860994.8704   22861000.9274
       173.0004        173.0004
 21  2  3  0 49 30.0000000  0 10G14G08G09G21G30G28G07G04G01G17
  -2417256.22747  -1876674.60145  23271003.058    23271003.1924   23271008.6224
       159.0004        160.0004
 -10306357.28549  -7988092.53247  22688433.662    22688434.2344   22688442.8524
       199.0004        198.0004
 -13365445.90149 -10061694.47047  21793627.604    21793627.8504   21793634.8384
       197.0004        197.0004
 -15660926.64248 -11886119.52746  21862662.651    21862663.1124   21862667.3864
       185.0004        185.0004
 -10711678.25148  -8327660.41546  22488259.460    22488259.4914   22488266.1194
       179.0004        179.0004
  -1017291.98147   -782415.62345  23628609.845    23628610.8484   23628614.8394
       151.0004        154.0004
 -19934057.55549 -15516516.20447  20891809.837    20891809.8924   20891813.9804
       205.0004        206.0004
  -5084056.55847  -3910212.82145  23510682.391    23510682.7834   23510687.5594
       154.0004        155.0004
 -18265023.26648 -14221010.01347  21194152.262    21194153.0994   21194160.7734
       193.0004        194.0004
  -8939040.20548  -6947784.77746  22847243.184    22847243.6044   22847248.2404
       172.0004        172.0004
 21  2  3  0 50  0.0000000  0 10G14G08G09G21G30G28G07G04G01G17
  -2443338.01247  -1896998.07545  23266041.070    23266040.5524   23266045.4074
       159.0004        162.0004
 -10213260.31749  -7915549.46347  22706150.391    22706150.0344   22706159.1284
       198.0004        197.0004
 -13298576.96549 -10009588.80247  21806351.812    21806352.5764   21806359.1214
       197.0004        197.0004
 -15636311.24548 -11866938.67946  21867347.332    21867347.5094   21867350.9674
       184.0004        185.0004
 -10797464.60948  -8394506.91446  22471934.020    22471934.4654   22471942.0724
       179.0004        181.0004
  -1032251.61947   -794072.49445  23625763.806    23625763.6704   23625768.6744
       151.0004        153.0004
 -19989862.15649 -15560000.33447  20881189.558    20881190.3934   20881194.2894
       205.0004        205.0004
  -4985745.07347  -3833606.45945  23529390.987    23529390.7884   23529396.8814
       154.0004        156.0004
 -18313355.17448 -14258671.21847  21184955.159    21184955.4184   21184963.2654
       194.0004        194.0004
  -9010936.56548  -7003807.84046  22833561.198    22833562.1144   22833567.7424
       173.0004        175.0004
 21  2  3  0 50 30.0000000  0 10G14G08G09G21G30G28G07G04G01G17
  -2469440.39047  -1917337.57846  23261073.439    23261073.1804   23261079.3504
       161.0004        165.0004
 -10120076.45949  -7842938.67247  22723881.588    22723882.4294   22723892.0634
       197.0004        198.0004
 -13231429.42349  -9957266.04547  21819130.759    21819130.9464   21819137.3384
       197.0004        197.0004
 -15611199.43148 -11847371.01046  21872126.330    21872125.5194   21872130.2914
       185.0004        184.0004
 -10883149.10048  -8461274.01346  22455628.763    22455628.9504   22455636.8874
       179.0004        179.0004
  -1047225.72847   -805740.59245  23622915.043    23622914.6434   23622919.3694
       150.0004        152.0004
 -20045342.56249 -15603231.82347  20870631.843    20870632.4394   20870636.9114
       205.0004        205.0004
  -4887434.79247  -3757001.05445  23548098.165    23548098.0424   23548103.9694
       154.0004        156.0004
 -18361254.88448 -14295995.64347  21175839.852    21175840.5964   21175848.6694
       194.0004        194.0004
  -9082460.78348  -7059540.94546  22819951.543    22819951.2854   22819957.0984
       175.0004        176.0004
 21  2  3  0 51  0.0000000  0 10G14G08G09G21G30G28G07G04G01G17
  -2495563.33947  -1937693.10746  23256102.518    23256102.3724   23256107.3234
       163.0004        166.0004
 -10026807.36349  -7770261.45547  22741631.644    22741631.0874   22741641.1074
       199.0004        199.0004
 -13164005.22749  -9904727.70147  21831960.552    21831960.9284   21831967.9814
       197.0004        197.0004
 -15585590.40548 -11827415.91546  21876998.214    21876998.5204   21877003.0314
       184.0004        184.0004
 -10968728.20548  -8527959.00646  22439344.926    22439344.8474   22439351.8034
       179.0004        180.0004
  -1062214.18647   -817419.87945  23620062.568    23620062.2334   23620066.7854
       150.0004        153.0004
 -20100494.89949 -15646207.66847  20860137.204    20860137.7954   20860141.8854
       205.0004        205.0004
  -4789127.44047  -3680397.94545  23566804.981    23566805.7454   23566811.8084
       154.0004        156.0004
 -18408718.57049 -14332980.31047  21166807.985    21166808.7534   21166816.6094
       195.0004        196.0004
  -9153610.58748  -7114982.31746  22806410.634    22806411.3214   22806417.6464
       175.0004        175.0004
 21  2  3  0 51 30.0000000  0 10G14G08G09G21G30G28G07G04G01G17
  -2521708.37547  -1958065.82646  23251126.703    23251127.2264   23251132.4204
       164.0004        166.0004
  -9933455.94949  -7697520.10247  22759394.647    22759394.9634   22759404.5154
       198.0004        198.0004
 -13096307.80649  -9851976.45447  21844842.725    21844843.1714   21844850.0624
       196.0004        195.0004
 -15559484.99648 -11807074.02646  21881967.284    21881966.2104   21881970.4024
       184.0004        184.0004
 -11054199.93948  -8594560.35346  22423078.969    22423079.2964   22423086.3834
       179.0004        180.0004
  -1077219.31847   -829112.18145  23617206.500    23617206.1944   23617211.0454
       151.0004        154.0004
 -20155316.77749 -15688926.02047  20849705.000    20849705.7054   20849709.7764
       205.0004        205.0004
  -4690826.21747  -3603799.57645  23585510.314    23585510.9784   23585517.7284
       153.0004        155.0004
 -18455743.83649 -14369623.36247  21157859.777    21157860.0364   21157868.4574
       195.0004        196.0004
  -9224385.28448  -7170131.37146  22792944.712    22792943.9754   22792948.2744
       175.0004        176.0004
 21  2  3  0 52  0.0000000  0 10G14G08G09G21G30G28G07G04G01G17
  -2547875.24048  -1978455.55446  23246147.370    23246148.3514   23246152.6744
       165.0004        166.0004
  -9840023.87849  -7624715.88147  22777174.662    22777174.4894   22777183.5564
       197.0004        196.0004
 -13028339.01849  -9799013.76347  21857777.096    21857777.1034   21857784.6074
       195.0004        194.0004
 -15532882.19148 -11786344.55146  21887028.495    21887028.3544   21887033.1174
       184.0004        184.0004
 -11139560.73648  -8661075.25146  22406836.066    22406835.8664   22406842.7924
       180.0004        181.0004
  -1092241.51947   -840817.74645  23614347.824    23614348.8174   23614353.0394
       152.0004        155.0004
 -20209804.34649 -15731383.86647  20839336.365    20839336.6214   20839341.0454
       205.0004        206.0004
  -4592532.66847  -3527207.24045  23604214.721    23604215.9944   23604222.3384
       152.0004        154.0004
 -18502326.79049 -14405921.75847  21148995.053    21148995.9924   21149003.8104
       196.0004        197.0004
  -9294782.62248  -7224986.39946  22779546.724    22779547.1234   22779552.3754
       173.0004        171.0004
 21  2  3  0 52 30.0000000  0 10G14G08G09G21G30G28G07G04G01G17
  -2574065.71148  -1998863.71446  23241164.347    23241164.1914   23241169.5154
       166.0004        168.0004
  -9746514.83549  -7551851.69347  22794967.840    22794968.3374   22794978.2874
       195.0004        194.0004
 -12960102.57648  -9745842.51447  21870759.990    21870760.9564   21870769.9074
       193.0004        193.0004
 -15505782.79848 -11765228.14446  21892184.959    21892184.7284   21892189.6574
       184.0004        183.0004
 -11224808.87748  -8727502.36546  22390613.825    22390613.7404   22390620.2204
       181.0004        181.0004
  -1107282.93547   -852538.31645  23611486.524    23611485.7184   23611490.1144
       154.0004        157.0004
 -20263955.85349 -15773579.83647  20829031.250    20829031.8784   20829036.5154
       206.0004        206.0004
  -4494250.31547  -3450623.64245  23622917.758    23622918.4864   23622924.3714
       151.0004        153.0004
 -18548465.37149 -14441873.88747  21140214.855    21140215.9254   21140223.4604
       197.0004        197.0004
  -9364802.24848  -7279547.10846  22766222.789    22766223.2904   22766228.0364
       172.0004        174.0004
 21  2  3  0 53  0.0000000  0 10G14G08G09G21G30G28G07G04G01G17
  -2600280.99348  -2019291.16846  23236175.052    23236175.6424   23236180.9944
       167.0004        167.0004
  -9652931.65148  -7478929.73647  22812775.899    22812777.2334   22812785.8514
       194.0004        194.0004
 -12891601.74448  -9692465.23847  21883795.388    21883795.8854   21883804.7424
       192.0004        192.0004
 -15478187.29048 -11743725.12946  21897436.001    21897436.5034   21897440.9244
       183.0004        184.0004
 -11309942.07748  -8793839.91246  22374414.308    22374413.8944   22374420.1134
       181.0004        182.0004
  -1122345.13747   -864275.05045  23608619.469    23608619.7324   23608624.9774
       154.0004        157.0004
 -20317768.71649 -15815511.90147  20818791.774    20818792.0534   20818796.3374
       206.0004        207.0004
  -4395981.96847  -3374050.94945  23641619.470    23641619.7964   23641624.0584
       151.0004        155.0004
 -18594157.09049 -14477477.80747  21131519.880    21131521.2414   21131528.7544
       197.0004        197.0004
  -9434442.92648  -7333812.52846  22752971.323    22752971.7224   22752976.3344
       174.0004        176.0004
 21  2  3  0 53 30.0000000  0 10G14G08G09G21G30G28G07G04G01G17
  -2626522.30448  -2039738.93846  23231182.107    23231182.7264   23231186.0924
       167.0004        168.0004
  -9559276.54548  -7405951.75347  22830600.568    22830600.1954   22830607.3444
       194.0004        195.0004
 -12822839.68948  -9638884.42447  21896880.567    21896880.9344   21896889.0394
       191.0004        191.0004
 -15450096.34048 -11721836.06746  21902781.527    21902781.8724   21902787.0354
       184.0004        183.0004
 -11394958.08748  -8860086.13946  22358235.692    22358236.0664   22358242.2684
       183.0004        184.0004
  -1137429.87947   -876029.37045  23605749.227    23605749.1474   23605753.9574
       155.0004        156.0004
 -20371240.09449 -15857177.86747  20808615.845    20808616.2324   20808620.8654
       206.0004        206.0004
  -4297730.61147  -3297491.47745  23660314.926    23660315.8484   23660321.0804
       153.0004        156.0004
 -18639399.42049 -14512731.54947  21122911.408    21122912.0894   21122919.4154
       197.0004        198.0004
  -9503703.97248  -7387782.13746  22739790.875    22739791.8334   22739796.6794
       174.0004        175.0004
 21  2  3  0 54  0.0000000  0 10G14G08G09G21G30G28G07G04G01G17
  -2652790.87848  -2060207.94246  23226183.541    23226183.8234   23226187.2294
       167.0004        167.0004
  -9465552.81249  -7332920.27547  22848433.960    22848434.7014   22848442.7184
       195.0004        195.0004
 -12753819.77248  -9585102.67947  21910014.160    21910015.3054   21910023.5464
       191.0004        192.0004
 -15421510.26348 -11699561.18946  21908221.743    21908221.5064   21908227.1034
       183.0004        183.0004
 -11479854.73548  -8926239.34946  22342081.261    22342080.7214   22342086.7364
       184.0004        185.0004
  -1152538.98647   -887802.68045  23602874.351    23602874.9114   23602879.4594
       155.0004        157.0004
 -20424368.01449 -15898576.22447  20798505.403    20798506.3104   20798510.9344
       206.0004        206.0004
  -4199499.22447  -3220947.54045  23679007.650    23679008.2644   23679015.0414
       154.0004        156.0004
 -18684189.95149 -14547633.25747  21114387.672    21114388.2854   21114396.3704
       198.0004        198.0004
  -9572584.40248  -7441455.14546  22726683.852    22726684.0014   22726689.2954
       174.0004        174.0004
 21  2  3  0 54 30.0000000  0 10G14G08G09G21G30G28G07G04G01G17
  -2679086.54848  -2080698.06346  23221178.495    23221179.1794   23221183.8284
       165.0004        163.0004
  -9371761.66449  -7259836.28747  22866282.442    22866282.3944   22866291.2224
       195.0004        195.0004
 -12684543.83448  -9531121.44047  21923199.308    21923199.5724   21923206.7594
       192.0004        194.0004
 -15392428.19848 -11676899.84346  21913756.216    21913755.9214   21913759.8964
       183.0004        183.0004
 -11564628.44248  -8992296.76646  22325948.196    22325948.4674   22325955.5784
       185.0004        184.0004
  -1167672.46947   -899594.97345  23599994.974    23599994.0534   23599998.5824
       155.0004        156.0004
 -20477148.40949 -15939703.83147  20788462.865    20788463.1244   20788467.2084
       206.0004        207.0004
  -4101289.34047  -3144420.36445  23697694.411    23697696.3024   23697703.0204
       154.0004        156.0004
 -18728524.79949 -14582179.88047  21105950.277    21105951.3374   21105959.7474
       198.0004        197.0004
  -9641081.67648  -7494829.62046  22713649.295    22713649.0604   22713653.6844
       172.0004        172.0004
 21  2  3  0 55  0.0000000  0 10G14G08G09G21G30G28G07G04G01G17
  -2705409.59847  -2101209.53146  23216169.465    23216170.1994   23216175.1844
       163.0004        164.0004
  -9277904.69048  -7186700.98847  22884141.004    22884142.0124   22884151.4804
       193.0004        193.0004
 -12615014.21649  -9476942.51347  21936431.127    21936430.9304   21936437.5844
       195.0004        197.0004
 -15362849.83748 -11653851.76546  21919385.060    21919384.6124   21919389.6234
       183.0004        183.0004
 -11649275.98348  -9058255.89546  22309839.637    22309840.2794   22309846.9434
       185.0004        186.0004
  -1182831.00647   -911406.78245  23597109.634    23597109.5594   23597113.9954
       154.0004        156.0004
 -20529578.15149 -15980558.22447  20778485.941    20778486.0494   20778490.1924
       207.0004        207.0004
  -4003102.97747  -3067911.54545  23716379.772    23716380.3534   23716388.4514
       154.0004        156.0004
 -18772400.59449 -14616368.80147  21097601.643    21097602.2604   21097609.9574
       198.0004        198.0004
  -9709194.60348  -7547904.60546  22700686.040    22700686.2934   22700692.8344
       171.0004        172.0004
 21  2  3  0 55 30.0000000  0 10G14G08G09G21G30G28G07G04G01G17
  -2731761.25047  -2121743.25246  23211156.065    23211156.4164   23211160.1594
       164.0004        166.0004
  -9183985.15548  -7113516.94147  22902015.347    22902015.1924   22902023.5574
       193.0004        193.0004
 -12545234.10549  -9422568.39347  21949709.391    21949709.9184   21949715.0944
       196.0004        196.0004
 -15332775.88448 -11630417.49646  21925108.882    21925107.4784   21925113.0054
       184.0004        185.0004
 -11733795.20848  -9124115.00746  22293756.699    22293757.2214   22293763.7734
       185.0004        186.0004
  -1198016.25347   -923239.40045  23594219.803    23594219.7344   23594224.3834
       153.0004        155.0004
 -20581654.60849 -16021137.28047  20768575.459    20768576.2244   20768580.1894
       207.0004        207.0004
  -3904943.17447  -2991423.46445  23735059.246    23735060.0534   23735067.4084
       154.0004        157.0004
 -18815814.99249 -14650198.18647  21089340.077    21089340.6404   21089348.9784
       198.0004        197.0004
  -9776922.30448  -7600679.39546  22687800.161    22687799.0834   22687803.3444
       172.0004        173.0004
 21  2  3  0 56  0.0000000  0 10G14G08G09G21G30G28G07G04G01G17
  -2758143.85048  -2142301.09546  23206134.590    23206134.5054   23206139.1944
       165.0004        166.0004
  -9090007.26448  -7040287.42147  22919898.424    22919898.0354   22919907.0484
       192.0004        193.0004
 -12475208.18749  -9368002.73547  21963035.676    21963035.6714   21963042.0664
       197.0004        199.0004
 -15302208.57248 -11606598.80146  21930923.757    21930924.0354   21930929.1964
       183.0004        183.0004
 -11818184.96648  -9189873.23746  22277698.936    22277698.1394   22277704.8324
       186.0004        187.0004
  -1213231.27147   -935095.23745  23591324.642    23591324.5214   23591329.5714
       154.0004        157.0004
 -20633376.74749 -16061440.24547  20758733.100    20758733.5614   20758738.0274
       206.0004        207.0004
  -3806813.91347  -2914959.16345  23753731.953    23753733.0704   23753740.0374
       154.0004        156.0004
 -18858766.72349 -14683667.05247  21081166.365    21081167.4104   21081175.2304
       197.0004        197.0004
  -9844265.15048  -7653154.27546  22674982.279    22674983.8364   22674988.8034
       171.0004        172.0004
 21  2  3  0 56 30.0000000  0 10G14G08G09G21G30G28G07G04G01G17
  -2784557.98447  -2162883.51646  23201107.370    23201107.4624   23201113.7304
       163.0004        164.0004
  -8995972.74248  -6967013.74547  22937791.547    22937792.0684   22937800.9864
       193.0004        192.0004
 -12404939.01549  -9313247.53647  21976407.196    21976407.0134   21976413.1884
       198.0004        198.0004
 -15271146.92348 -11582394.89846  21936834.884    21936834.3124   21936839.8214
       183.0004        183.0004
 -11902442.41848  -9255528.38846  22261663.847    22261664.2224   22261670.4994
       186.0004        187.0004
  -1228476.92547   -946974.95145  23588423.140    23588422.9584   23588427.8934
       153.0004        156.0004
 -20684741.27549 -16101464.54647  20748958.617    20748959.4904   20748963.6704
       207.0004        207.0004
  -3708717.43047  -2838520.36445  23772398.897    23772399.9284   23772406.4174
       153.0004        155.0004
 -18901252.83449 -14716773.09847  21073081.627    21073083.1244   21073090.3704
       197.0004        197.0004
  -9911221.23848  -7705327.79446  22662242.669    22662242.0794   22662247.7334
       173.0004        175.0004
 21  2  3  0 57  0.0000000  0 10G14G08G09G21G30G28G07G04G01G17
  -2811003.09347  -2183490.08446  23196075.730    23196076.1524   23196081.7254
       162.0004        163.0004
  -8901882.72048  -6893696.85147  22955697.769    22955697.2394   22955706.3244
       193.0004        194.0004
 -12334428.01549  -9258303.88847  21989822.976    21989823.9264   21989831.5814
       196.0004        195.0004
 -15239590.44548 -11557805.42746  21942839.934    21942840.0214   21942845.4384
       183.0004        184.0004
 -11986563.50948  -9321077.26746  22245655.283    22245656.2574   22245663.6594
       186.0004        187.0004
  -1243753.11547   -958878.45045  23585516.241    23585516.0334   23585521.3954
       152.0004        155.0004
 -20735744.01749 -16141206.92547  20739253.968    20739253.8834   20739258.3654
       207.0004        208.0004
  -3610654.83847  -2762107.94245  23791059.184    23791060.6544   23791067.5084
       153.0004        155.0004
 -18943269.14749 -14749513.06747  21065085.115    21065087.0084   21065094.5064
       197.0004        196.0004
  -9977788.67748  -7757198.49846  22649575.195    22649575.3514   22649579.7524
       173.0004        174.0004
 21  2  3  0 57 30.0000000  0 10G14G08G09G21G30G28G07G04G01G17
  -2837481.55947  -2204122.67845  23191037.198    23191037.5474   23191041.7794
       161.0004        162.0004
  -8807741.24648  -6820339.87247  22973611.803    22973611.5134   22973621.1004
       193.0004        192.0004
 -12263679.81549  -9203175.42947  22003285.759    22003286.1134   22003294.4864
       195.0004        194.0004
 -15207540.99248 -11532831.81846  21948938.846    21948938.4374   21948943.9554
       183.0004        184.0004
 -12070547.30148  -9386519.17247  22229675.827    22229675.1984   22229682.8834
       188.0004        190.0004
  -1259063.01347   -970808.25145  23582602.832    23582603.4374   23582607.3444
       151.0004        153.0004
 -20786383.89349 -16180666.56047  20729616.846    20729617.3724   20729621.8304
       207.0004        208.0004
  -3512630.50147  -2685725.36945  23809713.846    23809714.9254   23809721.8734
       154.0004        157.0004
 -18984814.61149 -14781886.14647  21057180.237    21057181.0054   21057188.7114
       196.0004        196.0004
 -10043967.95948  -7808766.74246  22636982.550    22636982.2424   22636986.0964
       175.0004        176.0004
 21  2  3  0 58  0.0000000  0 10G14G08G09G21G30G28G07G04G01G17
  -2863994.28847  -2224781.94146  23185991.808    23185992.1864   23185997.3574
       162.0004        163.0004
  -8713550.66248  -6746944.62547  22991535.748    22991535.7864   22991544.6724
       192.0004        192.0004
 -12192697.29948  -9147864.37947  22016793.978    22016794.4044   22016801.6064
       193.0004        193.0004
 -15174998.57548 -11507474.08546  21955131.996    21955131.1204   21955136.7704
       183.0004        183.0004
 -12154391.13848  -9451852.02747  22213720.230    22213720.0274   22213727.7344
       190.0004        190.0004
  -1274407.65947   -982765.10545  23579682.716    23579681.8684   23579686.9894
       148.0004        149.0004
 -20836658.23849 -16219841.37247  20720049.859    20720050.4904   20720054.9784
       207.0004        208.0004
  -3414646.84947  -2609374.49345  23828361.596    23828361.3574   23828367.7654
       155.0004        158.0004
 -19025886.57849 -14813890.26147  21049363.999    21049364.7164   21049372.8974
       195.0004        195.0004
 -10109757.58348  -7860031.34246  22624462.659    22624463.2394   22624466.9054
       175.0004        176.0004
 21  2  3  0 58 30.0000000  0 10G14G08G09G21G30G28G07G04G01G17
  -2890542.71247  -2245469.00046  23180939.746    23180940.7564   23180945.2694
       164.0004        166.0004
  -8619314.11848  -6673513.58347  23009468.639    23009468.2954   23009477.8224
       192.0004        192.0004
 -12121484.13748  -9092373.60447  22030344.905    22030345.4744   22030352.4244
       192.0004        191.0004
 -15141964.54248 -11481733.26746  21961417.253    21961416.6034   21961421.8774
       182.0004        182.0004
 -12238093.07348  -9517074.28547  22197791.390    22197791.8684   22197799.1494
       189.0004        189.0004
  -1289789.06047   -994750.56945  23576756.238    23576755.9024   23576760.7494
       147.0004        151.0004
 -20886564.99349 -16258729.74547  20710553.109    20710553.5404   20710557.8374
       207.0004        208.0004
  -3316707.08847  -2533057.81545  23846998.751    23846998.8604   23847004.2784
       154.0004        156.0004
 -19066483.01949 -14845523.82847  21041639.432    21041639.8914   21041647.5244
       195.0004        196.0004
 -10175157.66348  -7910992.39246  22612017.104    22612017.4524   22612022.4804
       175.0004        175.0004
 21  2  3  0 59  0.0000000  0 10G14G08G09G21G30G28G07G04G01G17
  -2917126.99448  -2266183.99546  23175882.007    23175883.0564   23175886.7514
       167.0004        169.0004
  -8525033.22648  -6600047.96247  23027409.902    23027410.3554   23027418.8354
       193.0004        193.0004
 -12050042.56448  -9036704.83147  22043939.759    22043940.0184   22043947.4504
       192.0004        192.0004
 -15108438.52148 -11455609.07846  21967797.380    21967796.8004   21967803.3754
       182.0004        182.0004
 -12321649.70648  -9582183.34847  22181892.171    22181891.9814   22181898.5374
       188.0004        188.0004
  -1305207.79547  -1006765.17145  23573820.722    23573821.7104   23573825.6134
       147.0004        149.0004
 -20936100.61949 -16297328.94047  20701126.656    20701127.1924   20701131.6414
       208.0004        209.0004
  -3218813.01047  -2456776.72845  23865626.274    23865627.0784   23865633.2074
       153.0004        155.0004
 -19106600.59849 -14876784.25947  21034005.296    21034005.8174   21034013.5974
       195.0004        195.0004
 -10240166.18948  -7961648.35846  22599645.628    22599646.0374   22599651.4894
       175.0004        177.0004
 21  2  3  0 59 30.0000000  0 10G14G08G09G21G30G28G07G04G01G17
  -2943747.51148  -2286927.18846  23170817.709    23170817.5124   23170820.8284
       170.0004        172.0004
  -8430710.05048  -6526549.36447  23045359.056    23045359.4654   23045366.9994
       193.0004        193.0004
 -11978375.11448  -8980860.06347  22057577.908    22057578.5334   22057585.2944
       192.0004        192.0004
 -15074420.92048 -11429101.82746  21974269.971    21974270.1984   21974276.4444
       183.0004        183.0004
 -12405058.11448  -9647176.90747  22166019.777    22166019.8734   22166026.4524
       188.0004        188.0004
  -1320664.74647  -1018809.51145  23570880.174    23570879.7004   23570884.4074
       143.0004        146.0004
 -20985261.89949 -16335636.42747  20691771.737    20691772.2074   20691776.5364
       208.0004        209.0004
  -3120966.79247  -2380532.93045  23884246.982    23884246.9894   23884253.4704
       152.0004        154.0004
 -19146236.33549 -14907669.22847  21026462.387    21026463.4614   21026471.2884
       195.0004        196.0004
 -10304781.82248  -8011998.15046  22587350.004    22587351.2704   22587355.6824
       176.0004        177.0004
 21  2  3  1  0  0.0000000  0 10G14G08G09G21G30G28G07G04G01G17
  -2970405.19948  -2307699.37646  23165743.513    23165743.4114   23165748.0374
       170.0004        170.0004
  -8336347.36048  -6453020.00047  23063315.710    23063316.2124   23063324.4424
       194.0004        195.0004
 -11906484.90348  -8924841.71247  22071258.848    22071259.3464   22071266.1814
       192.0004        193.0004
 -15039911.86948 -11402211.66046  21980836.986    21980837.5234   21980842.2474
       182.0004        181.0004
 -12488315.76248  -9712052.97746  22150176.243    22150175.9134   22150182.9074
       187.0004        187.0004
  -1336161.42847  -1030884.81845  23567931.531    23567931.4464   23567935.6194
       143.0004        148.0004
 -21034046.33249 -16373650.27547  20682488.578    20682488.6224   20682493.2074
       208.0004        209.0004
  -3023171.11847  -2304328.51345  23902856.190    23902856.2804   23902862.3144
       151.0004        154.0004
 -19185387.75749 -14938176.81747  21019012.328    21019013.1544   21019020.5264
       196.0004        196.0004
 -10369003.75648  -8062041.19046  22575130.125    22575130.3704   22575134.9294
       176.0004        177.0004
 21  2  3  1  0 30.0000000  0 10G14G08G09G21G30G28G07G04G01G17
  -2997100.54648  -2328500.95146  23160660.233    23160660.5294   23160667.8974
       166.0004        164.0004
  -8241946.65448  -6379461.00547  23081279.351    23081279.7584   23081287.7184
       193.0004        193.0004
 -11834374.62248  -8868651.87047  22084980.248    22084981.3994   22084988.2804
       192.0004        192.0004
 -15004911.87248 -11374938.92146  21987498.302    21987497.7154   21987502.2024
       182.0004        183.0004
 -12571419.72448  -9776809.29447  22134361.578    22134361.9354   22134368.9094
       187.0004        188.0004
  -1351698.76647  -1042991.82645  23564974.334    23564974.0484   23564978.4754
       146.0004        151.0004
 -21082451.31549 -16411368.44947  20673277.139    20673277.8244   20673281.6944
       209.0004        209.0004
  -2925428.13547  -2228165.19345  23921456.455    23921456.5874   23921462.1954
       150.0004        153.0004
 -19224052.01449 -14968304.78647  21011653.757    21011655.1914   21011663.2114
       196.0004        196.0004
 -10432830.70348  -8111776.43446  22562983.704    22562983.6614   22562989.4114
       178.0004        180.0004
 21  2  3  1  1  0.0000000  0 10G14G08G09G21G30G28G07G04G01G17
  -3023834.49047  -2349332.61646  23155574.045    23155575.4384   23155580.6374
       163.0004        165.0004
  -8147510.68348  -6305874.57447  23099250.452    23099250.3264   23099258.4384
       192.0004        192.0004
 -11762047.34048  -8812292.94747  22098744.050    22098744.1944   22098751.5934
       192.0004        193.0004
 -14969421.25348 -11347283.88946  21994252.866    21994251.3344   21994255.5984
       182.0004        183.0004
 -12654367.51148  -9841443.93646  22118577.603    22118578.0984   22118584.0644
       187.0004        187.0004
  -1367278.03747  -1055131.50445  23562009.241    23562009.9914   23562013.8104
       150.0004        154.0004
 -21130473.62649 -16448788.43947  20664139.327    20664139.7134   20664143.3354
       209.0004        209.0004
  -2827740.53347  -2152045.00445  23940042.876    23940044.6224   23940051.7274
       149.0004        151.0004
 -19262226.70649 -14998051.29247  21004389.499    21004390.8954   21004399.0824
       195.0004        195.0004
 -10496261.84848  -8161203.28146  22550913.023    22550913.9904   22550918.0054
       179.0004        180.0004
 21  2  3  1  1 30.0000000  0 10G14G08G09G21G30G28G07G04G01G17
  -3050607.45247  -2370194.62846  23150482.209    23150482.6594   23150486.0604
       164.0004        167.0004
  -8053041.61648  -6232262.33147  23117226.807    23117226.6424   23117235.7454
       192.0004        192.0004
 -11689505.59048  -8755766.89647  22112547.714    22112548.3454   22112555.2274
       192.0004        193.0004
 -14933439.84148 -11319246.40846  22001097.952    22001098.4014   22001103.0474
       182.0004        183.0004
 -12737155.99148  -9905954.41347  22102823.065    22102822.9854   22102830.0374
       187.0004        188.0004
  -1382899.91947  -1067304.40145  23559036.598    23559037.0184   23559042.3534
       150.0004        152.0004
 -21178110.62749 -16485908.19147  20655074.391    20655074.5654   20655078.6064
       209.0004        209.0004
  -2730110.37547  -2075969.58345  23958622.509    23958623.4354   23958630.3414
       147.0004        149.0004
 -19299908.86649 -15027413.99047  20997219.105    20997220.0094   20997228.3044
       195.0004        196.0004
 -10559295.78348  -8210320.58846  22538918.027    22538918.2134   22538923.8074
       179.0004        179.0004
 21  2  3  1  2  0.0000000  0 10G14G08G09G21G30G28G07G04G01G17
  -3077421.18148  -2391088.38746  23145379.592    23145379.3174   23145384.1484
       167.0004        169.0004
  -7958542.73948  -6158626.83847  23135207.524    23135208.8854   23135218.4324
       191.0004        192.0004
 -11616753.33348  -8699076.83047  22126392.240    22126392.8104   22126400.2744
       192.0004        192.0004
 -14896969.77848 -11290828.18246  22008039.003    22008038.7194   22008043.1364
       183.0004        183.0004
 -12819783.54048  -9970339.51947  22087100.966    22087100.9334   22087107.1354
       188.0004        188.0004
  -1398566.81647  -1079512.34145  23556056.215    23556055.9874   23556059.8894
       149.0004        151.0004
 -21225360.44349 -16522726.27647  20646082.508    20646083.0864   20646087.1324
       209.0004        209.0004
  -2632541.13247  -1999941.64345  23977191.592    23977190.6594   23977197.0794
       146.0004        150.0004
 -19337096.93849 -15056391.70447  20990142.504    20990143.5914   20990151.4394
       196.0004        196.0004
 -10621932.71348  -8259128.57246  22526997.887    22526998.1714   22527004.5774
       180.0004        182.0004
 21  2  3  1  2 30.0000000  0 10G14G08G09G21G30G28G07G04G01G17
  -3104277.09748  -2412015.04246  23140267.801    23140267.7724   23140271.4144
       166.0004        164.0004
  -7864016.97048  -6084970.43047  23153196.599    23153196.6264   23153205.4744
       192.0004        192.0004
 -11543794.17948  -8642225.51347  22140276.590    22140276.7734   22140284.1764
       192.0004        192.0004
 -14860012.10848 -11262029.98946  22015072.245    22015071.1564   22015075.9034
       183.0004        182.0004
 -12902248.26948 -10034597.74946  22071407.732    22071407.6374   22071414.1804
       188.0004        187.0004
  -1414280.72347  -1091756.92345  23553066.145    23553065.9764   23553069.2104
       148.0004        150.0004
 -21272221.03649 -16559241.05947  20637165.566    20637165.8694   20637170.1574
       209.0004        210.0004
  -2535035.90647  -1923963.59345  23995746.202    23995745.5184   23995751.1604
       146.0004        149.0004
 -19373789.18849 -15084983.05947  20983161.351    20983161.8674   20983169.1784
       197.0004        197.0004
 -10684172.50248  -8307627.09546  22515154.989    22515154.6604   22515160.2114
       181.0004        181.0004
 21  2  3  1  3  0.0000000  0 10G14G08G09G21G30G28G07G04G01G17
  -3131174.77147  -2432974.28146  23135147.435    23135148.4424   23135153.7754
       164.0004        164.0004
  -7769465.55248  -6011294.00847  23171188.110    23171189.3844   23171198.0404
       192.0004        192.0004
 -11470629.97848  -8585214.42147  22154198.866    22154199.0344   22154206.2224
       191.0004        191.0004
 -14822566.27048 -11232851.38346  22022196.577    22022196.5254   22022201.6534
       182.0004        183.0004
 -12984546.21748 -10098725.99346  22055746.166    22055746.2554   22055753.1874
       187.0004        186.0004
  -1430041.68247  -1104038.17745  23550065.729    23550066.1274   23550070.4274
       147.0004        150.0004
 -21318688.71849 -16595449.64247  20628323.172    20628323.6674   20628327.5034
       209.0004        210.0004
  -2437596.10347  -1848036.48445  24014286.567    24014286.7234   24014293.5564
       145.0004        149.0004
 -19409981.94849 -15113185.18947  20976274.650    20976274.7304   20976282.4084
       197.0004        198.0004
 -10746012.95448  -8355814.41346  22503386.482    22503386.7554   22503391.6944
       180.0004        181.0004
 21  2  3  1  3 30.0000000  0 10G14G08G09G21G30G28G07G04G01G17
  -3158114.79248  -2453966.50446  23130021.220    23130021.8624   23130028.0644
       165.0004        167.0004
  -7674890.42048  -5937599.09947  23189185.703    23189186.8534   23189195.1644
       190.0004        190.0004
 -11397263.51548  -8528045.72447  22168159.743    22168160.3364   22168167.4324
       190.0004        191.0004
 -14784632.72848 -11203292.78246  22029415.282    22029415.3634   22029420.1974
       182.0004        183.0004
 -13066674.53348 -10162722.08747  22040118.292    22040118.2444   22040124.7724
       187.0004        188.0004
  -1445850.96447  -1116357.08545  23547058.536    23547057.6644   23547062.8334
       148.0004        151.0004
 -21364760.56449 -16631349.76947  20619555.389    20619555.7944   20619560.2354
       209.0004        210.0004
  -2340223.99647  -1772162.16445  24032816.087    24032816.5664   24032823.5274
       145.0004        148.0004
 -19445672.52649 -15140996.03647  20969481.741    20969482.1384   20969490.4884
       198.0004        197.0004
 -10807452.96548  -8403689.70446  22491695.235    22491695.0094   22491700.1554
       180.0004        180.0004
 21  2  3  1  4  0.0000000  0 11G14G08G09G21G30G28G07G19G04G01G17
  -3185098.55947  -2474992.78346  23124887.118    23124887.7934   23124892.7304
       164.0004        164.0004
  -7580294.54348  -5863888.02847  23207187.485    23207187.9174   23207196.7834
       190.0004        190.0004
 -11323698.39048  -8470722.25447  22182159.825    22182159.8984   22182166.9754
       192.0004        192.0004
 -14746212.63848 -11173355.03746  22036726.562    22036726.5264   22036731.5364
       182.0004        182.0004
 -13148631.25648 -10226584.46946  22024522.196    22024522.2084   22024528.4134
       187.0004        187.0004
  -1461710.24447  -1128714.92845  23544039.968    23544040.2784   23544044.9824
       148.0004        151.0004
 -21410434.55349 -16666939.88247  20610864.466    20610864.9884   20610868.8414
       209.0004        210.0004
   -756719.04154   -571111.58445  24794258.308                    24794264.5094
        77.0004        150.0004
  -2242922.53347  -1696342.87545  24051333.954    24051333.8194   24051339.7474
       144.0004        147.0004
 -19480859.16049 -15168414.18547  20962785.463    20962786.9234   20962794.6094
       198.0004        198.0004
 -10868492.62148  -8451253.05246  22480079.310    22480079.1644   22480085.7304
       180.0004        181.0004
 21  2  3  1  4 30.0000000  0 12G14G08G09G21G30G28G07G19G04G01G22G17
  -3212128.07547  -2496054.72046  23119743.450    23119743.7914   23119749.2644
       162.0004        163.0004
  -7485681.33748  -5790163.46347  23225193.478    23225192.4944   23225200.4384
       190.0004        190.0004
 -11249938.86048  -8413247.29747  22196194.293    22196195.0404   22196201.9654
       190.0004        188.0004
 -14707307.88248 -11143039.63146  22044129.893    22044129.5934   22044135.5274
       182.0004        182.0004
 -13230414.91448 -10290311.99446  22008958.383    22008958.2394   22008965.6854
       186.0004        186.0004
  -1477621.73547  -1141113.47845  23541010.898    23541011.7494   23541016.5904
       150.0004        153.0004
 -21455709.28349 -16702218.89347  20602248.751    20602248.9854   20602253.4724
       209.0004        209.0004
   -847827.16247   -642104.84545  24776920.604    24776919.3564   24776924.2424
       141.0004        149.0004
  -2145695.55047  -1620581.62545  24069836.910    24069836.0274   24069841.4574
       143.0004        147.0004
 -19515540.73949 -15195438.78347  20956186.509    20956187.3554   20956194.7994
       198.0004        198.0004
   2598104.76554   2052712.458 3                                  24793938.937
        74.0004         74.000
 -10929132.13148  -8498504.59546  22468539.531    22468540.2764   22468546.2364
       181.0004        181.0004
 21  2  3  1  5  0.0000000  0 11G14G08G09G21G30G28G07G19G04G01G17
  -3239205.09247  -2517153.69745  23114591.064    23114591.8754   23114595.8384
       161.0004        161.0004
  -7391054.38948  -5716428.19747  23243200.352    23243199.8814   23243207.0304
       189.0004        189.0004
 -11175988.93248  -8355623.96847  22210266.548    22210266.6184   22210274.5874
       189.0004        189.0004
 -14667920.77948 -11112348.37446  22051625.593    22051625.4284   22051629.9314
       182.0004        182.0004
 -13312023.92248 -10353903.41147  21993428.449    21993429.4174   21993436.8764
       187.0004        189.0004
  -1493587.95147  -1153554.64945  23537974.395    23537973.8674   23537978.2644
       151.0004        153.0004
 -21500583.35249 -16737185.70147  20593709.457    20593709.8994   20593714.2344
       209.0004        210.0004
   -938727.70347   -712936.27645  24759621.353    24759621.4034   24759626.9684
       142.0004        146.0004
  -2048546.46647  -1544881.11145  24088321.174    24088322.9904   24088327.1094
       144.0004        149.0004
 -19549715.91949 -15222068.77047  20949683.719    20949683.9334   20949691.4324
       198.0004        198.0004
 -10989371.82648  -8545444.57946  22457076.582    22457076.9924   22457082.5624
       181.0004        181.0004
 21  2  3  1  5 30.0000000  0 11G14G08G09G21G30G28G07G19G04G01G17
  -3266328.65947  -2538288.92646  23109427.779    23109429.1234   23109435.0714
       161.0004        163.0004
  -7296414.11548  -5642682.54647  23261210.036    23261209.2474   23261216.5934
       189.0004        189.0004
 -11101849.84648  -8297853.24247  22224375.764    22224375.7384   22224382.1904
       189.0004        189.0004
 -14628049.63648 -11081279.93146  22059212.517    22059211.8704   22059216.2684
       182.0004        182.0004
 -13393453.81948 -10417355.25547  21977934.848    21977934.1004   21977940.8344
       188.0004        189.0004
  -1509608.48947  -1166038.17345  23534925.414    23534926.2274   23534929.2204
       151.0004        154.0004
 -21545052.48149 -16771836.96747  20585247.572    20585247.8974   20585251.8144
       209.0004        210.0004
  -1029417.46347   -783603.49245  24742364.466    24742362.9274   24742370.2284
       141.0004        145.0004
  -1951476.05747  -1469241.84545  24106793.352    24106793.2364   24106800.0794
       146.0004        150.0004
 -19583380.54749 -15248300.93547  20943277.178    20943277.5004   20943285.4384
       198.0004        198.0004
 -11049209.06148  -8592070.95946  22445690.088    22445690.9664   22445694.8834
       180.0004        180.0004
 21  2  3  1  6  0.0000000  0 12G14G08G09G21G30G28G07G19G04G01G22G17
  -3293499.27447  -2559460.84446  23104258.743    23104259.3344   23104264.9554
       163.0004        165.0004
  -7201762.67748  -5568928.18647  23279218.227    23279219.1804   23279228.5564
       188.0004        188.0004
 -11027524.36548  -8239937.31147  22238519.810    22238519.6414   22238526.9484
       188.0004        190.0004
 -14587695.38848 -11049835.06146  22066891.273    22066891.2454   22066895.9614
       181.0004        181.0004
 -13474701.77448 -10480665.34647  21962473.383    21962473.2074   21962479.9474
       189.0004        190.0004
  -1525683.98447  -1178564.51945  23531867.375    23531866.0524   23531871.0414
       150.0004        151.0004
 -21589113.89949 -16806170.55747  20576862.910    20576863.0484   20576867.1904
       209.0004        210.0004
  -1119894.63047   -854105.11545  24725147.657    24725147.0224   24725152.0984
       142.0004        146.0004
  -1854486.53147  -1393665.63445  24125250.116    24125250.1584   24125256.9964
       147.0004        150.0004
 -19616532.18549 -15274133.37847  20936967.414    20936968.6374   20936977.0414
       198.0004        198.0004
   2598104.76544   2052712.45844                                  24793938.9374
        74.0004        114.0004
 -11108643.24048  -8638383.28846  22434380.128    22434380.5984   22434385.5224
       180.0004        181.0004
 21  2  3  1  6 30.0000000  0 12G14G08G09G21G30G28G07G19G04G01G22G17
  -3320715.94248  -2580668.62646  23099080.620    23099080.9944   23099086.2084
       165.0004        168.0004
  -7107100.64948  -5495165.57746  23297232.894    23297232.4324   23297241.9154
       187.0004        186.0004
 -10953013.78548  -8181877.13347  22252697.839    22252698.3754   22252705.8024
       189.0004        190.0004
 -14546856.70348 -11018012.71146  22074663.136    22074662.9754   22074666.7484
       181.0004        183.0004
 -13555763.37948 -10543830.21447  21947047.303    21947047.7684   21947054.1124
       190.0004        191.0004
  -1541814.15147  -1191133.48045  23528797.695    23528797.5034   23528800.6154
       147.0004        150.0004
 -21632763.01749 -16840182.86547  20568556.410    20568557.2554   20568561.0064
       209.0004        210.0004
  -1210155.85647   -924438.44145  24707971.206    24707970.7464   24707976.0974
       142.0004        145.0004
  -1757578.57947  -1318152.98845  24143689.927    24143690.2964   24143697.2754
       147.0004        150.0004
 -19649166.77849 -15299562.92047  20930758.737    20930759.2054   20930766.4404
       198.0004        199.0004
   2598104.76544   2052712.458 4                                  24793938.937
        74.0004        120.000
 -11167671.74748  -8684379.50546  22423147.594    22423147.3374   22423152.5334
       181.0004        181.0004
 21  2  3  1  7  0.0000000  0 12G14G08G09G21G30G28G07G19G04G01G22G17
  -3347980.24248  -2601913.53546  23093892.057    23093892.8204   23093898.1924
       165.0004        166.0004
  -7012431.23048  -5421397.21046  23315245.413    23315247.1894   23315256.9344
       186.0004        186.0004
 -10878321.93248  -8123675.70646  22266911.212    22266911.2954   22266918.6004
       188.0004        187.0004
 -14505535.34748 -10985814.24946  22082526.557    22082526.5204   22082530.8394
       181.0004        181.0004
 -13636636.80348 -10606848.46147  21931659.400    21931658.5864   21931664.7094
       191.0004        192.0004
  -1558001.07947  -1203746.65145  23525716.023    23525716.1024   23525720.5364
       145.0004        147.0004
 -21675998.29249 -16873872.67347  20560329.182    20560329.3934   20560333.7854
       209.0004        210.0004
  -1300200.46347   -994603.00045  24690836.972    24690836.3194   24690839.9014
       140.0004        145.0004
  -1660755.48647  -1242706.47445  24162115.673    24162115.2164   24162122.2034
       145.0004        149.0004
 -19681282.85649 -15324588.43547  20924646.901    20924647.4034   20924655.2354
       199.0004        199.0004
   2598104.76545   2052712.458 4                                  24793938.937
       103.0004        120.000
 -11226294.63048  -8730059.66646  22411991.814    22411991.9594   22411997.6194
       182.0004        184.0004
 21  2  3  1  7 30.0000000  0 11G14G08G09G21G30G28G07G19G04G01G17
  -3375293.27647  -2623196.37246  23088694.863    23088695.5444   23088699.3664
       164.0004        165.0004
  -6917756.96948  -5347625.04846  23333260.381    23333262.7684   23333272.8624
       185.0004        184.0004
 -10803452.14748  -8065335.63246  22281158.442    22281158.3384   22281166.1434
       186.0004        186.0004
 -14463732.62548 -10953240.69146  22090481.390    22090480.6064   22090485.2964
       181.0004        180.0004
 -13717319.80048 -10669718.33447  21916304.047    21916304.4554   21916310.7964
       191.0004        191.0004
  -1574246.52947  -1216405.39045  23522625.405    23522625.3164   23522629.8644
       146.0004        151.0004
 -21718817.52049 -16907238.28047  20552181.420    20552181.5984   20552185.2504
       209.0004        210.0004
  -1390027.44347  -1064597.95045  24673745.250    24673744.1294   24673745.8324
       142.0004        147.0004
  -1564020.04347  -1167328.24145  24180522.452    24180523.1124   24180530.5094
       144.0004        147.0004
 -19712878.55549 -15349208.45147  20918634.009    20918634.9534   20918642.4604
       199.0004        199.0004
 -11284511.73948  -8775423.61046  22400914.259    22400914.1124   22400918.6524
       184.0004        185.0004
 21  2  3  1  8  0.0000000  0 11G14G08G09G21G30G28G07G19G04G01G17
  -3402655.24048  -2644517.39246  23083487.998    23083488.5824   23083492.1224
       165.0004        167.0004
  -6823079.71148  -5273850.57546  23351281.339    23351281.1784   23351289.1314
       184.0004        184.0004
 -10728407.03048  -8006858.92047  22295439.380    22295439.6624   22295446.6424
       187.0004        188.0004
 -14421448.76648 -10920292.21446  22098527.227    22098526.7694   22098531.3494
       180.0004        180.0004
 -13797809.20248 -10732437.34347  21900986.966    21900987.4414   21900994.6054
       191.0004        192.0004
  -1590550.99047  -1229110.14345  23519521.664    23519521.6154   23519526.8194
       147.0004        151.0004
 -21761217.78349 -16940277.44447  20544111.792    20544112.4984   20544117.0164
       209.0004        210.0004
  -1479634.50247  -1134421.53345  24656692.007    24656691.5364   24656694.2234
       139.0004        143.0004
  -1467374.12347  -1092019.77645  24198915.312    24198914.9764   24198921.1344
       145.0004        149.0004
 -19743951.22749 -15373420.91247  20912722.166    20912722.4714   20912729.3124
       199.0004        199.0004
 -11342321.56448  -8820470.21246  22389913.019    22389912.9644   22389918.3824
       185.0004        184.0004
 21  2  3  1  8 30.0000000  0 11G14G08G09G21G30G28G07G19G04G01G17
  -3430069.18548  -2665878.91546  23078270.696    23078271.2394   23078276.7514
       167.0004        168.0004
  -6728403.81048  -5200077.15646  23369299.948    23369298.7464   23369305.9214
       185.0004        187.0004
 -10653191.81648  -7948249.64246  22309751.758    22309751.5884   22309760.1304
       186.0004        186.0004
 -14378686.80048 -10886971.19946  22106663.843    22106664.6414   22106669.1524
       180.0004        180.0004
 -13878104.60948 -10795005.17847  21885709.123    21885708.2144   21885714.9364
       192.0004        194.0004
  -1606917.63447  -1241863.35745  23516407.873    23516406.7154   23516412.1494
       147.0004        150.0004
 -21803198.57349 -16972989.74947  20536123.820    20536124.0354   20536128.4154
       209.0004        210.0004
  -1569021.78447  -1204073.83845  24639681.434    24639681.6454   24639684.5564
       140.0004        144.0004
  -1370822.57647  -1016784.82645  24217286.460    24217288.2154   24217294.8054
       147.0004        151.0004
 -19774500.94349 -15397225.87847  20906908.466    20906909.2324   20906915.9844
       199.0004        199.0004
 -11399726.19048  -8865201.07846  22378989.781    22378990.1404   22378993.8454
       184.0004        184.0004
 21  2  3  1  9  0.0000000  0 11G14G08G09G21G30G28G07G19G04G01G17
  -3457534.32948  -2687280.28846  23073043.971    23073044.6074   23073050.7624
       165.0004        167.0004
  -6633730.49148  -5126305.77246  23387317.215    23387315.5224   23387320.9154
       187.0004        187.0004
 -10577807.94748  -7889508.93146  22324096.732    22324097.0534   22324104.9464
       185.0004        185.0004
 -14335446.39548 -10853277.35646  22114893.325    22114892.8534   22114897.2354
       180.0004        180.0004
 -13958201.77848 -10857418.53847  21870466.519    21870466.0994   21870473.2784
       193.0004        193.0004
  -1623346.40947  -1254665.00845  23513282.599    23513282.3984   23513285.8914
       149.0004        153.0004
 -21844756.03949 -17005372.19347  20528215.149    20528215.7344   20528220.0654
       210.0004        210.0004
  -1658186.49347  -1273552.75945  24622713.287    24622711.9924   24622716.9494
       139.0004        144.0004
  -1274366.20747   -941624.06945  24235641.894    24235642.1454   24235648.6764
       147.0004        151.0004
 -19804524.06549 -15420620.50847  20901195.536    20901195.7244   20901203.0854
       199.0004        200.0004
 -11456723.14148  -8909614.26246  22368142.745    22368143.3734   22368147.5824
       183.0004        182.0004
 21  2  3  1  9 30.0000000  0 11G14G08G09G21G30G28G07G19G04G01G17
  -3485052.14048  -2708722.73246  23067809.050    23067808.2994   23067813.6334
       165.0004        166.0004
  -6539062.18048  -5052538.26546  23405330.116    23405329.7234   23405334.8894
       186.0004        186.0004
 -10502259.36948  -7830639.91046  22338473.098    22338473.4704   22338480.9524
       185.0004        185.0004
 -14291729.34748 -10819212.13146  22123212.380    22123211.6514   22123217.1294
       180.0004        180.0004
 -14038098.94348 -10919676.04547  21855261.982    21855262.4354   21855269.4674
       193.0004        193.0004
  -1639839.42247  -1267516.68745  23510143.163    23510142.9474   23510147.4074
       150.0004        152.0004
 -21885888.51049 -17037423.46947  20520388.281    20520388.7094   20520392.4774
       210.0004        210.0004
  -1747128.23847  -1342857.95445  24605789.117    24605788.3954   24605791.4014
       141.0004        145.0004
  -1178008.19247   -866539.92945  24253978.065    24253978.7154   24253985.8294
       147.0004        150.0004
 -19834019.18049 -15443603.70447  20895582.197    20895582.8774   20895590.2574
       199.0004        200.0004
 -11513313.39248  -8953710.53546  22357374.118    22357374.5774   22357377.8544
       182.0004        182.0004
 21  2  3  1 10  0.0000000  0 11G14G08G09G21G30G28G07G19G04G01G17
  -3512622.06847  -2730205.75546  23062560.394    23062561.8834   23062566.8584
       164.0004        165.0004
  -6444399.87048  -4978775.42446  23423342.660    23423342.1154   23423349.7524
       185.0004        186.0004
 -10426547.82548  -7771643.89246  22352880.999    22352882.0004   22352888.1984
       185.0004        185.0004
 -14247535.28148 -10784775.17846  22131623.013    22131621.6934   22131626.4224
       179.0004        179.0004
 -14117792.14248 -10981774.62947  21840097.455    21840097.4764   21840104.0004
       193.0004        193.0004
  -1656397.01847  -1280418.71745  23506990.527    23506991.6574   23506995.6104
       146.0004        148.0004
 -21926592.35249 -17069140.73647  20512642.763    20512643.1754   20512647.5054
       210.0004        211.0004
  -1835843.76647  -1411986.84045  24588905.769    24588904.2304   24588909.5194
       139.0004        143.0004
  -1081749.76847   -791533.41045  24272296.533    24272296.7464   24272302.6594
       147.0004        150.0004
 -19862982.93449 -15466172.85447  20890070.283    20890070.9154   20890078.9194
       200.0004        200.0004
 -11569494.62748  -8997488.09546  22346683.437    22346684.2184   22346688.0824
       181.0004        182.0004
 21  2  3  1 10 30.0000000  0 11G14G08G09G21G30G28G07G19G04G01G17
  -3540244.55848  -2751729.77546  23057305.491    23057305.8494   23057311.1834
       165.0004        167.0004
  -6349746.08348  -4905019.24946  23441353.541    23441353.5324   23441361.5524
       184.0004        183.0004
 -10350676.11248  -7712523.09746  22367318.307    22367318.8184   22367326.1904
       184.0004        185.0004
 -14202864.70748 -10749966.93846  22140122.520    22140122.3844   22140126.6754
       179.0004        180.0004
 -14197278.50248 -11043712.05147  21824970.872    21824971.1664   21824977.9514
       194.0004        194.0004
  -1673019.55047  -1293371.31245  23503828.448    23503829.1604   23503834.1194
       147.0004        151.0004
 -21966865.22949 -17100522.20447  20504979.024    20504979.4994   20504983.6044
       210.0004        211.0004
  -1924331.99347  -1480938.62745  24572066.453    24572066.8114   24572072.2254
       140.0004        144.0004
   -985593.09547   -716606.19345  24290593.463    24290594.6244   24290600.9684
       145.0004        148.0004
 -19891413.01349 -15488326.16347  20884660.366    20884660.6494   20884669.1584
       199.0004        200.0004
 -11625265.81948  -9040946.15546  22336070.284    22336070.4194   22336074.8254
       181.0004        182.0004
 21  2  3  1 11  0.0000000  0 11G14G08G09G21G30G28G07G19G04G01G17
  -3567920.81348  -2773295.65346  23052037.911    23052039.0434   23052044.1574
       166.0004        167.0004
  -6255103.25348  -4831271.56546  23459361.164    23459362.5354   23459371.3874
       182.0004        182.0004
 -10274647.73048  -7653280.22846  22381786.582    22381787.1264   22381793.4054
       184.0004        184.0004
 -14157719.19548 -10714788.61446  22148712.939    22148712.5434   22148717.2804
       179.0004        179.0004
 -14276555.83548 -11105486.58347  21809885.093    21809885.6394   21809892.2304
       194.0004        194.0004
  -1689708.70847  -1306375.83645  23500654.860    23500653.5894   23500657.7104
       149.0004        152.0004
 -22006704.72949 -17131565.97147  20497397.858    20497398.3614   20497402.2714
       210.0004        211.0004
  -2012591.54747  -1549712.18245  24555272.107    24555272.4404   24555275.3274
       141.0004        146.0004
   -889540.93447   -641760.44145  24308869.603    24308871.4924   24308879.4134
       145.0004        148.0004
 -19919307.82749 -15510062.36947  20879352.464    20879352.9274   20879360.4664
       199.0004        199.0004
 -11680627.45748  -9084085.06946  22325534.955    22325535.3044   22325539.9264
       181.0004        181.0004
 21  2  3  1 11 30.0000000  0 11G14G08G09G21G30G28G07G19G04G01G17
  -3595650.18448  -2794902.93246  23046760.560    23046761.9584   23046767.8454
       166.0004        167.0004
  -6160472.34648  -4757533.20646  23477369.588    23477369.8134   23477378.9264
       182.0004        182.0004
 -10198464.34048  -7593916.58646  22396283.860    22396284.2554   22396291.1014
       183.0004        183.0004
 -14112098.61148 -10679240.09246  22157394.651    22157393.6964   22157399.4274
       179.0004        179.0004
 -14355620.12149 -11167095.11147  21794840.819    21794840.2394   21794846.6164
       195.0004        195.0004
  -1706464.48247  -1319432.26645  23497464.238    23497463.8184   23497468.5624
       149.0004        151.0004
 -22046107.30549 -17162269.27347  20489899.715    20489899.9304   20489904.0414
       210.0004        211.0004
  -2100619.60947  -1618305.39645  24538522.391    24538520.9634   24538526.0894
       143.0004        149.0004
   -793594.42847   -566996.99445  24327129.668    24327131.1124   24327137.1684
       144.0004        147.0004
 -19946664.04849 -15531378.89147  20874147.289    20874147.1904   20874154.4814
       199.0004        199.0004
 -11735577.46448  -9126903.23746  22315077.700    22315078.5894   22315083.4884
       181.0004        183.0004
 21  2  3  1 12  0.0000000  0 11G14G08G09G21G30G28G07G19G04G01G17
  -3623435.32448  -2816553.69346  23041474.648    23041475.7014   23041479.5724
       166.0004        166.0004
  -6065857.00948  -4683806.97646  23495374.647    23495375.8264   23495383.1814
       182.0004        183.0004
 -10122130.86648  -7534435.97746  22410809.071    22410809.5154   22410817.4584
       184.0004        185.0004
 -14066005.75648 -10643323.57646  22166165.984    22166165.4804   22166169.9014
       179.0004        179.0004
 -14434470.65849 -11228537.08047  21779835.917    21779836.0154   21779841.8314
       195.0004        195.0004
  -1723289.88047  -1332542.95245  23494262.565    23494262.9554   23494266.4964
       149.0004        152.0004
 -22085072.29749 -17192631.60447  20482484.477    20482485.1614   20482489.6844
       210.0004        211.0004
  -2188416.42947  -1686718.42745  24521814.996    24521813.4884   24521818.3304
       146.0004        150.0004
   -697757.89447   -492319.28845  24345368.244    24345368.8944   24345375.1974
       145.0004        149.0004
 -19973481.62849 -15552275.69347  20869042.305    20869043.2844   20869051.6974
       199.0004        199.0004
 -11790117.42548  -9169401.89546  22304700.723    22304700.5714   22304704.2014
       182.0004        182.0004
 21  2  3  1 12 30.0000000  0 11G14G08G09G21G30G28G07G19G04G01G17
  -3651276.85948  -2838248.37446  23036175.280    23036175.9584   23036182.7024
       166.0004        167.0004
  -5971259.81748  -4610094.87746  23513376.928    23513377.5624   23513385.2634
       183.0004        184.0004
 -10045650.28448  -7474840.72546  22425364.177    22425364.5784   22425370.8914
       184.0004        185.0004
 -14019441.67148 -10607039.87446  22175026.180    22175025.2434   22175030.5454
       179.0004        178.0004
 -14513104.71248 -11289810.36247  21764870.730    21764871.4384   21764878.3384
       194.0004        194.0004
  -1740186.04147  -1345708.79545  23491047.476    23491048.4824   23491052.4734
       152.0004        156.0004
 -22123597.29849 -17222651.08747  20475153.548    20475154.0914   20475158.3904
       211.0004        212.0004
  -2275980.59647  -1754950.15845  24505152.162    24505151.1664   24505155.7534
       149.0004        153.0004
   -602033.66947   -417729.07145  24363583.083    24363583.7004   24363590.0094
       144.0004        147.0004
 -19999758.50449 -15572751.17747  20864042.587    20864043.2894   20864051.1504
       199.0004        199.0004
 -11844246.62448  -9211580.46946  22294399.653    22294400.0014   22294405.0384
       182.0004        184.0004
 21  2  3  1 13  0.0000000  0 11G14G08G09G21G30G28G07G19G04G01G17
  -3679175.51748  -2859987.54746  23030866.288    23030867.5254   23030873.7174
       167.0004        168.0004
  -5876683.06348  -4536398.72546  23531374.542    23531374.9384   23531383.5334
       186.0004        187.0004
  -9969025.75748  -7415133.30146  22439944.084    22439944.9984   22439952.5934
       184.0004        185.0004
 -13972407.51148 -10570389.87646  22183976.971    22183976.7654   22183982.1294
       178.0004        179.0004
 -14591519.72748 -11350912.97047  21749949.404    21749949.7044   21749956.3784
       194.0004        195.0004
  -1757154.26247  -1358930.76845  23487819.801    23487819.2664   23487822.3514
       155.0004        158.0004
 -22161680.01449 -17252325.94747  20467907.050    20467907.4604   20467911.1964
       211.0004        211.0004
  -2363310.81947  -1822999.59345  24488532.765    24488532.0424   24488536.3884
       149.0004        152.0004
   -506424.12247   -343228.20845  24381777.897    24381777.8904   24381783.9344
       142.0004        145.0004
 -20025492.84649 -15592803.90447  20859145.607    20859146.3074   20859153.9294
       199.0004        199.0004
 -11897964.55748  -9253438.57746  22284177.392    22284177.6864   22284182.2184
       183.0004        184.0004
 21  2  3  1 13 30.0000000  0 11G14G08G09G21G30G28G07G19G04G01G17
  -3707131.66748  -2881771.57646  23025547.729    23025548.4694   23025552.1754
       167.0004        167.0004
  -5782128.61348  -4462719.92646  23549366.428    23549368.0714   23549375.5244
       184.0004        185.0004
  -9892260.00448  -7355315.81246  22454553.001    22454553.4224   22454559.6484
       184.0004        184.0004
 -13924904.09348 -10533374.21846  22193016.916    22193016.5114   22193021.2044
       179.0004        179.0004
 -14669712.76349 -11411842.59347  21735070.230    21735069.9354   21735077.0514
       195.0004        195.0004
  -1774195.40047  -1372209.53745  23484576.930    23484576.9444   23484580.0324
       155.0004        157.0004
 -22199317.76349 -17281654.06747  20460744.419    20460744.9794   20460749.0364
       210.0004        211.0004
  -2450405.31047  -1890865.36045  24471959.132    24471958.3364   24471962.6464
       150.0004        153.0004
   -410931.30447   -268818.26945  24399949.185    24399948.3694   24399955.3914
       140.0004        143.0004
 -20050682.40649 -15612432.11547  20854352.539    20854352.8454   20854360.4974
       199.0004        199.0004
 -11951271.15748  -9294976.16446  22274032.936    22274032.7084   22274038.0814
       182.0004        182.0004
 21  2  3  1 14  0.0000000  0 11G14G08G09G21G30G28G07G19G04G01G17
  -3735145.50548  -2903600.52146  23020216.513    23020217.0474   23020222.8394
       167.0004        169.0004
  -5687598.27548  -4389059.93246  23567357.083    23567357.3054   23567364.8264
       185.0004        185.0004
  -9815355.49848  -7295390.20346  22469187.937    22469187.8174   22469195.2984
       184.0004        184.0004
 -13876932.33148 -10495993.63346  22202145.499    22202144.8384   22202150.5014
       179.0004        179.0004
 -14747680.60949 -11472596.74647  21720233.943    21720233.5594   21720240.6174
       195.0004        197.0004
  -1791310.15147  -1385545.68745  23481319.056    23481318.5234   23481323.3644
       154.0004        157.0004
 -22236508.02849 -17310633.50047  20453667.285    20453667.9154   20453672.4334
       211.0004        212.0004
  -2537262.11847  -1958545.89045  24455431.140    24455430.8644   24455434.7114
       150.0004        152.0004
   -315557.07747   -194500.75645  24418098.447    24418098.0484   24418104.8354
       138.0004        143.0004
 -20075324.78349 -15631633.96647  20849662.708    20849663.6084   20849671.4074
       199.0004        199.0004
 -12004165.57948  -9336192.57246  22263967.620    22263968.0684   22263973.0054
       182.0004        183.0004
 21  2  3  1 14 30.0000000  0 11G14G08G09G21G30G28G07G19G04G01G17
  -3763218.36948  -2925475.45646  23014873.977    23014874.9494   23014880.0354
       167.0004        167.0004
  -5593094.64048  -4315420.76646  23585340.308    23585341.0984   23585346.8744
       184.0004        184.0004
  -9738316.02848  -7235359.41046  22483846.408    22483847.3134   22483855.1114
       183.0004        183.0004
 -13828493.88048 -10458249.37446  22211363.843    22211362.7654   22211367.0104
       178.0004        179.0004
 -14825421.33349 -11533173.93047  21705440.130    21705440.6964   21705446.6174
       196.0004        197.0004
  -1808500.40147  -1398940.66445  23478050.537    23478049.6894   23478052.5374
       155.0004        158.0004
 -22273248.85549 -17339262.73047  20446675.981    20446676.4474   20446680.3044
       211.0004        211.0004
  -2623880.48947  -2026040.67645  24438946.399    24438946.0194   24438951.1574
       148.0004        151.0004
   -220304.50347   -120278.07145  24436224.618    24436226.4264   24436231.3394
       138.0004        143.0004
 -20099418.78549 -15650408.50347  20845078.144    20845078.7784   20845086.8894
       199.0004        199.0004
 -12056647.69148  -9377087.68046  22253981.473    22253981.6574   22253986.0304
       184.0004        185.0004
 21  2  3  1 15  0.0000000  0 11G14G08G09G21G30G28G07G19G04G01G17
  -3791349.87148  -2947396.10746  23009522.933    23009522.5634   23009525.7534
       166.0004        167.0004
  -5498619.03748  -4241803.39846  23603317.568    23603317.6984   23603325.0794
       183.0004        183.0004
  -9661143.65948  -7175225.07946  22498530.767    22498531.5404   22498539.3284
       181.0004        180.0004
 -13779588.95548 -10420141.63046  22220669.366    22220668.9204   22220673.4434
       178.0004        178.0004
 -14902931.29449 -11593571.29447  21690690.485    21690690.4414   21690696.9694
       196.0004        197.0004
  -1825766.13347  -1412394.44945  23474763.760    23474762.9414   23474766.1974
       152.0004        153.0004
 -22309537.14149 -17367539.32947  20439770.742    20439771.3144   20439775.1434
       211.0004        211.0004
  -2710258.06047  -2093347.76745  24422510.975    24422510.3644   24422514.4194
       148.0004        150.0004
   -125174.98647    -46151.28145  24454327.562    24454327.7974   24454334.9474
       137.0004        141.0004
 -20122961.62449 -15668753.55847  20840597.283    20840598.1104   20840606.4744
       198.0004        198.0004
 -12108716.32548  -9417660.62746  22244072.823    22244072.7034   22244077.8384
       185.0004        186.0004
 21  2  3  1 15 30.0000000  0 11G14G08G09G21G30G28G07G19G04G01G17
  -3819541.10548  -2969363.29946  23004157.344    23004157.0144   23004162.0954
       165.0004        166.0004
  -5404173.65548  -4168209.62446  23621289.762    23621289.7504   23621298.1344
       181.0004        180.0004
  -9583841.92148  -7114989.98646  22513242.979    22513242.8924   22513250.2004
       180.0004        182.0004
 -13730218.89448 -10381671.45046  22230063.610    22230063.1644   22230069.2404
       178.0004        178.0004
 -14980208.22149 -11653787.05647  21675984.407    21675984.5064   21675991.8124
       196.0004        196.0004
  -1843108.95147  -1425908.30945  23471461.571    23471461.0964   23471466.0224
       149.0004        152.0004
 -22345370.93649 -17395461.76847  20432951.875    20432952.1474   20432956.2994
       211.0004        212.0004
  -2796393.80647  -2160466.43845  24406120.022    24406119.0154   24406123.6614
       149.0004        152.0004
    -30171.21447     27877.50745  24472405.065    24472406.9584   24472412.9594
       136.0004        141.0004
 -20145951.92549 -15686668.07847  20836222.860    20836223.3244   20836231.1974
       198.0004        198.0004
 -12160371.63448  -9457911.48246  22234243.246    22234243.4644   22234248.3614
       185.0004        186.0004
 21  2  3  1 16  0.0000000  0 11G14G08G09G21G30G28G07G19G04G01G17
  -3847791.49448  -2991376.56646  22998780.476    22998781.9614   22998786.3284
       166.0004        168.0004
  -5309759.84948  -4094640.45346  23639254.030    23639255.8334   23639265.1994
       180.0004        182.0004
  -9506412.47648  -7054655.36246  22527977.349    22527977.5484   22527984.9644
       182.0004        183.0004
 -13680384.07748 -10342839.12246  22239546.892    22239546.4544   22239552.4694
       178.0004        178.0004
 -15057248.24349 -11713818.23647  21661324.378    21661324.6304   21661330.9484
       196.0004        196.0004
  -1860528.76047  -1439482.22845  23468143.840    23468143.6184   23468151.8574
       147.0004        150.0004
 -22380746.89149 -17423027.45547  20426219.280    20426220.0994   20426224.6554
       211.0004        212.0004
  -2882285.17147  -2227394.74345  24389775.129    24389774.8824   24389778.0894
       150.0004        153.0004
     64705.67947    101807.46045  24490460.271    24490459.8064   24490467.8384
       138.0004        143.0004
 -20168386.62849 -15704149.64847  20831953.137    20831954.3684   20831962.0094
       198.0004        198.0004
 -12211612.13048  -9497839.12846  22224490.936    22224492.2474   22224496.7194
       185.0004        185.0004
 21  2  3  1 16 30.0000000  0 11G14G08G09G21G30G28G07G19G04G01G17
  -3876101.74348  -3013436.47146  22993393.126    22993393.5994   22993399.0964
       167.0004        168.0004
  -5215379.79148  -4021097.52546  23657215.763    23657216.0344   23657224.4234
       180.0004        180.0004
  -9428858.46248  -6994223.70346  22542735.788    22542735.5354   22542742.2344
       182.0004        182.0004
 -13630085.78148 -10303645.64246  22249118.078    22249117.9024   22249123.0984
       178.0004        177.0004
 -15134048.86549 -11773662.86947  21646710.184    21646709.5644   21646716.6144
       196.0004        196.0004
  -1878026.90447  -1453117.14245  23464818.062    23464818.7194   23464822.1624
       149.0004        154.0004
 -22415662.62849 -17450234.53447  20419575.789    20419576.1854   20419579.9844
       211.0004        212.0004
  -2967930.86647  -2294131.62445  24373477.416    24373475.7094   24373479.9094
       150.0004        153.0004
    159453.23647    175636.60645  24508489.151    24508490.4154   24508496.9104
       139.0004        143.0004
 -20190264.13349 -15721197.04647  20827791.082    20827791.3954   20827798.8434
       198.0004        198.0004
 -12262437.38248  -9537443.19646  22214819.334    22214820.2544   22214824.9294
       184.0004        184.0004
 21  2  3  1 17  0.0000000  0 11G14G08G09G21G30G28G07G19G04G01G17
  -3904473.67448  -3035544.45546  22987994.984    22987995.2204   22987999.6934
       167.0004        167.0004
  -5121036.40148  -3947583.21346  23675168.614    23675169.2904   23675177.4464
       179.0004        180.0004
  -9351184.16248  -6933698.28046  22557516.006    22557516.0974   22557523.0114
       181.0004        182.0004
 -13579326.62548 -10264093.03746  22258776.991    22258777.0284   22258783.1514
       177.0004        178.0004
 -15210608.55149 -11833319.74947  21632140.195    21632140.1034   21632147.7744
       196.0004        196.0004
  -1895605.60847  -1466814.78645  23461474.291    23461474.1074   23461477.0874
       152.0004        156.0004
 -22450117.32649 -17477082.34147  20413019.149    20413019.4144   20413023.4194
       211.0004        212.0004
  -3053330.84347  -2360676.98345  24357226.595    24357225.4394   24357228.7214
       150.0004        154.0004
    254068.09547    249362.33645  24526494.335    24526494.9984   24526502.6264
       139.0004        143.0004
 -20211583.85249 -15737809.80447  20823733.079    20823733.8284   20823741.9874
       198.0004        198.0004
 -12312848.61848  -9576724.64346  22205227.049    22205227.6094   22205232.5094
       184.0004        185.0004
 21  2  3  1 17 30.0000000  0 11G14G08G09G21G30G28G07G19G04G01G17
  -3932908.38448  -3057701.36646  22982584.280    22982584.7904   22982588.3754
       167.0004        168.0004
  -5026732.95748  -3874100.01446  23693116.087    23693114.7224   23693123.2844
       179.0004        179.0004
  -9273392.96648  -6873081.75846  22572319.176    22572319.3034   22572326.6014
       182.0004        182.0004
 -13528108.10248 -10224182.48646  22268524.767    22268523.2704   22268529.2084
       177.0004        178.0004
 -15286925.11549 -11892787.19447  21617618.346    21617618.5244   21617625.6654
       196.0004        197.0004
  -1913266.46647  -1480576.46745  23458112.604    23458111.9364   23458115.4524
       153.0004        155.0004
 -22484109.05849 -17503569.38147  20406551.098    20406551.3564   20406555.2934
       211.0004        212.0004
  -3138484.01347  -2427030.02145  24341022.143    24341021.1704   24341025.8314
       152.0004        154.0004
    348547.64147    322982.67545  24544472.196    24544473.3114   24544481.1934
       139.0004        143.0004
 -20232344.55649 -15753986.95447  20819782.659    20819783.3734   20819790.9544
       198.0004        198.0004
 -12362846.13148  -9615683.69547  22195713.247    22195713.8094   22195718.3854
       186.0004        188.0004
 21  2  3  1 18  0.0000000  0 11G14G08G09G21G30G28G07G19G04G01G17
  -3961405.86148  -3079907.20246  22977161.154    22977161.0714   22977166.5974
       168.0004        171.0004
  -4932470.22748  -3800648.56246  23711052.176    23711052.0234   23711060.5974
       178.0004        179.0004
  -9195487.32848  -6812376.06946  22587143.853    22587144.4014   22587151.7684
       181.0004        180.0004
 -13476431.06448 -10183914.66046  22278357.301    22278357.3344   22278362.4564
       177.0004        176.0004
 -15362995.30449 -11952062.67647  21603142.665    21603142.8034   21603149.2384
       196.0004        196.0004
  -1931009.90747  -1494402.50645  23454733.037    23454733.0064   23454740.2674
       151.0004        153.0004
 -22517635.06449 -17529693.52347  20400170.535    20400171.0744   20400175.5174
       211.0004        212.0004
  -3223388.52847  -2493189.31345  24324863.478    24324863.5664   24324869.0504
       152.0004        155.0004
    442889.71147    396495.83845  24562425.559    24562427.2734   24562435.2654
       140.0004        145.0004
 -20252543.95649 -15769726.74947  20815939.407    20815939.7434   20815947.5514
       198.0004        198.0004
 -12412429.11348  -9654319.76346  22186277.217    22186277.9534   22186283.0654
       187.0004        187.0004
 21  2  3  1 18 30.0000000  0 11G14G08G09G21G30G28G07G19G04G01G17
  -3989965.25648  -3102161.27446  22971726.229    22971727.1364   22971731.7094
       169.0004        170.0004
  -4838249.21948  -3727229.60646  23728979.376    23728980.3684   23728989.7564
       177.0004        177.0004
  -9117468.84548  -6751582.42846  22601990.127    22601991.0754   22601998.2904
       180.0004        182.0004
 -13424294.97748 -10143289.13246  22288279.965    22288278.8994   22288284.5534
       177.0004        178.0004
 -15438815.04849 -12011142.99247  21588715.586    21588715.3004   21588721.4854
       196.0004        196.0004
  -1948835.78247  -1508292.78545  23451341.742    23451341.9584   23451345.9904
       149.0004        151.0004
 -22550691.83749 -17555452.02548  20393880.795    20393881.2344   20393884.9344
       212.0004        213.0004
  -3308041.56347  -2559152.64845  24308755.652    24308755.1774   24308758.9624
       152.0004        155.0004
    537093.62647    469901.29045  24580353.044    24580353.1404   24580359.4354
       139.0004        143.0004
 -20272178.99949 -15785026.76647  20812202.584    20812203.3584   20812210.9144
       198.0004        198.0004
 -12461595.87848  -9692631.51046  22176921.517    22176921.4544   22176926.6834
       186.0004        185.0004
 21  2  3  1 19  0.0000000  0 12G14G08G09G21G30G28G07G19G04G01G22G17
  -4018587.58348  -3124464.38546  22966280.170    22966280.3884   22966284.9754
       170.0004        170.0004
  -4744072.52248  -3653845.19246  23746899.982    23746901.7434   23746911.0974
       176.0004        176.0004
  -9039341.01648  -6690703.59446  22616858.445    22616858.2964   22616865.2574
       181.0004        182.0004
 -13371702.04748 -10102307.63346  22298287.336    22298286.9504   22298292.8044
       177.0004        178.0004
 -15514382.09649 -12070026.42047  21574334.868    21574334.9494   21574341.1854
       196.0004        196.0004
  -1966745.37847  -1522248.31245  23447935.439    23447934.7874   23447938.6884
       148.0004        152.0004
 -22583277.49249 -17580843.46148  20387680.214    20387680.1794   20387684.0124
       212.0004        213.0004
  -3392442.38147  -2624919.46645  24292694.526    24292693.9694   24292699.4254
       152.0004        155.0004
    631156.88647    543197.18545  24598252.200    24598252.9074   24598259.8854
       137.0004        141.0004
 -20291248.47249 -15799886.09847  20808573.321    20808574.4264   20808582.2034
       198.0004        199.0004
   2598104.76554   2052712.458 4                                  24793938.937
        74.0004        103.000
 -12510346.67948  -9730619.15446  22167643.897    22167644.5064   22167649.5224
       184.0004        183.0004
 21  2  3  1 19 30.0000000  0 12G14G08G09G21G30G28G07G19G04G01G22G17
  -4047274.01548  -3146817.42446  22960820.410    22960821.0794   22960826.1254
       170.0004        170.0004
  -4649942.93848  -3580497.47246  23764814.674    23764814.8824   23764823.9944
       177.0004        178.0004
  -8961107.42248  -6629742.36046  22631745.826    22631745.9164   22631752.3754
       181.0004        181.0004
 -13318654.22248 -10060971.65046  22308382.956    22308381.4324   22308386.4834
       177.0004        176.0004
 -15589694.38149 -12128711.32747  21560002.908    21560003.2294   21560010.2604
       196.0004        197.0004
  -1984740.44947  -1536270.42745  23444511.172    23444510.9914   23444515.1384
       152.0004        156.0004
 -22615390.56249 -17605866.62448  20381568.890    20381569.2554   20381573.2554
       212.0004        213.0004
  -3476590.25147  -2690489.18945  24276680.839    24276681.4454   24276686.1934
       151.0004        154.0004
    725076.60247    616381.26645  24616125.475    24616125.8014   24616132.2574
       135.0004        140.0004
 -20309751.38049 -15814303.92747  20805052.490    20805053.6324   20805061.1934
       198.0004        199.0004
   2598104.76544   2052712.458 4                                  24793938.937
        74.0004        103.000
 -12558682.04748  -9768283.04746  22158447.064    22158447.2374   22158451.5024
       185.0004        186.0004
 21  2  3  1 20  0.0000000  0 11G14G08G09G21G30G28G07G19G04G01G17
  -4076025.53848  -3169221.20746  22955350.335    22955349.9264   22955354.1924
       169.0004        169.0004
  -4555862.55648  -3507188.12446  23782717.246    23782717.8654   23782726.0204
       176.0004        176.0004
  -8882771.51048  -6568701.40146  22646651.673    22646652.0844   22646659.9014
       181.0004        181.0004
 -13265153.09648 -10019282.47346  22318563.072    22318563.2404   22318567.5284
       176.0004        176.0004
 -15664749.65949 -12187195.95247  21545720.721    21545720.6984   21545727.8314
       197.0004        198.0004
  -2002822.52747  -1550360.33345  23441069.480    23441069.7884   23441074.5174
       154.0004        158.0004
 -22647029.32949 -17630520.20948  20375548.169    20375548.4914   20375552.8344
       212.0004        213.0004
  -3560484.04347  -2755860.93445  24260717.306    24260715.8404   24260721.0464
       148.0004        149.0004
    818850.02247    689451.34045  24633969.301    24633970.4864   24633977.0414
       136.0004        142.0004
 -20327686.56849 -15828279.39547  20801640.186    20801640.4214   20801648.5864
       199.0004        199.0004
 -12606602.03948  -9805623.28646  22149327.599    22149328.0364   22149333.4184
       185.0004        186.0004
 21  2  3  1 20 30.0000000  0 11G14G08G09G21G30G28G07G19G04G01G17
  -4104842.72548  -3191676.17846  22949866.008    22949866.4734   22949870.6344
       169.0004        169.0004
  -4461833.60548  -3433918.79246  23800609.706    23800610.8024   23800620.8634
       177.0004        178.0004
  -8804336.27348  -6507583.04246  22661577.158    22661578.1574   22661585.7674
       181.0004        183.0004
 -13211200.43148  -9977241.42646  22328830.766    22328829.9564   22328834.7444
       176.0004        177.0004
 -15739545.32849 -12245478.29047  21531487.920    21531487.9094   21531494.4594
       198.0004        198.0004
  -2020992.76747  -1564518.95945  23437612.289    23437611.8424   23437615.6784
       155.0004        157.0004
 -22678191.60949 -17654802.50647  20369617.878    20369618.5294   20369622.3794
       212.0004        212.0004
  -3644122.81347  -2821033.94545  24244802.100    24244801.5294   24244805.3324
       148.0004        152.0004
    912474.86347    762405.63945  24651786.133    24651786.3814   24651792.1914
       136.0004        141.0004
 -20345052.54249 -15841811.31547  20798334.621    20798335.3194   20798343.7064
       198.0004        198.0004
 -12654106.75148  -9842639.93846  22140288.064    22140288.3654   22140293.2594
       186.0004        186.0004
 21  2  3  1 21  0.0000000  0 11G14G08G09G21G30G28G07G19G04G01G17
  -4133724.90948  -3214181.75846  22944369.475    22944370.2444   22944374.7364
       169.0004        169.0004
  -4367856.88248  -3360690.19946  23818493.767    23818494.5684   23818502.9824
       176.0004        177.0004
  -8725803.45648  -6446388.64846  22676522.715    22676522.2574   22676530.2024
       182.0004        182.0004
 -13156796.12148  -9934848.43446  22339182.896    22339181.6084   22339187.8634
       176.0004        176.0004
 -15814077.41849 -12303555.24947  21517304.582    21517305.0464   21517311.3624
       198.0004        198.0004
  -2039250.93347  -1578746.08845  23434138.620    23434137.8054   23434141.6894
       154.0004        156.0004
 -22708874.13449 -17678710.96248  20363779.155    20363779.8014   20363783.7284
       212.0004        213.0004
  -3727503.72747  -2886006.02445  24228934.765    24228933.3874   24228938.8944
       148.0004        152.0004
   1005950.20747    835243.41745  24669573.377    24669576.0984   24669581.0944
       139.0004        143.0004
 -20361846.46349 -15854897.48047  20795139.401    20795140.3544   20795147.6464
       198.0004        199.0004
 -12701195.00148  -9879332.07947  22131327.183    22131327.7934   22131332.3364
       187.0004        188.0004
 21  2  3  1 21 30.0000000  0 11G14G08G09G21G30G28G07G19G04G01G17
  -4162673.86848  -3236739.38546  22938861.419    22938861.9104   22938866.5574
       170.0004        172.0004
  -4273935.72948  -3287504.90246  23836368.492    23836367.9624   23836375.6744
       176.0004        176.0004
  -8647177.29648  -6385121.50846  22691484.544    22691484.7574   22691492.0504
       181.0004        182.0004
 -13101943.12248  -9892105.85146  22349621.088    22349620.4304   22349625.9094
       175.0004        176.0004
 -15888344.58849 -12361425.78147  21503172.035    21503171.7474   21503179.4204
       198.0004        199.0004
  -2057599.10447  -1593043.36245  23430645.581    23430645.2434   23430650.0464
       155.0004        157.0004
 -22739075.95549 -17702244.87048  20358031.891    20358032.2104   20358036.7294
       212.0004        213.0004
  -3810627.10847  -2950777.45845  24213116.425    24213115.8564   24213120.2374
       150.0004        153.0004
   1099272.55847    907961.98645  24687332.251    24687332.4264   24687339.7564
       138.0004        142.0004
 -20378068.18749 -15867537.78747  20792052.900    20792053.4324   20792060.9864
       198.0004        199.0004
 -12747867.81348  -9915700.49346  22122445.989    22122446.0584   22122450.4294
       187.0004        187.0004
 21  2  3  1 22  0.0000000  0 11G14G08G09G21G30G28G07G19G04G01G17
  -4191689.10648  -3259348.65246  22933340.389    22933339.9114   22933344.5934
       171.0004        170.0004
  -4180070.87048  -3214363.47446  23854228.992    23854229.0604   23854237.1054
       174.0004        174.0004
  -8568459.79548  -6323783.20646  22706463.216    22706463.7574   22706471.1234
       179.0004        179.0004
 -13046641.75948  -9849013.87746  22360143.668    22360143.3834   22360148.5494
       174.0004        174.0004
 -15962343.13549 -12419086.98447  21489090.454    21489090.7634   21489097.7104
       199.0004        200.0004
  -2076037.28247  -1607410.78245  23427137.838    23427137.5574   23427142.4544
       157.0004        159.0004
 -22768794.19349 -17725401.95448  20352377.228    20352377.2854   20352381.0824
       212.0004        213.0004
  -3893490.54847  -3015346.35145  24197349.969    24197348.6704   24197351.3744
       150.0004        153.0004
   1192440.69847    980560.36045  24705061.235    24705061.8244   24705069.5554
       139.0004        142.0004
 -20393715.16249 -15879730.22747  20789075.306    20789076.1604   20789083.7604
       199.0004        200.0004
 -12794123.65448  -9951743.99246  22113643.751    22113643.9054   22113649.2404
       187.0004        187.0004
 21  2  3  1 22 30.0000000  0 11G14G08G09G21G30G28G07G19G04G01G17
  -4220771.14148  -3282009.98346  22927804.624    22927805.3494   22927809.6944
       170.0004        170.0004
  -4086264.36748  -3141267.49346  23872079.603    23872080.0884   23872087.9764
       173.0004        174.0004
  -8489653.95148  -6262376.07046  22721459.410    22721459.9394   22721467.7304
       178.0004        179.0004
 -12990893.20848  -9805573.44346  22370752.869    22370752.3784   22370757.1224
       174.0004        175.0004
 -16036070.34949 -12476536.76547  21475060.895    21475061.4794   21475067.3074
       200.0004        200.0004
  -2094566.81247  -1621849.38545  23423612.092    23423611.9954   23423614.3724
       156.0004        159.0004
 -22798026.70249 -17748180.56348  20346814.417    20346814.8554   20346818.4124
       212.0004        213.0004
  -3976092.71247  -3079711.64245  24181629.664    24181628.4794   24181633.2904
       151.0004        155.0004
   1285452.52947   1053036.93845  24722760.229    24722761.9704   24722769.5594
       137.0004        141.0004
 -20408785.98249 -15891473.71547  20786206.853    20786207.9104   20786215.4744
       199.0004        200.0004
 -12839963.45948  -9987463.32147  22104921.010    22104921.3934   22104925.8174
       188.0004        189.0004
 21  2  3  1 23  0.0000000  0 10G14G08G09G21G30G28G07G19G01G17
  -4249919.67248  -3304723.12846  22922259.356    22922259.9724   22922264.1274
       170.0004        170.0004
  -3992517.53248  -3068218.06946  23889919.896    23889919.2834   23889927.4524
       174.0004        176.0004
  -8410761.90148  -6200901.74846  22736471.772    22736471.7174   22736480.8174
       178.0004        178.0004
 -12934698.41548  -9761785.29246  22381447.668    22381447.1714   22381450.7394
       175.0004        175.0004
 -16109522.84749 -12533772.49447  21461083.637    21461083.5814   21461090.0324
       200.0004        200.0004
  -2113187.82947  -1636359.25245  23420067.679    23420067.7024   23420072.1154
       156.0004        158.0004
 -22826770.32149 -17770578.19248  20341343.943    20341344.7864   20341349.1744
       212.0004        213.0004
  -4058431.75947  -3143871.87345  24165961.191    24165959.9444   24165965.3014
       153.0004        156.0004
 -20423278.43749 -15902766.52547  20783448.768    20783449.9784   20783457.8274
       199.0004        200.0004
 -12885386.07948 -10022857.56047  22096277.268    22096277.3124   22096282.0544
       188.0004        188.0004
 21  2  3  1 23 30.0000000  0 10G14G08G09G21G30G28G07G19G01G17
  -4279134.22848  -3327487.68946  22916697.544    22916699.5354   22916703.5444
       168.0004        167.0004
  -3898831.34548  -2995215.83046  23907748.263    23907748.6114   23907754.8014
       177.0004        179.0004
  -8331785.62748  -6139361.80546  22751501.670    22751502.0534   22751508.4034
       178.0004        179.0004
 -12878058.13948  -9717649.99946  22392224.907    22392224.2274   22392228.4284
       174.0004        175.0004
 -16182696.89349 -12590791.23547  21447158.220    21447158.5764   21447165.9014
       200.0004        201.0004
  -2131900.28147  -1650940.35645  23416506.832    23416506.2574   23416511.1154
       155.0004        157.0004
 -22855022.26949 -17792592.68648  20335968.091    20335968.4924   20335972.6134
       212.0004        214.0004
  -4140505.42147  -3207825.29545  24150341.056    24150341.4984   24150346.1814
       153.0004        155.0004
 -20437190.08249 -15913606.75347  20780801.715    20780802.4894   20780810.4474
       199.0004        199.0004
 -12930390.13248 -10057925.63447  22087712.909    22087713.6884   22087717.7804
       188.0004        188.0004
 21  2  3  1 24  0.0000000  0 11G14G08G09G21G30G28G07G19G01G22G17
  -4308417.85748  -3350306.10146  22911126.542    22911127.0094   22911131.6504
       169.0004        170.0004
  -3805210.46748  -2922264.54346  23925564.063    23925563.4544   23925571.5744
       177.0004        177.0004
  -8252730.75448  -6077760.61746  22766544.744    22766544.7794   22766552.3024
       178.0004        179.0004
 -12820976.34648  -9673170.66846  22403086.998    22403087.1484   22403091.2994
       174.0004        174.0004
 -16255592.48649 -12647592.99147  21433287.378    21433287.6534   21433294.3534
       201.0004        201.0004
  -2150707.97747  -1665595.71145  23412928.458    23412927.6414   23412931.3354
       156.0004        159.0004
 -22882783.17349 -17814224.57548  20330686.012    20330686.1794   20330690.0354
       213.0004        214.0004
  -4222314.49247  -3271572.60045  24134774.767    24134774.4264   24134779.6634
       153.0004        156.0004
 -20450522.30049 -15923995.48647  20778264.410    20778265.5854   20778273.5584
       199.0004        199.0004
   2598104.76554   2052712.458 4                                  24793938.937
        74.0004        131.000
 -12974978.71548 -10092669.97447  22079228.114    22079228.5554   22079232.9444
       189.0004        190.0004
 21  2  3  1 24 30.0000000  0 11G14G08G09G21G30G28G07G19G01G22G17
  -4337770.17348  -3373178.02846  22905540.606    22905541.8074   22905546.9704
       170.0004        170.0004
  -3711655.48848  -2849364.52946  23943366.086    23943366.7194   23943373.9124
       176.0004        178.0004
  -8173599.26948  -6016099.75646  22781602.643    22781603.8074   22781610.2834
       178.0004        179.0004
 -12763453.53648  -9628347.71046  22414034.583    22414033.5734   22414037.3834
       174.0004        175.0004
 -16328206.01449 -12704174.95947  21419468.956    21419469.6194   21419476.1034
       201.0004        201.0004
  -2169610.63447  -1680325.04445  23409331.871    23409330.8744   23409335.5064
       156.0004        158.0004
 -22910050.50349 -17835471.87448  20325496.779    20325497.2664   20325501.2964
       213.0004        214.0004
  -4303857.66847  -3335112.68845  24119256.394    24119255.7164   24119262.2484
       152.0004        154.0004
 -20463272.76149 -15933930.90447  20775839.743    20775839.6994   20775847.2564
       199.0004        199.0004
   2598104.76544   2052712.458 5                                  24793938.937
        74.0004        132.000
 -13019150.89348 -10127089.83247  22070822.411    22070823.1374   22070827.8014
       190.0004        191.0004
 21  2  3  1 25  0.0000000  0 10G14G08G09G21G30G28G07G19G01G17
  -4367191.97348  -3396104.09546  22899941.081    22899942.1274   22899948.0364
       168.0004        170.0004
  -3618169.01548  -2776517.96046  23961156.263    23961156.4974   23961163.7484
       177.0004        177.0004
  -8094394.54548  -5954381.80846  22796674.454    22796674.2734   22796682.8644
       177.0004        176.0004
 -12705491.41048  -9583182.41146  22425062.923    22425061.9564   22425065.3754
       173.0004        173.0004
 -16400535.17749 -12760535.33747  21405705.313    21405705.3894   21405712.3864
       200.0004        201.0004
  -2188609.71447  -1695129.50845  23405715.677    23405714.5884   23405718.9914
       156.0004        158.0004
 -22936821.95849 -17856332.78748  20320402.266    20320402.9394   20320406.9144
       213.0004        214.0004
  -4385134.22447  -3398445.03845  24103792.428    24103791.3584   24103796.2314
       154.0004        158.0004
 -20475440.53849 -15943412.28747  20773523.079    20773523.6594   20773531.4364
       199.0004        199.0004
 -13062907.07148 -10161185.56147  22062495.306    22062496.0804   22062500.6154
       190.0004        190.0004
 21  2  3  1 25 30.0000000  0 10G14G08G09G21G30G28G07G19G01G17
  -4396682.83648  -3419083.99346  22894329.888    22894330.6874   22894335.2004
       168.0004        169.0004
  -3524752.13648  -2703725.59046  23978932.805    23978932.7704   23978939.6714
       175.0004        175.0004
  -8015118.71048  -5892608.45646  22811760.772    22811760.5874   22811769.3084
       176.0004        177.0004
 -12647091.36948  -9537675.88146  22436176.237    22436176.0044   22436179.1554
       172.0004        173.0004
 -16472576.49649 -12816671.41747  21391996.430    21391995.9384   21392003.2144
       200.0004        200.0004
  -2207705.40947  -1710009.26845  23402080.985    23402081.8114   23402085.2824
       155.0004        158.0004
 -22963095.10449 -17876805.41148  20315403.345    20315403.4324   20315407.5274
       213.0004        214.0004
  -4466141.70747  -3461567.75045  24088376.104    24088375.5864   24088380.5984
       155.0004        158.0004
 -20487023.48049 -15952437.95147  20771319.695    20771319.8194   20771327.2964
       199.0004        199.0004
 -13106246.29448 -10194956.36647  22054248.811    22054249.2884   22054253.7884
       190.0004        191.0004
 21  2  3  1 26  0.0000000  0 10G14G08G09G21G30G28G07G19G01G17
  -4426243.34748  -3442118.14646  22888705.009    22888705.0884   22888710.2754
       168.0004        169.0004
  -3431406.80048  -2630988.97946  23996696.778    23996695.2734   23996703.3954
       172.0004        172.0004
  -7935774.74548  -5830782.03246  22826860.053    22826860.0204   22826866.7414
       175.0004        176.0004
 -12588254.15348  -9491828.69846  22447373.809    22447372.9974   22447375.5644
       173.0004        173.0004
 -16544327.40549 -12872581.21847  21378342.257    21378342.2254   21378349.6354
       200.0004        200.0004
  -2226898.73147  -1724965.11745  23398429.045    23398428.5624   23398433.5454
       154.0004        156.0004
 -22988868.04949 -17896888.26448  20310498.469    20310498.8824   20310503.2114
       213.0004        215.0004
  -4546879.08447  -3524479.92545  24073012.255    24073012.2114   24073016.4694
       154.0004        156.0004
 -20498020.46649 -15961007.02447  20769225.908    20769226.8434   20769235.1284
       199.0004        200.0004
 -13149168.80148 -10228402.45947  22046080.993    22046081.3994   22046085.8954
       190.0004        191.0004
 21  2  3  1 26 30.0000000  0 10G14G08G09G21G30G28G07G19G01G17
  -4455874.91048  -3465207.66446  22883066.271    22883066.3064   22883071.6674
       169.0004        169.0004
  -3338136.02848  -2558310.48246  24014447.265    24014445.8324   24014452.4434
       175.0004        176.0004
  -7856366.64148  -5768905.61246  22841970.355    22841970.9094   22841977.0674
       175.0004        176.0004
 -12528982.99048  -9445643.36146  22458652.017    22458650.9174   22458654.4014
       172.0004        172.0004
 -16615786.24349 -12928263.43047  21364744.049    21364744.2694   21364751.4974
       200.0004        200.0004
  -2246191.66947  -1739998.55745  23394758.713    23394758.2244   23394761.3284
       154.0004        157.0004
 -23014139.86949 -17916580.59748  20305689.596    20305690.2484   20305694.1924
       214.0004        215.0004
  -4627346.06847  -3587181.42945  24057700.411    24057699.3974   24057703.5684
       156.0004        160.0004
 -20508431.25849 -15969119.31947  20767245.818    20767246.3134   20767253.9084
       200.0004        200.0004
 -13191675.63748 -10261524.64247  22037992.002    22037992.7964   22037997.6934
       190.0004        191.0004
 21  2  3  1 27  0.0000000  0 10G14G08G09G21G30G28G07G19G01G17
  -4485576.88648  -3488352.06146  22877411.965    22877414.1024   22877418.4654
       167.0004        167.0004
  -3244940.57248  -2485690.63246  24032179.149    24032177.9944   24032186.4104
       171.0004        171.0004
  -7776896.18748  -5706980.58746  22857093.381    22857093.5354   22857100.5544
       174.0004        175.0004
 -12469278.52148  -9399120.38646  22470013.096    22470012.1414   22470016.9914
       172.0004        172.0004
 -16686949.27649 -12983715.14547  21351202.059    21351202.5044   21351209.9794
       200.0004        200.0004
  -2265583.91547  -1755109.39245  23391068.084    23391068.1584   23391071.7684
       157.0004        160.0004
 -23038907.59749 -17935880.10548  20300976.485    20300976.8104   20300980.8534
       214.0004        215.0004
  -4707540.29647  -3649670.36945  24042438.891    24042437.9894   24042444.1964
       156.0004        158.0004
 -20518253.60449 -15976773.08247  20765376.180    20765377.0094   20765384.6104
       200.0004        200.0004
 -13233766.12348 -10294322.42947  22029982.924    22029982.7204   22029987.9894
       191.0004        191.0004
 21  2  3  1 27 30.0000000  0 10G14G08G09G21G30G28G07G19G01G17
  -4515349.43948  -3511551.44646  22871749.654    22871749.8244   22871753.8124
       168.0004        170.0004
  -3151821.78348  -2413130.54646  24049898.226    24049898.5704   24049907.6114
       175.0004        177.0004
  -7697366.02848  -5645009.02746  22872226.983    22872227.1874   22872235.0124
       174.0004        176.0004
 -12409141.96348  -9352260.72246  22481456.230    22481456.4154   22481459.9334
       171.0004        172.0004
 -16757813.59149 -13038934.09647  21337717.546    21337717.4514   21337724.8654
       200.0004        201.0004
  -2285076.35947  -1770298.29845  23387358.292    23387357.8194   23387362.1104
       155.0004        156.0004
 -23063169.10449 -17954785.12648  20296359.389    20296359.9594   20296364.1534
       214.0004        215.0004
  -4787460.88947  -3711946.13545  24027230.981    24027230.1904   24027234.3954
       156.0004        157.0004
 -20527486.06049 -15983967.19047  20763619.122    20763620.1584   20763627.7474
       200.0004        199.0004
 -13275440.17348 -10326795.69747  22022052.708    22022052.5154   22022056.9954
       191.0004        190.0004
 21  2  3  1 28  0.0000000  0 10G14G08G09G21G30G28G07G19G01G17
  -4545192.31148  -3534805.63446  22866069.907    22866070.0594   22866074.3614
       169.0004        169.0004
  -3058781.14548  -2340631.37746  24067602.828    24067602.2994   24067612.2324
       174.0004        174.0004
  -7617778.56948  -5582992.84746  22887371.828    22887372.7404   22887380.6124
       176.0004        178.0004
 -12348574.26248  -9305065.11846  22492982.127    22492981.8974   22492984.6594
       171.0004        172.0004
 -16828375.89649 -13093917.71347  21324289.694    21324290.0864   21324297.1054
       201.0004        202.0004
  -2304669.25047  -1785565.47145  23383630.166    23383630.3214   23383633.3414
       153.0004        157.0004
 -23086921.85149 -17973293.72448  20291839.665    20291839.9164   20291844.0024
       214.0004        215.0004
  -4867105.92347  -3774007.17445  24012074.976    24012074.4934   24012077.1634
       156.0004        158.0004
 -20536126.89549 -15990700.30047  20761974.906    20761975.6774   20761983.5194
       199.0004        199.0004
 -13316697.20548 -10358944.02047  22014200.719    22014201.3314   22014205.7454
       190.0004        189.0004
 21  2  3  1 28 30.0000000  0 10G14G08G09G21G30G28G07G19G01G17
  -4575106.57848  -3558115.43546  22860376.613    22860377.9354   22860382.2394
       168.0004        168.0004
  -2965821.16648  -2268195.05546  24085292.164    24085292.8924   24085301.8474
       173.0004        173.0004
  -7538137.27548  -5520934.71846  22902527.335    22902527.7824   22902535.3654
       177.0004        178.0004
 -12287577.86148  -9257535.44046  22504590.265    22504589.5734   22504593.1494
       171.0004        172.0004
 -16898634.11849 -13148664.39347  21310920.003    21310920.4684   21310927.0494
       201.0004        201.0004
  -2324363.96347  -1800911.99945  23379882.541    23379881.9824   23379886.1534
       155.0004        158.0004
 -23110164.49649 -17991404.85448  20287416.202    20287416.7194   20287420.8234
       214.0004        215.0004
  -4946474.84347  -3835853.03345  23996971.917    23996971.8904   23996974.0414
       154.0004        156.0004
 -20544175.59749 -15996972.00747  20760443.096    20760443.7704   20760451.7354
       199.0004        199.0004
 -13357538.33648 -10390768.27447  22006429.049    22006429.8244   22006433.9994
       188.0004        189.0004
 21  2  3  1 29  0.0000000  0 10G14G08G09G21G30G28G07G19G01G17
  -4605093.11048  -3581481.57946  22854671.868    22854671.6944   22854676.3304
       169.0004        171.0004
  -2872944.10048  -2195823.30246  24102967.515    24102967.1814   24102975.8474
       173.0004        174.0004
  -7458445.59648  -5458837.31046  22917692.969    22917693.0524   22917700.7184
       176.0004        176.0004
 -12226155.10548  -9209673.54846  22516277.916    22516277.6134   22516281.1844
       171.0004        171.0004
 -16968586.24249 -13203172.55247  21297608.681    21297608.9754   21297615.7834
       201.0004        201.0004
  -2344161.89547  -1816338.95645  23376114.414    23376114.2674   23376118.8374
       155.0004        157.0004
 -23132896.09249 -18009117.80048  20283090.884    20283091.5564   20283095.3154
       214.0004        215.0004
  -5025567.13947  -3897483.35945  23981920.135    23981918.9484   23981922.0594
       152.0004        154.0004
 -20551631.69049 -16002781.94147  20759025.157    20759025.4634   20759032.6214
       199.0004        200.0004
 -13397963.85148 -10422268.65547  21998736.875    21998737.1404   21998741.5484
       188.0004        189.0004
 21  2  3  1 29 30.0000000  0 10G14G08G09G21G30G28G07G19G01G17
  -4635151.21248  -3604903.44346  22848950.609    22848951.7964   22848956.0854
       169.0004        170.0004
  -2780150.97848  -2123517.02346  24120625.793    24120625.1764   24120633.1234
       173.0004        174.0004
  -7378705.31948  -5396701.96846  22932865.562    22932866.1504   22932872.5704
       173.0004        172.0004
 -12164306.23748  -9161479.62146  22528046.774    22528046.6744   22528050.8194
       171.0004        172.0004
 -17038228.45849 -13257439.21647  21284356.023    21284356.3044   21284363.6004
       201.0004        202.0004
  -2364062.97647  -1831846.27045  23372327.718    23372326.9524   23372332.0794
       155.0004        158.0004
 -23155113.40549 -18026430.00948  20278863.603    20278863.6064   20278867.3134
       214.0004        215.0004
  -5104380.80147  -3958896.56845  23966923.257    23966922.8854   23966926.1264
       156.0004        160.0004
 -20558492.95949 -16008128.37647  20757719.471    20757719.6824   20757727.0534
       199.0004        199.0004
 -13437973.24748 -10453444.78047  21991122.297    21991123.1394   21991128.6504
       189.0004        190.0004
 21  2  3  1 30  0.0000000  0 10G14G08G09G21G30G28G07G19G01G17
  -4665282.24548  -3628382.17046  22843217.858    22843218.4494   22843222.5954
       169.0004        168.0004
  -2687443.93848  -2051277.76346  24138268.159    24138267.7004   24138275.9364
       176.0004        178.0004
  -7298920.44348  -5334531.91746  22948048.845    22948049.4714   22948056.2974
       172.0004        174.0004
 -12102034.30448  -9112956.02046  22539898.732    22539897.3424   22539900.7904
       172.0004        173.0004
 -17107559.17149 -13311463.13447  21271163.629    21271163.4364   21271169.9154
       201.0004        201.0004
  -2384069.09247  -1847435.44945  23368520.702    23368519.9464   23368525.1454
       154.0004        157.0004
 -23176815.99349 -18043341.15348  20274732.921    20274733.7234   20274737.7094
       214.0004        215.0004
  -5182915.38647  -4020092.28445  23951977.399    23951976.6724   23951982.1944
       157.0004        160.0004
 -20564759.42749 -16013011.32247  20756526.193    20756527.0094   20756534.4144
       199.0004        199.0004
 -13477567.71848 -10484297.61347  21983588.923    21983588.8974   21983593.7104
       189.0004        189.0004
 21  2  3  1 30 30.0000000  0 10G14G08G09G21G30G28G07G19G01G17
  -4695486.07648  -3651917.61646  22837469.052    22837469.7184   22837475.5104
       168.0004        168.0004
  -2594824.81048  -1979107.04546  24155891.302    24155891.7234   24155900.3134
       174.0004        174.0004
  -7219093.35848  -5272328.96346  22963239.920    22963240.4454   22963247.5634
       174.0004        176.0004
 -12039340.30048  -9064103.54346  22551827.254    22551827.4374   22551831.0484
       172.0004        173.0004
 -17176575.19049 -13365241.85047  21258029.644    21258029.8414   21258036.9484
       202.0004        202.0004
  -2404180.59647  -1863106.72845  23364694.786    23364693.8774   23364698.7294
       155.0004        158.0004
 -23198001.31049 -18059849.22948  20270701.792    20270702.3954   20270706.3524
       214.0004        215.0004
  -5261169.52747  -4081069.51445  23937086.736    23937086.1864   23937090.0594
       158.0004        160.0004
 -20570429.60749 -16017429.63847  20755447.141    20755447.9784   20755455.5614
       199.0004        199.0004
 -13516746.79048 -10514826.75147  21976132.583    21976132.8014   21976138.2714
       189.0004        189.0004
 21  2  3  1 31  0.0000000  0 10G14G08G09G21G30G28G07G19G01G17
  -4725762.95848  -3675509.98346  22831707.896    22831709.0174   22831713.1114
       168.0004        170.0004
  -2502295.12748  -1907006.01146  24173499.297    24173499.5334   24173508.5414
       175.0004        177.0004
  -7139226.79148  -5210095.24446  22978436.666    22978437.3664   22978445.0014
       173.0004        172.0004
 -11976225.87948  -9014923.47846  22563837.596    22563837.9744   22563842.5194
       173.0004        173.0004
 -17245273.88049 -13418773.28647  21244956.985    21244956.8144   21244963.7744
       202.0004        202.0004
  -2424398.42847  -1878860.86945  23360845.802    23360845.1434   23360850.6034
       155.0004        157.0004
 -23218667.65849 -18075952.91548  20266768.992    20266769.3634   20266773.5094
       214.0004        215.0004
  -5339142.34247  -4141827.50945  23922249.241    23922248.6314   23922252.4194
       157.0004        159.0004
 -20575502.49049 -16021382.52247  20754481.768    20754482.3074   20754490.3344
       199.0004        199.0004
 -13555511.02148 -10545032.64546  21968755.860    21968756.7384   21968761.1094
       188.0004        187.0004
 21  2  3  1 31 30.0000000  0 10G14G08G09G21G30G28G07G19G01G17
  -4756112.43248  -3699158.92846  22825934.139    22825934.0584   22825937.9054
       170.0004        171.0004
  -2409855.98448  -1834975.53646  24191090.285    24191090.8554   24191098.3554
       174.0004        174.0004
  -7059322.94748  -5147832.47246  22993641.408    22993642.6194   22993650.8744
       172.0004        174.0004
 -11912692.39748  -8965416.86646  22575927.618    22575927.7654   22575931.9864
       173.0004        174.0004
 -17313651.68849 -13472054.70247  21231945.273    21231945.0474   21231951.7984
       202.0004        202.0004
  -2444722.85747  -1894698.08745  23356979.152    23356978.5994   23356982.0474
       155.0004        157.0004
 -23238812.59549 -18091650.29148  20262935.758    20262936.1334   20262940.0204
       214.0004        215.0004
  -5416831.87947  -4202364.77445  23907465.614    23907464.8524   23907469.3174
       158.0004        160.0004
 -20579976.32949 -16024868.62647  20753631.074    20753631.3534   20753639.0994
       199.0004        199.0004
 -13593860.14248 -10574915.06546  21961458.595    21961458.5854   21961463.6104
       187.0004        187.0004
 21  2  3  1 32  0.0000000  0 10G14G08G09G21G30G28G07G19G01G17
  -4786535.67148  -3722865.32846  22820142.936    22820143.4744   22820149.7414
       168.0004        168.0004
  -2317510.04748  -1763017.66846  24208662.229    24208663.1904   24208672.0914
       172.0004        172.0004
  -6979385.59148  -5085543.63046  23008854.591    23008854.7684   23008862.0314
       173.0004        173.0004
 -11848742.39848  -8915585.68746  22588097.257    22588097.0974   22588101.3464
       173.0004        174.0004
 -17381707.01549 -13525084.83547  21218993.790    21218994.1474   21219001.8004
       202.0004        202.0004
  -2465154.94347  -1910619.16345  23353089.729    23353090.4684   23353092.4294
       153.0004        154.0004
 -23258435.07849 -18106940.52848  20259201.487    20259201.9394   20259206.2194
       214.0004        215.0004
  -5494237.71047  -4262680.94846  23892735.741    23892735.3154   23892740.0514
       160.0004        163.0004
 -20583851.05749 -16027887.88247  20752893.400    20752894.2294   20752901.6624
       199.0004        200.0004
 -13631795.04248 -10604474.71347  21954239.747    21954240.3564   21954244.3804
       187.0004        188.0004
 21  2  3  1 32 30.0000000  0 10G14G08G09G21G30G28G07G19G01G17
  -4817033.24148  -3746629.67146  22814339.651    22814341.2584   22814345.1474
       168.0004        170.0004
  -2225259.42048  -1691134.09346  24226215.263    24226217.5654   24226226.7964
       174.0004        176.0004
  -6899417.73748  -5023231.06446  23024073.442    23024072.7404   23024079.0594
       172.0004        173.0004
 -11784377.67848  -8865431.36046  22600345.073    22600344.2234   22600349.1564
       174.0004        174.0004
 -17449437.34749 -13577861.71547  21206105.515    21206105.9924   21206113.0074
       202.0004        203.0004
  -2485695.98547  -1926625.17645  23349182.065    23349181.8334   23349185.1644
       153.0004        157.0004
 -23277533.73949 -18121822.60448  20255567.173    20255567.7354   20255571.5184
       214.0004        215.0004
  -5571359.13147  -4322775.55245  23878059.893    23878058.9364   23878063.0144
       160.0004        160.0004
 -20587126.03649 -16030439.80047  20752269.999    20752270.7494   20752278.5814
       200.0004        199.0004
 -13669315.97148 -10633711.77747  21947100.068    21947100.3114   21947104.7444
       188.0004        189.0004
 21  2  3  1 33  0.0000000  0 10G14G08G09G21G30G28G07G19G01G17
  -4847604.15048  -3770451.16646  22808523.354    22808523.6274   22808528.2574
       169.0004        171.0004
  -2133103.90948  -1619324.63246  24243753.446    24243754.1934   24243762.8304
       173.0004        174.0004
  -6819421.03748  -4960896.01146  23039294.255    23039295.4384   23039301.3664
       171.0004        172.0004
 -11719598.99648  -8814954.45746  22612672.888    22612671.5344   22612677.7644
       174.0004        174.0004
 -17516838.82149 -13630382.35047  21193280.185    21193279.7504   21193286.3714
       203.0004        203.0004
  -2506345.53647  -1942715.72645  23345252.585    23345252.2024   23345255.7924
       154.0004        157.0004
 -23296105.76249 -18136294.31948  20252033.143    20252033.4644   20252037.5114
       214.0004        215.0004
  -5648193.94347  -4382646.78545  23863439.015    23863438.6674   23863442.6184
       159.0004        161.0004
 -20589799.21149 -16032522.78347  20751760.311    20751761.9994   20751769.9324
       199.0004        200.0004
 -13706422.50448 -10662625.95547  21940038.284    21940038.8364   21940043.7584
       189.0004        190.0004
 21  2  3  1 33 30.0000000  0 10G14G08G09G21G30G28G07G19G01G17
  -4878249.90048  -3794330.93546  22802690.668    22802691.0304   22802696.4284
       169.0004        169.0004
  -2041046.66248  -1547591.74446  24261275.158    24261273.3734   24261281.0334
       174.0004        175.0004
  -6739399.40448  -4898541.53746  23054522.791    23054522.9924   23054530.4024
       172.0004        173.0004
 -11654408.97248  -8764157.04046  22625077.661    22625076.6744   22625082.6734
       174.0004        176.0004
 -17583909.96849 -13682645.57747  21180516.283    21180516.4704   21180523.5654
       203.0004        203.0004
  -2527105.64747  -1958892.40845  23341300.825    23341300.5694   23341306.0914
       155.0004        158.0004
 -23314150.69449 -18150355.30648  20248599.384    20248599.9064   20248604.0874
       214.0004        216.0004
  -5724742.27647  -4442294.79545  23848872.090    23848871.3344   23848876.3634
       159.0004        161.0004
 -20591870.84449 -16034137.03847  20751367.076    20751367.9764   20751375.7064
       200.0004        200.0004
 -13743116.03048 -10691218.31247  21933055.460    21933056.4904   21933060.7344
       189.0004        189.0004
 21  2  3  1 34  0.0000000  0 10G14G08G09G21G30G28G07G19G01G17
  -4908970.57248  -3818269.10846  22796845.318    22796845.9764   22796849.9054
       169.0004        170.0004
  -1949089.82848  -1475937.07846  24278771.579    24278771.4644   24278779.8574
       173.0004        174.0004
  -6659355.53248  -4836169.69446  23069753.461    23069753.8584   23069762.6114
       172.0004        174.0004
 -11588809.51748  -8713040.58146  22637560.700    22637560.1754   22637565.7094
       174.0004        175.0004
 -17650648.05249 -13734649.28347  21167816.501    21167816.9394   21167823.9124
       203.0004        204.0004
  -2547976.79547  -1975155.62445  23337329.677    23337330.0014   23337332.8914
       154.0004        158.0004
 -23331666.62449 -18164004.08448  20245266.634    20245266.8884   20245270.8114
       215.0004        216.0004
  -5801003.25047  -4501718.89145  23834359.151    23834358.7514   23834362.7364
       158.0004        160.0004
 -20593340.11549 -16035281.91347  20751086.988    20751088.1194   20751095.5354
       199.0004        199.0004
 -13779397.08048 -10719489.25247  21926151.884    21926152.3984   21926157.3794
       190.0004        191.0004
 21  2  3  1 34 30.0000000  0 10G14G08G09G21G30G28G07G19G01G17
  -4939765.38248  -3842265.07446  22790985.613    22790986.0544   22790990.4044
       168.0004        168.0004
  -1857233.85548  -1404361.01646  24296250.943    24296251.3304   24296259.2204
       174.0004        175.0004
  -6579291.25748  -4773781.94946  23084989.820    23084990.4284   23084997.6084
       172.0004        173.0004
 -11522801.62548  -8661605.86446  22650121.659    22650120.3764   22650125.9404
       174.0004        175.0004
 -17717049.45049 -13786390.64147  21155181.608    21155181.3904   21155188.3424
       204.0004        205.0004
  -2568959.18947  -1991505.53545  23333336.296    23333337.0014   23333341.1174
       154.0004        156.0004
 -23348651.05449 -18177238.70048  20242033.476    20242034.1674   20242038.9094
       215.0004        216.0004
  -5876974.73847  -4560917.42445  23819902.742    23819902.6364   23819906.6954
       159.0004        161.0004
 -20594205.18649 -16035955.99247  20750922.855    20750923.8744   20750931.0674
       199.0004        199.0004
 -13815264.52948 -10747437.90847  21919326.805    21919326.7274   21919331.8304
       191.0004        191.0004
 21  2  3  1 35  0.0000000  0 10G14G08G09G21G30G28G07G19G01G17
  -4970635.01748  -3866319.33746  22785110.323    22785110.7724   22785115.5634
       167.0004        168.0004
  -1765480.73348  -1332865.08746  24313712.629    24313710.8274   24313719.7044
       172.0004        173.0004
  -6499209.83648  -4711380.85746  23100228.041    23100228.9844   23100236.7814
       171.0004        171.0004
 -11456387.47248  -8609854.58046  22662759.492    22662758.4994   22662764.4984
       174.0004        175.0004
 -17783111.86849 -13837867.85247  21142608.987    21142609.4914   21142616.5044
       204.0004        203.0004
  -2590053.66347  -2007942.76845  23329321.638    23329321.9394   23329326.6714
       152.0004        154.0004
 -23365102.49749 -18190058.01848  20238903.449    20238903.7504   20238908.2844
       215.0004        216.0004
  -5952656.21247  -4619889.96245  23805502.208    23805500.9154   23805504.6864
       160.0004        162.0004
 -20594465.67749 -16036158.96547  20750873.620    20750874.1244   20750881.8984
       199.0004        199.0004
 -13850719.55148 -10775065.18847  21912579.545    21912580.5404   21912584.1064
       190.0004        190.0004
 21  2  3  1 35 30.0000000  0 10G14G08G09G21G30G28G07G19G01G17
  -5001579.79348  -3890432.14646  22779222.695    22779222.9904   22779227.0844
       168.0004        169.0004
  -1673831.84548  -1261450.39746  24331150.649    24331151.0994   24331159.5914
       169.0004        169.0004
  -6419114.18148  -4648968.67446  23115471.282    23115470.9084   23115478.6174
       171.0004        172.0004
 -11389568.96848  -8557788.20946  22675475.065    22675473.9664   22675480.4184
       174.0004        174.0004
 -17848832.84549 -13889079.00947  21130103.363    21130103.8664   21130110.3644
       204.0004        205.0004
  -2611261.03447  -2024467.99745  23325285.449    23325286.6994   23325291.5564
       153.0004        157.0004
 -23381019.71449 -18202461.05548  20235874.773    20235875.0534   20235879.1294
       215.0004        216.0004
  -6028046.77947  -4678635.85045  23791154.762    23791153.9284   23791158.2434
       160.0004        161.0004
 -20594121.02149 -16035890.38847  20750939.351    20750939.7754   20750947.4604
       200.0004        200.0004
 -13885762.83348 -10802371.63647  21905910.482    21905911.4854   21905916.2034
       189.0004        191.0004
 21  2  3  1 36  0.0000000  0 10G14G08G09G21G30G28G07G19G01G17
  -5032599.52548  -3914603.35746  22773319.739    22773320.6344   22773324.0594
       168.0004        169.0004
  -1582288.81148  -1190118.17846  24348572.216    24348571.4594   24348579.4514
       170.0004        171.0004
  -6339006.64448  -4586547.21746  23130714.605    23130715.1154   23130722.7824
       170.0004        170.0004
 -11322347.62348  -8505407.95846  22688265.907    22688265.1454   22688271.7524
       174.0004        174.0004
 -17914209.31649 -13940021.72047  21117663.380    21117663.0364   21117669.9284
       205.0004        206.0004
  -2632581.83647  -2041081.59545  23321230.612    23321228.9604   23321234.1284
       154.0004        155.0004
 -23396400.72349 -18214446.26948  20232947.487    20232947.8274   20232952.4294
       215.0004        216.0004
  -6103144.97147  -4737153.89645  23776862.970    23776862.6314   23776865.9974
       159.0004        160.0004
 -20593170.15149 -16035149.45447  20751120.207    20751120.6654   20751128.1594
       200.0004        200.0004
 -13920394.45348 -10829357.29147  21899321.278    21899320.9794   21899326.0814
       190.0004        190.0004
 21  2  3  1 36 30.0000000  0 10G14G08G09G21G30G28G07G19G01G17
  -5063694.44648  -3938833.16646  22767401.226    22767401.9094   22767407.0794
       168.0004        168.0004
  -1490853.49948  -1118869.93146  24365969.145    24365971.0924   24365978.9634
       170.0004        171.0004
  -6258890.03748  -4524118.66846  23145959.587    23145960.7834   23145967.6654
       182.0004        187.0004
 -11254725.35848  -8452715.28946  22701135.218    22701134.3964   22701140.2794
       174.0004        175.0004
 -17979238.72049 -13990693.96247  21105288.272    21105288.4164   21105295.2254
       206.0004        207.0004
  -2654016.70747  -2057784.10145  23317150.907    23317150.7354   23317154.7854
       152.0004        155.0004
 -23411244.07749 -18226012.51548  20230122.760    20230123.4124   20230127.8464
       215.0004        216.0004
  -6177950.14847  -4795443.61346  23762630.235    23762629.2284   23762633.3194
       162.0004        165.0004
 -20591612.40549 -16033935.59947  20751416.386    20751416.8874   20751424.7384
       200.0004        200.0004
 -13954614.62548 -10856022.34047  21892808.982    21892809.5924   21892813.7034
       190.0004        190.0004
 21  2  3  1 37  0.0000000  0 10G14G08G09G21G30G28G07G19G01G17
  -5094864.89348  -3963121.84046  22761469.967    22761471.4054   22761475.2904
       167.0004        169.0004
  -1399527.08848  -1047706.51846  24383349.791    24383350.5434   24383357.5444
       171.0004        171.0004
  -6178767.33348  -4461685.37946  23161207.046    23161207.5644   23161213.8424
       185.0004        186.0004
 -11186704.07248  -8399711.69646  22714078.746    22714078.2764   22714084.2344
       174.0004        175.0004
 -18043918.57849 -14041093.85347  21092980.526    21092980.1074   21092987.0044
       206.0004        206.0004
  -2675566.41247  -2074576.08445  23313049.993    23313049.9574   23313054.7074
       153.0004        157.0004
 -23425548.54649 -18237158.86948  20227401.343    20227401.4544   20227405.5984
       215.0004        216.0004
  -6252461.17247  -4853504.12546  23748450.516    23748449.4634   23748453.5694
       164.0004        166.0004
 -20589447.30749 -16032248.51247  20751827.983    20751828.6684   20751836.3434
       199.0004        199.0004
 -13988423.93848 -10882367.26047  21886375.799    21886376.2844   21886380.0194
       189.0004        190.0004
 21  2  3  1 37 30.0000000  0 10G14G08G09G21G30G28G07G19G01G17
  -5126110.69848  -3987469.21746  22755524.995    22755525.6964   22755529.4784
       168.0004        169.0004
  -1308311.14448   -976629.17146  24400705.331    24400707.4274   24400716.0344
       170.0004        171.0004
  -6098640.87149  -4399249.14247  23176453.886    23176454.6234   23176462.6654
       195.0004        201.0004
 -11118285.53448  -8346398.56446  22727098.893    22727097.7324   22727104.2094
       172.0004        172.0004
 -18108245.95849 -14091219.09147  21080739.048    21080739.0424   21080745.9154
       206.0004        206.0004
  -2697231.40547  -2091457.88245  23308927.570    23308927.1274   23308932.3514
       154.0004        158.0004
 -23439311.98649 -18247883.62248  20224781.753    20224782.3554   20224786.5544
       215.0004        216.0004
  -6326677.07247  -4911334.68946  23734326.402    23734326.5644   23734330.1714
       163.0004        163.0004
 -20586673.89549 -16030087.40447  20752356.749    20752357.2134   20752364.3784
       200.0004        199.0004
 -14021822.97248 -10908392.47647  21880019.395    21880020.3904   21880024.6024
       190.0004        191.0004
 21  2  3  1 38  0.0000000  0 10G14G08G09G21G30G28G07G19G01G17
  -5157432.11848  -4011875.50046  22749564.071    22749564.2714   22749570.5184
       169.0004        170.0004
  -1217207.69248   -905639.49646  24418044.148    24418044.4074   24418052.0324
       170.0004        171.0004
  -6018513.66049  -4336812.34147  23191702.117    23191702.6234   23191710.1204
       201.0004        203.0004
 -11049471.90548  -8292777.54446  22740193.377    22740192.4234   22740197.7774
       172.0004        173.0004
 -18172218.34949 -14141067.71947  21068565.173    21068565.6174   21068572.2104
       206.0004        206.0004
  -2719012.55647  -2108430.21045  23304782.517    23304782.9194   23304786.4604
       156.0004        159.0004
 -23452533.22549 -18258185.87648  20222266.375    20222266.8604   20222270.6694
       215.0004        217.0004
  -6400596.84147  -4968934.47046  23720260.549    23720259.5294   23720263.7154
       163.0004        165.0004
 -20583291.72049 -16027451.94047  20752999.884    20753000.4694   20753007.7734
       199.0004        199.0004
 -14054812.40448 -10934098.52647  21873742.396    21873742.4274   21873746.8474
       191.0004        191.0004
 21  2  3  1 38 30.0000000  0 10G14G08G09G21G30G28G07G19G01G17
  -5188830.02448  -4036341.42746  22743589.582    22743589.5804   22743594.9924
       170.0004        170.0004
  -1126218.32748   -834738.67346  24435358.689    24435358.8844   24435368.2574
       170.0004        172.0004
  -5938389.17749  -4274377.68747  23206948.185    23206949.2034   23206957.1524
       201.0004        200.0004
 -10980265.61448  -8238850.56646  22753363.283    22753362.9334   22753367.0654
       172.0004        172.0004
 -18235833.89749 -14190638.28347  21056459.977    21056460.2044   21056466.3744
       206.0004        207.0004
  -2740911.01847  -2125493.96145  23300616.844    23300616.2234   23300620.5554
       157.0004        159.0004
 -23465211.38649 -18268064.94948  20219853.115    20219853.6444   20219858.1824
       215.0004        216.0004
  -6474220.47747  -5026303.51246  23706252.368    23706250.4874   23706253.1344
       163.0004        165.0004
 -20579300.96049 -16024342.24547  20753759.050    20753759.5244   20753767.2744
       199.0004        199.0004
 -14087393.09548 -10959486.07047  21867541.987    21867542.1044   21867546.5924
       190.0004        190.0004
 21  2  3  1 39  0.0000000  0 10G14G08G09G21G30G28G07G19G01G17
  -5220303.66848  -4060866.32846  22737600.441    22737601.1604   22737606.1584
       169.0004        170.0004
  -1035344.09348   -763927.58346  24452652.163    24452651.6534   24452660.2024
       171.0004        171.0004
  -5858269.20349  -4211946.56447  23222196.245    23222195.8774   23222202.7634
       199.0004        197.0004
 -10910667.54648  -8184618.30446  22766607.122    22766606.5004   22766611.8184
       171.0004        171.0004
 -18299089.13849 -14239928.09447  21044422.388    21044422.7664   21044429.5534
       206.0004        206.0004
  -2762926.85447  -2142649.11845  23296424.233    23296425.6664   23296430.6864
       155.0004        157.0004
 -23477344.44849 -18277519.29348  20217545.038    20217545.2294   20217549.3844
       215.0004        216.0004
  -6547546.26547  -5083440.46846  23692297.213    23692296.7484   23692300.8394
       163.0004        165.0004
 -20574700.25549 -16020757.27347  20754634.431    20754635.3024   20754642.9754
       199.0004        199.0004
 -14119564.66248 -10984554.82547  21861420.241    21861420.5304   21861425.1964
       190.0004        191.0004
 21  2  3  1 39 30.0000000  0 10G14G08G09G21G30G28G07G19G01G17
  -5251854.05348  -4085451.05846  22731595.801    22731596.6664   22731601.7464
       170.0004        172.0004
   -944587.35748   -693208.04546  24469922.631    24469922.3644   24469931.2954
       172.0004        173.0004
  -5778157.31249  -4149521.73847  23237440.411    23237440.9394   23237447.8054
       197.0004        198.0004
 -10840680.86748  -8130083.23646  22779924.545    22779924.6524   22779929.7844
       170.0004        170.0004
 -18361982.27949 -14288935.74647  21032454.592    21032454.8574   21032461.3534
       207.0004        206.0004
  -2785061.44747  -2159896.86045  23292213.836    23292214.7384   23292218.2484
       155.0004        158.0004
 -23488931.50549 -18286548.16948  20215339.291    20215339.9254   20215344.2964
       215.0004        216.0004
  -6620574.21347  -5140345.32945  23678401.216    23678400.0294   23678404.1844
       161.0004        161.0004
 -20569489.94949 -16016697.28447  20755626.476    20755626.9544   20755634.1494
       199.0004        200.0004
 -14151328.89448 -11009306.15247  21855376.465    21855376.8114   21855381.0844
       192.0004        192.0004
 21  2  3  1 40  0.0000000  0 10G14G08G09G21G30G28G07G19G01G17
  -5283480.27248  -4110094.83846  22725577.834    22725578.4354   22725584.0564
       170.0004        171.0004
   -853948.70948   -622580.53846  24487167.457    24487169.0904   24487178.3894
       170.0004        169.0004
  -5698055.28249  -4087104.60747  23252683.739    23252683.6124   23252691.4354
       199.0004        199.0004
 -10770306.37848  -8075245.96746  22793315.426    22793315.5924   22793321.0074
       169.0004        168.0004
 -18424509.70549 -14337658.42447  21020556.142    21020556.2164   21020562.6304
       207.0004        207.0004
  -2807314.36447  -2177236.77245  23287980.086    23287979.6954   23287983.7624
       155.0004        158.0004
 -23499970.42749 -18295149.93748  20213238.927    20213239.3874   20213243.7074
       215.0004        216.0004
  -6693302.33847  -5197016.56746  23664560.735    23664560.3534   23664564.1774
       161.0004        163.0004
 -20563668.54249 -16012161.11647  20756734.401    20756734.9994   20756742.0814
       200.0004        200.0004
 -14182685.35048 -11033739.74147  21849408.652    21849409.4224   21849413.5314
       192.0004        193.0004
 21  2  3  1 40 30.0000000  0 10G14G08G09G21G30G28G07G19G01G17
  -5315182.14548  -4134797.64046  22719546.499    22719546.8234   22719550.5514
       169.0004        169.0004
   -763429.59848   -552046.17946  24504394.541    24504395.6284   24504403.1674
       168.0004        169.0004
  -5617965.46749  -4024696.98947  23267923.544    23267923.5734   23267931.9184
       198.0004        198.0004
 -10699545.82548  -8020107.87946  22806782.658    22806782.3604   22806786.1454
       169.0004        170.0004
 -18486668.61549 -14386093.95047  21008727.179    21008727.5884   21008734.4604
       207.0004        207.0004
  -2829686.23247  -2194669.43345  23283723.435    23283722.4304   23283727.2344
       154.0004        156.0004
 -23510459.47349 -18303323.23748  20211242.702    20211243.1714   20211247.2544
       215.0004        216.0004
  -6765729.39147  -5253453.21146  23650779.082    23650778.2584   23650782.6454
       162.0004        165.0004
 -20557235.41549 -16007148.29247  20757958.542    20757959.2104   20757966.3094
       200.0004        200.0004
 -14213634.22648 -11057855.74347  21843519.402    21843519.9504   21843524.4224
       192.0004        192.0004
 21  2  3  1 41  0.0000000  0 10G14G08G09G21G30G28G07G19G01G17
  -5346961.08848  -4159560.41846  22713497.087    22713497.9064   22713504.4994
       167.0004        167.0004
   -673032.50748   -481606.85946  24521597.284    24521597.3924   24521605.7954
       166.0004        166.0004
  -5537891.84649  -3962301.93447  23283161.505    23283161.8584   23283169.3184
       198.0004        199.0004
 -10628402.35648  -7964671.38646  22820321.315    22820320.1384   22820324.5404
       168.0004        168.0004
 -18548457.69849 -14434241.28947  20996970.042    20996969.8354   20996976.2434
       207.0004        207.0004
  -2852178.73747  -2212196.02545  23279441.440    23279442.3164   23279446.7334
       155.0004        158.0004
 -23520398.44249 -18311067.88548  20209351.438    20209351.7524   20209356.1044
       215.0004        216.0004
  -6837856.11347  -5309655.80646  23637053.487    23637052.6384   23637056.5734
       162.0004        164.0004
 -20550191.35649 -16001659.40647  20759298.977    20759299.3584   20759306.6014
       200.0004        199.0004
 -14244177.52648 -11081655.71447  21837707.092    21837706.7824   21837711.9604
       191.0004        191.0004
 21  2  3  1 41 30.0000000  0 10G14G08G09G21G30G28G07G19G01G17
  -5378815.98148  -4184382.41046  22707436.220    22707436.9214   22707441.7904
       167.0004        169.0004
   -582757.73047   -411262.90146  24538774.981    24538774.8294   24538783.0184
       163.0004        164.0004
  -5457836.04349  -3899920.73947  23298396.562    23298396.6364   23298403.0024
       199.0004        200.0004
 -10556876.98648  -7908937.33646  22833930.948    22833929.6774   22833934.6694
       167.0004        167.0004
 -18609873.24149 -14482097.54047  20985281.948    20985282.4764   20985289.3984
       207.0004        208.0004
  -2874791.39847  -2229816.27145  23275138.795    23275138.3794   23275143.3564
       155.0004        157.0004
 -23529785.20349 -18318382.24348  20207565.000    20207565.6594   20207570.0604
       215.0004        216.0004
  -6909680.62947  -5365622.96346  23623384.789    23623383.8504   23623389.7634
       163.0004        164.0004
 -20542534.92949 -15995693.34547  20760755.490    20760755.9074   20760763.4704
       199.0004        200.0004
 -14274314.79548 -11105139.29547  21831971.868    21831972.3084   21831977.6524
       191.0004        191.0004
 21  2  3  1 42  0.0000000  0 10G14G08G09G21G30G28G07G19G01G17
  -5410747.49848  -4209264.11346  22701360.472    22701361.6974   22701365.7554
       169.0004        171.0004
   -492607.46347   -341015.97946  24555931.990    24555930.9314   24555939.9294
       163.0004        164.0004
  -5377801.37549  -3837556.07047  23313625.309    23313625.5644   23313633.0204
       198.0004        197.0004
 -10484972.31048  -7852907.71846  22847613.765    22847613.8894   22847617.7894
       166.0004        168.0004
 -18670913.22449 -14529661.15047  20973667.232    20973667.1084   20973673.7434
       208.0004        208.0004
  -2897525.59047  -2247531.23545  23270813.471    23270813.2044   23270817.7194
       156.0004        158.0004
 -23538618.92949 -18325265.66448  20205884.402    20205884.7224   20205889.2014
       215.0004        216.0004
  -6981202.43247  -5421354.22546  23609774.872    23609775.1244   23609778.2084
       163.0004        163.0004
 -20534266.34349 -15989250.28647  20762329.452    20762329.8554   20762337.3234
       200.0004        200.0004
 -14304047.41848 -11128307.56747  21826313.789    21826314.1454   21826319.7784
       191.0004        192.0004
 21  2  3  1 42 30.0000000  0 10G14G08G09G21G30G28G07G19G01G17
  -5442754.90048  -4234204.93446  22695269.900    22695270.1434   22695274.1034
       171.0004        171.0004
   -402582.47458   -270866.68646  24573061.674    24573062.3675   24573070.9094
       165.0004        166.0004
  -5297789.69149  -3775209.33047  23328851.556    23328851.9114   23328858.7324
       197.0004        197.0004
 -10412689.66048  -7796583.56946  22861368.696    22861369.3394   22861372.5384
       166.0004        167.0004
 -18731574.38449 -14576929.57547  20962123.582    20962123.5174   20962129.9544
       208.0004        207.0004
  -2920380.92447  -2265340.58045  23266463.952    23266463.5044   23266467.8074
       155.0004        157.0004
 -23546897.60649 -18331716.58248  20204308.951    20204309.3824   20204313.6884
       215.0004        216.0004
  -7052419.90347  -5476848.32746  23596222.353    23596221.8794   23596226.1994
       161.0004        163.0004
 -20525384.51549 -15982329.37247  20764019.109    20764019.3864   20764027.0384
       199.0004        199.0004
 -14333375.08548 -11151160.28147  21820733.722    21820733.6914   21820738.6034
       192.0004        193.0004
 21  2  3  1 43  0.0000000  0 10G14G08G09G21G30G28G07G19G01G17
  -5474839.13448  -4259205.64946  22689162.619    22689164.1904   22689168.6054
       169.0004        168.0004
   -312684.75847   -200816.51846  24590170.355    24590169.1604   24590177.3114
       163.0004        164.0004
  -5217804.50349  -3712883.23947  23344072.621    23344072.9524   23344079.4594
       198.0004        198.0004
 -10340031.44548  -7739966.77246  22875194.906    22875194.6664   22875198.4194
       165.0004        166.0004
 -18791855.05049 -14623901.50947  20950651.834    20950652.2454   20950658.9804
       207.0004        207.0004
  -2943358.62547  -2283245.27745  23262089.995    23262089.9924   23262094.0384
       155.0004        157.0004
 -23554620.70949 -18337734.58148  20202839.122    20202839.5114   20202843.6874
       215.0004        216.0004
  -7123333.42047  -5532105.59346  23582728.593    23582727.3544   23582732.9044
       163.0004        165.0004
 -20515890.03249 -15974931.07347  20765825.469    20765826.3384   20765834.0564
       199.0004        199.0004
 -14362299.44848 -11173698.73647  21815229.634    21815230.1344   21815233.9554
       193.0004        193.0004
 21  2  3  1 43 30.0000000  0 10G14G08G09G21G30G28G07G19G01G17
  -5506999.80248  -4284265.90446  22683044.289    22683044.2954   22683049.4334
       168.0004        168.0004
   -222915.84547   -130866.74346  24607253.632    24607253.2834   24607260.9964
       164.0004        165.0004
  -5137848.13849  -3650579.58847  23359287.176    23359287.6614   23359294.8414
       198.0004        198.0004
 -10266999.69447  -7683058.91346  22889092.157    22889091.9414   22889095.7464
       164.0004        166.0004
 -18851752.25649 -14670574.65447  20939254.035    20939254.1584   20939261.2014
       207.0004        208.0004
  -2966459.04947  -2301245.61145  23257694.804    23257695.3974   23257700.0644
       157.0004        160.0004
 -23561786.73149 -18343318.51548  20201475.789    20201476.3884   20201480.5274
       215.0004        217.0004
  -7193941.82247  -5587125.12346  23569291.998    23569291.9094   23569295.4314
       164.0004        165.0004
 -20505782.28549 -15967054.90147  20767748.707    20767749.5174   20767757.4704
       199.0004        199.0004
 -14390820.78448 -11195923.15247  21809801.924    21809802.2894   21809806.5334
       193.0004        193.0004
 21  2  3  1 44  0.0000000  0 10G14G08G09G21G30G28G07G19G01G17
  -5539236.54948  -4309385.42846  22676908.493    22676909.5534   22676914.8034
       169.0004        171.0004
   -133276.23247    -61017.71346  24624308.298    24624308.9494   24624318.9874
       161.0004        163.0004
  -5057922.81649  -3588300.15347  23374496.816    23374497.2084   23374504.3194
       198.0004        198.0004
 -10193596.17947  -7625861.35946  22903060.092    22903059.5524   22903064.0564
       164.0004        164.0004
 -18911263.09549 -14716946.76147  20927929.892    20927930.0434   20927936.9044
       208.0004        208.0004
  -2989682.43447  -2319341.75945  23253276.069    23253275.6124   23253280.8194
       158.0004        160.0004
 -23568394.15949 -18348467.18848  20200218.211    20200218.7784   20200223.0014
       215.0004        216.0004
  -7264243.76447  -5641905.81646  23555914.688    23555913.3644   23555917.3424
       163.0004        165.0004
 -20495060.65049 -15958700.38047  20769789.637    20769790.2634   20769797.2394
       198.0004        199.0004
 -14418939.56248 -11217833.88147  21804450.623    21804451.2074   21804456.1034
       192.0004        192.0004
 21  2  3  1 44 30.0000000  0 10G14G08G09G21G30G28G07G19G01G17
  -5571549.80148  -4334564.55246  22670759.519    22670761.0994   22670765.6364
       170.0004        171.0004
    -43768.15147      8728.80246  24641340.322    24641341.0764   24641351.0524
       162.0004        164.0004
  -4978031.60649  -3526047.26547  23389699.564    23389699.8694   23389706.5284
       198.0004        197.0004
 -10119823.58547  -7568376.21746  22917098.986    22917098.3944   22917102.7714
       164.0004        167.0004
 -18970385.46849 -14763016.14947  20916679.012    20916679.2324   20916686.1114
       208.0004        208.0004
  -3013029.82147  -2337534.50345  23248832.721    23248833.5194   23248836.7644
       157.0004        158.0004
 -23574441.95749 -18353179.77148  20199067.657    20199068.0814   20199072.0054
       215.0004        216.0004
  -7334238.99047  -5696447.52546  23542594.259    23542594.1194   23542598.6334
       163.0004        163.0004
 -20483725.35549 -15949867.66547  20771946.065    20771947.0284   20771954.4334
       198.0004        198.0004
 -14446656.83548 -11239431.73447  21799176.282    21799176.3594   21799181.0944
       191.0004        190.0004
 21  2  3  1 45  0.0000000  0 10G14G08G09G21G30G28G07G19G01G17
  -5603938.65848  -4359802.63646  22664598.506    22664598.1014   22664603.1504
       172.0004        174.0004
     45607.80047     78372.40246  24658347.835    24658348.8124   24658359.4304
       164.0004        165.0004
  -4898176.25549  -3463822.34147  23404895.669    23404896.0064   23404901.7364
       197.0004        196.0004
 -10045682.58547  -7510604.01446  22931207.177    22931207.6424   22931211.6804
       164.0004        166.0004
 -19029115.95549 -14808780.16847  20905503.325    20905503.2104   20905510.1734
       208.0004        208.0004
  -3036500.59147  -2355823.42345  23244366.395    23244366.2814   23244370.5564
       157.0004        159.0004
 -23579928.31349 -18357454.84548  20198023.283    20198023.7584   20198028.2364
       215.0004        216.0004
  -7403925.91047  -5750749.00246  23529333.449    23529332.7714   23529336.3434
       162.0004        163.0004
 -20471775.39849 -15940555.99147  20774219.992    20774220.5724   20774228.3194
       198.0004        198.0004
 -14473972.46848 -11260716.63547  21793978.454    21793978.6954   21793983.2324
       191.0004        191.0004
 21  2  3  1 45 30.0000000  0 10G14G08G09G21G30G28G07G19G01G17
  -5636404.33648  -4385100.56546  22658418.817    22658419.9174   22658424.2144
       174.0004        176.0004
    134849.08648    147911.03846  24675333.381    24675333.6164   24675340.2204
       165.0004        168.0004
  -4818360.58249  -3401628.29747  23420084.351    23420084.6084   23420091.1914
       196.0004        196.0004
  -9971176.92548  -7452547.66446  22945385.891    22945385.4484   22945389.5884
       165.0004        166.0004
 -19087453.21549 -14854237.79547  20894402.090    20894402.4154   20894408.9294
       208.0004        208.0004
  -3060096.68247  -2374209.98445  23239876.927    23239876.9994   23239880.8824
       158.0004        160.0004
 -23584853.31749 -18361292.50348  20197086.180    20197086.5584   20197091.2944
       215.0004        216.0004
  -7473305.10347  -5804810.69545  23516131.082    23516130.6124   23516132.7134
       159.0004        160.0004
 -20459211.76049 -15930766.14747  20776610.609    20776611.4964   20776619.5694
       198.0004        199.0004
 -14500888.69148 -11281690.29947  21788856.321    21788856.9984   21788861.5634
       192.0004        193.0004
 21  2  3  1 46  0.0000000  0 10G14G08G09G21G30G28G07G19G01G17
  -5668946.64848  -4410458.18146  22652226.961    22652227.1134   22652231.2814
       175.0004        175.0004
    223954.93448    217344.15146  24692289.269    24692288.4554   24692296.0204
       167.0004        168.0004
  -4738587.16849  -3339467.22547  23435264.293    23435264.2264   23435271.7844
       195.0004        194.0004
  -9896308.03047  -7394208.26946  22959631.962    22959632.0094   22959636.8704
       164.0004        167.0004
 -19145394.65249 -14899386.97547  20883376.262    20883376.1774   20883383.0894
       208.0004        208.0004
  -3083818.52447  -2392694.53245  23235362.065    23235362.0224   23235366.7164
       158.0004        160.0004
 -23589216.00249 -18364692.01848  20196255.937    20196256.5474   20196260.3904
       215.0004        216.0004
  -7542375.49947  -5858631.76246  23502986.934    23502986.6764   23502991.2954
       161.0004        166.0004
 -20446034.29549 -15920497.98447  20779119.170    20779119.5394   20779126.9764
       199.0004        199.0004
 -14527405.45448 -11302352.72047  21783810.583    21783810.7724   21783815.6364
       192.0004        193.0004
 21  2  3  1 46 30.0000000  0 10G14G08G09G21G30G28G07G19G01G17
  -5701565.34648  -4435875.32346  22646019.455    22646019.9314   22646024.7284
       175.0004        175.0004
    312923.76647    286670.49146  24709217.932    24709218.0314   24709226.6644
       164.0004        165.0004
  -4658858.32949  -3277340.91647  23450435.265    23450436.2104   23450444.0554
       195.0004        196.0004
  -9821078.05548  -7335587.50546  22973948.861    22973948.1024   22973953.4714
       166.0004        168.0004
 -19202937.60349 -14944225.65347  20872425.862    20872426.0894   20872432.9664
       208.0004        208.0004
  -3107666.25847  -2411277.19045  23230826.010    23230825.7974   23230829.5104
       160.0004        162.0004
 -23593014.88349 -18367652.22348  20195533.189    20195533.6054   20195537.8914
       215.0004        216.0004
  -7611136.43847  -5912211.68046  23489902.344    23489900.8914   23489905.5224
       163.0004        165.0004
 -20432242.76549 -15909751.32847  20781743.109    20781743.5974   20781751.2304
       198.0004        198.0004
 -14553524.49248 -11322705.22247  21778840.965    21778840.9044   21778845.2424
       193.0004        194.0004
 21  2  3  1 47  0.0000000  0 10G14G08G09G21G30G28G07G19G01G17
  -5734260.18448  -4461351.77946  22639797.640    22639797.9944   22639802.9794
       174.0004        175.0004
    401754.61347    355889.33845  24726120.448    24726120.7624   24726128.4884
       161.0004        161.0004
  -4579176.46049  -3215251.17547  23465600.624    23465600.0544   23465607.6574
       198.0004        199.0004
  -9745488.97748  -7276686.92846  22988331.527    22988331.9344   22988337.3704
       166.0004        167.0004
 -19260079.32049 -14988751.67847  20861551.696    20861552.1234   20861559.6254
       208.0004        208.0004
  -3131639.86647  -2429957.91345  23226261.640    23226261.7024   23226267.3214
       159.0004        160.0004
 -23596248.41249 -18370171.90148  20194918.168    20194918.4294   20194923.0014
       215.0004        216.0004
  -7679586.92047  -5965549.70046  23476876.747    23476876.3084   23476879.5214
       163.0004        164.0004
 -20417836.83049 -15898525.92447  20784484.337    20784485.1224   20784492.9944
       198.0004        198.0004
 -14579246.01048 -11342747.95947  21773945.539    21773946.1594   21773950.9384
       194.0004        194.0004
 21  2  3  1 47 30.0000000  0 10G14G08G09G21G30G28G07G19G01G17
  -5767030.65648  -4486887.18446  22633561.553    22633562.2494   22633566.5694
       174.0004        174.0004
    490446.73447    425000.01245  24743002.475    24743000.9014   24743007.2544
       160.0004        161.0004
  -4499543.62949  -3153199.61347  23480752.809    23480753.3804   23480760.8184
       199.0004        198.0004
  -9669542.86248  -7217508.14046  23002784.130    23002784.3924   23002790.0294
       166.0004        167.0004
 -19316816.86249 -15032962.74847  20850755.689    20850755.5864   20850762.4064
       208.0004        208.0004
  -3155739.63247  -2448736.96145  23221676.910    23221676.8614   23221680.6054
       159.0004        161.0004
 -23598915.38149 -18372250.08448  20194409.871    20194410.6794   20194414.9974
       215.0004        216.0004
  -7747725.79347  -6018644.87946  23463911.056    23463909.8514   23463913.2254
       163.0004        164.0004
 -20402816.04949 -15886821.40447  20787342.106    20787343.0094   20787350.8834
       198.0004        198.0004
 -14604570.17148 -11362481.05647  21769126.398    21769126.8034   21769131.8344
       194.0004        195.0004
 21  2  3  1 48  0.0000000  0  9G14G09G21G30G28G07G19G01G17
  -5799875.96948  -4512480.92146  22627310.198    22627311.8004   22627316.5554
       174.0004        175.0004
  -4419961.68149  -3091187.69747  23495895.527    23495896.7674   23495904.3914
       196.0004        194.0004
  -9593240.74948  -7158051.95846  23017305.018    23017304.7124   23017309.7874
       167.0004        168.0004
 -19373146.99949 -15076856.35747  20840036.234    20840036.1284   20840043.0294
       208.0004        208.0004
  -3179965.48147  -2467614.23545  23217066.069    23217066.2544   23217070.2944
       159.0004        161.0004
 -23601014.03049 -18373885.42348  20194011.476    20194011.7684   20194015.6294
       215.0004        216.0004
  -7815551.72947  -6071496.25746  23451004.185    23451003.5404   23451007.6514
       163.0004        166.0004
 -20387179.68549 -15874637.21647  20790317.872    20790318.9764   20790326.9364
       198.0004        199.0004
 -14629497.17648 -11381904.67647  21764382.577    21764383.4204   21764388.0114
       193.0004        194.0004
 21  2  3  1 48 30.0000000  0  9G14G09G21G30G28G07G19G01G17
  -5832796.17548  -4538133.05546  22621047.657    22621047.9664   22621051.6054
       175.0004        176.0004
  -4340433.40748  -3029217.61847  23511030.426    23511030.4824   23511037.6894
       193.0004        192.0004
  -9516585.18048  -7098320.33946  23031890.548    23031890.7494   23031896.7394
       167.0004        166.0004
 -19429067.50949 -15120430.79247  20829394.950    20829394.9854   20829401.8934
       208.0004        208.0004
  -3204317.93047  -2486590.18245  23212432.896    23212432.7394   23212434.9354
       160.0004        162.0004
 -23602543.39149 -18375077.16548  20193720.113    20193720.5524   20193725.0534
       215.0004        216.0004
  -7883064.43247  -6124103.52046  23438155.909    23438155.2674   23438159.4124
       164.0004        165.0004
 -20370928.05149 -15861973.60647  20793410.671    20793411.6394   20793419.3304
       198.0004        198.0004
 -14654028.15048 -11401019.70947  21759715.442    21759715.2724   21759719.5624
       193.0004        193.0004
 21  2  3  1 49  0.0000000  0  9G14G09G21G30G28G07G19G01G17
  -5865792.98048  -4563844.83046  22614767.316    22614768.4464   22614773.1604
       176.0004        177.0004
  -4260963.23048  -2967292.83647  23526153.667    23526153.8534   23526160.9574
       192.0004        193.0004
  -9439579.37848  -7038315.83746  23046544.753    23046544.9334   23046550.7124
       166.0004        167.0004
 -19484577.74849 -15163685.52847  20818831.601    20818831.8274   20818838.7964
       208.0004        208.0004
  -3228799.11147  -2505666.42145  23207773.734    23207773.8564   23207777.7184
       159.0004        160.0004
 -23603504.38649 -18375826.00348  20193537.572    20193537.7234   20193542.2894
       215.0004        216.0004
  -7950265.03147  -6176467.59446  23425368.419    23425367.3384   23425371.5894
       163.0004        164.0004
 -20354062.95149 -15848831.96147  20796620.661    20796620.6734   20796628.4114
       198.0004        198.0004
 -14678165.89648 -11419828.33947  21755121.759    21755122.2314   21755126.6324
       194.0004        194.0004
 21  2  3  1 49 30.0000000  0  9G14G09G21G30G28G07G19G01G17
  -5898865.62148  -4589615.70246  22608474.802    22608474.7554   22608480.5914
       177.0004        177.0004
  -4181553.01448  -2905414.76247  23541264.278    23541264.6374   23541272.0514
       193.0004        193.0004
  -9362225.31448  -6978039.95046  23061266.264    23061265.7924   23061270.1394
       166.0004        167.0004
 -19539674.60249 -15206618.14047  20808346.633    20808346.9284   20808354.0124
       208.0004        208.0004
  -3253408.95447  -2524842.89345  23203089.970    23203089.9244   23203094.6924
       158.0004        159.0004
 -23603895.70249 -18376130.94348  20193462.593    20193463.0994   20193467.7854
       215.0004        216.0004
  -8017152.25047  -6228587.47746  23412639.915    23412638.9304   23412643.7664
       162.0004        163.0004
 -20336583.90249 -15835211.91147  20799945.850    20799946.9094   20799955.0814
       198.0004        198.0004
 -14701910.63048 -11438330.72547  21750603.431    21750603.2524   21750608.2964
       194.0004        195.0004
 21  2  3  1 50  0.0000000  0  9G14G09G21G30G28G07G19G01G17
  -5932015.07048  -4615446.42646  22602165.714    22602166.0644   22602171.2354
       175.0004        174.0004
  -4102206.33248  -2843586.18847  23556363.352    23556363.3284   23556371.4824
       192.0004        192.0004
  -9284526.36048  -6917495.31046  23076052.756    23076050.9044   23076056.3224
       166.0004        167.0004
 -19594356.72249 -15249227.59447  20797940.728    20797941.0504   20797948.5834
       208.0004        208.0004
  -3278148.88647  -2544120.78645  23198382.174    23198381.6654   23198387.4924
       158.0004        161.0004
 -23603717.30649 -18375991.95048  20193496.684    20193497.1194   20193501.6034
       215.0004        216.0004
  -8083726.28247  -6280463.35245  23399971.067    23399970.3094   23399974.5664
       161.0004        162.0004
 -20318492.06749 -15821114.37547  20803389.538    20803390.0024   20803397.7334
       198.0004        199.0004
 -14725264.28848 -11456528.38747  21746159.093    21746159.4554   21746164.4554
       194.0004        194.0004
 21  2  3  1 50 30.0000000  0  9G14G09G21G30G28G07G19G01G17
  -5965240.02448  -4641336.00946  22595843.930    22595844.7844   22595848.0664
       173.0004        173.0004
  -4022924.54748  -2781808.18747  23571451.117    23571450.4864   23571458.2774
       191.0004        191.0004
  -9206483.42748  -6856682.64346  23090900.956    23090902.4534   23090906.6074
       165.0004        165.0004
 -19648620.53749 -15291511.07747  20787615.293    20787615.1764   20787622.4894
       208.0004        209.0004
  -3303018.12047  -2563499.41045  23193649.737    23193649.2744   23193653.6844
       158.0004        160.0004
 -23602967.39349 -18375407.62148  20193639.252    20193639.6664   20193644.0354
       215.0004        216.0004
  -8149985.61247  -6332093.98646  23387363.831    23387363.4724   23387366.3924
       162.0004        165.0004
 -20299786.54849 -15806538.63547  20806948.638    20806949.6284   20806957.2374
       198.0004        199.0004
 -14748226.89048 -11474421.30447  21741789.836    21741789.9314   21741794.9764
       194.0004        194.0004
 21  2  3  1 51  0.0000000  0  9G14G09G21G30G28G07G19G01G17
  -5998539.88348  -4667283.94246  22589507.383    22589508.3134   22589511.4724
       174.0004        175.0004
  -3943709.76048  -2720082.38847  23586524.470    23586524.8484   23586531.8764
       191.0004        192.0004
  -9128098.26147  -6795603.29446  23105818.992    23105818.3964   23105822.0314
       164.0004        164.0004
 -19702463.17149 -15333466.37847  20777368.805    20777369.4054   20777376.3314
       208.0004        208.0004
  -3328016.71147  -2582978.82245  23188893.584    23188893.2594   23188897.5914
       158.0004        161.0004
 -23601644.22449 -18374376.59448  20193891.271    20193891.5204   20193896.2284
       215.0004        216.0004
  -8215929.38947  -6383478.71246  23374813.876    23374812.9884   23374817.8674
       162.0004        163.0004
 -20280467.01949 -15791484.45847  20810624.526    20810625.6144   20810633.1194
       198.0004        198.0004
 -14770798.66548 -11492009.69847  21737494.128    21737494.7374   21737499.3514
       194.0004        194.0004
 21  2  3  1 51 30.0000000  0  9G14G09G21G30G28G07G19G01G17
  -6031915.28748  -4693290.77346  22583155.792    22583156.0404   22583160.0164
       174.0004        174.0004
  -3864565.37848  -2658411.47147  23601585.351    23601585.7694   23601593.0354
       192.0004        193.0004
  -9049374.03747  -6734259.76446  23120798.852    23120799.1334   23120802.5614
       164.0004        166.0004
 -19755883.08149 -15375092.29247  20767204.427    20767203.8794   20767210.5424
       208.0004        208.0004
  -3353145.58947  -2602559.78646  23184111.874    23184111.7224   23184115.6244
       161.0004        163.0004
 -23599748.14549 -18372899.15148  20194252.346    20194252.8384   20194257.1664
       215.0004        216.0004
  -8281557.76847  -6434617.70645  23362324.050    23362323.4884   23362328.4904
       160.0004        160.0004
 -20260534.59249 -15775952.69547  20814418.208    20814418.9774   20814426.3794
       198.0004        198.0004
 -14792981.58348 -11509295.09047  21733273.019    21733273.1664   21733278.2194
       194.0004        195.0004
 21  2  3  1 52  0.0000000  0  9G14G09G21G30G28G07G19G01G17
  -6065364.42048  -4719355.02446  22576790.075    22576790.8244   22576795.8724
       175.0004        175.0004
  -3785492.15648  -2596795.98747  23616632.674    23616632.5094   23616640.5914
       192.0004        191.0004
  -8970311.33247  -6672652.45146  23135845.185    23135844.9304   23135846.9354
       164.0004        165.0004
 -19808876.19049 -15416385.62647  20757119.168    20757119.1684   20757126.3964
       208.0004        208.0004
  -3378403.58147  -2622241.30845  23179303.660    23179304.1234   23179309.0684
       160.0004        161.0004
 -23597276.79849 -18370973.43948  20194722.304    20194722.7104   20194727.1924
       215.0004        216.0004
  -8346868.52947  -6485509.18745  23349898.067    23349897.0024   23349900.6444
       159.0004        162.0004
 -20239987.82649 -15759942.22247  20818327.696    20818328.9154   20818336.5384
       198.0004        198.0004
 -14814774.94648 -11526276.92847  21729126.327    21729126.3054   21729130.8394
       194.0004        195.0004
 21  2  3  1 52 30.0000000  0  9G14G09G21G30G28G07G19G01G17
  -6098888.78648  -4745477.88846  22570410.909    22570411.3074   22570416.8154
       176.0004        177.0004
  -3706494.20448  -2535239.16447  23631666.460    23631665.8624   23631673.2124
       190.0004        189.0004
  -8890914.17347  -6610784.53046  23150952.971    23150952.4554   23150955.8224
       163.0004        163.0004
 -19861441.83449 -15457345.87447  20747116.360    20747116.5254   20747123.6554
       208.0004        208.0004
  -3403792.75447  -2642025.06545  23174472.795    23174472.8134   23174478.5824
       159.0004        160.0004
 -23594230.87049 -18368599.98448  20195301.851    20195302.2724   20195306.9334
       215.0004        216.0004
  -8411862.89647  -6536154.12246  23337528.880    23337529.0064   23337532.9874
       161.0004        164.0004
 -20218828.72849 -15743454.60747  20822354.523    20822355.6244   20822362.7084
       198.0004        198.0004
 -14836181.75648 -11542957.54747  21725052.443    21725052.5714   21725057.7794
       194.0004        195.0004
 21  2  3  1 53  0.0000000  0  9G14G09G21G30G28G07G19G01G17
  -6132487.41748  -4771658.63346  22564018.136    22564018.2854   22564022.3884
       177.0004        177.0004
  -3627573.33748  -2473742.42847  23646683.284    23646683.2644   23646690.1694
       188.0004        188.0004
  -8811183.81847  -6548656.98446  23166123.445    23166124.0024   23166127.8604
       161.0004        163.0004
 -19913576.87549 -15497970.58947  20737195.237    20737195.5154   20737202.5414
       208.0004        208.0004
  -3429312.80947  -2661910.83345  23169616.337    23169616.4614   23169620.8654
       158.0004        160.0004
 -23590608.69849 -18365777.52248  20195991.510    20195991.8544   20195996.2114
       215.0004        216.0004
  -8476539.49547  -6586551.45345  23325220.812    23325219.8124   23325225.3224
       161.0004        162.0004
 -20197056.81449 -15726489.47547  20826497.570    20826498.3944   20826505.6504
       197.0004        197.0004
 -14857201.83048 -11559336.81147  21721052.191    21721052.4004   21721057.9184
       194.0004        194.0004
 21  2  3  1 53 30.0000000  0  9G14G09G21G30G28G07G19G01G17
  -6166159.13648  -4797896.31446  22557608.928    22557609.8424   22557615.2504
       177.0004        177.0004
  -3548730.94248  -2412306.80847  23661686.948    23661686.9824   23661694.2114
       189.0004        190.0004
  -8731121.29347  -6486270.60146  23181360.052    23181360.8194   23181364.7204
       161.0004        163.0004
 -19965277.92249 -15538257.13447  20727357.216    20727357.2934   20727364.1574
       208.0004        209.0004
  -3454962.92347  -2681897.94545  23164735.764    23164734.6924   23164740.2664
       158.0004        159.0004
 -23586408.79549 -18362504.87448  20196790.214    20196790.9594   20196795.1294
       215.0004        216.0004
  -8540897.09747  -6636700.19446  23312974.520    23312974.2774   23312978.2254
       161.0004        163.0004
 -20174671.47049 -15709046.35347  20830757.833    20830758.3044   20830765.6834
       197.0004        198.0004
 -14877835.64449 -11575415.10947  21717125.793    21717126.1404   21717131.1554
       195.0004        196.0004
 21  2  3  1 54  0.0000000  0  9G14G09G21G30G28G07G19G01G17
  -6199905.47648  -4824192.14346  22551188.124    22551188.6524   22551192.8144
       177.0004        177.0004
  -3469971.26448  -2350935.61247  23676675.033    23676674.6494   23676681.7434
       190.0004        190.0004
  -8650730.57447  -6423628.47346  23196659.197    23196658.3354   23196662.1364
       163.0004        165.0004
 -20016544.38749 -15578205.01747  20717601.354    20717601.6854   20717608.6404
       209.0004        209.0004
  -3480745.27447  -2701988.07045  23159829.693    23159830.1474   23159833.8834
       158.0004        160.0004
 -23581632.44449 -18358783.04148  20197699.819    20197699.9684   20197704.2144
       215.0004        216.0004
  -8604936.69847  -6686601.17145  23300788.272    23300787.3154   23300791.7194
       161.0004        162.0004
 -20151674.82149 -15691126.88047  20835133.982    20835134.3014   20835142.0104
       198.0004        198.0004
 -14898085.77249 -11591194.42247  21713272.843    21713272.3464   21713277.6694
       196.0004        195.0004
 21  2  3  1 54 30.0000000  0 10G14G09G21G30G28G07G19G01G22G17
  -6233725.64848  -4850545.53346  22544753.126    22544753.3374   22544757.5824
       178.0004        179.0004
  -3391296.28848  -2289630.47047  23691646.568    23691645.9314   23691653.0994
       189.0004        188.0004
  -8570013.50147  -6360732.05346  23212018.349    23212018.3154   23212022.6464
       163.0004        164.0004
 -20067373.45149 -15617812.07447  20707929.632    20707929.2654   20707936.3064
       209.0004        210.0004
  -3506659.53347  -2722180.99845  23154898.584    23154899.1674   23154902.4244
       159.0004        161.0004
 -23576278.35849 -18354611.02948  20198718.330    20198718.7434   20198723.0974
       215.0004        216.0004
  -8668657.30947  -6736253.60746  23288662.247    23288661.9224   23288666.3444
       161.0004        163.0004
 -20128066.75449 -15672730.97447  20839626.137    20839626.8674   20839633.9814
       197.0004        197.0004
  -3749330.41046  -2910845.40645  24788468.197    24788467.7414   24788469.2514
       133.0004        138.0004
 -14917952.76849 -11606675.18847  21709492.001    21709492.4824   21709497.2504
       195.0004        194.0004
 21  2  3  1 55  0.0000000  0 10G14G09G21G30G28G07G19G01G22G17
  -6267622.29448  -4876958.46446  22538301.649    22538302.1254   22538307.6494
       178.0004        178.0004
  -3312711.28848  -2228395.44947  23706599.974    23706599.8604   23706607.3374
       188.0004        188.0004
  -8488975.53747  -6297585.59446  23227439.058    23227438.5294   23227444.3414
       162.0004        163.0004
 -20117765.65949 -15657078.71647  20698339.486    20698340.1484   20698346.7754
       210.0004        210.0004
  -3532709.10147  -2742479.38345  23149942.033    23149941.7144   23149946.3144
       158.0004        160.0004
 -23570348.67849 -18349990.50648  20199846.989    20199847.1694   20199851.6114
       215.0004        216.0004
  -8732061.19547  -6785659.19846  23276597.665    23276596.9634   23276601.5014
       163.0004        165.0004
 -20103850.59149 -15653861.22747  20844234.670    20844234.9264   20844241.9944
       197.0004        197.0004
  -3771844.48346  -2928388.85545  24784182.654    24784180.5594   24784185.8024
       132.0004        139.0004
 -14937440.58148 -11621860.49547  21705783.518    21705783.9744   21705788.3344
       194.0004        194.0004
 21  2  3  1 55 30.0000000  0 10G14G09G21G30G28G07G19G01G22G17
  -6301590.30248  -4903427.06046  22531838.500    22531839.3924   22531843.2684
       178.0004        179.0004
  -3234213.88148  -2167228.64446  23721535.166    23721536.2364   23721545.4094
       187.0004        187.0004
  -8407613.92847  -6234186.95746  23242921.083    23242921.2274   23242926.9124
       162.0004        164.0004
 -20167713.82149 -15695999.36347  20688834.909    20688835.2344   20688842.0854
       210.0004        210.0004
  -3558889.15047  -2762879.40845  23144959.733    23144959.5114   23144964.0404
       159.0004        160.0004
 -23563838.09349 -18344917.32248  20201085.403    20201085.9824   20201090.4294
       215.0004        216.0004
  -8795143.35347  -6834814.11246  23264593.179    23264592.0794   23264596.3034
       163.0004        163.0004
 -20079021.95749 -15634514.22847  20848958.718    20848959.4334   20848966.4634
       197.0004        197.0004
  -3794262.84946  -2945857.70745  24779913.553    24779914.0114   24779918.3374
       133.0004        139.0004
 -14956545.48048 -11636747.43247  21702147.674    21702147.9544   21702152.9244
       194.0004        194.0004
 21  2  3  1 56  0.0000000  0 10G14G09G21G30G28G07G19G01G22G17
  -6335629.83748  -4929951.37446  22525360.938    22525360.9974   22525366.6514
       178.0004        178.0004
  -3155806.82148  -2106132.27146  23736457.314    23736457.4014   23736464.4204
       187.0004        187.0004
  -8325931.06447  -6170537.96746  23258465.743    23258465.1894   23258471.4634
       163.0004        166.0004
 -20217216.12249 -15734572.57647  20679414.915    20679415.0194   20679422.0304
       210.0004        210.0004
  -3585200.50947  -2783381.77845  23139952.495    23139952.7064   23139956.8904
       160.0004        162.0004
 -23556745.98749 -18339391.00848  20202435.561    20202435.9584   20202439.9284
       215.0004        216.0004
  -8857903.82447  -6883718.35046  23252650.059    23252650.1404   23252653.8164
       163.0004        165.0004
 -20053581.72649 -15614690.66747  20853800.156    20853800.7444   20853808.2894
       197.0004        198.0004
  -3816583.59346  -2963250.45545  24775667.666    24775667.3334   24775670.2424
       134.0004        140.0004
 -14975269.15148 -11651337.30247  21698584.715    21698585.1954   21698590.0564
       194.0004        194.0004
 21  2  3  1 56 30.0000000  0 10G14G09G21G30G28G07G19G01G22G17
  -6369741.58648  -4956531.92246  22518869.235    22518870.3364   22518875.1434
       177.0004        178.0004
  -3077493.46748  -2045108.90547  23751360.113    23751360.4694   23751367.8124
       187.0004        188.0004
  -8243930.35847  -6106641.32046  23274070.307    23274069.8574   23274074.8024
       164.0004        165.0004
 -20266271.23049 -15772797.32247  20670080.462    20670080.3694   20670087.1904
       210.0004        211.0004
  -3611644.48447  -2803987.46845  23134920.224    23134920.6214   23134924.7774
       159.0004        160.0004
 -23549073.08049 -18333412.11448  20203895.435    20203895.7734   20203899.9904
       215.0004        216.0004
  -8920343.09847  -6932372.34546  23240768.068    23240767.5614   23240771.5034
       164.0004        165.0004
 -20027531.42249 -15594391.72547  20858757.487    20858757.9424   20858764.6104
       197.0004        197.0004
  -3838805.26546  -2980566.04545  24771440.592    24771440.9304   24771442.3484
       134.0004        140.0004
 -14993613.57848 -11665631.64847  21695094.101    21695094.2384   21695098.9474
       194.0004        194.0004
 21  2  3  1 57  0.0000000  0 10G14G09G21G30G28G07G19G01G22G17
  -6403926.14648  -4983169.23646  22512364.274    22512365.1034   22512369.6354
       178.0004        176.0004
  -2999277.23348  -1984161.19346  23766245.296    23766244.5644   23766251.6214
       187.0004        187.0004
  -8161615.15847  -6042499.61346  23289732.725    23289733.1664   23289738.8224
       162.0004        163.0004
 -20314877.76849 -15810672.54547  20660831.055    20660831.1894   20660837.8734
       211.0004        212.0004
  -3638221.99447  -2824697.19945  23129862.458    23129862.5084   23129867.2704
       158.0004        160.0004
 -23540819.78249 -18326980.96548  20205465.503    20205466.1734   20205470.5014
       215.0004        215.0004
  -8982461.61648  -6980776.38246  23228949.179    23228948.0984   23228951.1914
       166.0004        168.0004
 -20000872.54949 -15573618.56947  20863830.662    20863831.0394   20863838.2844
       197.0004        197.0004
  -3860926.69046  -2997803.51945  24767228.131    24767228.9204   24767232.4184
       134.0004        138.0004
 -15011581.02249 -11679632.25147  21691675.242    21691675.6024   21691680.0404
       195.0004        196.0004
 21  2  3  1 57 30.0000000  0 10G14G09G21G30G28G07G19G01G22G17
  -6438182.51748  -5009862.50646  22505845.796    22505846.1814   22505851.2144
       178.0004        179.0004
  -2921159.65848  -1923290.36046  23781108.866    23781109.3564   23781117.3194
       186.0004        187.0004
  -8078986.75447  -5978113.86145  23305457.217    23305457.7304   23305462.5174
       161.0004        162.0004
 -20363032.74449 -15848195.89647  20651667.266    20651667.4804   20651674.4574
       212.0004        212.0004
  -3664932.81347  -2845510.81945  23124780.736    23124780.9164   23124784.3874
       159.0004        161.0004
 -23531984.78149 -18320096.54748  20207147.621    20207147.7584   20207151.6144
       215.0004        216.0004
  -9044258.24547  -7028929.55946  23217187.236    23217186.8104   23217190.9204
       164.0004        163.0004
 -19973604.90449 -15552371.03847  20869019.417    20869019.9124   20869027.4994
       197.0004        197.0004
  -3882944.57746  -3014960.32045  24763038.624    24763038.0964   24763041.8554
       131.0004        138.0004
 -15029171.73349 -11693339.28847  21688328.316    21688328.5224   21688331.8994
       195.0004        195.0004
 21  2  3  1 58  0.0000000  0 10G14G09G21G30G28G07G19G01G22G17
  -6472509.47948  -5036610.78846  22499313.746    22499313.6924   22499318.8004
       179.0004        180.0004
  -2843142.30948  -1862497.63547  23795956.013    23795956.1634   23795963.4764
       188.0004        190.0004
  -7996047.17847  -5913485.62345  23321242.438    23321241.6324   23321245.9754
       161.0004        162.0004
 -20410733.08149 -15885364.99247  20642590.540    20642590.3314   20642597.4254
       212.0004        212.0004
  -3691776.12147  -2866427.70645  23119672.123    23119672.1314   23119676.7394
       160.0004        162.0004
 -23522566.84149 -18312757.89048  20208939.371    20208939.6844   20208943.8454
       215.0004        215.0004
  -9105731.78547  -7076831.01946  23205489.646    23205489.4154   23205493.8994
       163.0004        165.0004
 -19945728.26049 -15530648.96847  20874323.914    20874324.3164   20874332.1184
       197.0004        197.0004
  -3904855.72246  -3032033.91945  24758872.094    24758871.5164   24758871.5434
       133.0004        139.0004
 -15046386.24949 -11706753.19247  21685051.704    21685052.1874   21685056.1764
       195.0004        194.0004
 21  2  3  1 58 30.0000000  0 10G14G09G21G30G28G07G19G01G22G17
  -6506908.87148  -5063415.49646  22492766.625    22492768.2814   22492772.4804
       177.0004        176.0004
  -2765229.72448  -1801786.55247  23810783.333    23810783.5944   23810789.5634
       190.0004        191.0004
  -7912800.17847  -5848617.85845  23337082.258    23337081.6874   23337086.8404
       160.0004        161.0004
 -20457978.69049 -15922179.76847  20633599.094    20633599.5324   20633606.6244
       212.0004        212.0004
  -3718754.18947  -2887449.58145  23114538.459    23114539.1854   23114542.0974
       160.0004        162.0004
 -23512567.65749 -18304966.33548  20210842.610    20210842.8974   20210846.6564
       215.0004        215.0004
  -9166884.03848  -7124482.11546  23193854.381    23193852.8114   23193856.9234
       165.0004        167.0004
 -19917245.44349 -15508454.56547  20879743.717    20879744.7984   20879752.3264
       197.0004        197.0004
  -3926660.05547  -3049024.30445  24754721.487    24754720.1974   24754724.5924
       137.0004        143.0004
 -15063227.78648 -11719876.47347  21681846.469    21681846.9994   21681851.2874
       194.0004        194.0004
 21  2  3  1 59  0.0000000  0 10G14G09G21G30G28G07G19G01G22G17
  -6541379.56448  -5090275.76846  22486208.260    22486209.6514   22486212.6804
       177.0004        177.0004
  -2687423.52948  -1741158.37947  23825586.656    23825587.6984   23825595.8354
       190.0004        190.0004
  -7829247.57847  -5783511.93345  23352981.667    23352981.1174   23352986.3994
       160.0004        160.0004
 -20504766.56149 -15958637.87147  20624696.015    20624696.3014   20624702.8634
       212.0004        212.0004
  -3745866.83247  -2908576.33845  23109378.241    23109378.5634   23109382.1004
       159.0004        159.0004
 -23501986.22149 -18296721.06348  20212855.680    20212856.1974   20212860.1674
       214.0004        215.0004
  -9227713.84148  -7171881.94546  23182277.489    23182276.8204   23182281.1034
       165.0004        166.0004
 -19888156.28349 -15485787.67847  20885279.622    20885280.6004   20885287.6864
       197.0004        197.0004
  -3948354.52747  -3065929.06945  24750593.857    24750592.4484   24750594.9504
       140.0004        145.0004
 -15079696.85648 -11732709.50847  21678713.079    21678713.6144   21678717.4664
       194.0004        195.0004
 21  2  3  1 59 30.0000000  0 10G14G09G21G30G28G07G19G01G22G17
  -6575920.26348  -5117190.58046  22479633.562    22479634.7594   22479639.6624
       176.0004        175.0004
  -2609725.01248  -1680614.09447  23840372.260    23840372.7844   23840382.0794
       189.0004        190.0004
  -7745391.03247  -5718169.17845  23368938.159    23368938.3304   23368943.1214
       159.0004        161.0004
 -20551093.54549 -15994736.82147  20615880.361    20615880.2994   20615887.1624
       211.0004        212.0004
  -3773113.03347  -2929807.11945  23104193.463    23104194.0564   23104198.2484
       157.0004        160.0004
 -23490821.02949 -18288020.91648  20214980.356    20214980.9724   20214984.8884
       214.0004        215.0004
  -9288219.77448  -7219029.40146  23170763.727    23170763.0044   23170767.5704
       165.0004        166.0004
 -19858460.59149 -15462648.16247  20890930.601    20890930.7324   20890938.5804
       197.0004        197.0004
  -3969935.97647  -3082745.76745  24746487.319    24746486.1724   24746489.5654
       139.0004        144.0004
 -15095793.58849 -11745252.40447  21675650.082    21675650.3034   21675654.7574
       195.0004        195.0004
 21  2  3  2  0  0.0000000  0 10G14G09G21G30G28G07G19G01G22G17
  -6610530.67148  -5144159.71946  22473049.322    22473050.0694   22473054.1094
       177.0004        178.0004
  -2532136.55548  -1620155.60147  23855137.891    23855138.7214   23855145.7094
       191.0004        192.0004
  -7661232.44047  -5652591.06345  23384953.596    23384953.0184   23384955.9004
       158.0004        158.0004
 -20596957.50349 -16030474.96947  20607153.035    20607153.0734   20607159.6474
       212.0004        212.0004
  -3800492.93447  -2951142.08945  23098984.349    23098983.5564   23098988.0244
       159.0004        162.0004
 -23479071.49449 -18278865.43248  20217216.377    20217216.8204   20217221.0534
       214.0004        215.0004
  -9348401.96348  -7265924.59746  23159311.751    23159311.2924   23159314.7954
       166.0004        167.0004
 -19828159.13349 -15439036.62347  20896696.546    20896696.9034   20896704.7974
       197.0004        197.0004
  -3991401.96947  -3099472.48745  24742401.108    24742399.5904   24742405.8154
       138.0004        143.0004
 -15111518.93149 -11757505.90747  21672657.441    21672658.0034   21672662.1914
       195.0004        196.0004
 21  2  3  2  0 30.0000000  0 10G14G09G21G30G28G07G19G01G22G17
  -6645210.70548  -5171183.13446  22466448.071    22466448.9134   22466454.5084
       177.0004        176.0004
  -2454660.79248  -1559784.89647  23869881.159    23869881.5634   23869889.0274
       190.0004        190.0004
  -7576774.51047  -5586779.67245  23401023.968    23401023.8154   23401028.9754
       156.0004        157.0004
 -20642356.54749 -16065850.86047  20598513.998    20598513.7764   20598520.6534
       212.0004        212.0004
  -3828006.99247  -2972581.60945  23093747.770    23093748.5154   23093751.7814
       160.0004        162.0004
 -23466737.65949 -18269254.66748  20219563.728    20219564.0964   20219567.7484
       214.0004        215.0004
  -9408260.01948  -7312567.22446  23147919.820    23147919.4664   23147923.8274
       165.0004        167.0004
 -19797252.93349 -15414953.86147  20902577.965    20902578.5324   20902586.3754
       197.0004        197.0004
  -4012750.60947  -3116107.77345  24738337.073    24738338.0064   24738343.1594
       137.0004        142.0004
 -15126875.27949 -11769471.88947  21669735.323    21669735.6144   21669740.2034
       196.0004        197.0004
 21  2  3  2  1  0.0000000  0 10G14G09G21G30G28G07G19G01G22G17
  -6679959.20348  -5198259.88846  22459837.046    22459837.6554   22459842.2784
       177.0004        178.0004
  -2377299.25048  -1499503.18947  23884603.403    23884603.1314   23884610.5644
       188.0004        188.0004
  -7492018.91147  -5520736.35245  23417153.291    23417152.9164   23417157.7744
       155.0004        157.0004
 -20687287.77549 -16100862.21348  20589963.324    20589963.5364   20589970.2334
       212.0004        213.0004
  -3855654.77947  -2994125.35446  23088487.436    23088487.0134   23088491.4584
       161.0004        163.0004
 -23453818.78049 -18259188.02348  20222021.840    20222022.2934   20222026.2434
       214.0004        215.0004
  -9467793.32248  -7358956.81146  23136592.980    23136592.3524   23136594.9414
       168.0004        170.0004
 -19765742.08849 -15390399.95547  20908573.783    20908574.6564   20908582.2924
       197.0004        197.0004
  -4033978.60347  -3132649.05345  24734298.954    24734297.7794   24734302.4674
       139.0004        144.0004
 -15141862.73049 -11781150.40947  21666883.072    21666883.7204   21666888.5844
       197.0004        198.0004
 21  2  3  2  1 30.0000000  0 10G14G09G21G30G28G07G19G01G22G17
  -6714777.30648  -5225390.87146  22453211.630    22453212.2644   22453216.9414
       178.0004        177.0004
  -2300055.85448  -1439313.51447  23899302.421    23899302.1674   23899308.5464
       188.0004        188.0004
  -7406969.49447  -5454464.07445  23433338.306    23433337.7844   23433342.0074
       155.0004        158.0004
 -20731750.57349 -16135508.54948  20581502.815    20581502.9434   20581509.2164
       213.0004        213.0004
  -3883437.89747  -3015774.50546  23083200.392    23083200.6884   23083205.3124
       161.0004        163.0004
 -23440315.93149 -18248666.33048  20224591.218    20224591.5864   20224595.8164
       214.0004        215.0004
  -9527002.92148  -7405094.12846  23125324.828    23125324.3994   23125327.9984
       170.0004        172.0004
 -19733628.93349 -15365376.70647  20914685.241    20914685.9314   20914692.8144
       196.0004        196.0004
  -4055085.13447  -3149095.68445  24730283.638    24730283.1214   24730286.9164
       142.0004        147.0004
 -15156484.13349 -11792543.70747  21664101.275    21664101.3084   21664106.1194
       197.0004        196.0004
 21  2  3  2  2  0.0000000  0 10G14G09G21G30G28G07G19G01G22G17
  -6749665.10648  -5252576.17446  22446571.700    22446572.6004   22446578.0424
       177.0004        176.0004
  -2222933.37748  -1379218.10247  23913979.145    23913978.6884   23913984.8694
       188.0004        188.0004
  -7321629.58947  -5387965.45045  23449577.030    23449577.1814   23449581.2914
       156.0004        159.0004
 -20775743.30949 -16169788.61248  20573131.257    20573131.1864   20573137.9284
       213.0004        213.0004
  -3911356.98247  -3037529.62445  23077886.865    23077886.1284   23077891.3264
       160.0004        161.0004
 -23426229.49049 -18237689.91248  20227271.961    20227272.2964   20227276.4484
       214.0004        215.0004
  -9585888.93248  -7450979.33446  23114118.789    23114118.2674   23114123.2794
       171.0004        172.0004
 -19700914.80949 -15339885.17647  20920910.261    20920910.7974   20920918.4144
       196.0004        196.0004
  -4076068.59847  -3165446.40845  24726292.641    24726290.0104   24726293.0194
       142.0004        146.0004
 -15170741.08749 -11803653.02147  21661387.706    21661388.1204   21661392.6764
       196.0004        195.0004
 21  2  3  2  2 30.0000000  0 10G14G09G21G30G28G07G19G01G22G17
  -6784620.79348  -5279814.38246  22439919.764    22439920.8194   22439925.1284
       176.0004        175.0004
  -2145932.68748  -1319217.59346  23928630.124    23928630.2424   23928638.0914
       187.0004        187.0004
  -7235999.58447  -5321240.78345  23465870.923    23465871.7824   23465877.6424
       157.0004        159.0004
 -20819262.52749 -16203699.68548  20564849.432    20564849.8294   20564856.4094
       213.0004        213.0004
  -3939410.94047  -3059389.83145  23072549.153    23072548.3594   23072552.3704
       159.0004        162.0004
 -23411557.65449 -18226257.33548  20230063.895    20230064.0054   20230068.4534
       214.0004        215.0004
  -9644449.84148  -7496611.20946  23102975.338    23102975.0704   23102978.2534
       171.0004        171.0004
 -19667599.20749 -15313924.96547  20927249.336    20927250.6144   20927258.3224
       196.0004        196.0004
  -4096925.40347  -3181698.44245  24722321.244    24722319.8294   24722325.1484
       140.0004        144.0004
 -15184633.82549 -11814478.52247  21658743.648    21658744.3194   21658748.9234
       195.0004        195.0004
 21  2  3  2  3  0.0000000  0 10G14G09G21G30G28G07G19G01G22G17
  -6819643.74148  -5307104.97746  22433254.768    22433255.3904   22433261.1264
       175.0004        175.0004
  -2069055.85748  -1259313.57146  23943259.040    23943259.9054   23943267.0094
       186.0004        185.0004
  -7150081.66547  -5254291.78145  23482222.388    23482222.1734   23482227.9934
       158.0004        160.0004
 -20862305.85649 -16237239.93648  20556658.975    20556658.8744   20556665.4474
       213.0004        213.0004
  -3967599.53847  -3081354.98645  23067185.144    23067185.2464   23067188.5654
       159.0004        161.0004
 -23396300.17749 -18214368.41148  20232967.072    20232967.5984   20232971.9634
       214.0004        215.0004
  -9702685.09648  -7541989.30746  23091893.744    23091892.9214   23091897.4314
       171.0004        172.0004
 -19633682.77549 -15287496.57047  20933703.607    20933704.5924   20933712.7444
       196.0004        196.0004
  -4117652.79447  -3197849.63045  24718375.471    24718376.5524   24718380.6234
       140.0004        145.0004
 -15198163.58649 -11825021.17447  21656168.833    21656169.5944   21656174.7714
       195.0004        196.0004
 21  2  3  2  3 30.0000000  0 10G14G09G21G30G28G07G19G01G22G17
  -6854733.94948  -5334447.98946  22426579.059    22426579.7254   22426583.2924
       175.0004        176.0004
  -1992305.71048  -1199508.28146  23957864.612    23957864.8774   23957872.5744
       184.0004        183.0004
  -7063878.99447  -5187120.86845  23498625.903    23498625.8934   23498632.8884
       159.0004        162.0004
 -20904871.85349 -16270408.25648  20548559.119    20548558.8684   20548565.9744
       213.0004        214.0004
  -3995923.51847  -3103425.60145  23061792.714    23061794.4864   23061798.7514
       158.0004        160.0004
 -23380457.44649 -18202023.44448  20235981.824    20235982.0484   20235986.9634
       214.0004        214.0004
  -9760595.22948  -7587114.10346  23080874.585    23080873.3924   23080877.0594
       171.0004        171.0004
 -19599167.09449 -15260601.23347  20940271.896    20940272.4844   20940281.0184
       196.0004        196.0004
  -4138249.23347  -3213898.79845  24714454.972    24714455.3794   24714459.5874
       139.0004        144.0004
 -15211332.07249 -11835282.34147  21653663.697    21653663.6464   21653668.3764
       196.0004        196.0004
 21  2  3  2  4  0.0000000  0 10G14G09G21G30G28G07G19G01G22G17
  -6889890.40448  -5361842.62246  22419888.530    22419888.7964   22419893.6504
       175.0004        174.0004
  -1915683.82748  -1139802.94746  23972445.106    23972445.4024   23972452.3234
       182.0004        183.0004
  -6977393.24747  -5119729.40545  23515083.006    23515083.5094   23515090.2604
       159.0004        162.0004
 -20946957.74749 -16303202.47048  20540549.898    20540550.1394   20540556.9594
       213.0004        213.0004
  -4024381.94747  -3125600.98545  23056379.254    23056379.5504   23056382.6574
       159.0004        161.0004
 -23364028.62549 -18189221.78048  20239108.315    20239108.8844   20239113.0324
       213.0004        215.0004
  -9818179.40248  -7631984.87346  23069915.555    23069915.0244   23069919.5354
       169.0004        169.0004
 -19564052.40049 -15233239.12747  20946954.128    20946954.6764   20946962.9024
       196.0004        195.0004
  -4158711.98347  -3229843.82045  24710565.364    24710564.2624   24710566.7054
       139.0004        145.0004
 -15224139.50449 -11845262.15847  21651226.912    21651227.1964   21651231.3604
       197.0004        197.0004
 21  2  3  2  4 30.0000000  0 11G14G06G09G21G30G28G07G19G01G22G17
  -6925113.83848  -5389289.46546  22413186.386    22413186.7464   22413191.1264
       175.0004        175.0004
  -1358054.11154  -1009405.810 5                                  24359440.438
        74.0004        144.000
  -1839193.53548  -1080200.14946  23987002.240    23987002.5564   23987007.9274
       185.0004        186.0004
  -6890627.73647  -5052119.92845  23531595.372    23531594.0784   23531601.4744
       160.0004        161.0004
 -20988562.68449 -16335621.91148  20532632.360    20532632.7524   20532639.5934
       213.0004        213.0004
  -4052976.30147  -3147882.31745  23050938.283    23050937.3034   23050942.6504
       160.0004        162.0004
 -23347014.63449 -18175964.15348  20242346.183    20242346.3594   20242350.4634
       213.0004        214.0004
  -9875438.30348  -7676602.18446  23059019.474    23059018.3564   23059022.1634
       168.0004        168.0004
 -19528340.89149 -15205411.97447  20953749.792    20953750.6954   20953758.0324
       196.0004        196.0004
  -4179039.66647  -3245683.55645  24706694.102    24706695.4094   24706698.9404
       139.0004        143.0004
 -15236589.21149 -11854963.21747  21648857.081    21648857.2064   21648861.5574
       196.0004        195.0004
 21  2  3  2  5  0.0000000  0 11G14G06G09G21G30G28G07G19G01G22G17
  -6960403.43148  -5416787.85246  22406469.673    22406469.9124   22406475.4984
       174.0004        174.0004
  -1470309.88346  -1096877.71045  24338069.224                    24338079.4534
       130.0004        146.0004
  -1762836.81348  -1020701.41147  24001532.815    24001532.8234   24001539.1524
       187.0004        188.0004
  -6803585.21747  -4984294.62345  23548158.398    23548158.2494   23548163.8474
       159.0004        161.0004
 -21029684.27749 -16367664.72748  20524807.777    20524807.9504   20524814.6254
       213.0004        214.0004
  -4081706.45347  -3170269.43945  23045470.118    23045470.1774   23045473.8914
       158.0004        159.0004
 -23329415.41249 -18162250.50048  20245693.989    20245695.1074   20245699.9844
       213.0004        214.0004
  -9932372.19448  -7720966.25146  23048186.183    23048185.7314   23048189.0694
       169.0004        171.0004
 -19492033.26349 -15177120.30747  20960659.714    20960660.1364   20960667.5524
       196.0004        196.0004
  -4199229.90647  -3261416.18845  24702853.687    24702852.7844   24702856.9884
       139.0004        143.0004
 -15248682.08749 -11864386.22547  21646555.697    21646556.2294   21646560.3224
       195.0004        194.0004
 21  2  3  2  5 30.0000000  0 11G14G06G09G21G30G28G07G19G01G22G17
  -6995758.55548  -5444337.33346  22399743.732    22399744.3394   22399747.5364
       175.0004        177.0004
  -1578933.74047  -1181519.58745  24317399.186    24317400.6304   24317409.9114
       142.0004        147.0004
  -1686615.81848   -961308.46446  24016035.602    24016035.7264   24016044.2564
       185.0004        184.0004
  -6716267.06247  -4916254.50045  23564775.760    23564774.9524   23564780.1444
       159.0004        161.0004
 -21070320.43149 -16399329.27848  20517074.924    20517074.9274   20517081.8174
       213.0004        214.0004
  -4110572.54047  -3192762.46245  23039977.636    23039977.1774   23039981.2354
       158.0004        161.0004
 -23311230.20349 -18148080.23048  20249155.632    20249155.7794   20249160.1604
       213.0004        214.0004
  -9988980.28248  -7765076.43646  23037414.402    23037413.6494   23037417.1174
       170.0004        172.0004
 -19455130.47049 -15148364.89447  20967681.957    20967681.9674   20967690.4474
       196.0004        196.0004
  -4219280.16047  -3277039.74645  24699035.708    24699036.3134   24699041.2304
       136.0004        141.0004
 -15260419.60949 -11873532.35047  21644322.314    21644322.6774   21644326.9774
       195.0004        195.0004
 21  2  3  2  6  0.0000000  0 11G14G06G09G21G30G28G07G19G01G22G17
  -7031178.87948  -5471937.57246  22393001.577    22393002.0884   22393006.3004
       176.0004        175.0004
  -1687544.41147  -1266151.19845  24296732.258    24296732.7244   24296740.6434
       143.0004        147.0004
  -1610532.88748   -902023.08446  24030512.242    24030513.0714   24030521.5394
       181.0004        180.0004
  -6628676.22547  -4848001.91745  23581443.318    23581442.6954   23581447.9434
       158.0004        160.0004
 -21110469.34849 -16430614.14548  20509435.011    20509435.2304   20509442.1454
       214.0004        215.0004
  -4139574.19547  -3215361.11945  23034458.763    23034458.5924   23034463.3614
       158.0004        160.0004
 -23292459.74349 -18133453.90648  20252727.156    20252727.4614   20252732.0454
       213.0004        213.0004
 -10045262.38548  -7808932.61046  23026702.606    23026702.7674   23026706.2854
       171.0004        172.0004
 -19417633.76349 -15119146.66947  20974815.947    20974817.1564   20974825.1994
       196.0004        196.0004
  -4239187.73547  -3292552.15145  24695250.390    24695248.6564   24695251.4704
       136.0004        141.0004
 -15271802.93049 -11882402.46947  21642156.465    21642156.5354   21642161.0674
       195.0004        196.0004
 21  2  3  2  6 30.0000000  0 11G14G06G09G21G30G28G07G19G01G22G17
  -7066663.26348  -5499587.72746  22386248.053    22386250.3094   22386254.4394
       175.0004        176.0004
  -1796138.67847  -1350769.99945  24276067.825    24276068.5074   24276077.4044
       144.0004        148.0004
  -1534589.57948   -842846.46546  24044962.614    24044964.4484   24044973.0784
       180.0004        180.0004
  -6540814.29247  -4779538.07945  23598163.340    23598162.4184   23598166.6814
       158.0004        159.0004
 -21150128.33349 -16461517.23448  20501888.181    20501888.3874   20501894.9294
       214.0004        215.0004
  -4168711.08647  -3238065.15145  23028913.266    23028913.9214   23028918.2934
       158.0004        159.0004
 -23273102.74849 -18118370.52948  20256410.485    20256411.2084   20256415.8324
       213.0004        214.0004
 -10101217.74148  -7852534.18346  23016055.680    23016054.9624   23016057.9004
       171.0004        171.0004
 -19379543.56549 -15089465.98947  20982065.318    20982065.8014   20982073.4084
       195.0004        195.0004
  -4258949.84447  -3307951.18345  24691487.342    24691488.6664   24691492.2404
       137.0004        142.0004
 -15282832.42349 -11890996.87747  21640056.897    21640057.7864   21640062.7134
       195.0004        196.0004
 21  2  3  2  7  0.0000000  0 11G14G06G09G21G30G28G07G19G01G22G17
  -7102210.96548  -5527287.22646  22379485.019    22379485.5824   22379490.7064
       176.0004        176.0004
  -1904713.62147  -1435373.79445  24255406.422    24255406.7644   24255415.7984
       144.0004        149.0004
  -1458787.89148   -783780.22446  24059390.591    24059390.1974   24059398.5424
       181.0004        182.0004
  -6452683.58447  -4710864.82045  23614934.264    23614932.2424   23614937.0784
       157.0004        158.0004
 -21189295.28649 -16492036.93248  20494434.907    20494434.9344   20494441.7554
       214.0004        214.0004
  -4197983.20347  -3260874.57445  23023343.767    23023343.5884   23023348.7434
       158.0004        161.0004
 -23253159.85749 -18102830.60748  20260206.047    20260206.2674   20260210.4434
       213.0004        213.0004
 -10156846.15948  -7895880.97046  23005469.658    23005468.8574   23005472.0534
       171.0004        172.0004
 -19340860.86849 -15059323.61747  20989425.897    20989426.6444   20989434.4114
       195.0004        195.0004
  -4278564.75647  -3323235.51045  24687756.262    24687755.1444   24687761.8214
       139.0004        144.0004
 -15293510.19749 -11899317.20847  21638025.816    21638025.9274   21638031.0274
       196.0004        197.0004
 21  2  3  2  7 30.0000000  0 11G14G06G09G21G30G28G07G19G01G22G17
  -7137821.92348  -5555036.05246  22372708.580    22372709.0884   22372712.7504
       176.0004        176.0004
  -2013267.04847  -1519960.81345  24234749.307    24234749.9164   24234758.0614
       145.0004        149.0004
  -1383130.43848   -724826.39646  24073785.761    24073786.1134   24073795.6534
       181.0004        182.0004
  -6364287.12647  -4641984.46445  23631755.070    23631753.4084   23631757.7144
       155.0004        156.0004
 -21227968.70149 -16522172.05248  20487075.726    20487075.6644   20487082.5474
       214.0004        215.0004
  -4227390.79747  -3283789.60545  23017746.713    23017746.7234   23017752.5084
       159.0004        161.0004
 -23232631.01249 -18086834.10348  20264111.799    20264112.6334   20264117.1514
       212.0004        213.0004
 -10212148.21948  -7938973.49546  22994946.989    22994945.7924   22994949.6604
       172.0004        173.0004
 -19301587.23949 -15028720.78647  20996899.136    20996900.2694   20996907.9664
       195.0004        195.0004
  -4298030.47047  -3338403.59045  24684050.498    24684049.5914   24684053.8334
       138.0004        141.0004
 -15303838.04049 -11907364.87247  21636060.054    21636060.2864   21636065.3594
       196.0004        196.0004
 21  2  3  2  8  0.0000000  0 11G14G06G09G21G30G28G07G19G01G22G17
  -7173495.01548  -5582833.27546  22365919.818    22365921.0854   22365925.5514
       177.0004        178.0004
  -2121795.73447  -1604528.54745  24214096.189    24214096.6114   24214106.1014
       147.0004        151.0004
  -1307618.81648   -665986.20246  24088157.067    24088157.1714   24088164.7224
       182.0004        182.0004
  -6275626.74447  -4572898.46045  23648626.480    23648626.0214   23648629.6814
       154.0004        156.0004
 -21266146.14149 -16551920.71348  20479810.615    20479810.6934   20479817.6544
       214.0004        214.0004
  -4256933.34647  -3306809.78945  23012125.665    23012126.0724   23012130.6924
       159.0004        162.0004
 -23211516.02449 -18070380.87548  20268130.721    20268131.1494   20268135.1224
       212.0004        213.0004
 -10267123.31248  -7981811.24346  22984484.409    22984484.0484   22984488.5004
       173.0004        174.0004
 -19261723.36448 -14997658.03947  21004485.597    21004486.0844   21004493.7354
       194.0004        194.0004
  -4317343.96347  -3353453.06945  24680376.292    24680376.4434   24680379.3614
       135.0004        140.0004
 -15313816.77749 -11915140.51547  21634161.168    21634161.9754   21634166.3154
       196.0004        196.0004
 21  2  3  2  8 30.0000000  0 11G14G06G09G21G30G28G07G19G01G22G17
  -7209229.72948  -5610678.51246  22359120.484    22359120.3094   22359125.4654
       176.0004        176.0004
  -2230297.01747  -1689074.92245  24193448.884    24193450.1514   24193458.2624
       147.0004        151.0004
  -1232255.34448   -607261.42646  24102498.197    24102498.2724   24102505.2114
       181.0004        180.0004
  -6186705.00747  -4503608.79745  23665548.025    23665546.6024   23665550.2654
       154.0004        154.0004
 -21303825.71449 -16581281.42148  20472640.272    20472640.3494   20472646.9724
       214.0004        214.0004
  -4286611.02647  -3329935.22945  23006477.848    23006478.3884   23006483.3254
       159.0004        161.0004
 -23189815.34749 -18053471.25648  20272259.651    20272260.2124   20272264.6434
       212.0004        213.0004
 -10321771.39048  -8024394.14546  22974085.757    22974084.7344   22974089.1414
       173.0004        175.0004
 -19221270.48848 -14966136.31247  21012182.876    21012183.9664   21012191.5014
       194.0004        194.0004
  -4336502.88247  -3368382.10345  24676732.520    24676730.5614   24676733.2344
       135.0004        141.0004
 -15323447.94449 -11922645.31047  21632328.760    21632328.7804   21632333.6054
       196.0004        196.0004
