     2.11           OBSERVATION DATA    G (GPS)             RINEX VERSION / TYPE
teqc  2018Jun8                          20210202 03:10:47UTCPGM / RUN BY / DATE
Linux2.6.32-573.12.1.el6.x86_64|x86_64|gcc|Win64-MinGW64|=+ COMMENT
BIT 2 OF LLI FLAGS DATA COLLECTED UNDER A/S CONDITION       COMMENT
-Unknown-                                                   MARKER NAME
CRNO                                                        MARKER NUMBER
-Unknown-           -Unknown-                               OBSERVER / AGENCY
-Unknown-           ASHTECH             -Unknown-           REC # / TYPE / VERS
-Unknown-           -Unknown-                               ANT # / TYPE
   408077.8401 -6158372.3149  1605162.0981                  APPROX POSITION XYZ
        0.0000        0.0000        0.0000                  ANTENNA: DELTA H/E/N
     1     1                                                WAVELENGTH FACT L1/2
     7    L1    L2    C1    P1    P2    S1    S2            # / TYPES OF OBSERV
    30.0000                                                 INTERVAL
Forced Modulo Decimation to 30 seconds                      COMMENT
 SNR is mapped to RINEX snr flag value [1-9]                COMMENT
  L1: 1 -> 1;  90 -> 5; 210 -> 9                            COMMENT
  L2: 1 -> 1; 150 -> 5; 250 -> 9                            COMMENT
pseudorange smoothing corrections not applied               COMMENT
  2021     2     2     0     0   30.0000000     GPS         TIME OF FIRST OBS
                                                            END OF HEADER
 21  2  2  0  0 30.0000000  0  9G04G30G09G08G17G14G07G01G21
  -9605480.74548  -7466370.01946  22621807.146    22621808.1324   22621815.2614
       175.0004        176.0004
  -5740764.70647  -4449704.11846  23323387.357    23323386.6274   23323394.4104
       164.0004        165.0004
 -15876393.38249 -12351761.38347  21251839.503    21251839.8174   21251846.8794
       207.0004        207.0004
 -14793372.10949 -11511187.00148  21832446.439    21832447.0014   21832453.6684
       220.0004        219.0004
  -6340342.62747  -4914455.44345  23557785.421    23557785.2634   23557791.5404
       156.0004        159.0004
  -1147561.87648   -886497.83846  23523913.700    23523914.1514   23523919.3394
       165.0004        166.0004
 -21521894.99749 -16746695.14247  21336297.555    21336298.2554   21336302.9904
       199.0004        198.0004
 -15533901.22648 -12088638.20346  21735589.628    21735590.2194   21735597.0184
       185.0004        186.0004
 -12560708.11348  -9779293.19847  21738524.276    21738524.1094   21738530.9214
       188.0004        189.0004
 21  2  2  0  1  0.0000000  0  9G04G30G09G08G17G14G07G01G21
  -9510433.47548  -7392307.21646  22639894.359    22639894.7924   22639902.2204
       175.0004        175.0004
  -5828870.20748  -4518357.73746  23306620.132    23306620.7774   23306628.7794
       165.0004        166.0004
 -15826251.61249 -12312689.86847  21261381.099    21261381.6014   21261389.3234
       207.0004        208.0004
 -14708187.40749 -11444809.30948  21848656.782    21848657.1344   21848664.2114
       220.0004        220.0004
  -6428321.89147  -4983010.63145  23541044.013    23541045.0684   23541049.6374
       159.0004        162.0004
  -1174110.64847   -907185.16146  23518860.962    23518861.8174   23518867.0804
       164.0004        165.0004
 -21590021.18449 -16799780.48547  21323334.778    21323334.7934   21323339.0824
       199.0004        199.0004
 -15599831.12448 -12140012.11046  21723041.864    21723042.7724   21723052.0274
       185.0004        185.0004
 -12560366.96048  -9779027.32447  21738589.501    21738588.2874   21738596.6474
       188.0004        189.0004
 21  2  2  0  1 30.0000000  0  9G04G30G09G08G17G14G07G01G21
  -9415248.13948  -7318136.84546  22658007.955    22658008.8464   22658014.3154
       174.0004        174.0004
  -5916983.64448  -4587017.51046  23289852.416    23289852.9464   23289861.7804
       166.0004        167.0004
 -15775696.27649 -12273296.11747  21271001.442    21271001.8234   21271009.4374
       207.0004        207.0004
 -14622776.38049 -11378255.26748  21864910.041    21864910.4904   21864917.4664
       220.0004        220.0004
  -6516003.47047  -5051333.85245  23524359.130    23524358.9314   23524364.8164
       160.0004        161.0004
  -1200623.93747   -927844.83946  23513815.977    23513816.3414   23513822.2434
       163.0004        164.0004
 -21657956.21249 -16852716.87447  21310406.568    21310407.1744   21310411.6824
       199.0004        199.0004
 -15665480.31848 -12191167.29946  21710549.698    21710550.4634   21710558.8524
       185.0004        186.0004
 -12559551.57948  -9778391.93847  21738743.727    21738743.0624   21738751.6054
       188.0004        188.0004
 21  2  2  0  2  0.0000000  0  9G04G30G09G08G17G14G07G01G21
  -9319927.57848  -7243861.07046  22676146.646    22676147.4674   22676153.4894
       174.0004        174.0004
  -6005102.91447  -4655681.83346  23273084.317    23273084.7654   23273092.6854
       164.0004        166.0004
 -15724729.81349 -12233581.98247  21280699.246    21280700.0174   21280707.7854
       206.0004        206.0004
 -14537141.45449 -11311526.74448  21881206.117    21881206.0724   21881213.0674
       220.0004        219.0004
  -6603385.44447  -5119423.60445  23507730.529    23507730.9164   23507736.3604
       158.0004        159.0004
  -1227102.87547   -948477.72246  23508778.235    23508778.2374   23508783.6654
       164.0004        167.0004
 -21725697.04949 -16905501.93747  21297515.918    21297516.4204   21297521.0984
       199.0004        200.0004
 -15730845.30748 -12242101.02746  21698111.291    21698111.7094   21698120.2244
       185.0004        186.0004
 -12558261.06148  -9777386.30246  21738989.278    21738989.2804   21738996.3414
       188.0004        187.0004
 21  2  2  0  2 30.0000000  0  9G04G30G09G08G17G14G07G01G21
  -9224475.92448  -7169483.17646  22694310.690    22694310.8324   22694317.7434
       172.0004        171.0004
  -6093227.18248  -4724350.09346  23256315.753    23256316.0004   23256322.3804
       166.0004        169.0004
 -15673355.93549 -12193550.39047  21290476.338    21290476.2884   21290483.7844
       206.0004        206.0004
 -14451287.21349 -11244627.33148  21897542.557    21897543.0154   21897550.5514
       219.0004        218.0004
  -6690466.86747  -5187279.16345  23491160.078    23491160.1974   23491164.7744
       157.0004        159.0004
  -1253549.88548   -969085.74046  23503743.899    23503745.5724   23503750.2764
       165.0004        166.0004
 -21793242.52349 -16958134.77147  21284662.158    21284663.0974   21284667.1774
       199.0004        200.0004
 -15795924.08048 -12292811.72346  21685727.193    21685727.8384   21685736.4824
       186.0004        187.0004
 -12556496.06048  -9776010.96046  21739325.198    21739324.2474   21739331.1934
       187.0004        186.0004
 21  2  2  0  3  0.0000000  0  9G04G30G09G08G17G14G07G01G21
  -9128895.82248  -7095005.15546  22712498.319    22712498.8474   22712506.3204
       170.0004        170.0004
  -6181354.15348  -4793020.41346  23239543.306    23239544.3694   23239553.1304
       168.0004        170.0004
 -15621576.84149 -12153203.03647  21300329.338    21300330.0884   21300337.1194
       206.0004        206.0004
 -14365215.86249 -11177558.73148  21913921.463    21913921.9294   21913929.4074
       218.0004        218.0004
  -6777245.60047  -5254898.84345  23474645.423    23474646.2294   23474652.1064
       156.0004        157.0004
  -1279965.79848   -989669.52546  23498717.952    23498718.4124   23498723.6464
       165.0004        166.0004
 -21860589.10649 -17010612.61847  21271847.180    21271847.2224   21271851.8014
       200.0004        200.0004
 -15860712.98548 -12343296.53946  21673397.563    21673398.9164   21673407.1794
       186.0004        187.0004
 -12554254.56748  -9774264.30146  21739751.998    21739751.5484   21739757.4494
       186.0004        186.0004
 21  2  2  0  3 30.0000000  0  9G04G30G09G08G17G14G07G01G21
  -9033188.68148  -7020428.15846  22730711.591    22730712.0104   22730718.2674
       170.0004        171.0004
  -6269480.20248  -4861690.03246  23222773.517    23222774.2234   23222782.0324
       166.0004        166.0004
 -15569393.58249 -12112540.75947  21310259.706    21310259.9924   21310267.4124
       206.0004        207.0004
 -14278928.98949 -11110322.21248  21930342.057    21930342.1684   21930349.4754
       219.0004        219.0004
  -6863718.23347  -5322280.01245  23458189.557    23458190.9454   23458198.1444
       158.0004        161.0004
  -1306350.35648  -1010228.87046  23493696.889    23493697.3284   23493702.3514
       165.0004        166.0004
 -21927732.47349 -17062932.12747  21259070.161    21259070.3814   21259075.0264
       200.0004        200.0004
 -15925207.24648 -12393551.78246  21661126.019    21661126.2064   21661134.5864
       186.0004        186.0004
 -12551534.15148  -9772144.47846  21740269.574    21740269.4294   21740274.4204
       185.0004        186.0004
 21  2  2  0  4  0.0000000  0  9G04G30G09G08G17G14G07G01G21
  -8937358.78948  -6945755.52946  22748947.296    22748947.1014   22748953.6464
       170.0004        172.0004
  -6357604.64948  -4930358.42746  23206005.339    23206005.6254   23206013.2714
       166.0004        168.0004
 -15516810.08049 -12071566.60147  21320265.282    21320265.9454   21320274.0714
       206.0004        207.0004
 -14192430.77249 -11042920.99748  21946802.840    21946802.5904   21946808.9864
       219.0004        219.0004
  -6949884.35947  -5389422.33745  23441793.088    23441792.9474   23441800.5504
       160.0004        161.0004
  -1332706.05948  -1030765.74046  23488681.724    23488682.3584   23488687.6294
       165.0004        167.0004
 -21994671.36849 -17115092.29647  21246331.757    21246332.1374   21246336.7674
       200.0004        200.0004
 -15989404.97748 -12443575.94346  21648908.992    21648909.5304   21648918.0984
       186.0004        187.0004
 -12548335.54448  -9769652.03046  21740877.873    21740877.6004   21740883.2124
       184.0004        184.0004
 21  2  2  0  4 30.0000000  0  9G04G30G09G08G17G14G07G01G21
  -8841409.49648  -6870989.85646  22767206.436    22767206.8594   22767212.6134
       170.0004        170.0004
  -6445725.83448  -4999024.24446  23189237.046    23189236.8954   23189244.8044
       169.0004        171.0004
 -15463829.31749 -12030282.88647  21330347.543    21330347.9074   21330356.1664
       206.0004        207.0004
 -14105724.17249 -10975357.40348  21963301.732    21963302.0764   21963309.3514
       219.0004        218.0004
  -7035742.50847  -5456324.67445  23425454.176    23425454.5084   23425461.9654
       158.0004        160.0004
  -1359034.45148  -1051281.34646  23483671.514    23483671.2174   23483678.5224
       165.0004        165.0004
 -22061403.51149 -17167091.37247  21233633.430    21233634.2154   21233637.9184
       200.0004        201.0004
 -16053303.18348 -12493366.72946  21636749.112    21636749.6374   21636758.4844
       186.0004        187.0004
 -12544657.78548  -9766786.22446  21741577.607    21741577.4074   21741582.1864
       183.0004        183.0004
 21  2  2  0  5  0.0000000  0  9G04G30G09G08G17G14G07G01G21
  -8745342.90548  -6796132.77646  22785486.056    22785486.6794   22785492.6654
       170.0004        170.0004
  -6533840.81448  -5067685.26246  23172470.008    23172469.5244   23172476.0524
       170.0004        171.0004
 -15410453.02049 -11988690.96347  21340504.853    21340505.5224   21340512.7454
       206.0004        207.0004
 -14018811.57249 -10907633.28648  21979840.372    21979840.5684   21979848.3814
       218.0004        218.0004
  -7121289.89047  -5522984.88845  23409175.820    23409175.9994   23409180.9574
       160.0004        161.0004
  -1385335.96147  -1071775.98146  23478666.654    23478666.8424   23478672.2604
       164.0004        165.0004
 -22127925.65149 -17218926.80047  21220975.088    21220974.9744   21220979.4534
       200.0004        201.0004
 -16116897.88448 -12542921.00946  21624646.498    21624648.0154   21624656.6854
       186.0004        186.0004
 -12540499.37948  -9763545.88846  21742370.180    21742369.4424   21742373.2384
       184.0004        185.0004
 21  2  2  0  5 30.0000000  0  9G04G30G09G08G17G14G07G01G21
  -8649162.61548  -6721187.09346  22803788.607    22803788.4934   22803795.9354
       168.0004        168.0004
  -6621948.23348  -5136340.40246  23155703.869    23155702.9874   23155709.8804
       171.0004        172.0004
 -15356684.53749 -11946793.44647  21350736.447    21350736.7424   21350744.5104
       206.0004        206.0004
 -13931696.54449 -10839751.45348  21996417.873    21996417.9904   21996425.5364
       218.0004        217.0004
  -7206525.26647  -5589401.97946  23392955.189    23392956.0174   23392960.8624
       161.0004        163.0004
  -1411612.43247  -1092251.13046  23473666.262    23473666.4414   23473672.2764
       164.0004        166.0004
 -22194235.31149 -17270596.66447  21208356.522    21208357.2654   21208361.1594
       201.0004        201.0004
 -16180186.43748 -12592236.72746  21612603.874    21612604.4654   21612613.0414
       187.0004        187.0004
 -12535860.11248  -9759930.85846  21743253.343    21743252.4494   21743256.0374
       184.0004        183.0004
 21  2  2  0  6  0.0000000  0  9G04G30G09G08G17G14G07G01G21
  -8552871.58748  -6646155.14546  22822112.022    22822112.7304   22822119.6054
       167.0004        168.0004
  -6710046.04948  -5204988.03646  23138938.393    23138938.4954   23138946.3964
       171.0004        172.0004
 -15302526.45349 -11904592.34247  21361042.499    21361043.1194   21361050.3984
       206.0004        206.0004
 -13844381.79949 -10771713.98348  22013033.262    22013033.5264   22013040.5734
       218.0004        217.0004
  -7291446.91347  -5655574.58846  23376797.131    23376797.1034   23376801.9724
       163.0004        166.0004
  -1437865.08347  -1112707.70946  23468670.887    23468671.1954   23468676.2984
       164.0004        165.0004
 -22260330.04449 -17322099.06747  21195779.261    21195779.6884   21195783.1994
       201.0004        202.0004
 -16243165.67148 -12641311.42846  21600619.666    21600620.3574   21600628.8674
       187.0004        187.0004
 -12530738.94148  -9755940.31646  21744226.614    21744226.2224   21744230.1074
       183.0004        182.0004
 21  2  2  0  6 30.0000000  0  9G04G30G09G08G17G14G07G01G21
  -8456472.29248  -6571038.77246  22840455.959    22840457.0524   22840463.7454
       168.0004        169.0004
  -6798131.66148  -5273626.13946  23122175.970    23122175.9064   23122183.6994
       170.0004        171.0004
 -15247980.97749 -11862089.34647  21371422.641    21371422.8214   21371430.1154
       205.0004        206.0004
 -13756870.12849 -10703523.04848  22029686.075    22029686.3834   22029693.7664
       217.0004        217.0004
  -7376052.40047  -5721500.82246  23360695.639    23360695.7404   23360701.7754
       163.0004        164.0004
  -1464094.61147  -1133146.23646  23463679.419    23463679.7164   23463685.2404
       164.0004        166.0004
 -22326206.20049 -17373431.11347  21183242.305    21183243.3364   21183247.2454
       201.0004        201.0004
 -16305831.85048 -12690142.15747  21588694.705    21588695.1604   21588704.2814
       188.0004        189.0004
 -12525134.77748  -9751573.40046  21745292.765    21745293.1614   21745296.3434
       182.0004        182.0004
 21  2  2  0  7  0.0000000  0  9G04G30G09G08G17G14G07G01G21
  -8359967.88348  -6495840.55046  22858823.104    22858822.1114   22858828.8584
       169.0004        169.0004
  -6886203.21448  -5342253.31446  23105416.639    23105416.7324   23105423.6204
       171.0004        172.0004
 -15193050.95049 -11819286.73547  21381875.915    21381875.8554   21381882.6014
       205.0004        205.0004
 -13669164.19849 -10635180.76448  22046376.260    22046376.7524   22046383.4504
       217.0004        216.0004
  -7460340.25747  -5787179.57846  23344656.504    23344656.8574   23344662.0754
       163.0004        165.0004
  -1490302.47247  -1153567.93146  23458692.248    23458692.8434   23458697.0914
       164.0004        164.0004
 -22391861.56349 -17424591.14147  21170749.073    21170749.6014   21170754.0534
       201.0004        201.0004
 -16368181.93248 -12738726.60847  21576831.118    21576831.3864   21576838.9854
       189.0004        190.0004
 -12519047.25548  -9746829.86346  21746452.314    21746451.2154   21746455.1494
       182.0004        182.0004
 21  2  2  0  7 30.0000000  0  9G04G30G09G08G17G14G07G01G21
  -8263361.53848  -6420562.87646  22877204.512    22877205.3644   22877212.2324
       169.0004        170.0004
  -6974258.79948  -5410868.04646  23088660.079    23088660.6354   23088667.1424
       170.0004        170.0004
 -15137739.26749 -11776186.71647  21392401.027    21392401.3834   21392408.0474
       204.0004        203.0004
 -13581267.19249 -10566689.58548  22063102.415    22063102.5974   22063109.7404
       216.0004        215.0004
  -7544309.00348  -5852609.69446  23328679.009    23328678.8684   23328683.9454
       165.0004        167.0004
  -1516490.02047  -1173973.78545  23453707.794    23453708.4174   23453714.2134
       162.0004        162.0004
 -22457293.31449 -17475576.91447  21158297.737    21158298.4684   21158302.4684
       201.0004        202.0004
 -16430212.98648 -12787062.45647  21565026.802    21565026.9054   21565034.1994
       189.0004        188.0004
 -12512475.12448  -9741708.70246  21747702.883    21747701.5104   21747706.0084
       182.0004        183.0004
 21  2  2  0  8  0.0000000  0  9G04G30G09G08G17G14G07G01G21
  -8166655.55448  -6345207.57246  22895606.927    22895607.3064   22895614.4894
       169.0004        170.0004
  -7062295.72248  -5479468.25246  23071906.830    23071907.1584   23071914.4034
       170.0004        172.0004
 -15082048.05449 -11732790.95847  21402998.291    21402998.5264   21403005.9014
       204.0004        204.0004
 -13493181.36849 -10498051.28548  22079864.041    22079864.5174   22079871.9034
       216.0004        215.0004
  -7627956.54448  -5917789.49246  23312760.118    23312760.9584   23312767.5574
       165.0004        167.0004
  -1542657.86747  -1194364.26945  23448728.854    23448728.5504   23448735.1914
       160.0004        160.0004
 -22522498.38749 -17526386.06547  21145890.488    21145890.4804   21145894.1644
       201.0004        201.0004
 -16491921.12648 -12835146.69546  21553282.230    21553283.1764   21553291.1444
       188.0004        187.0004
 -12505417.42448  -9736209.17846  21749044.373    21749044.8704   21749049.1234
       183.0004        183.0004
 21  2  2  0  8 30.0000000  0  9G04G30G09G08G17G14G07G01G21
  -8069852.35448  -6269776.50446  22914027.490    22914027.8034   22914035.1394
       169.0004        169.0004
  -7150311.32648  -5548051.79946  23055158.326    23055158.7964   23055166.7184
       170.0004        173.0004
 -15025979.41549 -11689101.10447  21413668.401    21413668.6244   21413675.4624
       203.0004        204.0004
 -13404909.27849 -10429267.82348  22096662.069    22096662.0484   22096669.1134
       215.0004        214.0004
  -7711280.08248  -5982716.80646  23296903.887    23296904.0684   23296910.6924
       165.0004        166.0004
  -1568806.64847  -1214739.87645  23443751.316    23443753.0484   23443757.7744
       159.0004        162.0004
 -22587473.18849 -17577015.77047  21133525.497    21133526.1544   21133529.9594
       202.0004        202.0004
 -16553302.67148 -12882976.41247  21541602.955    21541603.2894   21541611.4994
       187.0004        188.0004
 -12497872.90248  -9730330.29746  21750481.072    21750480.2324   21750486.2204
       183.0004        183.0004
 21  2  2  0  9  0.0000000  0  9G04G30G09G08G17G14G07G01G21
  -7972954.88248  -6194271.97946  22932466.488    22932467.1794   22932474.8714
       168.0004        169.0004
  -7238303.54048  -5616617.12946  23038414.534    23038413.5694   23038422.3944
       171.0004        171.0004
 -14969536.14749 -11645119.33947  21424408.577    21424408.9204   21424416.4064
       203.0004        203.0004
 -13316453.50949 -10360341.24148  22113495.075    22113494.5844   22113501.8344
       215.0004        214.0004
  -7794278.33748  -6047390.67346  23281109.037    23281109.3494   23281115.9514
       165.0004        166.0004
  -1594937.58647  -1235101.62445  23438778.763    23438779.9954   23438786.1874
       159.0004        160.0004
 -22652215.25749 -17627464.15147  21121205.877    21121206.1364   21121210.6584
       202.0004        203.0004
 -16614354.45248 -12930549.20147  21529985.538    21529986.3184   21529993.4524
       187.0004        188.0004
 -12489841.37348  -9724071.93246  21752008.617    21752008.9384   21752013.8764
       183.0004        184.0004
 21  2  2  0  9 30.0000000  0  9G04G30G09G08G17G14G07G01G21
  -7875967.30848  -6118697.25846  22950923.332    22950923.6254   22950929.5494
       168.0004        169.0004
  -7326271.43348  -5685163.52646  23021675.534    23021674.5654   23021681.0714
       172.0004        173.0004
 -14912722.19349 -11600848.72647  21435219.282    21435220.0404   21435228.4834
       203.0004        203.0004
 -13227818.20649 -10291274.76648  22130361.526    22130361.3254   22130368.1994
       214.0004        213.0004
  -7876950.72348  -6111810.60246  23265377.910    23265378.2674   23265383.5844
       166.0004        167.0004
  -1621053.14347  -1255451.36745  23433810.425    23433810.8744   23433816.2884
       159.0004        160.0004
 -22716723.34949 -17677730.19447  21108930.514    21108931.1004   21108934.7064
       203.0004        203.0004
 -16675074.50348 -12977863.50047  21518431.001    21518430.9094   21518438.8944
       188.0004        189.0004
 -12481322.48048  -9717433.82346  21753630.433    21753629.7764   21753635.4614
       184.0004        184.0004
 21  2  2  0 10  0.0000000  0  9G04G30G09G08G17G14G07G01G21
  -7778892.67048  -6043054.67846  22969396.547    22969396.7444   22969402.3074
       168.0004        169.0004
  -7414212.94948  -5753689.38546  23004939.997    23004940.4644   23004947.2004
       172.0004        173.0004
 -14855540.37149 -11556291.45847  21446101.743    21446101.5964   21446109.5724
       203.0004        203.0004
 -13139006.45549 -10222070.81447  22147261.096    22147261.0174   22147268.7594
       212.0004        211.0004
  -7959295.43948  -6175975.21446  23249707.430    23249707.9084   23249715.5334
       167.0004        168.0004
  -1647154.54247  -1275790.07645  23428843.720    23428845.0084   23428849.8264
       160.0004        162.0004
 -22780994.39649 -17727811.52847  21096699.780    21096700.0924   21096704.3164
       202.0004        202.0004
 -16735459.75248 -13024916.90946  21506938.780    21506938.7534   21506947.8454
       188.0004        187.0004
 -12472316.26148  -9710415.98146  21755343.565    21755343.4334   21755349.0704
       184.0004        185.0004
 21  2  2  0 10 30.0000000  0  9G04G30G09G08G17G14G07G01G21
  -7681733.18348  -5967345.98746  22987884.915    22987885.1984   22987892.1584
       169.0004        169.0004
  -7502125.26748  -5822192.48846  22988211.086    22988211.3634   22988217.2324
       172.0004        173.0004
 -14797992.77049 -11511449.17647  21457051.364    21457052.3964   21457059.6094
       202.0004        202.0004
 -13050020.63149 -10152731.21447  22164193.545    22164194.1924   22164202.3034
       211.0004        211.0004
  -8041310.23048  -6239882.76546  23234100.157    23234100.9254   23234107.8884
       166.0004        167.0004
  -1673242.34447  -1296118.17545  23423878.561    23423878.7864   23423884.7194
       160.0004        161.0004
 -22845024.82349 -17777705.36047  21084514.378    21084515.3274   21084520.3574
       202.0004        203.0004
 -16795506.34348 -13071706.41147  21495511.711    21495512.3634   21495522.1064
       187.0004        188.0004
 -12462821.22048  -9703017.22446  21757152.174    21757150.6704   21757155.7074
       185.0004        186.0004
 21  2  2  0 11  0.0000000  0  9G04G30G09G08G17G14G07G01G21
  -7584492.33448  -5891573.91346  23006388.003    23006389.3424   23006396.4414
       168.0004        168.0004
  -7590006.85448  -5890671.63046  22971487.948    22971487.5194   22971495.1184
       172.0004        174.0004
 -14740082.70449 -11466324.45647  21468072.569    21468072.6014   21468080.0464
       202.0004        202.0004
 -12960863.85749 -10083258.41347  22181160.162    22181160.4034   22181168.0864
       212.0004        212.0004
  -8122993.67848  -6303532.13846  23218556.687    23218557.4284   23218563.1444
       166.0004        167.0004
  -1699318.18947  -1316436.99046  23418917.831    23418918.1694   23418923.2044
       161.0004        163.0004
 -22908812.91549 -17827410.36647  21072376.986    21072377.2974   21072381.1524
       202.0004        202.0004
 -16855211.67848 -13118230.02447  21484152.206    21484153.1494   21484160.2674
       190.0004        193.0004
 -12452836.96148  -9695237.26646  21759050.884    21759050.9504   21759055.8984
       185.0004        186.0004
 21  2  2  0 11 30.0000000  0  9G04G30G09G08G17G14G07G01G21
  -7487172.67448  -5815740.41146  23024908.707    23024908.8184   23024915.6104
       168.0004        168.0004
  -7677855.09848  -5959124.78746  22954771.070    22954771.3474   22954777.7414
       173.0004        173.0004
 -14681812.61749 -11420919.19347  21479160.654    21479161.2224   21479168.1744
       202.0004        202.0004
 -12871538.49249 -10013654.22347  22198159.104    22198158.9704   22198166.2904
       212.0004        212.0004
  -8204344.42948  -6366922.25946  23203077.012    23203077.3224   23203081.7284
       165.0004        165.0004
  -1725382.96347  -1336747.17145  23413957.744    23413957.7554   23413963.0994
       161.0004        162.0004
 -22972355.27849 -17876923.88247  21060285.047    21060285.5054   21060289.3614
       202.0004        203.0004
 -16914572.27148 -13164485.01447  21472857.664    21472857.7574   21472863.9034
       194.0004        195.0004
 -12442362.76648  -9687075.51746  21761044.291    21761044.0404   21761048.7244
       186.0004        186.0004
 21  2  2  0 12  0.0000000  0  9G04G30G09G08G17G14G07G01G21
  -7389776.87748  -5739847.58546  23043441.558    23043442.5554   23043448.9984
       167.0004        168.0004
  -7765667.62748  -6027550.10446  22938058.927    22938059.6224   22938067.2534
       170.0004        170.0004
 -14623184.96749 -11375235.30047  21490316.645    21490317.3194   21490324.8224
       201.0004        202.0004
 -12782047.47849  -9943920.95647  22215187.448    22215187.7384   22215196.4094
       212.0004        212.0004
  -8285360.09547  -6430051.26846  23187659.675    23187660.0074   23187664.1844
       163.0004        163.0004
  -1751437.54347  -1357049.41645  23408999.057    23408998.8164   23409005.1044
       158.0004        158.0004
 -23035648.77349 -17926243.48447  21048240.647    21048240.9714   21048245.1664
       203.0004        203.0004
 -16973584.68648 -13210468.70247  21461626.595    21461626.9804   21461633.2814
       193.0004        192.0004
 -12431397.85948  -9678531.41046  21763129.821    21763129.3914   21763135.4144
       186.0004        186.0004
 21  2  2  0 12 30.0000000  0  9G04G30G09G08G17G14G07G01G21
  -7292306.87548  -5663896.91646  23061990.565    23061990.7844   23061996.3684
       167.0004        167.0004
  -7853441.24248  -6095945.09946  22921356.084    22921356.2484   22921364.4254
       170.0004        170.0004
 -14564201.65349 -11329274.26847  21501541.501    21501541.8014   21501548.6414
       202.0004        202.0004
 -12692392.50349  -9874059.93647  22232248.732    22232248.9284   22232256.9024
       211.0004        210.0004
  -8366038.33747  -6492917.37446  23172307.989    23172308.1524   23172310.1214
       162.0004        164.0004
  -1777482.19647  -1377343.93045  23404043.124    23404042.8694   23404049.3374
       156.0004        158.0004
 -23098689.99849 -17975366.50247  21036243.797    21036244.5024   21036249.1874
       203.0004        203.0004
 -17032244.92448 -13256177.92247  21450461.350    21450461.7104   21450471.2774
       190.0004        188.0004
 -12419940.62648  -9669603.67646  21765310.102    21765310.6654   21765316.2244
       186.0004        187.0004
 21  2  2  0 13  0.0000000  0  9G04G30G09G08G17G14G07G01G21
  -7194767.33148  -5587892.09646  23080551.794    23080552.3594   23080557.7354
       166.0004        167.0004
  -7941175.54148  -6164309.48146  22904661.190    22904662.0284   22904668.6374
       168.0004        170.0004
 -14504867.22049 -11283039.65047  21512831.954    21512832.0934   21512839.7524
       202.0004        202.0004
 -12602577.99549  -9804074.62747  22249340.455    22249340.1014   22249347.7854
       210.0004        209.0004
  -8446379.30247  -6555520.70245  23157018.586    23157018.8264   23157020.7024
       160.0004        160.0004
  -1803519.75547  -1397632.93545  23399087.911    23399088.8954   23399094.1044
       157.0004        159.0004
 -23161477.81449 -18024292.07447  21024296.120    21024296.7414   21024300.7644
       203.0004        203.0004
 -17090551.54048 -13301611.61546  21439365.431    21439366.0594   21439376.0744
       187.0004        187.0004
 -12407992.51148  -9660293.42746  21767584.684    21767584.4464   21767589.3044
       187.0004        187.0004
 21  2  2  0 13 30.0000000  0  9G04G30G09G08G17G14G07G01G21
  -7097160.14847  -5511834.57246  23099125.510    23099125.1154   23099132.1684
       164.0004        166.0004
  -8028867.28348  -6232640.71846  22887973.644    22887974.1494   22887982.4214
       170.0004        172.0004
 -14445183.45149 -11236532.82047  21524189.094    21524189.7744   21524197.4764
       202.0004        202.0004
 -12512606.24349  -9733966.76847  22266461.027    22266461.4274   22266468.8554
       210.0004        210.0004
  -8526380.32647  -6617859.11445  23141795.522    23141794.4344   23141798.3034
       158.0004        160.0004
  -1829550.43047  -1417916.58445  23394136.128    23394135.2074   23394140.5654
       157.0004        158.0004
 -23224008.67749 -18073017.41747  21012397.146    21012397.2454   21012401.2684
       203.0004        203.0004
 -17148500.44748 -13346766.56347  21428338.690    21428340.0344   21428349.0684
       188.0004        189.0004
 -12395552.34248  -9650599.76147  21769952.803    21769951.7034   21769957.2084
       187.0004        188.0004
 21  2  2  0 14  0.0000000  0 10G04G30G28G09G08G17G14G07G01G21
  -6999488.31647  -5435726.64845  23117710.300    23117711.3634   23117717.8564
       163.0004        162.0004
  -8116514.45548  -6300937.18146  22871294.501    22871295.1034   22871303.1234
       170.0004        171.0004
   -451619.46054   -333297.268 3                                  24702130.544
        74.0004         74.000
 -14385153.30649 -11189756.07947  21535613.192    21535613.6644   21535620.5174
       202.0004        203.0004
 -12422479.85249  -9663738.39947  22283610.210    22283611.1524   22283619.5114
       210.0004        210.0004
  -8606039.52147  -6679931.18745  23126636.260    23126636.3344   23126639.1744
       159.0004        160.0004
  -1855575.48847  -1438195.81345  23389182.784    23389183.4054   23389188.3214
       156.0004        157.0004
 -23286279.54749 -18121540.16747  21000546.593    21000547.5504   21000551.9144
       203.0004        204.0004
 -17206088.59248 -13391640.41047  21417381.100    21417382.1344   21417389.9524
       190.0004        192.0004
 -12382619.27748  -9640522.03246  21772412.986    21772412.8144   21772417.3384
       187.0004        187.0004
 21  2  2  0 14 30.0000000  0 10G04G30G28G09G08G17G14G07G01G21
  -6901754.54547  -5359570.47546  23136309.171    23136309.4344   23136316.9634
       162.0004        163.0004
  -8204114.54048  -6369196.97446  22854625.652    22854625.5904   22854633.8244
       171.0004        172.0004
   -751310.12446   -580090.33245  23687999.473                    23688005.9894
       127.0004        141.0004
 -14324779.40749 -11142711.47247  21547101.815    21547102.4814   21547109.0544
       202.0004        203.0004
 -12332201.51649  -9593391.65147  22300791.475    22300791.2214   22300798.9894
       209.0004        209.0004
  -8685355.40747  -6741735.68745  23111541.161    23111542.8164   23111548.2164
       159.0004        161.0004
  -1881595.82847  -1458471.40645  23384229.745    23384230.6804   23384236.2094
       154.0004        156.0004
 -23348287.64349 -18169858.14047  20988747.821    20988747.7784   20988752.1234
       204.0004        204.0004
 -17263312.74148 -13436230.63247  21406492.987    21406493.1354   21406500.7084
       192.0004        193.0004
 -12369192.52148  -9630059.59546  21774967.908    21774967.4684   21774972.7524
       187.0004        187.0004
 21  2  2  0 15  0.0000000  0 10G04G30G28G09G08G17G14G07G01G21
  -6803963.25147  -5283369.48346  23154917.552    23154918.5344   23154925.5014
       162.0004        163.0004
  -8291666.94848  -6437419.59946  22837964.984    22837965.7234   22837973.3064
       172.0004        173.0004
   -766333.24847   -591796.64245  23685142.623    23685141.7474   23685147.0454
       135.0004        142.0004
 -14264066.16349 -11095402.46147  21558655.713    21558655.8994   21558662.8414
       203.0004        203.0004
 -12241775.53749  -9522929.86247  22317998.587    22317998.5614   22318006.2634
       208.0004        208.0004
  -8764328.33247  -6803272.97746  23096515.804    23096514.9064   23096520.8864
       163.0004        167.0004
  -1907614.22147  -1478745.45445  23379280.388    23379280.3564   23379284.9044
       154.0004        156.0004
 -23410031.44449 -18217970.19347  20976997.086    20976998.1744   20977002.6484
       204.0004        204.0004
 -17320171.36848 -13480536.02947  21395673.540    21395673.6424   21395680.6494
       193.0004        193.0004
 -12355273.19948  -9619213.35646  21777616.644    21777616.4404   21777621.4224
       187.0004        187.0004
 21  2  2  0 15 30.0000000  0 10G04G30G28G09G08G17G14G07G01G21
  -6706118.02847  -5207126.47146  23173538.252    23173538.7804   23173545.7774
       161.0004        163.0004
  -8379170.10048  -6505603.87346  22821313.025    22821313.2154   22821321.2524
       171.0004        171.0004
   -781340.31947   -603490.41945  23682286.187    23682286.7984   23682290.8494
       137.0004        143.0004
 -14203017.14449 -11047831.78947  21570272.510    21570273.0414   21570280.3964
       203.0004        203.0004
 -12151205.61149  -9452355.89047  22335233.363    22335233.4304   22335241.0564
       208.0004        207.0004
  -8842957.37648  -6864542.28146  23081552.427    23081552.5304   23081558.9474
       166.0004        169.0004
  -1933632.49547  -1499019.39545  23374328.690    23374329.5044   23374334.1454
       155.0004        158.0004
 -23471509.32949 -18265875.02947  20965299.064    20965298.9024   20965303.6964
       203.0004        203.0004
 -17376662.09548 -13524554.75047  21384922.894    21384923.1234   21384931.0424
       193.0004        193.0004
 -12340861.58448  -9607983.50946  21780359.353    21780359.0134   21780364.0444
       187.0004        187.0004
 21  2  2  0 16  0.0000000  0 10G04G30G28G09G08G17G14G07G01G21
  -6608220.52347  -5130842.70446  23192167.448    23192167.5704   23192175.3334
       162.0004        163.0004
  -8466620.49548  -6573747.02146  22804672.884    22804673.6734   22804680.3764
       174.0004        177.0004
   -796332.77647   -615172.80945  23679433.464    23679434.1464   23679438.4854
       138.0004        144.0004
 -14141633.93749 -11000000.70747  21581953.678    21581954.2934   21581960.7174
       203.0004        203.0004
 -12060493.12349  -9381670.81447  22352495.981    22352495.6874   22352502.4584
       207.0004        207.0004
  -8921239.59348  -6925541.33346  23066653.404    23066654.9784   23066662.7724
       167.0004        169.0004
  -1959650.55247  -1519293.16445  23369378.071    23369378.5364   23369382.5824
       157.0004        160.0004
 -23532717.18749 -18313569.44847  20953651.400    20953652.1704   20953655.9784
       203.0004        203.0004
 -17432780.62048 -13568283.42547  21374242.993    21374243.4614   21374252.0074
       192.0004        192.0004
 -12325956.52348  -9596369.12046  21783195.648    21783194.8914   21783200.9494
       187.0004        187.0004
 21  2  2  0 16 30.0000000  0 10G04G30G28G09G08G17G14G07G01G21
  -6510272.01147  -5054519.20446  23210805.716    23210806.9384   23210814.1554
       163.0004        164.0004
  -8554014.28748  -6641846.06946  22788042.304    22788042.2234   22788049.5254
       176.0004        177.0004
   -811310.05747   -626843.39545  23676583.425    23676583.5334   23676589.9434
       139.0004        144.0004
 -14079917.81349 -10951910.22147  21593697.923    21593698.0064   21593704.7564
       202.0004        202.0004
 -11969638.99049  -9310875.38747  22369784.977    22369784.5144   22369791.6454
       207.0004        207.0004
  -8999171.92348  -6986267.79446  23051824.498    23051825.0534   23051833.1644
       170.0004        172.0004
  -1985667.80947  -1539566.33645  23364425.746    23364427.1554   23364432.5424
       159.0004        161.0004
 -23593650.78349 -18361050.17947  20942056.261    20942056.8824   20942060.7754
       203.0004        203.0004
 -17488522.26448 -13611718.44247  21363635.040    21363635.8054   21363644.4764
       191.0004        191.0004
 -12310556.12648  -9584368.78446  21786126.128    21786125.8094   21786130.7024
       187.0004        187.0004
 21  2  2  0 17  0.0000000  0 10G04G30G28G09G08G17G14G07G01G21
  -6412274.94147  -4978157.87346  23229455.311    23229455.2674   23229461.5054
       162.0004        163.0004
  -8641348.81348  -6709898.95146  22771423.291    22771423.6784   22771430.5444
       177.0004        178.0004
   -826272.94647   -638502.76945  23673736.053    23673735.8734   23673741.6784
       140.0004        145.0004
 -14017871.26649 -10903562.27547  21605504.876    21605505.1624   21605512.3604
       202.0004        203.0004
 -11878646.05349  -9239971.81347  22387099.325    22387099.3804   22387106.8594
       207.0004        206.0004
  -9076752.29648  -7046719.97446  23037062.560    23037063.3144   23037069.8644
       172.0004        174.0004
  -2011685.12947  -1559839.55345  23359474.785    23359475.3064   23359481.6764
       159.0004        160.0004
 -23654306.50849 -18408314.38347  20930513.042    20930513.7984   20930518.6004
       203.0004        204.0004
 -17543883.59048 -13654857.12847  21353099.614    21353100.7244   21353109.7104
       190.0004        189.0004
 -12294659.08648  -9571981.47346  21789151.373    21789150.0464   21789155.5754
       186.0004        187.0004
 21  2  2  0 17 30.0000000  0 10G04G30G28G09G08G17G14G07G01G21
  -6314231.89947  -4901760.69645  23248110.403    23248112.1674   23248118.5024
       160.0004        160.0004
  -8728621.57148  -6777903.68946  22754816.049    22754816.4844   22754822.9824
       177.0004        179.0004
   -841223.18447   -650152.27745  23670891.638    23670891.3874   23670897.1914
       142.0004        147.0004
 -13955496.91649 -10854958.90547  21617374.239    21617374.2854   21617382.3184
       202.0004        203.0004
 -11787516.59049  -9168961.84947  22404439.265    22404440.2844   22404448.9314
       206.0004        205.0004
  -9153978.97448  -7106896.54746  23022367.109    23022367.9794   23022373.1854
       173.0004        174.0004
  -2037703.34647  -1580113.45945  23354524.337    23354525.4514   23354530.0144
       158.0004        159.0004
 -23714681.75849 -18455360.04347  20919024.597    20919025.2864   20919029.2134
       203.0004        204.0004
 -17598861.34848 -13697696.92247  21342637.979    21342639.2304   21342648.2804
       189.0004        190.0004
 -12278265.15648  -9559206.97646  21792270.131    21792271.0734   21792274.8744
       186.0004        186.0004
 21  2  2  0 18  0.0000000  0 10G04G30G28G09G08G17G14G07G01G21
  -6216146.10547  -4825330.20045  23266775.409    23266776.8624   23266783.8724
       159.0004        161.0004
  -8815830.56148  -6845858.74146  22738220.992    22738221.6204   22738227.8934
       179.0004        181.0004
   -856162.65847   -661793.38645  23668048.041    23668047.7994   23668053.4334
       143.0004        148.0004
 -13892797.97349 -10806102.56447  21629304.817    21629305.3184   21629313.1984
       202.0004        201.0004
 -11696253.49049  -9097847.74247  22421806.720    22421807.0264   22421815.8734
       205.0004        205.0004
  -9230851.26748  -7166796.93146  23007738.512    23007738.2764   23007744.6514
       172.0004        173.0004
  -2063723.91947  -1600389.19045  23349572.246    23349573.1934   23349578.0924
       158.0004        160.0004
 -23774774.31249 -18502185.39947  20907589.899    20907590.4184   20907593.8394
       204.0004        204.0004
 -17653452.79748 -13740235.65747  21332249.897    21332250.1624   21332259.3384
       190.0004        190.0004
 -12261374.65948  -9546045.51046  21795485.239    21795484.6864   21795489.7184
       186.0004        186.0004
 21  2  2  0 18 30.0000000  0 10G04G30G28G09G08G17G14G07G01G21
  -6118021.39347  -4748869.40546  23285449.000    23285449.4354   23285455.8994
       161.0004        163.0004
  -8902974.55748  -6913763.11446  22721638.289    22721638.2874   22721645.0214
       180.0004        181.0004
   -871093.76747   -673427.97445  23665207.795    23665207.0784   23665211.5184
       147.0004        151.0004
 -13829778.35049 -10756996.35747  21641297.273    21641297.6544   21641304.9924
       200.0004        200.0004
 -11604860.89249  -9026632.71747  22439199.427    22439199.1294   22439207.1794
       205.0004        206.0004
  -9307368.44448  -7226420.64046  22993176.033    22993177.3694   22993183.9274
       171.0004        172.0004
  -2089748.90247  -1620668.38145  23344620.640    23344620.9324   23344626.1064
       160.0004        162.0004
 -23834581.83649 -18548788.63947  20896208.486    20896208.9184   20896213.6664
       204.0004        204.0004
 -17707655.93848 -13782471.82047  21321935.772    21321936.3304   21321944.6944
       190.0004        190.0004
 -12243988.14548  -9532497.52946  21798793.181    21798792.7224   21798798.0954
       186.0004        186.0004
 21  2  2  0 19  0.0000000  0 10G04G30G28G09G08G17G14G07G01G21
  -6019860.75247  -4672380.61146  23304127.686    23304128.2034   23304135.2164
       162.0004        163.0004
  -8990051.39048  -6981615.18646  22705067.925    22705067.6634   22705074.9704
       180.0004        179.0004
   -886018.12847   -685057.31045  23662366.464    23662366.6314   23662372.4744
       149.0004        153.0004
 -13766441.10349 -10707642.66347  21653350.053    21653350.1384   21653357.6814
       200.0004        200.0004
 -11513341.99449  -8955319.27647  22456614.677    22456614.8124   22456622.6594
       206.0004        206.0004
  -9383529.22548  -7285766.66246  22978685.360    22978684.7474   22978690.8934
       172.0004        173.0004
  -2115779.58347  -1640952.01245  23339666.590    23339667.3714   23339672.6064
       160.0004        162.0004
 -23894102.24149 -18595168.16547  20884881.880    20884882.5554   20884887.2564
       204.0004        204.0004
 -17761467.95248 -13824403.23447  21311696.262    21311696.3164   21311704.1644
       190.0004        192.0004
 -12226105.40048  -9518562.90746  21802195.715    21802195.2324   21802200.7954
       185.0004        185.0004
 21  2  2  0 19 30.0000000  0 10G04G30G28G09G08G17G14G07G01G21
  -5921667.36647  -4595866.30845  23322814.100    23322813.8614   23322821.5734
       162.0004        162.0004
  -9077059.06948  -7049413.37446  22688510.045    22688510.1984   22688517.3534
       179.0004        179.0004
   -900937.28447   -696682.59345  23659527.109    23659527.4454   23659533.2684
       149.0004        152.0004
 -13702789.52449 -10658044.03447  21665462.201    21665462.6164   21665470.3454
       200.0004        200.0004
 -11421699.81649  -8883909.78947  22474052.709    22474052.9594   22474061.5414
       205.0004        205.0004
  -9459332.69548  -7344834.24446  22964259.932    22964260.2984   22964265.4004
       173.0004        174.0004
  -2141817.45747  -1661241.23946  23334713.202    23334713.6394   23334718.0214
       162.0004        163.0004
 -23953332.74249 -18641321.80747  20873610.890    20873611.2774   20873615.4874
       204.0004        204.0004
 -17814886.16548 -13866027.79147  21301530.904    21301531.2024   21301538.7344
       192.0004        193.0004
 -12207726.65348  -9504241.78446  21805693.317    21805692.9914   21805698.1254
       185.0004        185.0004
 21  2  2  0 20  0.0000000  0 10G04G30G28G09G08G17G14G07G01G21
  -5823443.25647  -4519328.06446  23341506.248    23341506.1144   23341513.0564
       162.0004        163.0004
  -9163994.50948  -7117155.28346  22671966.335    22671967.1234   22671972.9714
       177.0004        178.0004
   -915851.88947   -708304.34245  23656689.742    23656689.4964   23656694.5094
       150.0004        153.0004
 -13638825.72449 -10608202.11047  21677634.863    21677634.8434   21677641.4144
       199.0004        198.0004
 -11329935.84349  -8812405.39647  22491515.674    22491515.3114   22491523.4874
       205.0004        204.0004
  -9534776.43948  -7403621.53746  22949903.046    22949903.3394   22949908.0974
       172.0004        173.0004
  -2167862.73747  -1681536.25245  23329756.727    23329756.6644   23329761.4764
       161.0004        162.0004
 -24012269.74449 -18687246.74547  20862395.267    20862396.0664   20862400.0314
       204.0004        204.0004
 -17867906.83248 -13907342.58447  21291441.157    21291442.1374   21291449.7724
       193.0004        194.0004
 -12188850.70148  -9489533.23146  21809285.002    21809285.5064   21809290.1264
       185.0004        186.0004
 21  2  2  0 20 30.0000000  0 10G04G30G28G09G08G17G14G07G01G21
  -5725191.18747  -4442768.02246  23360203.307    23360203.7994   23360210.0594
       162.0004        163.0004
  -9250855.30548  -7184839.02346  22655438.675    22655438.7644   22655444.5464
       179.0004        181.0004
   -930764.24347   -719924.34245  23653852.629    23653851.5564   23653857.8414
       151.0004        154.0004
 -13574552.54649 -10558119.11147  21689864.836    21689865.2194   21689872.8844
       198.0004        199.0004
 -11238052.89449  -8740808.29147  22509000.208    22508999.9404   22509007.7894
       204.0004        203.0004
  -9609858.94548  -7462127.32746  22935614.224    22935615.5434   22935619.0294
       170.0004        170.0004
  -2193916.54047  -1701837.88745  23324797.769    23324798.4654   23324803.1404
       159.0004        159.0004
 -24070910.95549 -18732941.19047  20851237.614    20851237.5924   20851241.2494
       204.0004        205.0004
 -17920526.86848 -13948345.17547  21281427.693    21281428.3134   21281436.6814
       194.0004        194.0004
 -12169477.63048  -9474437.30746  21812972.466    21812971.5034   21812977.4354
       185.0004        185.0004
 21  2  2  0 21  0.0000000  0 10G04G30G28G09G08G17G14G07G01G21
  -5626913.78347  -4366188.22445  23378905.491    23378904.9884   23378910.6444
       162.0004        162.0004
  -9337638.93348  -7252462.61146  22638924.244    22638924.5594   22638930.4324
       181.0004        182.0004
   -945675.44747   -731543.42445  23651014.052    23651013.8844   23651018.0934
       151.0004        154.0004
 -13509972.73349 -10507797.19147  21702155.022    21702154.9164   21702161.9244
       199.0004        199.0004
 -11146053.42449  -8669120.39047  22526505.875    22526506.2794   22526514.9414
       202.0004        202.0004
  -9684578.97648  -7520350.67646  22921396.032    22921397.1724   22921399.9684
       170.0004        171.0004
  -2219979.71447  -1722146.81745  23319838.228    23319839.7204   23319844.3644
       158.0004        159.0004
 -24129253.24749 -18778402.71747  20840134.290    20840135.1234   20840138.8194
       204.0004        204.0004
 -17972743.18848 -13989033.18647  21271492.057    21271492.1234   21271500.6774
       194.0004        195.0004
 -12149607.09848  -9458953.75746  21816753.753    21816753.1714   21816757.4294
       185.0004        186.0004
 21  2  2  0 21 30.0000000  0 10G04G30G28G09G08G17G14G07G01G21
  -5528614.24047  -4289591.17045  23397610.892    23397610.4444   23397616.6634
       160.0004        161.0004
  -9424343.41748  -7320024.52246  22622425.306    22622424.9184   22622431.8884
       182.0004        181.0004
   -960587.25347   -743162.97745  23648176.635    23648176.4514   23648181.9344
       152.0004        154.0004
 -13445089.62849 -10457238.91147  21714501.390    21714501.5894   21714509.2874
       199.0004        200.0004
 -11053940.60149  -8597344.15747  22544034.318    22544035.0094   22544043.6224
       202.0004        202.0004
  -9758935.20248  -7578290.52746  22907248.186    22907247.6324   22907251.9074
       171.0004        174.0004
  -2246053.65547  -1742464.17345  23314876.455    23314877.0264   23314881.8894
       157.0004        158.0004
 -24187293.65149 -18823628.99647  20829089.577    20829090.3194   20829094.2484
       204.0004        204.0004
 -18024553.16149 -14029404.56047  21261632.807    21261633.1834   21261641.0674
       195.0004        195.0004
 -12129239.09448  -9443082.55846  21820629.106    21820629.0124   21820633.5474
       185.0004        185.0004
 21  2  2  0 22  0.0000000  0 10G04G30G28G09G08G17G14G07G01G21
  -5430294.91547  -4212978.72945  23416318.572    23416319.4754   23416325.9654
       159.0004        160.0004
  -9510966.06648  -7387522.67746  22605941.979    22605940.9374   22605948.2094
       181.0004        181.0004
   -975500.88347   -754783.97945  23645340.138    23645339.5424   23645342.9974
       152.0004        154.0004
 -13379905.73749 -10406446.27347  21726905.321    21726905.7944   21726912.9294
       199.0004        200.0004
 -10961716.93149  -8525481.55447  22561584.010    22561584.8364   22561593.6644
       202.0004        203.0004
  -9832925.99948  -7635945.65046  22893166.671    22893167.6384   22893172.1754
       172.0004        172.0004
  -2272139.11147  -1762790.48545  23309911.656    23309911.9514   23309918.7284
       156.0004        156.0004
 -24245029.77549 -18868618.18747  20818103.453    20818103.9764   20818107.6564
       204.0004        205.0004
 -18075953.49849 -14069456.74647  21251851.747    21251851.9974   21251859.7084
       195.0004        195.0004
 -12108373.25648  -9426823.44746  21824599.847    21824599.6034   21824604.5534
       185.0004        185.0004
 21  2  2  0 22 30.0000000  0 10G04G30G28G09G08G17G14G07G01G21
  -5331958.43547  -4136352.91545  23435030.297    23435031.6514   23435038.5654
       157.0004        157.0004
  -9597504.25048  -7454955.02046  22589473.239    22589472.9354   22589479.2214
       180.0004        180.0004
   -990417.47947   -766407.25745  23642499.958    23642499.8714   23642504.8874
       151.0004        153.0004
 -13314423.80649 -10355421.40847  21739365.231    21739366.3894   21739373.0484
       198.0004        198.0004
 -10869384.81349  -8453534.45947  22579154.418    22579154.7214   22579164.2094
       203.0004        203.0004
  -9906549.86648  -7693314.84346  22879156.783    22879156.6074   22879162.3974
       172.0004        173.0004
  -2298236.90247  -1783126.39345  23304946.684    23304946.9884   23304951.4784
       155.0004        158.0004
 -24302458.15849 -18913367.56647  20807175.034    20807175.5244   20807179.3514
       205.0004        205.0004
 -18126941.05549 -14109187.27447  21242149.183    21242149.0334   21242157.2294
       195.0004        195.0004
 -12087009.34748  -9410176.23046  21828665.377    21828664.8214   21828669.8374
       185.0004        185.0004
 21  2  2  0 23  0.0000000  0 10G04G30G28G09G08G17G14G07G01G21
  -5233607.51347  -4059715.85445  23453748.228    23453748.3094   23453753.4064
       157.0004        158.0004
  -9683955.60148  -7522319.69146  22573021.818    22573022.1364   22573029.2294
       180.0004        181.0004
  -1005338.57047   -778034.03145  23639661.284    23639660.9234   23639666.1294
       152.0004        156.0004
 -13248646.83449 -10304166.62347  21751883.389    21751883.1574   21751890.6534
       198.0004        199.0004
 -10776946.90849  -8381504.92147  22596744.064    22596744.9504   22596753.6594
       202.0004        201.0004
  -9979805.62948  -7750397.20846  22865216.136    22865216.9974   22865220.7634
       172.0004        173.0004
  -2324348.13447  -1803472.80945  23299977.551    23299977.7564   23299983.4024
       158.0004        160.0004
 -24359576.46549 -18957875.33447  20796305.572    20796306.1984   20796310.2634
       205.0004        206.0004
 -18177512.94748 -14148593.91647  21232525.013    21232525.2914   21232533.6394
       194.0004        194.0004
 -12065147.37348  -9393140.91446  21832825.739    21832825.2044   21832830.2404
       185.0004        185.0004
 21  2  2  0 23 30.0000000  0 10G04G30G28G09G08G17G14G07G01G21
  -5135246.03347  -3983070.56445  23472466.646    23472466.1994   23472471.0124
       157.0004        158.0004
  -9770318.77148  -7589615.64546  22556587.550    22556587.9954   22556594.4694
       180.0004        180.0004
  -1020266.17347   -789665.89145  23636821.058    23636819.8414   23636824.5524
       152.0004        153.0004
 -13182578.71949 -10252684.97047  21764455.196    21764455.4664   21764462.9004
       198.0004        197.0004
 -10684406.99649  -8309395.89047  22614352.993    22614353.8074   22614363.6144
       200.0004        199.0004
 -10052692.93248  -7807192.42146  22851346.506    22851346.3924   22851351.5694
       173.0004        174.0004
  -2350474.79147  -1823831.23345  23295006.024    23295006.6104   23295010.9814
       159.0004        162.0004
 -24416382.76549 -19002139.97147  20785495.407    20785495.9284   20785500.1704
       205.0004        206.0004
 -18227667.27048 -14187675.17247  21222981.426    21222982.1094   21222990.0244
       194.0004        194.0004
 -12042788.17848  -9375718.13146  21837079.687    21837079.4144   21837084.7794
       185.0004        185.0004
 21  2  2  0 24  0.0000000  0 10G04G30G28G09G08G17G14G07G01G21
  -5036876.39147  -3906418.92145  23491183.055    23491184.0744   23491191.4434
       154.0004        154.0004
  -9856591.03448  -7656840.76746  22540170.148    22540170.8194   22540177.9064
       179.0004        180.0004
  -1035201.79747   -801304.01045  23633976.135    23633976.8464   23633981.9984
       149.0004        152.0004
 -13116222.15849 -10200978.56547  21777083.362    21777083.1364   21777090.1374
       198.0004        198.0004
 -10591767.33649  -8237209.16747  22631983.627    22631983.4824   22631992.4274
       199.0004        199.0004
 -10125209.78848  -7863699.03646  22837546.122    22837546.9824   22837552.7184
       173.0004        174.0004
  -2376617.65247  -1844202.29445  23290029.530    23290030.9554   23290036.5204
       159.0004        160.0004
 -24472873.73149 -19046158.90347  20774745.706    20774746.0854   20774750.4574
       205.0004        205.0004
 -18277400.83748 -14226428.57547  21213516.961    21213517.3534   21213525.9454
       194.0004        194.0004
 -12019931.30948  -9357907.58046  21841429.722    21841429.4044   21841433.7204
       185.0004        185.0004
 21  2  2  0 24 30.0000000  0 10G04G30G28G09G08G17G14G07G01G21
  -4938500.12647  -3829762.07245  23509903.482    23509904.1604   23509910.7134
       153.0004        154.0004
  -9942768.78148  -7723992.23046  22523771.274    22523770.9314   22523778.3684
       178.0004        178.0004
  -1050145.87447   -812948.72445  23631134.430    23631134.4334   23631138.3594
       149.0004        151.0004
 -13049578.88249 -10149048.73947  21789764.861    21789765.0064   21789772.1264
       198.0004        199.0004
 -10499029.26849  -8164945.72547  22649631.450    22649631.4804   22649640.1884
       200.0004        201.0004
 -10197353.83348  -7919915.11846  22823817.373    22823817.5804   22823823.4354
       173.0004        174.0004
  -2402776.51647  -1864585.79546  23285053.949    23285053.0774   23285059.6174
       161.0004        163.0004
 -24529045.58149 -19089929.17447  20764056.332    20764056.9094   20764061.3814
       206.0004        206.0004
 -18326709.51748 -14264850.89547  21204133.192    21204133.7824   21204142.5314
       193.0004        193.0004
 -11996575.81848  -9339708.46646  21845874.313    21845873.6654   21845878.7324
       185.0004        185.0004
 21  2  2  0 25  0.0000000  0 10G04G30G28G09G08G17G14G07G01G21
  -4840121.24047  -3753103.22745  23528626.335    23528625.8444   23528633.1884
       153.0004        155.0004
 -10028850.85248  -7791069.16446  22507390.551    22507389.7614   22507396.7124
       177.0004        178.0004
  -1065101.26447   -824602.25845  23628287.899    23628288.3004   23628292.3274
       150.0004        152.0004
 -12982653.09349 -10096898.76647  21802500.792    21802500.7714   21802507.0644
       198.0004        198.0004
 -10406196.82949  -8092608.76447  22667296.914    22667296.7034   22667305.1864
       201.0004        200.0004
 -10269125.53748  -7975841.05546  22810161.683    22810161.9904   22810165.6444
       175.0004        178.0004
  -2428953.67447  -1884983.53946  23280071.071    23280071.9094   23280078.1304
       162.0004        163.0004
 -24584897.11649 -19133449.85347  20753428.343    20753428.8314   20753432.8874
       206.0004        206.0004
 -18375591.73448 -14302940.91947  21194831.547    21194832.2174   21194840.0054
       193.0004        193.0004
 -11972722.96048  -9321121.81346  21850413.170    21850413.2134   21850417.3424
       185.0004        185.0004
 21  2  2  0 25 30.0000000  0 10G04G30G28G09G08G17G14G07G01G21
  -4741742.11747  -3676444.20345  23547346.542    23547347.0994   23547353.5374
       153.0004        156.0004
 -10114834.45548  -7858069.36946  22491028.493    22491028.7054   22491034.7214
       178.0004        179.0004
  -1080068.93947   -836265.38645  23625439.269    23625440.1844   23625444.3754
       150.0004        152.0004
 -12915447.40949 -10044530.70847  21815289.296    21815289.3444   21815295.9774
       197.0004        197.0004
 -10313272.48149  -8020200.20547  22684979.045    22684979.2094   22684987.5954
       200.0004        198.0004
 -10340523.35248  -8031475.67146  22796573.303    22796574.2004   22796579.9954
       176.0004        177.0004
  -2455149.74847  -1905396.06245  23275086.817    23275087.3844   23275090.8404
       161.0004        162.0004
 -24640424.93949 -19176718.29147  20742861.504    20742861.6594   20742866.2124
       205.0004        206.0004
 -18424044.25148 -14340696.11047  21185611.558    21185611.7444   21185619.8054
       193.0004        194.0004
 -11948372.50548  -9302147.42546  21855046.924    21855046.3344   21855051.6794
       185.0004        185.0004
 21  2  2  0 26  0.0000000  0 10G04G30G28G09G08G17G14G07G01G21
  -4643365.82847  -3599787.37045  23566067.066    23566067.9504   23566075.2014
       155.0004        157.0004
 -10200717.52548  -7924991.22846  22474685.592    22474685.1064   22474692.1514
       179.0004        180.0004
  -1095050.54647   -847939.33645  23622589.348    23622588.8784   23622593.4214
       149.0004        153.0004
 -12847965.17549  -9991947.14547  21828129.981    21828130.6574   21828138.4064
       197.0004        197.0004
 -10220258.66249  -7947721.90747  22702678.081    22702679.1484   22702688.0724
       198.0004        198.0004
 -10411546.06348  -8086817.98046  22783058.855    22783058.9104   22783064.3034
       175.0004        175.0004
  -2481366.09347  -1925824.39246  23270098.761    23270098.5164   23270103.6164
       163.0004        165.0004
 -24695626.84249 -19219732.76047  20732356.777    20732357.4104   20732361.6734
       205.0004        206.0004
 -18472064.60148 -14378114.54047  21176472.913    21176473.6774   21176482.1044
       194.0004        194.0004
 -11923524.66148  -9282785.44246  21859776.755    21859775.5344   21859779.9314
       185.0004        185.0004
 21  2  2  0 26 30.0000000  0 10G04G30G28G09G08G17G14G07G01G21
  -4544995.15547  -3523134.90045  23584785.622    23584786.1954   23584793.4704
       155.0004        158.0004
 -10286497.66448  -7991832.87246  22458361.600    22458362.0234   22458369.0444
       179.0004        179.0004
  -1110047.53447   -859625.26545  23619736.098    23619735.7514   23619740.0774
       150.0004        154.0004
 -12780209.40649  -9939150.43047  21841023.672    21841023.9604   21841031.6094
       196.0004        195.0004
 -10127158.42849  -7875176.26547  22720395.544    22720395.3574   22720404.8694
       198.0004        198.0004
 -10482192.50448  -8141867.11546  22769615.576    22769615.2534   22769621.0694
       175.0004        175.0004
  -2507603.78248  -1946269.34146  23265105.633    23265105.8604   23265111.7184
       165.0004        166.0004
 -24750499.99449 -19262491.06247  20721915.345    20721915.7134   20721919.8054
       206.0004        206.0004
 -18519649.98248 -14415194.03947  21167417.687    21167418.6934   21167427.3334
       194.0004        196.0004
 -11898179.95048  -9263036.29546  21864597.709    21864597.5614   21864603.4244
       185.0004        185.0004
 21  2  2  0 27  0.0000000  0 10G04G30G28G09G08G17G14G07G01G21
  -4446632.01547  -3446488.33445  23603504.418    23603505.2394   23603511.0894
       153.0004        155.0004
 -10372171.62348  -8058591.78846  22442058.167    22442058.9004   22442065.9264
       179.0004        180.0004
  -1125060.85747   -871323.96245  23616877.195    23616877.4194   23616882.9784
       152.0004        155.0004
 -12712182.24848  -9886142.26747  21853968.086    21853968.5654   21853976.4484
       193.0004        193.0004
 -10033973.77149  -7802564.85047  22738127.507    22738127.7764   22738138.1454
       198.0004        199.0004
 -10552460.78648  -8196621.57546  22756242.511    22756243.6274   22756249.2654
       173.0004        174.0004
  -2533863.02148  -1966731.07146  23260108.166    23260108.9334   23260114.0724
       165.0004        166.0004
 -24805040.85349 -19304990.43347  20711535.845    20711536.2584   20711541.0324
       206.0004        206.0004
 -18566796.79749 -14451931.79247  21158446.676    21158447.4914   21158455.1804
       195.0004        196.0004
 -11872337.39348  -9242899.23146  21869516.049    21869515.9784   21869520.3794
       185.0004        185.0004
 21  2  2  0 27 30.0000000  0 10G04G30G28G09G08G17G14G07G01G21
  -4348279.25747  -3369849.85145  23622219.278    23622221.1394   23622226.8464
       152.0004        154.0004
 -10457737.10048  -8125266.15646  22425775.815    22425775.6334   22425782.9574
       179.0004        180.0004
  -1140091.78447   -883036.34045  23614018.519    23614018.1984   23614022.9624
       153.0004        156.0004
 -12643886.85748  -9832925.07847  21866964.041    21866963.8204   21866973.2204
       193.0004        193.0004
  -9940707.35849  -7729889.71847  22755875.157    22755875.8674   22755885.4854
       198.0004        198.0004
 -10622349.53148  -8251080.27846  22742944.532    22742944.6854   22742949.4784
       175.0004        176.0004
  -2560144.91448  -1987210.44746  23255107.577    23255108.3494   23255112.8444
       166.0004        167.0004
 -24859246.46849 -19347228.57147  20701221.001    20701221.6704   20701226.3654
       206.0004        206.0004
 -18613502.34849 -14488325.68947  21149558.531    21149559.4074   21149567.6564
       196.0004        196.0004
 -11845996.98448  -9222374.20746  21874528.398    21874527.8074   21874532.6284
       184.0004        185.0004
 21  2  2  0 28  0.0000000  0 10G04G30G28G09G08G17G14G07G01G21
  -4249939.23947  -3293221.31045  23640933.489    23640933.8944   23640941.6664
       153.0004        156.0004
 -10543191.30548  -8191853.82546  22409514.395    22409514.4844   22409520.7404
       179.0004        180.0004
  -1155141.48947   -894763.35445  23611155.084    23611153.9954   23611158.1004
       153.0004        156.0004
 -12575325.87148  -9779500.94847  21880009.845    21880010.9304   21880018.6864
       192.0004        191.0004
  -9847361.33549  -7657152.55347  22773639.195    22773639.0284   22773648.5584
       198.0004        197.0004
 -10691857.59648  -8305242.36646  22729717.522    22729717.5084   22729723.4014
       176.0004        176.0004
  -2586450.12248  -2007707.98846  23250101.472    23250102.0384   23250107.0854
       166.0004        167.0004
 -24913114.34349 -19389203.53947  20690970.999    20690971.0984   20690975.5624
       206.0004        207.0004
 -18659763.58749 -14524373.38047  21140755.666    21140756.1094   21140764.3944
       196.0004        197.0004
 -11819159.04448  -9201461.50046  21879635.188    21879635.1534   21879639.8084
       184.0004        185.0004
 21  2  2  0 28 30.0000000  0 10G04G30G28G09G08G17G14G07G01G21
  -4151615.38147  -3216605.33145  23659643.648    23659644.0794   23659650.9484
       153.0004        156.0004
 -10628532.48548  -8258353.44746  22393275.150    22393274.7744   22393280.7854
       180.0004        180.0004
  -1170212.28147   -906506.80145  23608286.401    23608286.3124   23608291.2754
       154.0004        157.0004
 -12506503.02348  -9725872.78347  21893107.025    21893107.4904   21893115.7504
       191.0004        192.0004
  -9753938.64849  -7584355.66947  22791417.039    22791416.9094   22791426.3374
       195.0004        195.0004
 -10760984.60748  -8359107.52446  22716562.606    22716562.7284   22716568.1844
       176.0004        176.0004
  -2612780.32648  -2028225.03146  23245091.344    23245091.9454   23245097.0474
       167.0004        169.0004
 -24966642.45449 -19430913.77347  20680784.616    20680785.2054   20680789.0864
       207.0004        207.0004
 -18705578.45949 -14560073.26647  21132036.883    21132038.0544   21132045.9314
       197.0004        197.0004
 -11791824.34548  -9180161.72946  21884836.995    21884836.0604   21884841.6164
       184.0004        184.0004
 21  2  2  0 29  0.0000000  0 10G04G30G28G09G08G17G14G07G01G21
  -4053310.43047  -3140004.08045  23678350.452    23678350.5444   23678358.5044
       153.0004        155.0004
 -10713758.24848  -8324763.12046  22377056.716    22377056.3524   22377063.4534
       180.0004        181.0004
  -1185305.47447   -918267.72545  23605414.543    23605414.4694   23605419.0384
       154.0004        157.0004
 -12437421.38448  -9672042.94347  21906253.817    21906254.2374   21906262.3824
       192.0004        194.0004
  -9660442.60849  -7511501.61647  22809210.455    22809209.5244   22809217.4144
       195.0004        195.0004
 -10829729.39648  -8412674.84146  22703481.098    22703480.9554   22703487.3424
       175.0004        175.0004
  -2639136.58048  -2048762.33546  23240075.259    23240076.0764   23240081.4854
       167.0004        168.0004
 -25019828.15449 -19472357.17147  20670663.600    20670664.0074   20670668.3394
       206.0004        207.0004
 -18750944.27649 -14595423.23047  21123404.891    21123405.0524   21123413.3784
       197.0004        197.0004
 -11763993.10648  -9158475.03646  21890133.004    21890132.3654   21890137.6544
       184.0004        184.0004
 21  2  2  0 29 30.0000000  0 10G04G30G28G09G08G17G14G07G01G21
  -3955026.32047  -3063419.09345  23697052.710    23697054.0094   23697061.2604
       154.0004        156.0004
 -10798865.31748  -8391080.31046  22360861.848    22360861.6034   22360868.6084
       182.0004        184.0004
  -1200421.73647   -930046.62045  23602537.223    23602537.5984   23602542.4704
       153.0004        155.0004
 -12368083.18648  -9618013.18347  21919449.332    21919449.6574   21919456.4414
       194.0004        195.0004
  -9566874.57649  -7438591.47347  22827013.922    22827014.1604   22827022.8894
       195.0004        195.0004
 -10898090.23848  -8465943.01146  22690472.141    22690473.0444   22690477.8594
       174.0004        174.0004
  -2665519.06848  -2069320.11846  23235055.414    23235055.9564   23235060.5234
       168.0004        169.0004
 -25072667.93749 -19513531.03947  20660608.627    20660609.2084   20660613.3004
       206.0004        207.0004
 -18795857.52549 -14630420.55547  21114857.689    21114858.1394   21114866.2514
       197.0004        197.0004
 -11735665.35348  -9136401.45046  21895522.744    21895523.0314   21895528.1544
       184.0004        184.0004
 21  2  2  0 30  0.0000000  0 10G04G30G28G09G08G17G14G07G01G21
  -3856765.70347  -2986852.40145  23715750.945    23715752.4624   23715760.4484
       154.0004        157.0004
 -10883851.20348  -8457303.07246  22344689.776    22344689.8294   22344696.2744
       184.0004        186.0004
  -1215562.50547   -941844.59945  23599657.425    23599656.6134   23599660.7344
       154.0004        156.0004
 -12298491.41249  -9563785.82947  21932692.397    21932693.1834   21932699.3324
       196.0004        197.0004
  -9473237.54048  -7365627.54647  22844832.482    22844832.4834   22844840.8484
       194.0004        195.0004
 -10966065.73648  -8518910.89246  22677536.404    22677537.4814   22677541.6504
       174.0004        176.0004
  -2691928.72248  -2089899.07546  23230029.929    23230031.0314   23230035.0464
       167.0004        166.0004
 -25125158.82349 -19554433.03347  20650620.380    20650620.9144   20650624.7474
       207.0004        207.0004
 -18840315.48649 -14665063.10747  21106397.379    21106398.2294   21106405.9594
       197.0004        198.0004
 -11706840.34648  -9113940.39346  21901008.189    21901007.7624   21901013.2284
       184.0004        183.0004
 21  2  2  0 30 30.0000000  0 10G04G30G28G09G08G17G14G07G01G21
  -3758530.77447  -2910305.74045  23734445.325    23734446.5454   23734453.7084
       154.0004        157.0004
 -10968712.99148  -8523429.11746  22328540.480    22328540.5024   22328547.7284
       185.0004        185.0004
  -1230728.93447   -953662.56745  23596771.875    23596770.7874   23596774.4454
       153.0004        155.0004
 -12228648.65149  -9509362.89747  21945982.740    21945983.1354   21945989.7094
       196.0004        196.0004
  -9379533.08949  -7292611.08447  22862663.433    22862664.3354   22862673.2044
       195.0004        195.0004
 -11033654.27548  -8571577.25946  22664675.425    22664675.7034   22664680.4224
       174.0004        175.0004
  -2718366.08147  -2110499.61145  23224997.555    23224999.3344   23225004.1994
       164.0004        162.0004
 -25177297.76449 -19595060.77047  20640698.110    20640698.5214   20640702.9014
       207.0004        208.0004
 -18884315.03549 -14699348.43947  21098025.323    21098025.6604   21098033.0174
       197.0004        198.0004
 -11677518.40248  -9091092.10446  21906588.571    21906587.7824   21906593.0804
       183.0004        183.0004
 21  2  2  0 31  0.0000000  0 10G04G30G28G09G08G17G14G07G01G21
  -3660325.49347  -2833782.17445  23753133.508    23753134.0264   23753140.8874
       155.0004        158.0004
 -11053449.38948  -8589457.46846  22312416.327    22312416.2694   22312422.6954
       186.0004        187.0004
  -1245923.16147   -965502.19145  23593877.943    23593878.3494   23593883.8854
       153.0004        155.0004
 -12158559.12349  -9454747.66547  21959321.039    21959321.5574   21959327.7324
       197.0004        198.0004
  -9285765.25948  -7219545.24347  22880506.717    22880506.8534   22880516.2924
       193.0004        193.0004
 -11100856.66248  -8623942.69846  22651886.849    22651887.2694   22651892.7554
       173.0004        175.0004
  -2744833.34247  -2131123.43146  23219961.311    23219962.1394   23219967.4094
       162.0004        163.0004
 -25229083.66349 -19635413.42047  20630843.936    20630844.1024   20630848.4084
       207.0004        207.0004
 -18927854.74849 -14733275.45447  21089739.364    21089739.9134   21089748.2234
       197.0004        197.0004
 -11647701.19848  -9067857.89146  21912262.480    21912262.3334   21912266.7354
       183.0004        183.0004
 21  2  2  0 31 30.0000000  0 10G04G30G28G09G08G17G14G07G01G21
  -3562151.87847  -2757283.27845  23771813.720    23771815.2644   23771823.0694
       155.0004        157.0004
 -11138057.34948  -8655385.73946  22296315.486    22296315.5594   22296322.1464
       186.0004        186.0004
  -1261146.35147   -977364.40745  23590982.336    23590982.2744   23590987.2614
       153.0004        157.0004
 -12088225.26849  -9399942.07047  21972704.578    21972704.8724   21972711.5584
       197.0004        195.0004
  -9191935.71348  -7146431.32747  22898363.417    22898362.8954   22898371.1104
       192.0004        192.0004
 -11167670.76248  -8676005.59846  22639171.948    22639172.6854   22639176.9894
       173.0004        174.0004
  -2771330.85947  -2151770.82946  23214920.812    23214921.1734   23214924.1954
       163.0004        165.0004
 -25280512.98949 -19675488.22447  20621056.619    20621057.3304   20621061.9594
       207.0004        208.0004
 -18970931.33449 -14766841.61647  21081541.754    21081542.8534   21081550.8714
       197.0004        198.0004
 -11617388.47048  -9044237.57746  21918031.158    21918030.9904   21918035.2524
       184.0004        184.0004
 21  2  2  0 32  0.0000000  0 10G04G30G28G09G08G17G14G07G01G21
  -3464012.77347  -2680811.27345  23790489.950    23790489.9614   23790498.3514
       154.0004        156.0004
 -11222534.52348  -8721212.07846  22280240.131    22280239.9164   22280246.4084
       186.0004        186.0004
  -1276399.97147   -989250.34345  23588078.943    23588078.9794   23588083.3404
       153.0004        155.0004
 -12017650.28849  -9344948.56447  21986133.891    21986133.7794   21986141.9374
       195.0004        195.0004
  -9098047.68748  -7073271.83147  22916228.401    22916228.3734   22916237.8674
       192.0004        192.0004
 -11234096.16348  -8727765.60946  22626532.508    22626532.9184   22626537.7474
       174.0004        177.0004
  -2797859.71047  -2172442.61946  23209870.739    23209871.1444   23209876.4114
       163.0004        164.0004
 -25331583.06649 -19715283.08347  20611339.012    20611339.1304   20611343.5834
       207.0004        208.0004
 -19013542.37749 -14800044.99247  21073433.147    21073434.2754   21073442.4874
       197.0004        198.0004
 -11586580.83348  -9020231.60346  21923892.426    21923892.4474   21923897.3454
       183.0004        183.0004
 21  2  2  0 32 30.0000000  0 10G04G30G28G09G08G17G14G07G01G21
  -3365910.74447  -2604368.15945  23809157.881    23809158.4244   23809166.9134
       154.0004        157.0004
 -11306878.34948  -8786934.54446  22264190.529    22264190.4944   22264196.5134
       186.0004        187.0004
  -1291685.16947  -1001160.87445  23585171.083    23585170.6384   23585175.5414
       152.0004        154.0004
 -11946837.15448  -9289769.50647  21999608.120    21999608.2484   21999617.0844
       194.0004        193.0004
  -9004103.32848  -7000068.44147  22934104.843    22934105.1414   22934114.9194
       192.0004        192.0004
 -11300131.57148  -8779221.73546  22613966.357    22613966.8824   22613971.0284
       176.0004        178.0004
  -2824420.73147  -2193139.52246  23204816.460    23204817.2404   23204822.3554
       163.0004        165.0004
 -25382291.32949 -19754796.01747  20601688.919    20601689.5764   20601693.9224
       207.0004        208.0004
 -19055685.14249 -14832883.49547  21065413.255    21065414.2734   21065422.6144
       197.0004        197.0004
 -11555278.51048  -8995840.17246  21929849.183    21929849.0774   21929854.8944
       183.0004        184.0004
 21  2  2  0 33  0.0000000  0 10G04G30G28G09G08G17G14G07G01G21
  -3267847.71447  -2527955.44045  23827819.536    23827820.0784   23827826.8644
       154.0004        156.0004
 -11391085.56748  -8852550.54946  22248165.220    22248165.3084   22248172.6634
       187.0004        186.0004
  -1307002.96447  -1013096.82845  23582255.633    23582255.8104   23582259.1034
       150.0004        152.0004
 -11875788.18948  -9234406.69047  22013128.762    22013129.4774   22013136.3374
       193.0004        193.0004
  -8910104.73048  -6926822.76247  22951991.484    22951992.5784   22952002.8684
       192.0004        193.0004
 -11365775.12148  -8830372.50846  22601475.275    22601475.4654   22601479.7154
       177.0004        178.0004
  -2851014.21947  -2213861.68446  23199756.915    23199757.0214   23199762.1004
       163.0004        163.0004
 -25432634.43049 -19794024.40647  20592109.233    20592109.5074   20592114.1024
       208.0004        208.0004
 -19097356.33849 -14865354.53047  21057484.603    21057485.0484   21057493.0234
       197.0004        197.0004
 -11523481.14848  -8971062.98946  21935901.224    21935900.1474   21935905.3014
       183.0004        184.0004
 21  2  2  0 33 30.0000000  0 10G04G30G28G09G08G17G14G07G01G21
  -3169827.70647  -2451576.23345  23846473.743    23846472.8264   23846479.4944
       154.0004        156.0004
 -11475155.09848  -8918059.25047  22232167.241    22232167.4234   22232175.2774
       187.0004        188.0004
  -1322356.22047  -1025060.41645  23579333.949    23579333.8114   23579338.2934
       147.0004        150.0004
 -11804507.85048  -9178863.56347  22026693.367    22026693.8274   22026700.8574
       192.0004        192.0004
  -8816055.21148  -6853537.43247  22969890.417    22969889.3414   22969900.2054
       191.0004        191.0004
 -11431027.31948  -8881218.33746  22589057.682    22589057.6944   22589062.6394
       178.0004        179.0004
  -2877642.45747  -2234610.99246  23194689.967    23194689.2414   23194694.4724
       162.0004        163.0004
 -25482611.14349 -19832967.30347  20582598.853    20582599.5774   20582603.5124
       207.0004        208.0004
 -19138554.80649 -14897457.21247  21049645.090    21049644.8504   21049652.7894
       196.0004        196.0004
 -11491190.65248  -8945901.54546  21942045.635    21942044.8034   21942049.2384
       183.0004        183.0004
 21  2  2  0 34  0.0000000  0 10G04G30G28G09G08G17G14G07G01G21
  -3071853.27247  -2375232.52745  23865117.113    23865117.0914   23865122.9054
       153.0004        155.0004
 -11559084.27648  -8983458.60347  22216196.855    22216196.8324   22216204.0574
       189.0004        191.0004
  -1337745.84047  -1037052.30145  23576405.586    23576404.9804   23576410.6084
       148.0004        151.0004
 -11732999.06348  -9123142.43247  22040301.168    22040301.3784   22040308.7374
       192.0004        192.0004
  -8721957.50648  -6780214.56647  22987798.570    22987797.4694   22987805.8354
       192.0004        192.0004
 -11495887.42948  -8931758.65246  22576714.238    22576714.9244   22576719.9124
       178.0004        178.0004
  -2904306.30547  -2255387.98446  23189613.863    23189615.2354   23189620.7274
       162.0004        165.0004
 -25532218.70949 -19871622.55447  20573158.517    20573159.2524   20573163.7244
       208.0004        208.0004
 -19179277.87349 -14929189.45347  21041895.007    21041895.4324   21041903.4764
       196.0004        195.0004
 -11458407.30448  -8920356.06646  21948284.121    21948283.3124   21948288.6204
       183.0004        183.0004
 21  2  2  0 34 30.0000000  0 10G04G30G28G09G08G17G14G07G01G21
  -2973926.97347  -2298926.35545  23883752.974    23883752.1764   23883758.8024
       153.0004        155.0004
 -11642870.56048  -9048746.62247  22200252.633    22200252.2304   22200259.8354
       190.0004        190.0004
  -1353173.42347  -1049073.80645  23573468.738    23573469.1024   23573474.3044
       147.0004        149.0004
 -11661264.81748  -9067245.63547  22053951.972    22053952.1374   22053958.7184
       192.0004        192.0004
  -8627814.21948  -6706856.18047  23005712.330    23005711.7774   23005721.3354
       192.0004        193.0004
 -11560354.42448  -8981992.65346  22564448.322    22564448.0604   22564452.4204
       178.0004        178.0004
  -2931006.55748  -2276193.37746  23184534.140    23184534.7604   23184539.9294
       165.0004        166.0004
 -25581454.37349 -19909988.01147  20563789.795    20563790.0624   20563794.5684
       208.0004        208.0004
 -19219522.92749 -14960549.23247  21034236.036    21034236.8244   21034245.2864
       195.0004        196.0004
 -11425131.67648  -8894427.01546  21954615.135    21954615.4634   21954620.1314
       182.0004        183.0004
 21  2  2  0 35  0.0000000  0 10G04G30G28G09G08G17G14G07G01G21
  -2876050.22347  -2222658.77745  23902377.531    23902377.7214   23902383.9834
       151.0004        154.0004
 -11726510.24448  -9113920.38447  22184336.316    22184336.4384   22184343.2574
       189.0004        188.0004
  -1368639.51647  -1061125.30645  23570526.819    23570526.1294   23570530.7254
       143.0004        145.0004
 -11589306.98748  -9011174.60047  22067645.101    22067645.0724   22067652.8704
       192.0004        193.0004
  -8533626.64548  -6633463.27947  23023636.866    23023636.2904   23023643.8714
       192.0004        193.0004
 -11624426.09148  -9031918.58746  22552255.098    22552255.8134   22552259.5284
       177.0004        180.0004
  -2957743.01548  -2297026.93346  23179447.905    23179448.6754   23179451.8054
       167.0004        169.0004
 -25630314.29849 -19948060.68947  20554492.472    20554492.6064   20554496.9394
       208.0004        209.0004
 -19259286.24449 -14991533.61347  21026669.321    21026670.5134   21026678.1264
       195.0004        196.0004
 -11391363.14448  -8868113.85146  21961041.828    21961040.6934   21961046.6984
       182.0004        182.0004
 21  2  2  0 35 30.0000000  0 10G04G30G28G09G08G17G14G07G01G21
  -2778225.84147  -2146432.01845  23920992.237    23920992.8874   23920999.4844
       151.0004        153.0004
 -11810001.02348  -9178978.11947  22168449.734    22168449.3104   22168455.8884
       188.0004        189.0004
  -1384144.87047  -1073207.34645  23567577.646    23567575.8174   23567580.6694
       142.0004        147.0004
 -11517128.86848  -8954931.91147  22081379.825    22081380.5604   22081387.8114
       192.0004        192.0004
  -8439397.56048  -6560038.01647  23041567.153    23041566.7744   23041574.7704
       193.0004        193.0004
 -11688101.89448  -9081536.04546  22540137.341    22540137.9224   22540143.4274
       180.0004        181.0004
  -2984516.79748  -2317889.54946  23174353.022    23174353.7044   23174357.5134
       168.0004        169.0004
 -25678796.25749 -19985838.83047  20545265.642    20545266.4834   20545271.1534
       208.0004        209.0004
 -19298565.62649 -15022140.88947  21019194.829    21019195.5914   21019203.7184
       195.0004        196.0004
 -11357102.33248  -8841417.09446  21967560.635    21967560.4714   21967566.1724
       182.0004        182.0004
 21  2  2  0 36  0.0000000  0 10G04G30G28G09G08G17G14G07G01G21
  -2680456.95747  -2070248.50145  23939595.120    23939596.1434   23939605.1654
       149.0004        151.0004
 -11893340.81948  -9243918.23147  22152590.424    22152589.8984   22152596.3204
       189.0004        189.0004
  -1399691.63047  -1085321.71145  23564616.856    23564617.0274   23564622.6024
       145.0004        150.0004
 -11444733.98848  -8898520.32347  22095156.432    22095156.7734   22095163.9604
       192.0004        192.0004
  -8345129.40048  -6486582.32547  23059505.457    23059505.6714   23059514.2024
       193.0004        194.0004
 -11751381.48248  -9130844.80946  22528096.719    22528096.6344   22528101.0494
       180.0004        181.0004
  -3011329.14548  -2338782.29946  23169248.266    23169249.3044   23169254.8204
       166.0004        166.0004
 -25726898.17349 -20023320.85547  20536112.525    20536113.3754   20536117.2974
       209.0004        210.0004
 -19337359.03749 -15052369.51647  21011811.846    21011813.1104   21011821.3614
       195.0004        196.0004
 -11322350.25648  -8814337.56346  21974174.305    21974173.8264   21974177.9154
       181.0004        181.0004
 21  2  2  0 36 30.0000000  0 10G04G30G28G09G08G17G14G07G01G21
  -2582743.44347  -1994108.12345  23958191.214    23958190.7224   23958198.7044
       149.0004        151.0004
 -11976524.37448  -9308736.55746  22136759.078    22136759.3864   22136767.6404
       187.0004        187.0004
  -1415278.51247  -1097467.32945  23561651.870    23561650.7934   23561656.2654
       149.0004        152.0004
 -11372122.67848  -8841940.07147  22108973.981    22108974.3234   22108981.4214
       191.0004        192.0004
  -8250822.61548  -6413096.50347  23077450.207    23077450.5214   23077459.1074
       192.0004        192.0004
 -11814261.09048  -9179841.84646  22516130.906    22516131.0684   22516136.2854
       182.0004        184.0004
  -3038178.32547  -2359703.73346  23164136.899    23164138.3744   23164146.5144
       163.0004        163.0004
 -25774614.70649 -20060502.55547  20527032.998    20527033.1744   20527037.1074
       209.0004        210.0004
 -19375661.29149 -15082215.39247  21004524.027    21004525.1034   21004532.6184
       196.0004        196.0004
 -11287104.69748  -8786873.46446  21980881.780    21980881.1644   21980885.9174
       182.0004        183.0004
 21  2  2  0 37  0.0000000  0 10G04G30G28G09G08G17G14G07G01G21
  -2485089.87647  -1918014.47545  23976774.602    23976775.2734   23976778.7664
       148.0004        151.0004
 -12059551.22848  -9373432.80446  22120960.680    22120960.5534   22120967.1374
       187.0004        187.0004
  -1430909.09247  -1109646.99945  23558676.705    23558677.0574   23558681.8544
       148.0004        152.0004
 -11299300.07648  -8785195.21047  22122831.806    22122831.7884   22122839.1174
       192.0004        192.0004
  -8156481.26148  -6339583.79947  23095403.251    23095402.9784   23095411.9624
       192.0004        191.0004
 -11876742.24248  -9228528.44946  22504239.661    22504240.8804   22504246.5664
       183.0004        184.0004
  -3065067.33347  -2380656.21346  23159022.957    23159023.5624   23159028.4864
       163.0004        166.0004
 -25821945.39549 -20097383.64547  20518026.052    20518026.6454   20518030.4344
       209.0004        209.0004
 -19413472.04049 -15111678.30547  20997328.984    20997329.5874   20997337.5484
       195.0004        196.0004
 -11251368.76248  -8759027.28346  21987682.071    21987681.9044   21987686.3754
       182.0004        183.0004
 21  2  2  0 37 30.0000000  0 10G04G30G28G09G08G17G14G07G01G21
  -2387499.03247  -1841969.68845  23995346.275    23995346.2374   23995351.8394
       148.0004        150.0004
 -12142418.89048  -9438005.00646  22105191.367    22105190.8914   22105198.4654
       187.0004        187.0004
  -1446584.75547  -1121861.76345  23555693.322    23555693.3534   23555698.4784
       147.0004        151.0004
 -11226269.32548  -8728288.13947  22136728.810    22136728.8894   22136736.3174
       191.0004        191.0004
  -8062108.28948  -6266046.43747  23113361.426    23113361.6044   23113370.7434
       191.0004        191.0004
 -11938824.16348  -9276903.96146  22492427.615    22492427.7624   22492432.3144
       183.0004        184.0004
  -3091997.14048  -2401640.44746  23153900.916    23153900.2484   23153904.6694
       166.0004        169.0004
 -25868887.62649 -20133962.00947  20509092.677    20509093.3784   20509098.0394
       209.0004        210.0004
 -19450788.90949 -15140756.36347  20990227.920    20990228.4104   20990236.2334
       195.0004        196.0004
 -11215142.92348  -8730799.35246  21994574.853    21994574.6514   21994580.0064
       182.0004        182.0004
 21  2  2  0 38  0.0000000  0 10G04G30G28G09G08G17G14G07G01G21
  -2289974.06347  -1765976.20845  24013901.546    24013903.0374   24013908.4704
       146.0004        147.0004
 -12225125.51148  -9502451.71047  22089453.605    22089453.1024   22089460.1874
       187.0004        188.0004
  -1462307.34247  -1134113.11745  23552703.321    23552702.6444   23552705.4464
       149.0004        152.0004
 -11153034.18048  -8671221.78947  22150664.870    22150665.4464   22150672.5004
       191.0004        191.0004
  -7967706.25848  -6192486.41247  23131325.025    23131325.4074   23131334.9464
       190.0004        191.0004
 -12000506.58748  -9324968.14346  22480688.444    22480689.4544   22480694.6104
       182.0004        182.0004
  -3118969.23548  -2422657.61646  23148767.598    23148767.6394   23148771.6694
       167.0004        167.0004
 -25915439.11849 -20170235.90047  20500234.936    20500235.5124   20500239.7044
       209.0004        210.0004
 -19487610.23049 -15169448.28247  20983221.481    20983222.0324   20983229.2594
       196.0004        197.0004
 -11178428.31648  -8702190.55246  22001562.305    22001561.8564   22001566.4114
       182.0004        182.0004
 21  2  2  0 38 30.0000000  0 10G04G30G28G09G08G17G14G07G01G21
  -2192516.27247  -1690035.09345  24032448.792    24032449.7074   24032455.3264
       143.0004        147.0004
 -12307667.17948  -9566769.87947  22073746.326    22073745.7774   22073753.0254
       188.0004        188.0004
  -1478076.84947  -1146401.02045  23549700.664    23549701.2454   23549705.6974
       148.0004        151.0004
 -11079596.40048  -8613997.53747  22164640.186    22164640.4714   22164647.3954
       191.0004        192.0004
  -7873276.76748  -6118905.00847  23149295.052    23149295.5504   23149304.1904
       191.0004        192.0004
 -12061787.25048  -9372719.26346  22469027.570    22469027.5934   22469031.7014
       181.0004        181.0004
  -3145983.18647  -2443707.40346  23143624.969    23143625.3414   23143630.4594
       164.0004        163.0004
 -25961596.49749 -20206202.68247  20491450.948    20491451.4084   20491456.0394
       209.0004        209.0004
 -19523932.27449 -15197751.13447  20976310.021    20976310.3284   20976317.8724
       197.0004        198.0004
 -11141224.42648  -8673200.49046  22008642.102    22008641.3734   22008646.2054
       182.0004        182.0004
 21  2  2  0 39  0.0000000  0 11G04G30G28G09G08G17G14G07G01G21G22
  -2095128.61147  -1614148.65245  24050981.509    24050980.9004   24050987.5494
       143.0004        146.0004
 -12390041.75148  -9630957.85246  22058069.857    22058069.6014   22058077.2714
       187.0004        187.0004
  -1493895.11547  -1158726.92945  23546691.331    23546691.8084   23546695.2124
       148.0004        151.0004
 -11005959.45048  -8556618.10947  22178652.772    22178652.5364   22178660.4604
       191.0004        192.0004
  -7778822.33848  -6045304.15147  23167268.149    23167269.1464   23167278.4004
       191.0004        192.0004
 -12122666.15648  -9420157.34846  22457443.358    22457443.9444   22457447.7674
       182.0004        182.0004
  -3173040.18647  -2464790.79746  23138475.578    23138476.7074   23138481.4364
       163.0004        165.0004
 -26007357.58349 -20241860.66247  20482742.731    20482743.5964   20482747.9294
       209.0004        210.0004
 -19559753.11549 -15225663.45847  20969493.074    20969493.5414   20969501.0844
       197.0004        197.0004
 -11103532.13648  -8643829.86546  22015814.625    22015814.1184   22015818.5724
       182.0004        183.0004
   2707249.54754
        74.0004
 21  2  2  0 39 30.0000000  0 11G19G04G30G28G09G08G17G14G07G01G21
   -723761.08954   -543839.94545  24776165.565
        74.0004        145.0004
  -1997813.34647  -1538318.60545  24069500.359    24069500.6264   24069505.8774
       142.0004        145.0004
 -12472246.48548  -9695013.48646  22042426.788    22042427.2604   22042433.6174
       187.0004        187.0004
  -1509763.36647  -1171091.77945  23543671.504    23543672.0584   23543676.1814
       148.0004        152.0004
 -10932126.15948  -8499085.68147  22192702.123    22192702.3984   22192709.9934
       190.0004        190.0004
  -7684345.23348  -5971685.63747  23185246.600    23185247.6584   23185256.9474
       190.0004        190.0004
 -12183142.66848  -9467281.87546  22445934.197    22445934.2854   22445939.9284
       181.0004        180.0004
  -3200140.97248  -2485908.27346  23133319.473    23133320.3004   23133325.0664
       165.0004        167.0004
 -26052719.57049 -20277207.67547  20474110.913    20474111.3924   20474115.9994
       209.0004        210.0004
 -19595070.19849 -15253183.25247  20962771.751    20962772.5884   20962779.9624
       197.0004        197.0004
 -11065352.38948  -8614079.40646  22023080.479    22023079.2384   22023083.9404
       182.0004        182.0004
 21  2  2  0 40  0.0000000  0 11G19G04G30G28G09G08G17G14G07G01G21
   -814754.78246   -614744.02745  24758850.485                    24758851.9144
       134.0004        146.0004
  -1900573.32947  -1462547.19445  24088004.990    24088004.5904   24088010.9734
       143.0004        147.0004
 -12554278.96048  -9758934.89546  22026817.841    22026817.7524   22026823.3994
       187.0004        187.0004
  -1525682.84447  -1183496.56845  23540641.367    23540641.4774   23540645.7514
       148.0004        151.0004
 -10858099.84548  -8441402.83847  22206788.567    22206789.5514   22206796.5304
       189.0004        189.0004
  -7589847.79048  -5898051.26347  23203229.367    23203229.7194   23203240.1514
       190.0004        190.0004
 -12243216.02048  -9514092.24746  22434502.858    22434502.6034   22434508.4854
       181.0004        181.0004
  -3227286.59247  -2507060.66046  23128152.888    23128153.8804   23128159.5014
       164.0004        164.0004
 -26097680.12949 -20312241.87947  20465555.045    20465555.5564   20465560.0294
       209.0004        210.0004
 -19629881.41749 -15280308.84247  20956148.001    20956148.2254   20956156.1614
       197.0004        198.0004
 -11026686.24148  -8583949.93046  22030437.474    22030437.0264   22030442.0924
       182.0004        183.0004
 21  2  2  0 40 30.0000000  0 11G19G04G30G28G09G08G17G14G07G01G21
   -905539.23847   -685484.96445  24741574.013    24741573.3274   24741580.3524
       139.0004        144.0004
  -1803412.26747  -1386837.30045  24106493.250    24106494.3014   24106500.3414
       145.0004        149.0004
 -12636137.84848  -9822721.04247  22011239.893    22011239.9024   22011246.8324
       187.0004        188.0004
  -1541656.54647  -1195943.58245  23537602.996    23537603.4174   23537607.3654
       151.0004        155.0004
 -10783884.77048  -8383572.90347  22220911.821    22220911.9604   22220919.1034
       189.0004        188.0004
  -7495334.61248  -5824404.65047  23221216.179    23221215.8944   23221224.6044
       189.0004        190.0004
 -12302886.64948  -9560588.83446  22423147.617    22423148.4154   22423152.3964
       180.0004        180.0004
  -3254479.03947  -2528249.57545  23122977.627    23122978.7714   23122984.4724
       161.0004        162.0004
 -26142237.83949 -20346962.18847  20457076.505    20457076.8494   20457081.2224
       209.0004        210.0004
 -19664185.71849 -15307039.44647  20949619.766    20949620.3234   20949627.7284
       198.0004        198.0004
 -10987535.35548  -8553442.74246  22037888.374    22037887.9304   22037892.3854
       183.0004        182.0004
 21  2  2  0 41  0.0000000  0 11G19G04G30G28G09G08G17G14G07G01G21
   -996112.32147   -756061.28645  24724338.924    24724338.0404   24724342.9074
       141.0004        145.0004
  -1706332.09447  -1311190.43345  24124966.474    24124967.4574   24124974.5174
       147.0004        150.0004
 -12717819.97348  -9886369.44347  21995696.452    21995696.4644   21995703.8814
       188.0004        190.0004
  -1557684.61447  -1208432.97045  23534552.251    23534553.0564   23534556.6864
       151.0004        154.0004
 -10709483.39948  -8325597.81947  22235070.660    22235070.5244   22235077.9754
       189.0004        191.0004
  -7400806.46748  -5750746.39247  23239203.865    23239204.2824   23239212.2564
       188.0004        188.0004
 -12362153.49448  -9606770.75146  22411869.584    22411870.3834   22411874.6274
       181.0004        182.0004
  -3281718.57247  -2549475.18046  23117795.683    23117794.9124   23117800.9024
       161.0004        163.0004
 -26186389.93949 -20381366.42347  20448674.618    20448674.7124   20448679.1204
       209.0004        210.0004
 -19697980.21149 -15333372.79347  20943189.082    20943189.5254   20943197.7334
       198.0004        198.0004
 -10947900.25048  -8522558.23346  22045430.068    22045429.9794   22045434.0264
       182.0004        183.0004
 21  2  2  0 41 30.0000000  0 12G19G04G30G28G09G08G17G14G07G01G21G22
  -1086472.14447   -826471.42045  24707142.777    24707143.6084   24707148.3914
       141.0004        145.0004
  -1609334.79147  -1235608.15245  24143424.292    24143424.5734   24143432.6834
       146.0004        149.0004
 -12799322.21148  -9949877.66047  21980187.629    21980187.2104   21980194.6974
       189.0004        190.0004
  -1573768.12547  -1220965.56945  23531492.754    23531491.8854   23531496.3644
       150.0004        151.0004
 -10634898.36448  -8267479.60547  22249262.515    22249263.3324   22249270.9724
       190.0004        190.0004
  -7306265.56848  -5677078.17747  23257195.309    23257195.2234   23257203.2394
       188.0004        189.0004
 -12421015.33148  -9652637.08746  22400668.089    22400668.6654   22400673.6554
       181.0004        182.0004
  -3309005.52547  -2570737.69546  23112602.902    23112603.8624   23112608.7164
       161.0004        163.0004
 -26230133.43149 -20415452.26347  20440350.574    20440351.0244   20440355.1624
       210.0004        210.0004
 -19731262.13749 -15359306.74347  20936855.564    20936855.8834   20936864.4244
       198.0004        199.0004
 -10907780.90648  -8491296.38446  22053064.170    22053063.5544   22053068.3544
       181.0004        182.0004
   2707249.54744   2132780.643 4                                  24795764.254
        74.0004        114.000
 21  2  2  0 42  0.0000000  0 11G19G04G30G28G09G08G17G14G07G01G21
  -1176616.27247   -896713.50145  24689989.304    24689989.3854   24689993.5834
       142.0004        146.0004
  -1512422.33047  -1160091.96645  24161867.180    24161866.7884   24161872.9984
       145.0004        147.0004
 -12880641.48848 -10013243.32547  21964712.890    21964712.9314   21964719.7924
       190.0004        191.0004
  -1589908.00447  -1233542.08645  23528421.206    23528420.4734   23528424.7134
       148.0004        151.0004
 -10560132.18248  -8209220.26447  22263490.212    22263490.5894   22263497.9414
       189.0004        188.0004
  -7211713.50348  -5603401.25446  23275187.285    23275186.9704   23275195.5964
       188.0004        187.0004
 -12479470.88448  -9698186.84946  22389544.804    22389545.4174   22389550.7544
       182.0004        183.0004
  -3336340.15247  -2592037.40846  23107400.850    23107401.6094   23107406.8154
       163.0004        165.0004
 -26273464.83149 -20449217.00547  20432104.539    20432105.0814   20432109.5004
       210.0004        210.0004
 -19764028.79349 -15384839.18347  20930620.647    20930621.2074   20930628.9284
       199.0004        199.0004
 -10867177.98048  -8459657.72946  22060790.808    22060790.2834   22060795.0864
       181.0004        181.0004
 21  2  2  0 42 30.0000000  0 11G19G04G30G28G09G08G17G14G07G01G21
  -1266542.47747   -966785.75845  24672879.269    24672877.8594   24672880.2504
       143.0004        147.0004
  -1415596.47747  -1084643.31545  24180293.059    24180291.9484   24180298.5804
       144.0004        147.0004
 -12961774.44448 -10076463.80347  21949273.253    21949273.3254   21949280.1474
       190.0004        190.0004
  -1606104.55547  -1246162.74445  23525338.329    23525337.8194   23525341.5924
       145.0004        149.0004
 -10485187.16148  -8150821.54347  22277751.953    22277752.5994   22277760.1394
       188.0004        188.0004
  -7117152.32248  -5529717.21946  23293180.107    23293180.4474   23293189.7274
       187.0004        187.0004
 -12537518.96948  -9743419.09346  22378498.664    22378499.1264   22378503.8804
       183.0004        184.0004
  -3363722.60048  -2613374.37546  23102191.318    23102191.8414   23102197.0734
       166.0004        169.0004
 -26316381.10149 -20482658.25047  20423938.479    20423938.6974   20423942.9134
       210.0004        211.0004
 -19796277.17349 -15409967.76147  20924483.397    20924484.0864   20924492.1234
       199.0004        199.0004
 -10826091.27548  -8427642.10246  22068609.810    22068609.5884   22068613.4744
       181.0004        181.0004
 21  2  2  0 43  0.0000000  0 11G19G04G30G28G09G08G17G14G07G01G21
  -1356248.99647  -1036686.85045  24655807.337    24655806.6974   24655808.7204
       139.0004        142.0004
  -1318859.47447  -1009263.84245  24198699.821    24198700.4814   24198706.8064
       145.0004        149.0004
 -13042718.27248 -10139536.91747  21933870.226    21933870.6634   21933877.3474
       190.0004        191.0004
  -1622358.77247  -1258828.33645  23522245.355    23522245.4624   23522250.5844
       147.0004        151.0004
 -10410066.07948  -8092285.65346  22292046.910    22292047.5014   22292055.0564
       188.0004        187.0004
  -7022584.08448  -5456027.69246  23311174.709    23311175.8534   23311185.8894
       186.0004        187.0004
 -12595158.84048  -9788333.25546  22367529.483    22367530.2804   22367535.4034
       183.0004        184.0004
  -3391153.20448  -2634748.84846  23096970.674    23096970.8064   23096976.5414
       166.0004        165.0004
 -26358879.63849 -20515774.00147  20415850.862    20415851.3264   20415855.5684
       210.0004        211.0004
 -19828004.85349 -15434690.61047  20918445.719    20918446.4994   20918454.6944
       199.0004        199.0004
 -10784521.49848  -8395250.06346  22076520.539    22076519.1314   22076524.1364
       181.0004        181.0004
 21  2  2  0 43 30.0000000  0 11G19G04G30G28G09G08G17G14G07G01G21
  -1445734.08247  -1106415.38145  24638778.733    24638777.4444   24638781.6314
       140.0004        145.0004
  -1222213.44547   -933955.25445  24217090.912    24217092.3444   24217098.6824
       146.0004        151.0004
 -13123469.93348 -10202460.29247  21918504.255    21918504.3584   21918510.7834
       191.0004        191.0004
  -1638671.47147  -1271539.49845  23519141.493    23519140.9334   23519145.2284
       148.0004        151.0004
 -10334771.72348  -8033614.71946  22306374.323    22306374.8624   22306382.3774
       186.0004        186.0004
  -6928010.51548  -5382333.99646  23329169.712    23329172.3084   23329182.4734
       185.0004        185.0004
 -12652389.42048  -9832928.48946  22356639.398    22356640.1084   22356645.1444
       183.0004        183.0004
  -3418632.54347  -2656161.28546  23091741.628    23091742.1334   23091746.3524
       164.0004        166.0004
 -26400957.57449 -20548562.00047  20407843.838    20407844.2704   20407848.3504
       210.0004        211.0004
 -19859209.38949 -15459005.81347  20912508.419    20912508.8934   20912516.3464
       199.0004        200.0004
 -10742469.16448  -8362481.99446  22084522.013    22084521.9384   22084526.1944
       181.0004        181.0004
 21  2  2  0 44  0.0000000  0 11G19G04G30G28G09G08G17G14G07G01G21
  -1534997.00647  -1175970.78545  24621790.588    24621791.4074   24621794.3764
       139.0004        144.0004
  -1125661.59747   -858720.06645  24235464.665    24235465.3474   24235471.5574
       149.0004        152.0004
 -13204027.65848 -10265232.53947  21903174.087    21903174.1174   21903181.0764
       191.0004        192.0004
  -1655045.05547  -1284298.10345  23516024.163    23516023.9524   23516029.7214
       148.0004        151.0004
 -10259307.86748  -7974811.72346  22320736.361    22320736.0714   22320742.8924
       186.0004        187.0004
  -6833434.68848  -5308638.56646  23347169.773    23347170.9774   23347179.5214
       184.0004        185.0004
 -12709211.00848  -9877205.01146  22345826.472    22345827.2554   22345831.0434
       181.0004        180.0004
  -3446162.14548  -2677612.91746  23086503.897    23086503.9314   23086508.6414
       167.0004        168.0004
 -26442613.27649 -20581020.98947  20399916.805    20399917.2814   20399921.7564
       210.0004        211.0004
 -19889889.31949 -15482912.23547  20906669.781    20906670.7534   20906678.3954
       199.0004        200.0004
 -10699935.92248  -8329339.19746  22092615.377    22092615.8174   22092619.9744
       181.0004        181.0004
 21  2  2  0 44 30.0000000  0 11G19G04G30G28G09G08G17G14G07G01G21
  -1624036.70947  -1245352.35445  24604848.190    24604847.3264   24604852.3684
       139.0004        143.0004
  -1029207.04147   -783560.69745  24253819.342    24253819.5024   24253826.3574
       147.0004        150.0004
 -13284389.45948 -10327852.10947  21887881.957    21887881.9854   21887889.0564
       192.0004        193.0004
  -1671481.12347  -1297105.43045  23512898.016    23512897.7054   23512901.8434
       148.0004        153.0004
 -10183678.25248  -7915879.56646  22335127.336    22335127.6194   22335134.7564
       186.0004        186.0004
  -6738859.82648  -5234943.88946  23365169.448    23365168.8654   23365176.6534
       185.0004        186.0004
 -12765623.62748  -9921162.87746  22335092.031    22335091.5104   22335096.4554
       180.0004        181.0004
  -3473743.39448  -2699104.81246  23081254.163    23081254.6274   23081260.2174
       167.0004        167.0004
 -26483845.22049 -20613149.78347  20392071.459    20392071.5654   20392075.1284
       210.0004        211.0004
 -19920043.19749 -15506408.75247  20900931.938    20900932.8344   20900939.8704
       199.0004        199.0004
 -10656923.48848  -8295823.00846  22100801.505    22100801.1464   22100804.7604
       180.0004        180.0004
 21  2  2  0 45  0.0000000  0 11G19G04G30G28G09G08G17G14G07G01G21
  -1712852.59347  -1314559.45245  24587946.310    24587946.2744   24587949.5294
       139.0004        143.0004
   -932852.84947   -708479.50845  24272154.192    24272155.2174   24272162.3404
       147.0004        150.0004
 -13364553.36248 -10390317.48147  21872627.692    21872627.6314   21872633.4584
       193.0004        193.0004
  -1687981.70047  -1309963.00845  23509756.959    23509756.6194   23509761.3594
       149.0004        153.0004
 -10107886.55748  -7856821.09946  22349550.121    22349550.0884   22349557.2704
       185.0004        185.0004
  -6644288.75048  -5161252.16146  23383168.091    23383166.2654   23383172.8534
       186.0004        186.0004
 -12821627.13048  -9964801.95946  22324434.843    22324435.2614   22324439.2754
       180.0004        180.0004
  -3501377.73048  -2720638.03446  23075996.217    23075996.2864   23076000.9744
       165.0004        166.0004
 -26524651.08849 -20644946.56647  20384305.793    20384306.1474   20384310.0634
       210.0004        211.0004
 -19949669.55749 -15529494.21247  20895293.845    20895294.4444   20895302.3634
       199.0004        199.0004
 -10613433.44448  -8261934.65646  22109077.574    22109076.6814   22109081.9544
       181.0004        182.0004
 21  2  2  0 45 30.0000000  0 11G19G04G30G28G09G08G17G14G07G01G21
  -1801442.24047  -1383590.26045  24571087.174    24571086.4844   24571093.4864
       138.0004        143.0004
   -836600.86447   -633478.00045  24290469.873    24290471.1074   24290477.8494
       145.0004        148.0004
 -13444516.16248 -10452626.16447  21857410.615    21857410.3374   21857417.0034
       192.0004        192.0004
  -1704547.29447  -1322871.25245  23506603.291    23506603.6464   23506609.6914
       147.0004        148.0004
 -10031935.27548  -7797638.29646  22364002.765    22364003.7044   22364010.5724
       184.0004        185.0004
  -6549723.16648  -5087564.70646  23401161.176    23401161.1004   23401167.9254
       187.0004        187.0004
 -12877221.15648 -10008121.95646  22313856.061    22313856.6954   22313860.0804
       181.0004        182.0004
  -3529065.18848  -2742212.67246  23070726.933    23070726.9404   23070732.3134
       165.0004        166.0004
 -26565028.16749 -20676409.23047  20376622.246    20376622.6134   20376627.0384
       211.0004        212.0004
 -19978765.75749 -15552166.57147  20889757.694    20889757.8694   20889765.6504
       200.0004        200.0004
 -10569466.03748  -8227674.33346  22117443.658    22117442.7804   22117448.4324
       181.0004        180.0004
 21  2  2  0 46  0.0000000  0 11G19G04G30G28G09G08G17G14G07G01G21
  -1889804.20947  -1452443.62745  24554273.753    24554273.4444   24554277.8924
       142.0004        146.0004
   -740453.35547   -558557.88345  24308765.639    24308766.5784   24308774.5254
       144.0004        147.0004
 -13524275.00948 -10514775.90847  21842232.809    21842232.9494   21842239.5424
       192.0004        192.0004
  -1721179.27347  -1335831.21445  23503440.042    23503439.9734   23503445.6884
       147.0004        151.0004
  -9955827.27048  -7738333.35646  22378486.262    22378486.6314   22378493.4294
       184.0004        184.0004
  -6455164.87448  -5013882.93046  23419154.308    23419154.3444   23419161.6974
       185.0004        186.0004
 -12932404.81648 -10051122.18046  22303354.725    22303355.0804   22303358.8074
       181.0004        181.0004
  -3556806.51148  -2763829.24546  23065448.710    23065447.8824   23065453.5174
       165.0004        166.0004
 -26604973.97349 -20707535.83347  20369020.466    20369020.8444   20369025.3364
       211.0004        211.0004
 -20007329.52249 -15574424.02447  20884322.042    20884322.2264   20884330.3824
       200.0004        200.0004
 -10525022.19848  -8193042.75746  22125901.222    22125900.9404   22125905.1084
       180.0004        180.0004
 21  2  2  0 46 30.0000000  0 11G19G04G30G28G09G08G17G14G07G01G21
  -1977935.78747  -1521117.50245  24537502.614    24537502.9384   24537507.4454
       142.0004        147.0004
   -644411.69047   -483720.24345  24327041.463    24327043.3384   24327050.4314
       143.0004        147.0004
 -13603826.28348 -10576763.92147  21827095.244    21827095.0464   21827102.4004
       193.0004        194.0004
  -1737877.39647  -1348842.72445  23500264.303    23500263.2424   23500268.4454
       149.0004        152.0004
  -9879564.55048  -7678907.87946  22392997.209    22392997.9674   22393005.6544
       183.0004        184.0004
  -6360615.59948  -4940208.20646  23437146.968    23437146.6794   23437154.4454
       185.0004        185.0004
 -12987176.27748 -10093801.21946  22292931.009    22292931.7464   22292937.2914
       181.0004        182.0004
  -3584601.32748  -2785487.55946  23060159.618    23060160.2424   23060164.4204
       165.0004        166.0004
 -26644485.00649 -20738323.66647  20361501.914    20361502.4254   20361506.4474
       210.0004        211.0004
 -20035357.83049 -15596264.26347  20878988.190    20878989.0694   20878996.4784
       199.0004        199.0004
 -10480101.99648  -8158040.00246  22134449.191    22134449.1674   22134453.1424
       180.0004        180.0004
 21  2  2  0 47  0.0000000  0 11G19G04G30G28G09G08G17G14G07G01G21
  -2065836.68947  -1589611.62945  24520776.921    24520776.2454   24520780.6354
       146.0004        151.0004
   -548479.22547   -408967.68145  24345299.210    24345300.1204   24345306.1484
       144.0004        148.0004
 -13683168.30548 -10638588.86547  21811995.998    21811996.4574   21812004.0414
       194.0004        194.0004
  -1754643.88947  -1361907.50645  23497071.035    23497070.7424   23497076.5594
       148.0004        151.0004
  -9803151.12248  -7619364.96446  22407539.774    22407539.9214   22407546.3554
       184.0004        185.0004
  -6266077.69548  -4866542.31146  23455135.973    23455136.4214   23455143.9554
       184.0004        183.0004
 -13041536.33148 -10136159.69946  22282587.454    22282587.9344   22282592.2134
       181.0004        181.0004
  -3612451.31248  -2807188.82746  23054857.669    23054858.9844   23054865.0964
       165.0004        166.0004
 -26683559.69349 -20768771.48547  20354065.970    20354066.6254   20354071.0574
       211.0004        212.0004
 -20062849.61549 -15617686.41347  20873756.619    20873756.9534   20873764.8404
       199.0004        198.0004
 -10434707.41648  -8122667.59646  22143087.203    22143086.7084   22143091.5114
       179.0004        180.0004
 21  2  2  0 47 30.0000000  0 11G19G04G30G28G09G08G17G14G07G01G21
  -2153504.72247  -1657924.27045  24504094.535    24504093.5554   24504099.1324
       152.0004        156.0004
   -452657.57147   -334301.47145  24363533.690    24363534.5044   24363540.6804
       146.0004        149.0004
 -13762297.61848 -10700248.06047  21796938.229    21796938.5144   21796945.2684
       194.0004        194.0004
  -1771479.32847  -1375026.00945  23493868.276    23493867.4524   23493872.2154
       148.0004        153.0004
  -9726589.23148  -7559706.33946  22422109.804    22422108.9874   22422116.3624
       185.0004        185.0004
  -6171553.69248  -4792887.23146  23473122.131    23473122.7054   23473131.3974
       182.0004        182.0004
 -13095483.80248 -10178196.64446  22272321.617    22272321.9434   22272326.0834
       183.0004        183.0004
  -3640356.27748  -2828932.93446  23049548.050    23049548.7494   23049554.2274
       166.0004        166.0004
 -26722194.99149 -20798876.90047  20346714.534    20346714.9054   20346719.0574
       211.0004        212.0004
 -20089802.08149 -15638688.31647  20868626.751    20868627.7184   20868635.9044
       198.0004        198.0004
 -10388838.75148  -8086925.75346  22151815.185    22151815.2864   22151820.2384
       179.0004        180.0004
 21  2  2  0 48  0.0000000  0 11G19G04G30G28G09G08G17G14G07G01G21
  -2240937.88547  -1726053.92945  24487456.002    24487455.1614   24487458.8034
       152.0004        153.0004
   -356948.73347   -259723.17145  24381745.638    24381746.0654   24381753.0634
       145.0004        148.0004
 -13841211.29548 -10761739.24247  21781922.249    21781922.3484   21781928.7704
       194.0004        195.0004
  -1788384.57947  -1388198.94545  23490652.044    23490651.4454   23490656.7084
       153.0004        157.0004
  -9649881.67648  -7499934.23646  22436704.958    22436705.9444   22436714.0324
       185.0004        185.0004
  -6077044.93548  -4719244.07146  23491105.857    23491106.4954   23491115.2284
       181.0004        182.0004
 -13149017.80548 -10219911.43846  22262133.804    22262133.9024   22262138.5494
       183.0004        183.0004
  -3668316.73048  -2850720.30946  23044228.868    23044229.6324   23044234.1174
       166.0004        168.0004
 -26760388.10049 -20828637.78547  20339446.252    20339446.8384   20339450.8244
       211.0004        212.0004
 -20116212.96549 -15659268.22347  20863601.978    20863602.5304   20863609.8134
       199.0004        199.0004
 -10342496.49148  -8050814.90046  22160635.288    22160634.0684   22160638.5264
       179.0004        179.0004
 21  2  2  0 48 30.0000000  0 11G19G04G30G28G09G08G17G14G07G01G21
  -2328135.21347  -1793999.80445  24470861.568    24470861.2354   24470867.1294
       151.0004        154.0004
   -261355.63247   -185235.02845  24399935.860    24399936.1744   24399944.4534
       141.0004        143.0004
 -13919907.17848 -10823060.71547  21766947.127    21766947.2614   21766953.6374
       194.0004        195.0004
  -1805361.21747  -1401427.46345  23487422.247    23487421.8784   23487425.3034
       155.0004        158.0004
  -9573031.93148  -7440051.31046  22451330.138    22451330.4274   22451336.7694
       184.0004        184.0004
  -5982553.97048  -4645614.72646  23509087.477    23509087.9534   23509096.4494
       182.0004        182.0004
 -13202138.42148 -10261304.10846  22252024.553    22252025.5674   22252030.8594
       183.0004        184.0004
  -3696333.85848  -2872551.81746  23038896.729    23038896.6134   23038903.3724
       167.0004        167.0004
 -26798137.50049 -20858052.90847  20332261.792    20332263.0194   20332267.1934
       211.0004        211.0004
 -20142080.82949 -15679424.97547  20858678.961    20858679.6014   20858687.5214
       198.0004        199.0004
 -10295682.48348  -8014336.45046  22169542.353    22169542.6194   22169547.3174
       178.0004        178.0004
 21  2  2  0 49  0.0000000  0 12G19G04G30G28G09G08G17G14G07G01G21G22
  -2415096.24147  -1861761.54945  24454313.332    24454313.2044   24454317.9774
       151.0004        153.0004
   -165881.16647   -110839.37645  24418103.587    24418105.4804   24418113.5414
       138.0004        141.0004
 -13998383.21549 -10884210.87147  21752013.351    21752013.1064   21752020.8184
       195.0004        195.0004
  -1822411.06647  -1414713.03245  23484177.056    23484176.7164   23484180.3214
       155.0004        156.0004
  -9496043.64748  -7380060.46746  22465980.104    22465980.7884   22465987.6204
       182.0004        182.0004
  -5888084.05448  -4572001.83846  23527065.488    23527065.7954   23527074.7304
       184.0004        186.0004
 -13254846.11848 -10302375.02746  22241995.929    22241995.7994   22242000.1964
       183.0004        183.0004
  -3724408.89248  -2894428.44546  23033553.911    23033554.4264   23033559.8494
       167.0004        168.0004
 -26835441.27949 -20887120.80247  20325164.382    20325164.4094   20325169.0334
       211.0004        212.0004
 -20167404.31949 -15699157.55447  20853860.062    20853860.5734   20853869.1764
       199.0004        198.0004
 -10248398.39848  -7977491.71646  22178541.374    22178540.2354   22178545.2034
       179.0004        179.0004
   2707249.54755
        92.0004
 21  2  2  0 49 30.0000000  0 11G19G04G30G28G09G08G17G14G07G01G21
  -2501818.23547  -1929337.07745  24437810.991    24437810.3204   24437814.2044
       150.0004        152.0004
    -70526.90947    -36537.37945  24436249.010    24436249.3274   24436258.1944
       135.0004        139.0004
 -14076635.90949 -10945186.99747  21737122.298    21737122.6564   21737129.2304
       195.0004        195.0004
  -1839534.61747  -1428056.02345  23480918.753    23480918.6984   23480922.5444
       155.0004        158.0004
  -9418919.00948  -7319963.33746  22480655.099    22480656.0464   22480664.2644
       182.0004        181.0004
  -5793635.94948  -4498405.91346  23545036.231    23545038.0144   23545046.7874
       184.0004        184.0004
 -13307139.66648 -10343123.21746  22232044.401    22232044.6154   22232049.0194
       182.0004        183.0004
  -3752541.62248  -2916350.05946  23028202.542    23028202.1174   23028206.7504
       168.0004        170.0004
 -26872296.10649 -20915838.84447  20318151.278    20318151.3364   20318155.2454
       211.0004        212.0004
 -20192180.74049 -15718463.83247  20849145.296    20849145.9064   20849154.1394
       199.0004        199.0004
 -10200644.48848  -7940280.86846  22187627.901    22187627.9104   22187632.4064
       179.0004        179.0004
 21  2  2  0 50  0.0000000  0 11G19G04G30G28G09G08G17G14G07G01G21
  -2588299.48347  -1996724.97045  24421353.904    24421353.5234   24421357.8964
       148.0004        151.0004
     24705.17747     37669.45545  24454370.039    24454372.3594   24454381.0734
       136.0004        140.0004
 -14154662.23449 -11005986.71547  21722275.344    21722274.4844   21722281.2784
       195.0004        195.0004
  -1856732.21547  -1441456.69845  23477647.511    23477647.1964   23477650.0344
       157.0004        159.0004
  -9341660.68648  -7259762.05746  22495356.597    22495357.8204   22495365.1384
       180.0004        179.0004
  -5699211.94348  -4424828.76246  23563007.437    23563007.6144   23563015.0134
       184.0004        184.0004
 -13359018.26448 -10383548.06346  22222172.661    22222172.8084   22222177.6544
       183.0004        185.0004
  -3780732.39148  -2938316.86646  23022836.136    23022836.9384   23022842.2814
       170.0004        170.0004
 -26908699.45449 -20944205.10247  20311223.388    20311224.0014   20311228.1174
       211.0004        211.0004
 -20216407.85249 -15737342.08747  20844535.553    20844536.0654   20844544.4444
       199.0004        199.0004
 -10152421.42448  -7902704.43646  22196804.279    22196804.2534   22196809.3314
       179.0004        179.0004
 21  2  2  0 50 30.0000000  0 11G19G04G30G28G09G08G17G14G07G01G21
  -2674540.21447  -2063925.45445  24404943.174    24404942.3564   24404947.1844
       148.0004        151.0004
    119811.51147    111778.26545  24472470.900    24472470.6724   24472478.4404
       138.0004        144.0004
 -14232460.76149 -11066608.94747  21707469.763    21707469.9884   21707477.4714
       196.0004        197.0004
  -1874006.51447  -1454917.17245  23474359.612    23474359.2174   23474361.3354
       153.0004        153.0004
  -9264272.95448  -7199459.93346  22510084.765    22510084.8784   22510092.1444
       180.0004        182.0004
  -5604815.31148  -4351272.98146  23580972.720    23580971.6724   23580978.2514
       184.0004        185.0004
 -13410483.02748 -10423650.44846  22212379.337    22212379.4394   22212384.0514
       184.0004        185.0004
  -3808983.11448  -2960330.39746  23017460.838    23017460.8724   23017465.9684
       168.0004        167.0004
 -26944650.37349 -20972218.81947  20304382.108    20304382.8024   20304386.9874
       211.0004        212.0004
 -20240085.04149 -15755791.84047  20840028.956    20840029.7794   20840038.0984
       198.0004        198.0004
 -10103732.03148  -7864764.65146  22206070.626    22206069.6954   22206074.7544
       179.0004        179.0004
 21  2  2  0 51  0.0000000  0 11G19G04G30G28G09G08G17G14G07G01G21
  -2760538.65947  -2130937.18945  24388579.106    24388577.9264   24388581.2914
       149.0004        152.0004
    214789.81847    185787.34745  24490544.324    24490545.2324   24490551.7344
       140.0004        145.0004
 -14310028.81249 -11127051.58247  21692709.666    21692709.6324   21692716.3924
       196.0004        196.0004
  -1891358.40847  -1468438.09845  23471055.065    23471053.6624   23471061.2984
       148.0004        150.0004
  -9186758.76148  -7139059.27046  22524834.996    22524835.1974   22524842.6974
       181.0004        182.0004
  -5510448.48048  -4277740.39246  23598928.216    23598928.2144   23598935.0884
       183.0004        183.0004
 -13461533.58948 -10463430.09946  22202663.727    22202664.3384   22202669.1474
       183.0004        184.0004
  -3837294.32748  -2982391.08546  23012073.773    23012073.7714   23012077.3544
       165.0004        166.0004
 -26980146.43249 -20999878.11247  20297627.519    20297628.0754   20297632.5264
       211.0004        212.0004
 -20263210.42549 -15773811.60547  20835628.763    20835629.7124   20835637.6024
       198.0004        198.0004
 -10054577.06848  -7826462.09046  22215424.214    22215424.0724   22215428.0114
       179.0004        178.0004
 21  2  2  0 51 30.0000000  0 11G19G04G30G28G09G08G17G14G07G01G21
  -2846292.98747  -2197758.68045  24372260.482    24372259.6084   24372262.8824
       149.0004        152.0004
    309638.28347    259695.21745  24508591.830    24508593.7164   24508600.2784
       139.0004        143.0004
 -14387363.22249 -11187312.16447  21677992.751    21677992.8044   21678000.2544
       196.0004        196.0004
  -1908788.73747  -1482020.20445  23467736.667    23467735.6424   23467743.3264
       147.0004        150.0004
  -9109120.65948  -7078562.06746  22539609.482    22539609.7994   22539615.5914
       182.0004        183.0004
  -5416112.32548  -4204231.72446  23616878.854    23616878.9794   23616886.4914
       181.0004        180.0004
 -13512168.95848 -10502886.19646  22193027.494    22193028.9574   22193033.8804
       183.0004        184.0004
  -3865666.16448  -3004499.02046  23006673.736    23006673.8494   23006678.6704
       165.0004        167.0004
 -27015184.73749 -21027180.69947  20290960.402    20290960.5454   20290964.5894
       211.0004        212.0004
 -20285781.74849 -15791399.62647  20831333.575    20831334.0624   20831342.1564
       198.0004        199.0004
 -10004957.53348  -7787797.51346  22224866.100    22224865.6114   22224870.3014
       179.0004        179.0004
 21  2  2  0 52  0.0000000  0 11G19G04G30G28G09G08G17G14G07G01G21
  -2931799.78747  -2264387.31045  24355988.534    24355988.0184   24355991.1534
       151.0004        155.0004
    404356.79147    333501.83945  24526616.100    24526616.9314   24526625.8214
       139.0004        144.0004
 -14464459.18949 -11247386.93047  21663321.680    21663321.9184   21663328.8384
       195.0004        195.0004
  -1926296.42047  -1495662.53745  23464409.291    23464409.0044   23464412.3294
       149.0004        153.0004
  -9031359.56148  -7017969.00746  22554405.874    22554406.1984   22554413.9174
       181.0004        180.0004
  -5321807.27748  -4130747.29246  23634821.998    23634823.4594   23634832.7334
       180.0004        180.0004
 -13562386.68248 -10542016.86047  22183472.922    22183473.0064   22183477.9824
       185.0004        188.0004
  -3894097.19048  -3026653.02446  23001263.911    23001264.5584   23001269.6974
       165.0004        167.0004
 -27049761.24949 -21054123.44047  20284379.853    20284380.4424   20284384.8094
       211.0004        212.0004
 -20307795.05549 -15808552.83647  20827144.766    20827145.4654   20827153.1064
       198.0004        199.0004
  -9954872.33648  -7748770.07246  22234396.889    22234396.7124   22234400.7354
       179.0004        179.0004
 21  2  2  0 52 30.0000000  0 11G19G04G30G28G09G08G17G14G07G01G21
  -3017059.18247  -2330823.13245  24339764.267    24339763.5904   24339767.1374
       151.0004        153.0004
    498941.44547    407204.14645  24544616.092    24544616.7494   24544623.4384
       137.0004        141.0004
 -14541315.60649 -11307275.04547  21648696.401    21648696.5744   21648703.8464
       196.0004        196.0004
  -1943884.26047  -1509367.30145  23461063.096    23461062.8004   23461064.8124
       153.0004        158.0004
  -8953480.00848  -6957283.65346  22569225.562    22569226.7274   22569234.2334
       182.0004        183.0004
  -5227537.15048  -4057290.02446  23652760.531    23652762.7764   23652771.3804
       179.0004        179.0004
 -13612188.46648 -10580823.42447  22173995.614    22173995.9194   22174001.1384
       187.0004        188.0004
  -3922589.51648  -3048854.81146  22995841.628    22995842.1714   22995847.4734
       166.0004        167.0004
 -27083875.00249 -21080705.59147  20277888.546    20277889.2404   20277893.7074
       211.0004        212.0004
 -20329250.34849 -15825271.23147  20823061.658    20823062.1774   20823070.3574
       198.0004        198.0004
  -9904324.47348  -7709382.12846  22244015.618    22244015.8954   22244020.0354
       178.0004        178.0004
 21  2  2  0 53  0.0000000  0 11G19G04G30G28G09G08G17G14G07G01G21
  -3102069.86347  -2397065.14145  24323586.616    24323585.7194   24323590.5084
       150.0004        152.0004
    593389.92047    480800.33945  24562588.413    24562589.3064   24562596.5974
       138.0004        143.0004
 -14617929.87049 -11366974.45147  21634117.349    21634117.2014   21634124.8464
       196.0004        196.0004
  -1961553.40347  -1523135.44145  23457698.565    23457698.0864   23457701.9074
       153.0004        156.0004
  -8875485.04548  -6896508.36646  22584068.059    22584068.2364   22584075.9974
       181.0004        181.0004
  -5133303.83848  -3983861.48646  23670694.391    23670695.1114   23670703.8734
       178.0004        178.0004
 -13661574.10748 -10619305.71846  22164597.630    22164597.6634   22164602.2324
       186.0004        185.0004
  -3951143.84348  -3071104.91646  22990408.015    22990408.4544   22990413.2764
       166.0004        167.0004
 -27117523.85949 -21106925.47648  20271486.090    20271486.1134   20271490.4224
       212.0004        213.0004
 -20350145.67649 -15841553.28647  20819085.307    20819086.3554   20819093.7194
       198.0004        198.0004
  -9853315.23248  -7669634.65046  22253722.202    22253722.2504   22253727.1344
       178.0004        179.0004
 21  2  2  0 53 30.0000000  0 11G19G04G30G28G09G08G17G14G07G01G21
  -3186830.32947  -2463112.18945  24307457.583    24307456.5944   24307461.6424
       152.0004        156.0004
    687700.07647    554288.75145  24580534.984    24580536.2234   24580543.4854
       137.0004        141.0004
 -14694299.13149 -11426482.94447  21619584.585    21619584.3584   21619592.3554
       196.0004        196.0004
  -1979304.65147  -1536967.56945  23454318.890    23454318.3544   23454324.8524
       151.0004        152.0004
  -8797377.53248  -6835645.35846  22598932.031    22598931.8944   22598938.9554
       181.0004        181.0004
  -5039109.39048  -3910463.22646  23688620.496    23688620.4984   23688628.4154
       179.0004        180.0004
 -13710542.97548 -10657463.25246  22155279.051    22155279.5574   22155283.9284
       185.0004        185.0004
  -3979760.53748  -3093403.62246  22984963.396    22984962.4234   22984967.7294
       167.0004        168.0004
 -27150705.64149 -21132781.41047  20265171.336    20265171.7274   20265176.1204
       212.0004        212.0004
 -20370479.28949 -15857397.64247  20815216.920    20815217.2894   20815224.3824
       198.0004        198.0004
  -9801845.65648  -7629528.48946  22263516.036    22263516.2734   22263522.1094
       177.0004        178.0004
 21  2  2  0 54  0.0000000  0 12G19G04G30G28G09G08G17G14G07G01G21G22
  -3271340.34147  -2528964.08445  24291375.654    24291374.8724   24291380.4774
       153.0004        154.0004
    781869.03047    627667.20145  24598455.555    24598456.7304   24598460.9414
       136.0004        140.0004
 -14770421.41849 -11485799.00947  21605098.993    21605099.0134   21605106.5244
       196.0004        196.0004
  -1997140.03447  -1550865.26245  23450925.772    23450925.7534   23450930.1284
       149.0004        153.0004
  -8719161.17448  -6774697.55446  22613816.055    22613815.7164   22613823.0924
       181.0004        181.0004
  -4944956.75348  -3837097.55046  23706536.323    23706536.8364   23706545.1244
       178.0004        178.0004
 -13759096.22148 -10695296.92446  22146039.435    22146040.6724   22146044.8184
       184.0004        186.0004
  -4008440.96748  -3115751.99346  22979504.948    22979505.4494   22979509.7654
       169.0004        170.0004
 -27183418.89149 -21158272.26948  20258946.282    20258947.0704   20258950.9024
       212.0004        213.0004
 -20390250.26949 -15872803.57747  20811454.101    20811454.5234   20811462.1324
       198.0004        198.0004
  -9749917.78648  -7589065.20846  22273398.200    22273398.1064   22273402.7994
       177.0004        177.0004
   2707249.54754   2132780.643 3                                  24795764.254
        74.0004         74.000
 21  2  2  0 54 30.0000000  0 12G19G04G30G28G09G08G17G14G07G01G21G22
  -3355597.01547  -2594618.56545  24275341.816    24275340.5804   24275346.3674
       152.0004        154.0004
    875895.29547    700934.39045  24616349.250    24616349.3744   24616354.0614
       136.0004        141.0004
 -14846293.34149 -11544919.97147  21590661.552    21590661.4214   21590668.6594
       197.0004        198.0004
  -2015059.56447  -1564828.51345  23447517.102    23447516.5864   23447519.7614
       149.0004        153.0004
  -8640838.26048  -6713666.71446  22628720.096    22628721.0704   22628727.3874
       181.0004        181.0004
  -4850846.97848  -3763765.26646  23724444.648    23724444.8694   23724453.7364
       178.0004        178.0004
 -13807232.43748 -10732805.64746  22136880.214    22136880.3494   22136884.6584
       186.0004        186.0004
  -4037184.82648  -3138149.79446  22974035.017    22974036.1144   22974040.1734
       170.0004        170.0004
 -27215660.33549 -21183395.47348  20252811.057    20252811.3554   20252815.6264
       212.0004        213.0004
 -20409456.17449 -15887769.19647  20807798.855    20807799.5274   20807807.4564
       198.0004        198.0004
  -9697532.23348  -7548245.28146  22283366.767    22283366.7784   22283372.1024
       178.0004        178.0004
   2707249.54744   2132780.643 3                                  24795764.254
        74.0004         74.000
 21  2  2  0 55  0.0000000  0 12G19G04G30G28G09G08G17G14G07G01G21G22
  -3439599.77547  -2660075.18645  24259356.124    24259355.7654   24259360.8594
       149.0004        150.0004
    969775.97747    774088.17245  24634213.082    24634213.7334   24634221.0424
       137.0004        142.0004
 -14921912.76049 -11603844.17847  21576271.457    21576271.0504   21576278.8794
       197.0004        197.0004
  -2033064.66147  -1578858.44245  23444090.321    23444089.6104   23444095.1984
       152.0004        155.0004
  -8562412.34948  -6652555.63546  22643643.687    22643644.7504   22643651.6164
       181.0004        182.0004
  -4756782.87748  -3690468.57046  23742341.026    23742343.3644   23742353.1014
       175.0004        175.0004
 -13854951.85548 -10769989.59247  22127799.481    22127799.7954   22127804.3454
       187.0004        188.0004
  -4065993.38048  -3160597.98346  22968553.461    22968554.1824   22968558.8154
       169.0004        171.0004
 -27247428.36849 -21208149.78848  20246765.595    20246766.2414   20246770.4724
       212.0004        213.0004
 -20428095.99649 -15902293.72347  20804252.324    20804252.8154   20804260.3614
       198.0004        199.0004
  -9644690.36848  -7507069.80646  22293422.054    22293422.2914   22293427.8544
       177.0004        177.0004
   2707249.54744   2132780.643 3                                  24795764.254
        74.0004         74.000
 21  2  2  0 55 30.0000000  0 11G19G04G30G28G09G08G17G14G07G01G21
  -3523346.34147  -2725332.19645  24243420.549    24243419.7184   24243423.7604
       145.0004        147.0004
   1063510.24147    847127.86645  24652049.912    24652050.1664   24652057.6684
       139.0004        144.0004
 -14997275.64149 -11662568.50047  21561929.464    21561929.7964   21561937.0994
       196.0004        196.0004
  -2051155.17347  -1592954.92645  23440647.841    23440647.5944   23440652.8494
       153.0004        156.0004
  -8483884.95048  -6591365.46046  22658586.609    22658587.0894   22658594.9164
       181.0004        182.0004
  -4662765.12648  -3617207.99446  23760235.379    23760235.0364   23760244.5364
       176.0004        177.0004
 -13902253.14848 -10806847.72347  22118797.713    22118797.9944   22118803.4574
       187.0004        188.0004
  -4094865.79548  -3183095.94746  22963059.097    22963059.3714   22963063.9574
       169.0004        170.0004
 -27278719.80249 -21232532.73448  20240811.385    20240811.7064   20240815.8034
       212.0004        213.0004
 -20446166.74449 -15916374.81547  20800813.702    20800814.5124   20800821.6814
       199.0004        199.0004
  -9591392.83648  -7465539.26446  22303564.358    22303564.3654   22303569.8224
       177.0004        176.0004
 21  2  2  0 56  0.0000000  0 11G19G04G30G28G09G08G17G14G07G01G21
  -3606836.17847  -2790389.13745  24227532.450    24227532.2074   24227537.8224
       145.0004        149.0004
   1157095.15447    920051.18445  24669857.638    24669859.6794   24669867.2394
       138.0004        143.0004
 -15072380.10649 -11721091.45447  21547637.775    21547638.1754   21547645.8564
       196.0004        197.0004
  -2069333.38547  -1607119.73845  23437188.606    23437188.4684   23437192.4354
       154.0004        156.0004
  -8405259.94048  -6530099.22246  22673549.936    22673550.1804   22673556.8204
       181.0004        182.0004
  -4568796.53848  -3543985.75646  23778114.055    23778116.6414   23778125.2134
       175.0004        175.0004
 -13949137.08848 -10843380.63747  22109875.843    22109876.4304   22109881.7144
       188.0004        188.0004
  -4123803.40348  -3205644.71946  22957552.350    22957552.8304   22957557.3824
       168.0004        168.0004
 -27309533.21949 -21256543.19048  20234947.346    20234947.8434   20234952.0894
       212.0004        213.0004
 -20463667.67149 -15930011.87347  20797482.241    20797482.7184   20797491.3514
       198.0004        198.0004
  -9537641.68148  -7423655.23546  22313793.097    22313792.7964   22313797.9224
       176.0004        176.0004
 21  2  2  0 56 30.0000000  0 11G19G04G30G28G09G08G17G14G07G01G21
  -3690068.64447  -2855245.52745  24211693.850    24211692.8104   24211698.0474
       147.0004        151.0004
   1250527.68847    992855.76145  24687637.350    24687638.0704   24687646.4664
       137.0004        143.0004
 -15147224.20049 -11779411.51247  21533395.545    21533395.7224   21533402.7954
       197.0004        197.0004
  -2087600.70947  -1621354.01845  23433713.520    23433712.4484   23433716.5084
       154.0004        157.0004
  -8326541.07648  -6468759.84146  22688529.003    22688529.3734   22688536.0934
       180.0004        180.0004
  -4474879.64048  -3470803.71946  23795988.163    23795989.4024   23795997.2964
       176.0004        176.0004
 -13995604.45448 -10879588.93546  22101033.601    22101034.5294   22101037.9364
       187.0004        187.0004
  -4152807.47348  -3228245.29246  22952032.801    22952033.0744   22952037.2914
       169.0004        169.0004
 -27339867.48649 -21280180.27848  20229174.578    20229175.3594   20229179.8454
       212.0004        213.0004
 -20480597.99649 -15943204.32547  20794261.196    20794262.0374   20794269.6314
       198.0004        198.0004
  -9483439.13548  -7381419.47946  22324107.282    22324107.0054   22324112.5394
       176.0004        176.0004
 21  2  2  0 57  0.0000000  0 11G19G04G30G28G09G08G17G14G07G01G21
  -3773041.50147  -2919899.66945  24195905.343    24195904.5634   24195907.7014
       148.0004        152.0004
   1343806.72147   1065540.68745  24705387.524    24705386.9754   24705395.1304
       138.0004        142.0004
 -15221804.28949 -11837525.85447  21519203.630    21519203.4894   21519211.1724
       197.0004        198.0004
  -2105957.31747  -1635657.85045  23430219.255    23430218.9374   23430223.5254
       154.0004        157.0004
  -8247730.20048  -6407348.77646  22703525.837    22703526.5094   22703533.7224
       180.0004        181.0004
  -4381015.60748  -3397662.93446  23813850.795    23813851.4904   23813859.1854
       175.0004        175.0004
 -14041654.19648 -10915471.82847  22092270.121    22092271.1934   22092276.2474
       187.0004        188.0004
  -4181877.46148  -3250897.17746  22946500.016    22946501.5034   22946505.6614
       169.0004        170.0004
 -27369718.96549 -21303441.17448  20223494.505    20223494.8564   20223498.8944
       212.0004        213.0004
 -20496955.14549 -15955950.13447  20791148.965    20791149.0084   20791156.6304
       198.0004        199.0004
  -9428785.39348  -7338832.15446  22334507.187    22334507.0234   22334512.8224
       175.0004        176.0004
 21  2  2  0 57 30.0000000  0 11G19G04G30G28G09G08G17G14G07G01G21
  -3855753.47747  -2984350.52345  24180164.436    24180164.7264   24180167.8804
       149.0004        152.0004
   1436929.93047   1138104.19745  24723109.704    24723110.0534   24723117.2144
       137.0004        142.0004
 -15296117.76849 -11895432.48347  21505062.255    21505062.1904   21505069.6324
       198.0004        199.0004
  -2124404.23547  -1650032.07045  23426709.186    23426708.6154   23426713.0734
       155.0004        158.0004
  -8168830.48948  -6345868.50946  22718539.076    22718539.8624   22718548.0534
       179.0004        178.0004
  -4287206.70448  -3324565.10946  23831703.102    23831702.6824   23831710.5664
       174.0004        175.0004
 -14087286.32048 -10951029.33247  22083587.379    22083587.8714   22083591.7844
       188.0004        188.0004
  -4211014.05248  -3273601.04446  22940957.768    22940957.1854   22940962.5314
       171.0004        170.0004
 -27399085.88949 -21326324.51248  20217906.360    20217906.6654   20217910.7214
       212.0004        213.0004
 -20512737.76949 -15968248.29047  20788145.104    20788145.7964   20788153.7014
       199.0004        200.0004
  -9373682.16448  -7295894.58746  22344993.354    22344993.4714   22344997.9114
       175.0004        176.0004
 21  2  2  0 58  0.0000000  0 10G19G30G28G09G08G17G14G07G01G21
  -3938202.80947  -3048596.68645  24164475.625    24164474.2254   24164480.2134
       152.0004        156.0004
 -15370161.47449 -11953128.87047  21490972.662    21490972.4774   21490979.6634
       199.0004        199.0004
  -2142941.88247  -1664476.99845  23423181.742    23423181.9364   23423185.1394
       156.0004        157.0004
  -8089844.36948  -6284320.89846  22733571.004    22733571.4664   22733578.7134
       178.0004        179.0004
  -4193453.86448  -3251510.96546  23849543.576    23849543.2884   23849550.6074
       172.0004        172.0004
 -14132500.30848 -10986260.99047  22074982.986    22074983.6104   22074988.6024
       188.0004        188.0004
  -4240217.24948  -3296356.74146  22935398.532    22935399.2184   22935404.5854
       171.0004        170.0004
 -27427965.75549 -21348828.31548  20212410.807    20212411.2464   20212415.5874
       213.0004        214.0004
 -20527943.87349 -15980097.18747  20785251.038    20785252.3264   20785259.9304
       199.0004        199.0004
  -9318130.38148  -7252607.46946  22355564.892    22355564.4284   22355569.1824
       175.0004        175.0004
 21  2  2  0 58 30.0000000  0 10G19G30G28G09G08G17G14G07G01G21
  -4020386.96147  -3112636.22545  24148835.863    24148835.3274   24148840.5194
       154.0004        157.0004
 -15443931.46749 -12010611.97347  21476934.237    21476934.0224   21476941.2104
       199.0004        199.0004
  -2161570.09647  -1678992.45945  23419636.255    23419635.7494   23419641.0404
       155.0004        156.0004
  -8010773.57648  -6222707.29346  22748618.604    22748618.8504   22748624.9664
       179.0004        179.0004
  -4099758.56848  -3178501.64646  23867372.483    23867372.9444   23867380.7494
       172.0004        173.0004
 -14177294.88348 -11021165.83547  22066459.175    22066459.8984   22066463.9304
       188.0004        190.0004
  -4269486.27848  -3319163.77646  22929829.331    22929829.8074   22929834.6494
       170.0004        171.0004
 -27456355.30949 -21370950.03848  20207007.848    20207008.5344   20207012.8984
       213.0004        214.0004
 -20542570.79649 -15991494.77647  20782468.418    20782468.7644   20782476.9304
       199.0004        199.0004
  -9262130.20048  -7208970.96846  22366221.558    22366220.7264   22366225.5744
       175.0004        176.0004
 21  2  2  0 59  0.0000000  0 10G19G30G28G09G08G17G14G07G01G21
  -4102308.13747  -3176470.83845  24133246.661    24133246.6044   24133251.2804
       155.0004        157.0004
 -15517428.29949 -12067882.22347  21462948.047    21462948.0454   21462955.3574
       199.0004        198.0004
  -2180293.16947  -1693581.83845  23416073.157    23416072.7114   23416078.3204
       155.0004        158.0004
  -7931624.24348  -6161032.49946  22763678.637    22763679.4174   22763687.2224
       178.0004        178.0004
  -4006125.63648  -3105540.92746  23885191.066    23885190.7414   23885199.0514
       173.0004        175.0004
 -14221673.50348 -11055746.53647  22058014.383    22058014.0074   22058019.5954
       190.0004        191.0004
  -4298824.85048  -3342024.99146  22924247.254    22924247.7864   22924251.9224
       171.0004        172.0004
 -27484255.65649 -21392690.57248  20201699.703    20201699.7974   20201703.6064
       213.0004        214.0004
 -20556620.37649 -16002442.47447  20779794.727    20779794.9144   20779802.8364
       199.0004        199.0004
  -9205686.49648  -7164988.84946  22376960.988    22376961.7374   22376966.8174
       175.0004        175.0004
 21  2  2  0 59 30.0000000  0 10G19G30G28G09G08G17G14G07G01G21
  -4183962.83847  -3240097.84045  24117706.877    24117706.6634   24117712.9374
       152.0004        154.0004
 -15590647.04149 -12124935.79147  21449015.515    21449015.4494   21449022.4204
       199.0004        200.0004
  -2199109.78247  -1708244.13245  23412493.293    23412492.5464   23412497.1424
       156.0004        159.0004
  -7852397.12948  -6099297.11646  22778754.182    22778755.9794   22778763.7124
       178.0004        178.0004
  -3912554.89348  -3032628.68446  23902996.396    23902997.1264   23903004.3844
       175.0004        177.0004
 -14265633.62348 -11090001.16847  22049649.386    22049649.2524   22049653.9484
       191.0004        192.0004
  -4328231.25648  -3364939.05746  22918650.156    22918651.0644   22918656.7334
       170.0004        170.0004
 -27511662.51049 -21414046.57648  20196483.836    20196484.1794   20196488.1174
       213.0004        214.0004
 -20570088.99649 -16012937.50047  20777231.243    20777231.7854   20777239.8304
       199.0004        199.0004
  -9148798.33348  -7120660.40946  22387786.805    22387786.9854   22387791.5174
       174.0004        173.0004
 21  2  2  1  0  0.0000000  0 11G19G30G28G09G08G17G14G07G01G21G22
  -4265349.86747  -3303516.23845  24102220.841    24102219.6734   24102226.7984
       154.0004        157.0004
 -15663585.32449 -12181770.82047  21435135.712    21435135.7764   21435142.6894
       200.0004        200.0004
  -2218021.28547  -1722980.34445  23408895.818    23408895.0144   23408898.0694
       157.0004        160.0004
  -7773095.47548  -6037503.62046  22793845.916    22793846.5084   22793853.8204
       177.0004        177.0004
  -3819048.30148  -2959766.42846  23920789.610    23920790.4214   23920799.1174
       176.0004        176.0004
 -14309175.85448 -11123930.15947  22041362.977    22041363.3684   22041368.2244
       191.0004        191.0004
  -4357706.18148  -3387906.51846  22913041.910    22913041.9424   22913048.0264
       170.0004        171.0004
 -27538574.30949 -21435016.81748  20191362.706    20191363.0704   20191367.0004
       213.0004        214.0004
 -20582975.59649 -16022979.00247  20774779.474    20774780.0124   20774787.8244
       199.0004        199.0004
  -9091467.66248  -7075987.15946  22398697.419    22398697.0814   22398700.8294
       174.0004        174.0004
   2707249.54754   2132780.643 4                                  24795764.254
        74.0004        109.000
 21  2  2  1  0 30.0000000  0 11G19G30G28G09G08G17G14G07G01G21G22
  -4346468.73447  -3366725.72445  24086785.007    24086784.3054   24086789.3194
       156.0004        158.0004
 -15736240.89249 -12238385.54447  21421309.850    21421309.8554   21421317.1514
       200.0004        201.0004
  -2237028.89147  -1737791.44745  23405277.172    23405276.4984   23405280.7444
       156.0004        158.0004
  -7693722.59448  -5975654.64346  22808950.438    22808950.2674   22808958.0574
       176.0004        177.0004
  -3725608.73048  -2886956.34246  23938571.802    23938571.1864   23938578.7084
       174.0004        174.0004
 -14352300.19348 -11157533.51447  22033156.508    22033157.2064   22033161.1044
       190.0004        190.0004
  -4387250.47448  -3410928.04146  22907419.275    22907419.3884   22907425.4164
       170.0004        169.0004
 -27564989.59749 -21455600.16248  20186336.059    20186336.2484   20186340.6104
       213.0004        214.0004
 -20595279.27949 -16032566.27047  20772437.417    20772438.5284   20772446.3934
       199.0004        199.0004
  -9033696.28948  -7030970.49046  22409691.669    22409690.5414   22409695.0114
       174.0004        174.0004
   2707249.54744   2132780.643 4                                  24795764.254
        74.0004        119.000
 21  2  2  1  1  0.0000000  0 10G19G30G28G09G08G17G14G07G01G21
  -4427319.00347  -3429725.87945  24071399.663    24071399.0414   24071403.7764
       155.0004        157.0004
 -15808611.84749 -12294778.49947  21407538.427    21407538.1984   21407544.7704
       201.0004        201.0004
  -2256134.31547  -1752678.77445  23401640.170    23401640.9264   23401645.3774
       155.0004        157.0004
  -7614282.25248  -5913753.10646  22824067.584    22824067.8874   22824074.9104
       177.0004        177.0004
  -3632238.02548  -2814199.95646  23956340.297    23956339.8624   23956347.6604
       175.0004        176.0004
 -14395008.52548 -11190812.72747  22025030.119    22025030.4154   22025034.9244
       190.0004        190.0004
  -4416865.51048  -3434004.69746  22901783.741    22901784.4074   22901789.9404
       169.0004        169.0004
 -27590906.86049 -21475795.44848  20181403.576    20181404.4334   20181408.7624
       213.0004        215.0004
 -20606999.42849 -16041698.85547  20770207.718    20770208.3734   20770216.1184
       199.0004        200.0004
  -8975486.70348  -6985612.37446  22420767.134    22420766.6984   22420770.5274
       173.0004        174.0004
 21  2  2  1  1 30.0000000  0 10G19G30G28G09G08G17G14G07G01G21
  -4507898.48747  -3492514.97645  24056065.870    24056065.2494   24056071.4794
       156.0004        159.0004
 -15880694.29249 -12350946.61647  21393821.129    21393821.1934   21393828.1164
       200.0004        200.0004
  -2275337.33947  -1767642.15945  23397987.019    23397986.0454   23397991.5214
       155.0004        157.0004
  -7534776.12148  -5851800.24846  22839197.349    22839197.5384   22839204.6834
       176.0004        177.0004
  -3538937.58148  -2741498.29946  23974093.217    23974094.3734   23974101.0984
       175.0004        175.0004
 -14437298.87348 -11223766.21447  22016982.595    22016982.6104   22016986.9274
       190.0004        191.0004
  -4446550.30748  -3457135.68846  22896135.190    22896135.3914   22896139.5364
       168.0004        169.0004
 -27616323.11649 -21495600.31348  20176567.547    20176568.0414   20176572.0384
       214.0004        215.0004
 -20618133.70849 -16050374.89147  20768088.860    20768089.1974   20768097.9114
       199.0004        199.0004
  -8916839.27148  -6939913.05346  22431928.951    22431928.2234   22431930.7874
       173.0004        173.0004
 21  2  2  1  2  0.0000000  0 10G19G30G28G09G08G17G14G07G01G21
  -4588205.69247  -3555091.97145  24040783.067    24040782.1204   24040787.3634
       157.0004        159.0004
 -15952485.48649 -12406887.81047  21380159.830    21380160.1474   21380166.9044
       200.0004        201.0004
  -2294638.72847  -1782682.17945  23394314.495    23394314.7754   23394318.6494
       155.0004        157.0004
  -7455207.10948  -5789798.41546  22854337.712    22854338.1204   22854345.9314
       175.0004        176.0004
  -3445708.97248  -2668852.64646  23991835.637    23991834.6484   23991841.9684
       171.0004        171.0004
 -14479171.55648 -11256394.26847  22009014.626    22009014.5404   22009018.7624
       190.0004        190.0004
  -4476305.38548  -3480321.44946  22890473.105    22890473.5414   22890477.9244
       168.0004        170.0004
 -27641236.60149 -21515013.42948  20171826.946    20171827.1344   20171831.1994
       214.0004        215.0004
 -20628680.76749 -16058593.37647  20766082.058    20766082.5314   20766090.3564
       199.0004        200.0004
  -8857755.48248  -6893873.72346  22443171.491    22443171.1974   22443174.6894
       173.0004        174.0004
 21  2  2  1  2 30.0000000  0 10G19G30G28G09G08G17G14G07G01G21
  -4668239.89847  -3617456.22945  24025554.094    24025553.4874   24025557.5284
       156.0004        157.0004
 -16023983.28249 -12462600.37547  21366554.531    21366554.3224   21366560.9784
       201.0004        201.0004
  -2314040.21547  -1797800.20245  23390623.094    23390623.3614   23390627.6824
       156.0004        159.0004
  -7375578.58848  -5727750.21846  22869491.425    22869491.6194   22869498.7054
       175.0004        176.0004
  -3352554.56648  -2596264.81446  24009563.406    24009562.6984   24009569.2654
       173.0004        174.0004
 -14520627.31448 -11288697.44447  22001124.898    22001125.4104   22001130.0474
       190.0004        190.0004
  -4506131.57448  -3503562.62546  22884796.005    22884797.6034   22884802.0644
       169.0004        170.0004
 -27665645.80649 -21534033.58848  20167181.360    20167182.1144   20167186.4074
       214.0004        215.0004
 -20638639.89749 -16066353.71947  20764187.020    20764187.5954   20764195.1404
       200.0004        200.0004
  -8798237.38548  -6847495.97946  22454496.377    22454497.5774   22454500.8704
       172.0004        172.0004
 21  2  2  1  3  0.0000000  0 10G19G30G28G09G08G17G14G07G01G21
  -4747999.58347  -3679606.61045  24010375.981    24010375.7694   24010379.5104
       156.0004        159.0004
 -16095184.48849 -12518081.82947  21353004.334    21353004.5144   21353012.3914
       200.0004        200.0004
  -2333541.97247  -1812996.37245  23386911.840    23386911.2734   23386914.5374
       155.0004        158.0004
  -7295892.96948  -5665657.53646  22884654.757    22884655.2604   22884663.4164
       177.0004        178.0004
  -3259475.76548  -2523735.86946  24027272.383    24027272.9474   24027280.6604
       170.0004        170.0004
 -14561665.94748 -11320675.58347  21993314.758    21993315.8794   21993320.0194
       188.0004        188.0004
  -4536028.77048  -3526859.13646  22879107.631    22879108.7344   22879112.6314
       169.0004        170.0004
 -27689548.18749 -21552658.83648  20162633.449    20162633.7554   20162637.9754
       214.0004        215.0004
 -20648009.39349 -16073654.62247  20762403.134    20762404.4824   20762412.4704
       200.0004        200.0004
  -8738286.11548  -6800780.70646  22465905.386    22465904.7334   22465909.8814
       172.0004        173.0004
 21  2  2  1  3 30.0000000  0 10G19G30G28G09G08G17G14G07G01G21
  -4827483.16147  -3741541.80145  23995251.098    23995250.1184   23995253.3314
       155.0004        156.0004
 -16166085.90149 -12573329.66747  21339512.962    21339512.7324   21339520.2164
       200.0004        201.0004
  -2353144.55447  -1828271.09745  23383180.562    23383180.4224   23383185.1564
       153.0004        156.0004
  -7216152.63748  -5603522.21746  22899829.289    22899829.7934   22899836.0994
       176.0004        177.0004
  -3166473.69348  -2451266.69846  24044968.899    24044969.9824   24044980.2194
       172.0004        175.0004
 -14602286.96948 -11352328.29847  21985585.827    21985586.2024   21985590.8554
       188.0004        189.0004
  -4565996.88248  -3550210.90446  22873405.772    22873406.2734   22873410.4514
       170.0004        171.0004
 -27712941.22049 -21570887.17148  20158181.615    20158182.0334   20158186.1024
       214.0004        214.0004
 -20656787.63449 -16080494.79447  20760733.411    20760734.6034   20760742.1784
       200.0004        200.0004
  -8677903.14048  -6753729.01946  22477396.114    22477396.2864   22477399.6424
       172.0004        172.0004
 21  2  2  1  4  0.0000000  0 10G19G30G28G09G08G17G14G07G01G21
  -4906689.17647  -3803260.72645  23980177.898    23980176.8704   23980180.6514
       153.0004        154.0004
 -16236684.80549 -12628341.80647  21326077.961    21326078.4694   21326085.6424
       201.0004        201.0004
  -2372848.60647  -1843624.89945  23379431.622    23379430.6154   23379436.5814
       156.0004        160.0004
  -7136360.39248  -5541346.45546  22915012.927    22915013.4174   22915019.9784
       175.0004        175.0004
  -3073550.21648  -2378858.80246  24062648.376    24062651.1344   24062661.9524
       173.0004        172.0004
 -14642490.37348 -11383655.59947  21977935.844    21977936.1974   21977939.6294
       189.0004        190.0004
  -4596036.20148  -3573618.17146  22867689.475    22867689.5844   22867693.1834
       169.0004        169.0004
 -27735823.21049 -21588717.31248  20153827.345    20153828.0024   20153831.9444
       214.0004        215.0004
 -20664973.32049 -16086873.24847  20759175.656    20759176.5014   20759184.0334
       200.0004        200.0004
  -8617089.42848  -6706341.71446  22488968.774    22488968.1474   22488972.1204
       172.0004        172.0004
 21  2  2  1  4 30.0000000  0 10G19G30G28G09G08G17G14G07G01G21
  -4985616.38247  -3864762.39345  23965158.649    23965158.4974   23965160.7824
       153.0004        156.0004
 -16306978.03049 -12683115.74847  21312702.412    21312702.0134   21312709.1684
       201.0004        202.0004
  -2392654.46147  -1859058.04545  23375662.155    23375662.7054   23375666.6394
       156.0004        157.0004
  -7056518.72348  -5479132.15946  22930204.737    22930206.1404   22930213.3934
       173.0004        172.0004
  -2980707.12348  -2306513.55046  24080318.625    24080319.9634   24080329.4414
       171.0004        172.0004
 -14682275.92148 -11414657.30747  21970363.884    21970364.5144   21970368.6584
       190.0004        191.0004
  -4626146.60448  -3597080.81146  22861957.768    22861958.8544   22861964.2724
       168.0004        168.0004
 -27758192.24649 -21606147.74348  20149570.579    20149571.2384   20149575.2334
       214.0004        215.0004
 -20672564.94349 -16092788.79047  20757731.091    20757731.7364   20757739.2674
       200.0004        200.0004
  -8555846.53048  -6658619.96946  22500622.418    22500622.1324   22500626.2024
       172.0004        172.0004
 21  2  2  1  5  0.0000000  0 10G19G30G28G09G08G17G14G07G01G21
  -5064264.50747  -3926046.59245  23950191.829    23950191.0084   23950195.6454
       156.0004        158.0004
 -16376964.04049 -12737650.29947  21299384.069    21299383.8804   21299391.2504
       201.0004        201.0004
  -2412564.44547  -1874572.28945  23371873.188    23371872.7034   23371877.4474
       155.0004        157.0004
  -6976631.52148  -5416882.38346  22945408.831    22945408.8224   22945416.0354
       173.0004        175.0004
  -2887947.25148  -2234233.10846  24097971.899    24097973.0804   24097981.1874
       172.0004        174.0004
 -14721645.14748 -11445334.62347  21962873.071    21962873.3154   21962877.9194
       191.0004        191.0004
  -4656329.55348  -3620599.97646  22856215.139    22856215.4944   22856221.6834
       170.0004        172.0004
 -27780046.64749 -21623177.15648  20145411.747    20145412.3754   20145416.5934
       214.0004        215.0004
 -20679562.51049 -16098241.43047  20756399.945    20756400.3134   20756407.3884
       199.0004        199.0004
  -8494177.08248  -6610565.84846  22512356.650    22512357.1214   22512361.3944
       172.0004        173.0004
 21  2  2  1  5 30.0000000  0 10G19G30G28G09G08G17G14G07G01G21
  -5142633.12847  -3987112.99645  23935279.177    23935279.0164   23935282.6244
       156.0004        159.0004
 -16446640.45049 -12791943.59847  21286124.896    21286124.7954   21286132.1224
       201.0004        202.0004
  -2432579.35247  -1890168.32245  23368065.067    23368065.3354   23368069.0814
       155.0004        158.0004
  -6896702.03148  -5354599.65246  22960619.229    22960618.7964   22960626.2324
       174.0004        174.0004
  -2795272.07948  -2162018.72346  24115608.019    24115608.0734   24115616.5304
       172.0004        173.0004
 -14760598.74148 -11475688.05847  21955459.345    21955459.9684   21955464.4584
       190.0004        189.0004
  -4686585.69848  -3644176.16446  22850457.940    22850459.0334   22850463.5364
       171.0004        172.0004
 -27801385.75449 -21639805.03348  20141351.109    20141351.4964   20141356.2724
       214.0004        215.0004
 -20685965.28049 -16103230.57747  20755180.875    20755181.6154   20755189.3664
       199.0004        199.0004
  -8432083.26248  -6562181.04046  22524174.675    22524173.8924   22524178.3754
       172.0004        173.0004
 21  2  2  1  6  0.0000000  0 10G19G30G28G09G08G17G14G07G01G21
  -5220721.21147  -4047960.81945  23920419.335    23920418.7264   23920422.8104
       157.0004        160.0004
 -16516004.78749 -12845993.72847  21272925.287    21272925.4584   21272932.4414
       201.0004        201.0004
  -2452700.47447  -1905847.08545  23364236.920    23364235.4024   23364240.2334
       156.0004        158.0004
  -6816733.31648  -5292286.35246  22975834.769    22975835.5774   22975843.7994
       172.0004        172.0004
  -2702684.33948  -2089872.42646  24133229.609    24133229.0444   24133235.8864
       175.0004        177.0004
 -14799136.74048 -11505717.66147  21948126.967    21948126.9094   21948131.2414
       188.0004        188.0004
  -4716915.60548  -3667809.86446  22844686.569    22844686.5134   22844691.2414
       170.0004        169.0004
 -27822207.71749 -21656029.95148  20137388.410    20137389.0654   20137393.7244
       214.0004        215.0004
 -20691772.46849 -16107755.65047  20754075.869    20754076.7804   20754084.0524
       199.0004        199.0004
  -8369567.01648  -6513467.05646  22536070.797    22536070.3884   22536074.6984
       172.0004        173.0004
 21  2  2  1  6 30.0000000  0 10G19G30G28G09G08G17G14G07G01G21
  -5298527.27147  -4108588.85345  23905614.300    23905612.9694   23905617.5214
       157.0004        160.0004
 -16585054.26449 -12899798.53047  21259785.210    21259785.4334   21259793.0194
       201.0004        202.0004
  -2472928.45247  -1921609.12845  23360386.581    23360386.5084   23360391.0164
       156.0004        157.0004
  -6736728.05048  -5229944.58846  22991059.188    22991060.0034   22991068.2094
       172.0004        174.0004
  -2610185.15748  -2017795.17346  24150827.509    24150828.8584   24150837.5414
       173.0004        174.0004
 -14837259.51148 -11535423.70447  21940871.602    21940872.5654   21940876.7194
       188.0004        189.0004
  -4747319.39548  -3691501.11246  22838900.034    22838900.1734   22838905.8124
       168.0004        169.0004
 -27842510.39949 -21671850.24648  20133525.291    20133525.7554   20133529.9574
       214.0004        215.0004
 -20696982.85149 -16111815.68547  20753084.446    20753084.9884   20753092.5074
       199.0004        199.0004
  -8306629.55448  -6464424.88846  22548046.497    22548046.9124   22548051.1674
       173.0004        174.0004
 21  2  2  1  7  0.0000000  0 10G19G30G28G09G08G17G14G07G01G21
  -5376048.52247  -4168994.97845  23890861.851    23890861.2424   23890865.2594
       159.0004        161.0004
 -16653784.58849 -12953354.61747  21246706.500    21246706.5534   21246714.1354
       201.0004        202.0004
  -2493262.50447  -1937453.85245  23356516.956    23356516.5714   23356521.2814
       155.0004        158.0004
  -6656687.53048  -5167575.35546  23006291.452    23006292.2724   23006298.8554
       172.0004        173.0004
  -2517774.84748  -1945787.13946  24168413.932    24168414.1204   24168423.0154
       174.0004        176.0004
 -14874965.80448 -11564805.21347  21933696.925    21933696.8674   21933701.3444
       189.0004        190.0004
  -4777795.83548  -3715248.99646  22833100.849    22833101.7794   22833106.8554
       169.0004        171.0004
 -27862290.67349 -21687263.45748  20129761.543    20129761.7424   20129766.0834
       214.0004        215.0004
 -20701593.97049 -16115408.75547  20752207.374    20752207.4184   20752215.2214
       199.0004        200.0004
  -8243271.08348  -6415054.65346  22560103.627    22560103.5244   22560108.3634
       173.0004        174.0004
 21  2  2  1  7 30.0000000  0 10G19G30G28G09G08G17G14G07G01G21
  -5453284.94247  -4229179.16545  23876164.503    23876164.4454   23876166.9204
       159.0004        160.0004
 -16722193.71849 -13006660.44147  21233689.432    21233689.1354   21233695.7994
       202.0004        202.0004
  -2513703.97447  -1953382.25445  23352626.831    23352626.2334   23352630.9874
       153.0004        154.0004
  -6576615.14248  -5105181.29146  23021530.163    23021529.9804   23021535.8574
       172.0004        172.0004
  -2425455.67748  -1873850.15546  24185981.744    24185982.4394   24185990.6034
       173.0004        173.0004
 -14912256.73948 -11593863.07347  21926600.714    21926600.7384   21926604.6894
       190.0004        190.0004
  -4808345.76548  -3739054.14746  22827288.674    22827288.7254   22827292.7454
       169.0004        170.0004
 -27881547.48049 -21702268.76748  20126096.770    20126097.3614   20126101.7454
       214.0004        215.0004
 -20705605.43049 -16118534.55047  20751443.367    20751444.3874   20751451.9004
       199.0004        200.0004
  -8179494.33348  -6365358.48346  22572239.243    22572240.0724   22572244.0624
       173.0004        175.0004
 21  2  2  1  8  0.0000000  0 10G19G30G28G09G08G17G14G07G01G21
  -5530236.16947  -4289141.11445  23861520.801    23861520.5784   23861525.4584
       160.0004        162.0004
 -16790279.59649 -13059714.37747  21220732.817    21220732.4284   21220740.0054
       202.0004        202.0004
  -2534254.22647  -1969395.42845  23348717.136    23348717.6024   23348720.3754
       152.0004        155.0004
  -6496514.35348  -5042765.07146  23036771.297    23036772.6594   23036779.9254
       171.0004        173.0004
  -2333229.94348  -1801985.94346  24203532.654    24203532.6584   24203541.4634
       171.0004        172.0004
 -14949132.93948 -11622597.74847  21919582.398    21919582.9224   21919587.8874
       190.0004        190.0004
  -4838970.14048  -3762917.28146  22821459.336    22821460.0064   22821465.7784
       168.0004        168.0004
 -27900279.77549 -21716865.37848  20122532.289    20122532.7494   20122536.9134
       214.0004        215.0004
 -20709016.93849 -16121192.85747  20750794.433    20750795.0054   20750802.7554
       199.0004        199.0004
  -8115301.58048  -6315338.13546  22584456.416    22584455.5444   22584460.0504
       174.0004        175.0004
 21  2  2  1  8 30.0000000  0 10G19G30G28G09G08G17G14G07G01G21
  -5606901.88147  -4348880.57745  23846931.630    23846930.3844   23846935.7324
       160.0004        161.0004
 -16858040.07249 -13112514.74647  21207838.349    21207838.0524   21207845.6664
       202.0004        203.0004
  -2554914.87147  -1985494.63145  23344785.982    23344785.2854   23344789.3564
       154.0004        158.0004
  -6416388.52148  -4980329.34946  23052019.223    23052019.0944   23052026.9274
       172.0004        173.0004
  -2241099.99848  -1730196.41146  24221063.610    24221064.5594   24221072.7964
       173.0004        175.0004
 -14985595.62548 -11651010.21647  21912644.509    21912644.3354   21912648.8144
       190.0004        190.0004
  -4869669.69848  -3786839.02946  22815617.771    22815618.4044   22815623.8874
       168.0004        170.0004
 -27918486.35549 -21731052.33148  20119067.631    20119068.2624   20119072.4824
       214.0004        215.0004
 -20711828.12849 -16123383.38347  20750259.101    20750259.8654   20750267.8244
       199.0004        199.0004
  -8050695.17148  -6264995.48246  22596749.676    22596749.4384   22596754.6524
       174.0004        175.0004
 21  2  2  1  9  0.0000000  0 10G19G30G28G09G08G17G14G07G01G21
  -5683278.97747  -4408395.13445  23832397.577    23832398.0474   23832402.1504
       159.0004        161.0004
 -16925470.87249 -13165058.22247  21195006.937    21195007.0454   21195013.5924
       203.0004        203.0004
  -2575684.74947  -2001678.92745  23340831.909    23340832.0174   23340837.0054
       155.0004        158.0004
  -6336238.80548  -4917875.04446  23067269.994    23067271.1354   23067278.6784
       172.0004        174.0004
  -2149065.69448  -1658481.38946  24238575.782    24238576.8804   24238586.5234
       173.0004        173.0004
 -15021643.22948 -11679099.25147  21905784.588    21905785.5144   21905789.2324
       190.0004        192.0004
  -4900443.07948  -3810818.27646  22809762.821    22809763.3484   22809767.8784
       170.0004        171.0004
 -27936163.52249 -21744826.75548  20115703.768    20115704.5104   20115708.8394
       214.0004        216.0004
 -20714036.51649 -16125104.19447  20749838.925    20749840.0774   20749847.4344
       199.0004        200.0004
  -7985674.96348  -6214330.37246  22609123.557    22609122.3724   22609128.9024
       175.0004        176.0004
 21  2  2  1  9 30.0000000  0 10G19G30G28G09G08G17G14G07G01G21
  -5759366.07247  -4467683.74845  23817918.257    23817917.9064   23817923.0164
       160.0004        162.0004
 -16992569.24449 -13217342.67147  21182238.441    21182238.2704   21182245.3854
       203.0004        203.0004
  -2596564.33147  -2017948.71645  23336859.528    23336859.0244   23336864.5814
       153.0004        156.0004
  -6256067.92448  -4855404.22246  23082526.736    23082526.9604   23082533.3154
       172.0004        171.0004
  -2057128.65048  -1586842.14946  24256073.233    24256073.0364   24256081.5084
       173.0004        175.0004
 -15057276.35948 -11706865.31247  21899003.843    21899004.3254   21899009.2114
       191.0004        191.0004
  -4931290.40948  -3834855.14446  22803892.271    22803893.4164   22803898.6764
       170.0004        171.0004
 -27953309.89649 -21758187.58248  20112440.978    20112441.4714   20112446.1004
       215.0004        216.0004
 -20715641.22649 -16126354.60647  20749533.545    20749534.8594   20749542.0254
       199.0004        199.0004
  -7920242.46548  -6163344.02946  22621573.754    22621574.2494   22621579.4594
       175.0004        176.0004
 21  2  2  1 10  0.0000000  0 10G19G30G28G09G08G17G14G07G01G21
  -5835163.53947  -4526746.65245  23803495.600    23803494.8844   23803498.9624
       161.0004        162.0004
 -17059333.44549 -13269366.73047  21169533.331    21169533.7944   21169540.6154
       203.0004        204.0004
  -2617555.36647  -2034305.35545  23332865.694    23332864.3594   23332869.5494
       154.0004        157.0004
  -6175879.57148  -4792919.78746  23097786.092    23097786.4454   23097794.0554
       169.0004        170.0004
  -1965292.14148  -1515281.24646  24273549.782    24273548.9564   24273557.5714
       174.0004        174.0004
 -15092495.88548 -11734309.07147  21892301.159    21892302.1174   21892306.5904
       190.0004        190.0004
  -4962212.87848  -3858950.55646  22798008.057    22798007.7154   22798013.8704
       170.0004        170.0004
 -27969924.80549 -21771134.26948  20109279.114    20109279.8494   20109284.4124
       215.0004        216.0004
 -20716642.31449 -16127134.66147  20749343.295    20749343.9424   20749351.4284
       199.0004        199.0004
  -7854400.74048  -6112038.77646  22634102.913    22634102.1624   22634108.1994
       175.0004        175.0004
 21  2  2  1 10 30.0000000  0 10G19G30G28G09G08G17G14G07G01G21
  -5910670.27747  -4585583.04345  23789126.194    23789124.9754   23789129.9744
       161.0004        162.0004
 -17125760.71449 -13321128.22847  21156893.104    21156892.8974   21156900.1264
       204.0004        204.0004
  -2638658.85447  -2050749.63345  23328847.873    23328847.6904   23328853.4694
       153.0004        155.0004
  -6095676.47248  -4730423.87646  23113049.588    23113049.6444   23113055.8204
       170.0004        172.0004
  -1873557.01948  -1443799.37846  24291005.717    24291005.5424   24291013.4254
       172.0004        172.0004
 -15127302.71848 -11761431.24847  21885677.576    21885677.6544   21885683.0644
       190.0004        189.0004
  -4993210.53848  -3883104.56546  22792108.999    22792109.8134   22792115.5284
       170.0004        170.0004
 -27986006.47249 -21783665.44348  20106219.205    20106219.7844   20106224.1544
       215.0004        216.0004
 -20717038.94149 -16127443.70747  20749268.148    20749268.5874   20749276.0844
       200.0004        200.0004
  -7788151.67848  -6060416.11946  22646710.935    22646709.6464   22646715.3654
       175.0004        176.0004
 21  2  2  1 11  0.0000000  0 10G19G30G28G09G08G17G14G07G01G21
  -5985885.27547  -4644192.07845  23774812.406    23774812.2924   23774816.1794
       160.0004        161.0004
 -17191848.35249 -13372625.09147  21144316.751    21144317.1544   21144323.8794
       204.0004        205.0004
  -2659875.36147  -2067281.94845  23324810.792    23324811.9794   23324815.3754
       153.0004        157.0004
  -6015461.27248  -4667918.51946  23128313.464    23128313.6334   23128320.8794
       170.0004        171.0004
  -1781924.96548  -1372397.77346  24308442.035    24308442.5294   24308451.0244
       171.0004        172.0004
 -15161696.70448 -11788231.73947  21879133.576    21879133.8964   21879137.9004
       190.0004        190.0004
  -5024283.56848  -3907317.31546  22786195.998    22786196.2344   22786200.3424
       168.0004        168.0004
 -28001553.33849 -21795779.89048  20103260.566    20103261.1764   20103265.5544
       215.0004        216.0004
 -20716830.26449 -16127281.08447  20749307.830    20749308.2774   20749316.1304
       200.0004        200.0004
  -7721496.93748  -6008477.36346  22659394.873    22659394.0034   22659400.2434
       175.0004        176.0004
 21  2  2  1 11 30.0000000  0 10G19G30G28G09G08G17G14G07G01G21
  -6060807.16347  -4702572.78746  23760556.836    23760555.4464   23760559.4114
       161.0004        164.0004
 -17257593.33949 -13423854.96447  21131805.809    21131805.8774   21131812.8164
       204.0004        204.0004
  -2681205.03147  -2083902.46845  23320752.145    23320751.2014   23320756.2944
       154.0004        156.0004
  -5935236.47348  -4605405.69946  23143579.046    23143580.0684   23143586.0644
       169.0004        170.0004
  -1690397.38948  -1301077.59846  24325859.625    24325859.3914   24325867.6364
       168.0004        168.0004
 -15195678.54948 -11814711.08847  21872666.055    21872666.5644   21872671.4954
       189.0004        190.0004
  -5055431.84848  -3931588.70446  22780268.842    22780269.6534   22780274.7734
       168.0004        168.0004
 -28016563.63049 -21807476.22048  20100404.276    20100404.7934   20100409.3704
       215.0004        216.0004
 -20716015.25749 -16126646.02547  20749462.218    20749463.3714   20749471.0424
       200.0004        200.0004
  -7654438.03848  -5956223.68846  22672154.271    22672154.3594   22672159.9624
       175.0004        176.0004
 21  2  2  1 12  0.0000000  0 10G19G30G28G09G08G17G14G07G01G21
  -6135435.42347  -4760724.62646  23746355.394    23746354.9264   23746358.6734
       163.0004        164.0004
 -17322993.35149 -13474816.02147  21119360.935    21119360.9964   21119367.9084
       205.0004        206.0004
  -2702649.09347  -2100612.13645  23316672.337    23316672.5904   23316675.6714
       153.0004        155.0004
  -5855005.06148  -4542887.71546  23158846.748    23158846.7064   23158854.3224
       168.0004        170.0004
  -1598976.01848  -1229840.18746  24343257.708    24343256.8964   24343264.4244
       168.0004        170.0004
 -15229248.40848 -11840869.42847  21866278.522    21866279.3384   21866283.3564
       190.0004        191.0004
  -5086655.78248  -3955919.02946  22774327.477    22774327.3454   22774332.1724
       168.0004        169.0004
 -28031036.00049 -21818753.41548  20097650.700    20097651.1074   20097655.0734
       215.0004        217.0004
 -20714593.51849 -16125538.17247  20749733.935    20749734.0474   20749741.4294
       200.0004        200.0004
  -7586977.05548  -5903656.70746  22684992.455    22684991.7864   22684998.6054
       174.0004        175.0004
 21  2  2  1 12 30.0000000  0 10G19G30G28G09G08G17G14G07G01G21
  -6209769.00147  -4818646.88446  23732208.473    23732209.0364   23732212.8474
       163.0004        164.0004
 -17388045.89449 -13525506.31347  21106982.218    21106982.3714   21106988.6904
       205.0004        206.0004
  -2724208.32847  -2117411.53845  23312569.395    23312569.3494   23312573.1464
       153.0004        155.0004
  -5774769.95148  -4480366.87047  23174113.918    23174114.8084   23174123.9154
       183.0004        189.0004
  -1507662.68948  -1158687.00346  24360631.479    24360632.4104   24360641.4844
       168.0004        169.0004
 -15262407.25148 -11866707.47547  21859968.496    21859969.2704   21859973.9154
       191.0004        191.0004
  -5117955.72848  -3980308.59246  22768371.034    22768371.0174   22768375.8964
       168.0004        168.0004
 -28044968.96349 -21829610.27748  20094998.864    20094999.1904   20095004.0424
       215.0004        216.0004
 -20712564.53349 -16123957.13847  20750119.236    20750119.9374   20750127.7474
       200.0004        199.0004
  -7519116.00448  -5850777.96046  22697905.960    22697905.6684   22697911.3764
       175.0004        176.0004
 21  2  2  1 13  0.0000000  0 10G19G30G28G09G08G17G14G07G01G21
  -6283805.91047  -4876337.95346  23718120.268    23718120.5594   23718123.3084
       163.0004        165.0004
 -17452747.06649 -13575922.81047  21094669.747    21094669.6874   21094676.3714
       206.0004        206.0004
  -2745882.27147  -2134300.31245  23308443.800    23308444.5374   23308449.4024
       153.0004        156.0004
  -5694532.66248  -4417844.30947  23189383.337    23189383.6744   23189390.9284
       188.0004        188.0004
  -1416457.74948  -1087618.26146  24377987.662    24377989.0474   24377995.9644
       169.0004        170.0004
 -15295154.33748 -11892224.67147  21853737.137    21853737.6024   21853742.0204
       191.0004        192.0004
  -5149330.59248  -4004756.54446  22762399.854    22762400.6274   22762404.6044
       168.0004        169.0004
 -28058359.71149 -21840044.63148  20092450.856    20092451.4764   20092455.6124
       215.0004        216.0004
 -20709926.42049 -16121901.45247  20750620.915    20750621.9144   20750629.4544
       200.0004        200.0004
  -7450855.67948  -5797588.09946  22710895.550    22710894.5824   22710901.3394
       174.0004        174.0004
 21  2  2  1 13 30.0000000  0 10G19G30G28G09G08G17G14G07G01G21
  -6357546.07847  -4933797.77246  23704088.502    23704088.3854   23704091.6784
       164.0004        165.0004
 -17517094.99249 -13626064.04547  21082424.346    21082424.6404   21082431.7624
       206.0004        206.0004
  -2767672.13447  -2151279.42745  23304299.355    23304299.9434   23304302.5394
       155.0004        159.0004
  -5614296.65249  -4355322.74847  23204652.397    23204652.2744   23204658.6054
       195.0004        199.0004
  -1325363.97348  -1016636.09346  24395319.429    24395321.7264   24395331.0484
       167.0004        169.0004
 -15327491.21248 -11917422.21747  21847583.844    21847583.7964   21847588.4964
       190.0004        191.0004
  -5180781.27248  -4029263.55146  22756415.285    22756415.3884   22756420.6364
       169.0004        170.0004
 -28071207.59749 -21850055.97148  20090005.390    20090006.0764   20090010.8724
       215.0004        216.0004
 -20706679.32449 -16119371.23447  20751239.549    20751240.1284   20751247.3524
       200.0004        199.0004
  -7382198.52448  -5744089.02746  22723959.497    22723960.2094   22723966.1684
       172.0004        172.0004
 21  2  2  1 14  0.0000000  0 10G19G30G28G09G08G17G14G07G01G21
  -6430988.08447  -4991025.27646  23690112.823    23690112.3424   23690116.7194
       164.0004        166.0004
 -17581086.77349 -13675927.77547  21070247.370    21070247.4544   21070254.5154
       206.0004        207.0004
  -2789578.25347  -2168349.11545  23300130.044    23300129.3254   23300134.5634
       156.0004        158.0004
  -5534064.35349  -4292804.09047  23219920.924    23219920.5974   23219926.5434
       198.0004        198.0004
  -1234381.90348   -945741.00046  24412637.334    24412637.2334   24412644.1474
       169.0004        170.0004
 -15359417.89048 -11942300.12847  21841508.247    21841508.8564   21841513.8494
       192.0004        193.0004
  -5212307.63948  -4053829.52046  22750415.222    22750415.8454   22750422.4374
       169.0004        170.0004
 -28083510.96649 -21859643.02748  20087664.873    20087665.2724   20087669.6824
       215.0004        216.0004
 -20702822.41549 -16116365.85047  20751972.572    20751973.7774   20751981.3084
       199.0004        200.0004
  -7313146.32348  -5690282.10646  22737101.363    22737100.6474   22737105.1744
       172.0004        173.0004
 21  2  2  1 14 30.0000000  0 10G19G30G28G09G08G17G14G07G01G21
  -6504133.79047  -5048021.89946  23676194.353    23676193.4214   23676197.0224
       163.0004        163.0004
 -17644722.49149 -13725514.04547  21058138.067    21058138.2814   21058144.9204
       207.0004        207.0004
  -2811604.17447  -2185512.12645  23295936.338    23295937.9124   23295942.3704
       154.0004        156.0004
  -5453841.17149  -4230292.51847  23235185.561    23235186.1074   23235193.0674
       198.0004        199.0004
  -1143515.91248   -874936.30846  24429927.928    24429927.9744   24429937.1884
       169.0004        171.0004
 -15390937.71048 -11966860.99347  21835509.809    21835510.3834   21835514.9254
       193.0004        193.0004
  -5243912.43948  -4078456.63046  22744402.281    22744403.1834   22744407.9844
       170.0004        171.0004
 -28095270.79849 -21868806.52948  20085426.863    20085427.2934   20085431.8984
       215.0004        216.0004
 -20698357.85349 -16112886.94647  20752822.067    20752823.3264   20752830.8564
       199.0004        199.0004
  -7243703.97748  -5636171.16446  22750315.388    22750313.9164   22750319.3914
       171.0004        172.0004
 21  2  2  1 15  0.0000000  0 10G19G30G28G09G08G17G14G07G01G21
  -6576979.34247  -5104784.64246  23662332.641    23662331.9274   23662335.5654
       161.0004        163.0004
 -17707996.42049 -13774818.40547  21046096.974    21046096.8294   21046104.1784
       207.0004        206.0004
  -2833747.24947  -2202766.49545  23291724.672    23291725.0594   23291729.5024
       155.0004        157.0004
  -5373626.75349  -4167787.80047  23250449.842    23250449.9514   23250458.2174
       199.0004        199.0004
  -1052764.82748   -804221.18346  24447197.770    24447197.7724   24447206.0664
       169.0004        170.0004
 -15422048.26348 -11991102.96347  21829589.791    21829590.1994   21829595.1524
       193.0004        193.0004
  -5275592.76548  -4103142.59546  22738373.291    22738373.4834   22738378.2654
       170.0004        171.0004
 -28106482.86549 -21877543.21548  20083293.011    20083293.8394   20083298.2774
       215.0004        216.0004
 -20693282.00149 -16108931.73047  20753788.576    20753789.3164   20753796.7274
       199.0004        200.0004
  -7173869.51648  -5581754.71246  22763602.616    22763602.8814   22763608.4754
       170.0004        169.0004
 21  2  2  1 15 30.0000000  0 10G19G30G28G09G08G17G14G07G01G21
  -6649524.41447  -5161313.24646  23648527.477    23648527.1194   23648530.6694
       162.0004        164.0004
 -17770906.46949 -13823839.23347  21034125.175    21034125.8124   21034132.6544
       206.0004        207.0004
  -2856008.52547  -2220112.91745  23287489.547    23287489.4504   23287492.7384
       155.0004        158.0004
  -5293424.32049  -4105292.40347  23265710.628    23265711.0334   23265720.4374
       198.0004        199.0004
   -962129.92748   -733596.59146  24464445.280    24464444.6244   24464453.8164
       170.0004        172.0004
 -15452750.16048 -12015026.52447  21823747.892    21823748.0174   21823751.9904
       192.0004        191.0004
  -5307349.20748  -4127887.88946  22732330.735    22732330.7694   22732335.7844
       170.0004        171.0004
 -28117146.36149 -21885852.44948  20081263.745    20081264.4134   20081268.7634
       215.0004        216.0004
 -20687594.92149 -16104500.23947  20754871.057    20754871.7474   20754878.9094
       200.0004        200.0004
  -7103646.13748  -5527035.20446  22776966.033    22776966.3504   22776971.5454
       169.0004        169.0004
 21  2  2  1 16  0.0000000  0 10G19G30G28G09G08G17G14G07G01G21
  -6721769.24247  -5217607.87046  23634780.042    23634778.6104   23634783.0814
       163.0004        164.0004
 -17833451.18749 -13872575.38747  21022224.089    21022223.9794   21022230.4704
       207.0004        207.0004
  -2878389.88047  -2237552.92745  23283230.201    23283229.5964   23283234.6704
       154.0004        156.0004
  -5213237.63749  -4042809.28347  23280971.556    23280971.6464   23280978.8044
       199.0004        200.0004
   -871614.41448   -663065.04446  24481666.017    24481667.4104   24481678.7594
       170.0004        169.0004
 -15483045.36448 -12038633.16847  21817982.733    21817983.3384   21817987.6274
       191.0004        192.0004
  -5339182.92948  -4152693.36646  22726272.038    22726272.8314   22726278.1834
       170.0004        170.0004
 -28127260.90349 -21893733.92448  20079339.591    20079339.8374   20079344.0534
       215.0004        216.0004
 -20681297.28449 -16099592.98947  20756069.079    20756069.9674   20756077.5594
       200.0004        200.0004
  -7033036.91748  -5472015.03046  22790403.580    22790403.1614   22790408.4704
       168.0004        169.0004
 21  2  2  1 16 30.0000000  0 10G19G30G28G09G08G17G14G07G01G21
  -6793711.06947  -5273666.44546  23621089.257    23621088.4114   23621092.8544
       162.0004        164.0004
 -17895626.40249 -13921023.60047  21010393.024    21010392.6984   21010399.4564
       207.0004        208.0004
  -2900890.55547  -2255085.88445  23278947.283    23278946.4034   23278952.5974
       154.0004        156.0004
  -5133067.93249  -3980339.35547  23296227.459    23296227.1874   23296234.1304
       199.0004        199.0004
   -781218.85148   -592626.91846  24498869.083    24498870.0064   24498879.1004
       165.0004        166.0004
 -15512933.25548 -12061922.40847  21812295.133    21812295.4334   21812300.6134
       191.0004        192.0004
  -5371092.52748  -4177557.99046  22720200.508    22720201.0684   22720204.4804
       169.0004        169.0004
 -28136823.68349 -21901185.44048  20077519.462    20077520.0174   20077524.3594
       215.0004        217.0004
 -20674387.11949 -16094208.42047  20757384.414    20757384.7414   20757392.6274
       200.0004        200.0004
  -6962041.73648  -5416694.08846  22803913.722    22803913.1474   22803917.5074
       168.0004        170.0004
 21  2  2  1 17  0.0000000  0 10G19G30G28G09G08G17G14G07G01G21
  -6865350.55847  -5329489.39246  23607456.494    23607456.3434   23607461.0794
       163.0004        165.0004
 -17957430.40849 -13969182.57447  20998631.268    20998631.5024   20998638.0284
       207.0004        208.0004
  -2923511.81847  -2272712.84045  23274642.154    23274642.0814   23274647.1324
       155.0004        157.0004
  -5052918.63949  -3917885.38547  23311478.186    23311478.5424   23311486.0094
       197.0004        196.0004
   -690944.68548   -522283.42446  24516049.561    24516050.3064   24516057.9144
       166.0004        167.0004
 -15542415.46648 -12084895.55947  21806684.694    21806685.2304   21806689.1374
       193.0004        194.0004
  -5403078.92148  -4202482.44246  22714112.217    22714112.7334   22714118.9274
       168.0004        168.0004
 -28145834.03849 -21908206.51448  20075805.322    20075805.6324   20075810.0124
       215.0004        217.0004
 -20666864.89549 -16088346.94747  20758815.996    20758816.2904   20758823.7254
       199.0004        199.0004
  -6890663.65848  -5361074.81546  22817495.562    22817495.2234   22817500.7834
       167.0004        167.0004
 21  2  2  1 17 30.0000000  0 10G19G30G28G09G08G17G14G07G01G21
  -6936685.82547  -5385075.29145  23593882.722    23593880.6874   23593884.6514
       161.0004        161.0004
 -18018859.99449 -14017049.79047  20986942.094    20986942.0494   20986948.6204
       207.0004        208.0004
  -2946253.87547  -2290433.92645  23270316.077    23270316.3414   23270319.9374
       155.0004        157.0004
  -4972791.87149  -3855448.94447  23326726.695    23326726.3854   23326733.5104
       197.0004        197.0004
   -600792.98747   -452035.37645  24533202.027    24533203.0394   24533211.1954
       162.0004        162.0004
 -15571491.75748 -12107552.38347  21801151.039    21801152.1044   21801157.3144
       193.0004        193.0004
  -5435141.54448  -4227466.30846  22708012.745    22708013.3084   22708017.2254
       168.0004        170.0004
 -28154290.28849 -21914795.80548  20074195.755    20074196.2524   20074200.8104
       215.0004        217.0004
 -20658729.63349 -16082007.77047  20760364.233    20760364.8814   20760372.2264
       200.0004        200.0004
  -6818904.11148  -5305158.27546  22831150.255    22831150.5334   22831155.8024
       166.0004        167.0004
 21  2  2  1 18  0.0000000  0 10G19G30G28G09G08G17G14G07G01G21
  -7007716.29747  -5440423.68146  23580365.189    23580364.7934   23580369.2974
       162.0004        164.0004
 -18079912.75949 -14064623.37047  20975324.284    20975324.4154   20975331.1264
       208.0004        208.0004
  -2969117.38547  -2308249.62645  23265964.554    23265964.0714   23265969.1004
       155.0004        158.0004
  -4892690.44649  -3793032.26247  23341968.290    23341969.3694   23341976.4354
       197.0004        198.0004
   -510765.53247   -381884.12846  24550338.646    24550337.2194   24550344.2944
       163.0004        165.0004
 -15600163.14348 -12129893.69647  21795696.232    21795696.3304   21795700.8724
       193.0004        193.0004
  -5467280.59148  -4252509.71846  22701897.130    22701896.9564   22701902.8014
       169.0004        171.0004
 -28162191.23949 -21920952.39648  20072692.359    20072693.0124   20072697.0694
       215.0004        217.0004
 -20649981.20649 -16075190.79947  20762028.476    20762029.2754   20762037.0644
       200.0004        199.0004
  -6746765.49448  -5248946.35246  22844880.479    22844879.6194   22844882.1374
       166.0004        168.0004
 21  2  2  1 18 30.0000000  0 10G19G30G28G09G08G17G14G07G01G21
  -7078442.77147  -5495535.20646  23566905.825    23566905.6884   23566909.8764
       162.0004        164.0004
 -18140587.69249 -14111902.55647  20963778.000    20963778.1104   20963784.5494
       208.0004        208.0004
  -2992104.31047  -2326161.51745  23261590.292    23261589.9064   23261595.1534
       156.0004        159.0004
  -4812618.56949  -3730638.60647  23357206.023    23357206.7684   23357213.7414
       197.0004        197.0004
   -420865.01747   -311831.84646  24567443.930    24567443.6924   24567452.2584
       164.0004        166.0004
 -15628431.85548 -12151921.27347  21790316.485    21790316.6294   21790321.4784
       193.0004        194.0004
  -5499497.63948  -4277613.89846  22695765.782    22695766.0564   22695771.8424
       170.0004        171.0004
 -28169537.46149 -21926676.74548  20071294.383    20071294.9314   20071299.4824
       215.0004        217.0004
 -20640620.84949 -16067897.01747  20763809.580    20763810.5064   20763817.8434
       199.0004        200.0004
  -6674251.00648  -5192441.56546  22858678.498    22858677.6754   22858680.9264
       165.0004        166.0004
 21  2  2  1 19  0.0000000  0 10G19G30G28G09G08G17G14G07G01G21
  -7148863.35147  -5550408.32646  23553506.823    23553505.2014   23553509.4314
       163.0004        164.0004
 -18200880.83149 -14158884.20647  20952304.108    20952304.3774   20952311.1384
       207.0004        207.0004
  -3015213.84747  -2344168.90245  23257192.845    23257193.0504   23257197.4164
       158.0004        160.0004
  -4732577.44649  -3668268.88347  23372438.538    23372438.1794   23372444.6464
       197.0004        198.0004
   -331092.10847   -241878.92746  24584526.053    24584527.1314   24584534.8274
       163.0004        163.0004
 -15656296.90948 -12173634.27447  21785013.926    21785014.2414   21785018.6664
       193.0004        194.0004
  -5531791.31848  -4302777.80746  22689620.475    22689620.8884   22689625.5584
       169.0004        170.0004
 -28176325.84149 -21931966.38748  20070002.738    20070003.1634   20070007.7444
       215.0004        217.0004
 -20630646.89449 -16060125.08047  20765706.877    20765707.8704   20765716.1454
       199.0004        199.0004
  -6601361.63648  -5135644.64346  22872548.079    22872547.6074   22872551.4774
       165.0004        164.0004
 21  2  2  1 19 30.0000000  0 10G19G30G28G09G08G17G14G07G01G21
  -7218977.15747  -5605042.45146  23540163.374    23540162.7954   23540167.6484
       163.0004        164.0004
 -18260789.88449 -14205566.59947  20940904.174    20940904.4144   20940910.9314
       207.0004        208.0004
  -3038446.68647  -2362272.43245  23252772.255    23252772.1864   23252775.9784
       159.0004        161.0004
  -4652570.01549  -3605925.43947  23387662.876    23387663.3774   23387669.3204
       198.0004        198.0004
   -241448.08647   -172026.47046  24601585.786    24601585.8414   24601594.7284
       162.0004        164.0004
 -15683759.96348 -12195034.04647  21779787.868    21779788.2404   21779792.6434
       193.0004        193.0004
  -5564161.94848  -4328001.69746  22683460.777    22683460.8334   22683465.4824
       168.0004        168.0004
 -28182555.69549 -21936820.83048  20068817.257    20068817.7804   20068821.8434
       215.0004        217.0004
 -20620059.40349 -16051875.08647  20767722.549    20767723.1194   20767730.0874
       199.0004        199.0004
  -6528099.74047  -5078557.45746  22886490.162    22886489.5104   22886493.3484
       164.0004        165.0004
 21  2  2  1 20  0.0000000  0 10G19G30G28G09G08G17G14G07G01G21
  -7288783.46447  -5659436.95445  23526879.763    23526878.4514   23526883.1194
       161.0004        162.0004
 -18320312.01649 -14251947.49047  20929577.775    20929577.6284   20929584.3314
       208.0004        208.0004
  -3061803.23447  -2380472.32245  23248326.426    23248326.5514   23248331.7104
       158.0004        159.0004
  -4572598.60549  -3543610.06047  23402879.559    23402880.7724   23402887.0374
       198.0004        197.0004
   -151933.85047   -102275.13545  24618616.533    24618618.3584   24618627.5544
       161.0004        162.0004
 -15710821.05548 -12216120.59847  21774638.340    21774638.7304   21774642.8754
       193.0004        192.0004
  -5596609.21648  -4353285.26546  22677284.562    22677285.1774   22677290.9144
       168.0004        169.0004
 -28188225.62449 -21941238.97148  20067738.305    20067738.6964   20067743.1524
       215.0004        217.0004
 -20608857.84049 -16043146.58747  20769853.230    20769853.9634   20769862.0314
       199.0004        199.0004
  -6454466.66547  -5021181.03046  22900500.414    22900501.0234   22900506.0964
       164.0004        167.0004
 21  2  2  1 20 30.0000000  0 10G19G30G28G09G08G17G14G07G01G21
  -7358279.90447  -5713590.00545  23513655.548    23513655.0384   23513657.5224
       160.0004        162.0004
 -18379443.15149 -14298023.70847  20918324.988    20918325.2744   20918332.0364
       208.0004        208.0004
  -3085282.34147  -2398767.72645  23243859.494    23243859.2164   23243862.6704
       158.0004        160.0004
  -4492664.27149  -3481323.55947  23418091.163    23418091.9984   23418098.2554
       196.0004        195.0004
    -62549.55557    -32625.09946  24635624.891    24635627.3705   24635637.0684
       161.0004        163.0004
 -15737479.31048 -12236893.27047  21769565.071    21769566.1324   21769569.8524
       193.0004        193.0004
  -5629131.55848  -4378627.35646  22671095.940    22671097.4194   22671102.2184
       168.0004        170.0004
 -28193333.00249 -21945218.76048  20066766.393    20066766.5964   20066771.7524
       215.0004        217.0004
 -20597040.50449 -16033938.26947  20772102.132    20772102.9274   20772110.6294
       199.0004        198.0004
  -6380462.97748  -4963515.83946  22914583.735    22914584.0534   22914588.4344
       165.0004        166.0004
 21  2  2  1 21  0.0000000  0 10G19G30G28G09G08G17G14G07G01G21
  -7427467.75647  -5767502.57145  23500488.897    23500488.5544   23500491.7134
       160.0004        162.0004
 -18438182.69449 -14343794.76547  20907147.364    20907147.2814   20907154.5534
       208.0004        208.0004
  -3108886.56647  -2417160.60246  23239367.777    23239367.7424   23239372.2844
       160.0004        163.0004
  -4412771.53749  -3419069.47647  23433295.029    23433294.8734   23433302.2364
       195.0004        195.0004
     26701.42247     36921.14646  24652610.857    24652611.5284   24652621.5874
       163.0004        166.0004
 -15763737.39048 -12257354.09447  21764569.112    21764569.3904   21764573.3634
       193.0004        193.0004
  -5661730.83248  -4404029.39446  22664894.655    22664894.4434   22664899.4644
       170.0004        173.0004
 -28197878.59649 -21948760.78248  20065901.331    20065902.0324   20065906.0814
       215.0004        216.0004
 -20584609.15349 -16024251.48447  20774468.248    20774468.7614   20774476.5674
       199.0004        199.0004
  -6306093.03448  -4905565.21246  22928736.643    22928736.8564   22928740.0224
       165.0004        166.0004
 21  2  2  1 21 30.0000000  0 10G19G30G28G09G08G17G14G07G01G21
  -7496346.34047  -5821174.15946  23487381.856    23487380.8974   23487384.8684
       162.0004        164.0004
 -18496528.49949 -14389259.03247  20896044.140    20896044.6164   20896051.6044
       208.0004        208.0004
  -3132616.74147  -2435651.63645  23234851.308    23234851.4484   23234856.0504
       159.0004        160.0004
  -4332923.40049  -3356850.17147  23448488.894    23448489.3134   23448496.9354
       196.0004        196.0004
    115817.51247    106362.20446  24669573.618    24669572.9644   24669578.2294
       163.0004        165.0004
 -15789597.02748 -12277504.44047  21759647.792    21759647.9754   21759652.8374
       193.0004        194.0004
  -5694407.45548  -4429491.69846  22658676.019    22658677.7554   22658681.0644
       174.0004        177.0004
 -28201861.51149 -21951864.36248  20065143.399    20065143.8734   20065148.3504
       215.0004        216.0004
 -20571564.11249 -16014086.51047  20776951.270    20776951.7724   20776959.1794
       199.0004        200.0004
  -6231359.03448  -4847330.92346  22942957.833    22942957.2534   22942961.9814
       165.0004        166.0004
 21  2  2  1 22  0.0000000  0 10G19G30G28G09G08G17G14G07G01G21
  -7564915.56647  -5874604.70046  23474333.054    23474333.2244   23474336.4334
       162.0004        163.0004
 -18554478.31549 -14434414.74147  20885016.753    20885017.0674   20885023.8084
       208.0004        208.0004
  -3156473.57747  -2454241.36545  23230313.313    23230313.3914   23230317.3254
       158.0004        161.0004
  -4253122.71049  -3294667.80447  23463674.817    23463675.1084   23463683.1064
       197.0004        198.0004
    204797.49048    175697.25146  24686505.264    24686505.2934   24686511.1244
       165.0004        167.0004
 -15815059.12748 -12297345.02347  21754802.141    21754802.7304   21754806.8004
       194.0004        194.0004
  -5727161.55248  -4455014.37446  22652443.876    22652444.0724   22652447.7464
       176.0004        175.0004
 -28205281.14849 -21954529.02548  20064492.894    20064493.2874   20064497.6414
       215.0004        217.0004
 -20557905.48249 -16003443.40847  20779549.928    20779550.0214   20779557.7104
       199.0004        199.0004
  -6156263.41148  -4788814.85746  22957248.606    22957247.8994   22957252.8734
       165.0004        167.0004
 21  2  2  1 22 30.0000000  0 10G19G30G28G09G08G17G14G07G01G21
  -7633174.47347  -5927793.41146  23461344.908    23461343.8794   23461347.9924
       163.0004        165.0004
 -18612029.27649 -14479259.64847  20874066.100    20874065.8084   20874072.3994
       208.0004        209.0004
  -3180457.29547  -2472929.96945  23225748.446    23225747.5204   23225751.7374
       159.0004        161.0004
  -4173371.68349  -3232524.14947  23478850.958    23478851.1474   23478858.8314
       197.0004        197.0004
    293639.29347    244924.61146  24703408.493    24703409.2684   24703417.9294
       164.0004        165.0004
 -15840124.13348 -12316876.18747  21750032.316    21750032.5144   21750037.3024
       194.0004        194.0004
  -5759992.81948  -4480597.17146  22646195.137    22646195.1634   22646201.0654
       175.0004        175.0004
 -28208136.13549 -21956753.68948  20063948.938    20063949.7214   20063954.1394
       215.0004        216.0004
 -20543632.88049 -15992321.88947  20782265.354    20782266.1854   20782274.0984
       199.0004        199.0004
  -6080808.32748  -4730018.67646  22971606.432    22971605.8664   22971612.8704
       167.0004        169.0004
 21  2  2  1 23  0.0000000  0 10G19G30G28G09G08G17G14G07G01G21
  -7701120.23147  -5980738.14046  23448413.799    23448413.3924   23448418.0134
       163.0004        164.0004
 -18669176.76849 -14523790.17247  20863190.718    20863190.7484   20863197.6904
       208.0004        209.0004
  -3204566.05847  -2491716.02545  23221160.988    23221159.8414   23221164.4964
       160.0004        162.0004
  -4093670.79149  -3170419.55647  23494016.998    23494017.2694   23494025.1774
       196.0004        194.0004
    382344.76447    314045.75245  24720285.556    24720287.8794   24720296.4634
       162.0004        162.0004
 -15864790.59348 -12336096.79647  21745338.663    21745338.8834   21745343.0084
       194.0004        194.0004
  -5792898.99448  -4506238.34046  22639934.130    22639933.7004   22639938.6574
       175.0004        176.0004
 -28210423.21949 -21958535.84648  20063514.609    20063514.7954   20063518.8114
       215.0004        216.0004
 -20528744.21849 -15980720.33047  20785097.669    20785099.3584   20785107.1484
       199.0004        198.0004
  -6004993.38048  -4670942.10346  22986033.268    22986032.8254   22986040.0054
       167.0004        168.0004
 21  2  2  1 23 30.0000000  0 10G19G30G28G09G08G17G14G07G01G21
  -7768752.65947  -6033438.68846  23435544.925    23435543.7304   23435547.7144
       164.0004        165.0004
 -18725919.00549 -14568004.89047  20852392.433    20852392.8664   20852399.6264
       208.0004        208.0004
  -3228800.91947  -2510600.31545  23216547.593    23216548.0484   23216553.0214
       160.0004        161.0004
  -4014023.23848  -3108356.51247  23509173.341    23509174.2514   23509181.1794
       193.0004        192.0004
    470911.51957    383058.76945  24737142.095    24737141.8045   24737152.0824
       159.0004        161.0004
 -15889060.01148 -12355008.02547  21740721.154    21740721.2164   21740724.8334
       194.0004        194.0004
  -5825880.66148  -4531938.33446  22633656.961    22633657.4934   22633661.9384
       175.0004        174.0004
 -28212142.08049 -21959875.22648  20063187.493    20063187.7244   20063191.8904
       215.0004        216.0004
 -20513240.11749 -15968639.19447  20788048.778    20788049.8894   20788057.4454
       199.0004        199.0004
  -5928821.23548  -4611587.19046  23000528.887    23000528.7834   23000534.4374
       167.0004        169.0004
 21  2  2  1 24  0.0000000  0  9G19G30G28G09G17G14G07G01G21
  -7836071.91947  -6085895.22346  23422733.697    23422733.4964   23422737.4614
       163.0004        165.0004
 -18782254.07949 -14611902.35847  20841672.641    20841672.7764   20841679.7044
       208.0004        208.0004
  -3253163.18547  -2529583.90445  23211913.224    23211912.3534   23211916.7684
       159.0004        160.0004
  -3934432.15748  -3046337.50247  23524320.830    23524320.8444   23524327.6034
       194.0004        195.0004
 -15912934.28549 -12373611.33547  21736177.476    21736177.7014   21736181.6654
       195.0004        194.0004
  -5858938.33548  -4557697.57046  22627366.555    22627367.5464   22627371.8434
       174.0004        174.0004
 -28213292.27949 -21960771.49348  20062968.384    20062968.7444   20062973.2684
       215.0004        216.0004
 -20497121.23149 -15956079.01747  20791116.881    20791117.2634   20791124.8014
       199.0004        199.0004
  -5852294.86448  -4551956.25846  23015091.209    23015091.0044   23015097.2234
       167.0004        168.0004
 21  2  2  1 24 30.0000000  0  9G19G30G28G09G17G14G07G01G21
  -7903076.98647  -6138106.92346  23409984.361    23409984.0794   23409987.2594
       163.0004        166.0004
 -18838179.29149 -14655480.44547  20831030.501    20831030.2594   20831037.4754
       207.0004        208.0004
  -3277652.91047  -2548666.81245  23207253.018    23207251.8624   23207256.3554
       159.0004        161.0004
  -3854899.98948  -2984364.39247  23539453.327    23539454.6484   23539461.7714
       194.0004        195.0004
 -15936414.33048 -12391907.46147  21731708.165    21731709.0294   21731713.9534
       194.0004        194.0004
  -5892071.66448  -4583515.74346  22621062.097    22621062.2704   22621066.6064
       175.0004        176.0004
 -28213872.60749 -21961223.70448  20062857.389    20062858.0244   20062862.8934
       215.0004        216.0004
 -20480387.33049 -15943039.60547  20794301.382    20794301.6584   20794309.2234
       199.0004        199.0004
  -5775415.77448  -4492050.46446  23029719.959    23029719.7254   23029726.9554
       166.0004        167.0004
 21  2  2  1 25  0.0000000  0  9G19G30G28G09G17G14G07G01G21
  -7969768.20747  -6190074.10645  23397291.695    23397291.6014   23397295.0994
       162.0004        162.0004
 -18893693.20149 -14698738.04647  20820466.925    20820466.9984   20820473.4464
       208.0004        208.0004
  -3302271.61247  -2567850.21245  23202567.447    23202567.3534   23202571.0134
       158.0004        161.0004
  -3775430.03148  -2922439.76647  23554576.391    23554576.5664   23554584.4524
       194.0004        193.0004
 -15959501.67548 -12409897.57947  21727315.971    21727315.9254   21727320.5804
       194.0004        194.0004
  -5925281.52448  -4609393.54846  22614741.789    22614742.2804   22614747.6564
       177.0004        179.0004
 -28213882.95749 -21961231.78248  20062855.803    20062856.2774   20062860.6174
       215.0004        216.0004
 -20463039.59849 -15929521.88047  20797601.437    20797602.3384   20797610.7084
       198.0004        198.0004
  -5698187.73748  -4431872.78246  23044416.839    23044416.7904   23044421.6344
       166.0004        167.0004
 21  2  2  1 25 30.0000000  0  9G19G30G28G09G17G14G07G01G21
  -8036144.15347  -6241795.60146  23384662.301    23384662.0154   23384664.6784
       161.0004        164.0004
 -18948792.23449 -14741672.36347  20809981.900    20809982.0484   20809988.3444
       208.0004        208.0004
  -3327018.38847  -2587133.41945  23197857.706    23197858.0694   23197861.5924
       158.0004        160.0004
  -3696023.79848  -2860564.79247  23569687.178    23569687.4124   23569694.4544
       192.0004        191.0004
 -15982196.19449 -12427581.60947  21722997.015    21722997.6484   21723002.5584
       195.0004        196.0004
  -5958566.69648  -4635330.03846  22608407.545    22608407.9194   22608414.1454
       178.0004        177.0004
 -28213321.89449 -21960794.61948  20062962.143    20062962.8194   20062967.3064
       215.0004        216.0004
 -20445076.99649 -15915525.03847  20801020.490    20801021.1214   20801028.8944
       199.0004        199.0004
  -5620611.53348  -4371423.80046  23059179.886    23059179.5234   23059183.9374
       166.0004        167.0004
 21  2  2  1 26  0.0000000  0  9G19G30G28G09G17G14G07G01G21
  -8102205.61247  -6293272.01946  23372091.246    23372089.2864   23372094.3634
       163.0004        165.0004
 -19003475.53849 -14784282.73047  20799575.544    20799575.5654   20799582.5284
       208.0004        209.0004
  -3351895.39047  -2606518.09345  23193123.764    23193124.0114   23193127.4094
       157.0004        158.0004
  -3616685.36848  -2798742.64447  23584784.807    23584785.2684   23584791.3514
       191.0004        191.0004
 -16004500.41449 -12444961.51547  21718752.993    21718752.7354   21718757.6994
       195.0004        195.0004
  -5991928.62148  -4661326.32346  22602059.115    22602058.9074   22602064.2414
       176.0004        174.0004
 -28212189.90049 -21959912.54748  20063177.942    20063178.5084   20063182.8244
       215.0004        216.0004
 -20426501.27849 -15901050.43847  20804554.813    20804555.1044   20804563.4144
       199.0004        199.0004
  -5542690.75148  -4310706.31246  23074007.325    23074006.2694   23074011.5524
       166.0004        166.0004
 21  2  2  1 26 30.0000000  0  9G19G30G28G09G17G14G07G01G21
  -8167951.05647  -6344502.20345  23359578.368    23359577.5344   23359582.8174
       162.0004        162.0004
 -19057739.71249 -14826566.49047  20789249.704    20789249.6954   20789256.3934
       208.0004        208.0004
  -3376902.06047  -2626003.80145  23188365.699    23188366.3714   23188369.6444
       158.0004        162.0004
  -3537416.33748  -2736974.54247  23599869.281    23599869.4444   23599877.1304
       192.0004        193.0004
 -16026414.59448 -12462037.48447  21714581.586    21714582.6444   21714587.6954
       194.0004        194.0004
  -6025366.16048  -4687381.54546  22595696.793    22595697.0704   22595700.6904
       174.0004        173.0004
 -28210485.24049 -21958584.23848  20063502.569    20063502.9744   20063507.4934
       215.0004        216.0004
 -20407311.69349 -15886097.49547  20808206.152    20808207.2144   20808214.9564
       198.0004        199.0004
  -5464426.88947  -4249721.47246  23088900.486    23088899.9834   23088904.6714
       164.0004        166.0004
 21  2  2  1 27  0.0000000  0  9G19G30G28G09G17G14G07G01G21
  -8233379.91947  -6395485.72545  23347128.896    23347128.1244   23347132.2844
       160.0004        162.0004
 -19111582.19349 -14868521.69247  20779003.632    20779003.6794   20779010.6074
       208.0004        208.0004
  -3402038.45947  -2645590.63546  23183583.018    23183582.4744   23183586.9454
       161.0004        163.0004
  -3458218.98048  -2675262.31247  23614939.687    23614940.1664   23614948.4834
       192.0004        191.0004
 -16047939.01648 -12478809.76947  21710486.625    21710486.5644   21710491.3244
       194.0004        194.0004
  -6058878.97548  -4713495.44246  22589319.867    22589319.8864   22589323.6464
       175.0004        176.0004
 -28208206.88649 -21956808.91148  20063936.359    20063936.6864   20063940.7384
       215.0004        216.0004
 -20387508.23549 -15870666.23647  20811975.156    20811975.7454   20811983.5504
       198.0004        199.0004
  -5385821.74547  -4188470.74646  23103859.565    23103858.6184   23103860.7444
       164.0004        166.0004
 21  2  2  1 27 30.0000000  0  9G19G30G28G09G17G14G07G01G21
  -8298492.18747  -6446222.53146  23334737.944    23334737.4734   23334741.8554
       160.0004        163.0004
 -19165001.20049 -14910146.89147  20768838.255    20768838.2264   20768845.5744
       208.0004        209.0004
  -3427305.60647  -2665279.29845  23178773.500    23178774.2624   23178779.5884
       160.0004        161.0004
  -3379096.39148  -2613608.37247  23629997.927    23629997.5444   23630004.4324
       191.0004        192.0004
 -16069075.74949 -12495279.92447  21706464.638    21706465.0074   21706469.8054
       195.0004        196.0004
  -6092467.54648  -4739668.37346  22582927.788    22582928.2474   22582931.6884
       175.0004        176.0004
 -28205354.55849 -21954586.31948  20064478.525    20064478.9784   20064483.4764
       215.0004        216.0004
 -20367091.85949 -15854757.35247  20815860.113    20815860.8514   20815868.8794
       198.0004        199.0004
  -5306878.41047  -4126956.46146  23118880.510    23118880.0004   23118883.9014
       164.0004        166.0004
 21  2  2  1 28  0.0000000  0  9G19G30G28G09G17G14G07G01G21
  -8363286.30947  -6496711.41645  23322407.537    23322407.0704   23322411.5284
       161.0004        162.0004
 -19217993.34449 -14951439.46147  20758754.043    20758753.9714   20758761.3744
       208.0004        209.0004
  -3452703.12947  -2685069.56545  23173940.888    23173940.6544   23173945.4594
       159.0004        161.0004
  -3300050.11148  -2552013.88247  23645037.690    23645038.0264   23645045.9974
       190.0004        188.0004
 -16089824.87549 -12511448.05447  21702516.800    21702516.6784   21702521.3434
       196.0004        198.0004
  -6126130.70148  -4765899.39246  22576521.331    22576521.9314   22576527.4204
       176.0004        176.0004
 -28201926.55049 -21951915.14248  20065131.389    20065131.6054   20065136.0534
       215.0004        216.0004
 -20346061.77949 -15838370.26847  20819862.350    20819862.9764   20819870.2274
       198.0004        198.0004
  -5227598.12447  -4065179.59146  23133967.806    23133967.1224   23133969.5614
       163.0004        163.0004
 21  2  2  1 28 30.0000000  0  9G19G30G28G09G17G14G07G01G21
  -8427762.32247  -6546952.43846  23310139.079    23310138.4814   23310142.7694
       162.0004        164.0004
 -19270556.56149 -14992397.82647  20748751.890    20748751.7264   20748759.2124
       209.0004        209.0004
  -3478231.37747  -2704961.72745  23169083.200    23169082.8804   23169088.0024
       159.0004        161.0004
  -3221082.89448  -2490481.00147  23660064.478    23660065.1964   23660073.0634
       188.0004        188.0004
 -16110187.70949 -12527315.19747  21698640.762    21698641.4254   21698646.2054
       197.0004        197.0004
  -6159868.55248  -4792188.61246  22570100.603    22570101.9654   22570106.8234
       176.0004        176.0004
 -28197922.53949 -21948795.15148  20065892.973    20065893.4534   20065897.9984
       215.0004        216.0004
 -20324418.64049 -15821505.47647  20823980.873    20823981.0274   20823989.1254
       198.0004        198.0004
  -5147982.94347  -4003141.79645  23149118.724    23149117.1014   23149118.6724
       162.0004        162.0004
 21  2  2  1 29  0.0000000  0  9G19G30G28G09G17G14G07G01G21
  -8491919.59747  -6596945.09346  23297929.435    23297929.3234   23297933.6554
       162.0004        164.0004
 -19322688.26649 -15033019.93347  20738831.530    20738831.4574   20738838.8944
       209.0004        210.0004
  -3503890.63047  -2724955.94445  23164200.636    23164200.5994   23164205.2904
       159.0004        161.0004
  -3142196.92948  -2429011.39947  23675077.213    23675077.6734   23675084.4084
       189.0004        190.0004
 -16130164.90549 -12542881.83147  21694839.604    21694840.1104   21694844.6034
       196.0004        195.0004
  -6193680.62048  -4818535.68346  22563667.431    22563667.4024   22563672.0334
       176.0004        176.0004
 -28193341.81149 -21945225.75548  20066764.908    20066765.2304   20066769.5954
       215.0004        216.0004
 -20302162.53749 -15804163.05047  20828216.257    20828216.8664   20828224.8064
       198.0004        199.0004
  -5068035.11847  -3940844.77746  23164331.028    23164331.0304   23164333.7484
       162.0004        163.0004
 21  2  2  1 29 30.0000000  0  9G19G30G28G09G17G14G07G01G21
  -8555757.44947  -6646688.86046  23285781.367    23285781.0474   23285785.4674
       162.0004        164.0004
 -19374386.49949 -15073304.26747  20728993.808    20728993.9784   20729000.9174
       209.0004        211.0004
  -3529681.07747  -2745052.36745  23159292.804    23159293.5954   23159297.8684
       159.0004        161.0004
  -3063395.14648  -2367607.42947  23690074.221    23690073.3894   23690080.0594
       189.0004        189.0004
 -16149758.10549 -12558149.25047  21691110.954    21691111.7914   21691115.8014
       195.0004        195.0004
  -6227567.15748  -4844940.75946  22557218.285    22557219.2964   22557224.0064
       177.0004        177.0004
 -28188183.47649 -21941206.28348  20067746.053    20067746.6664   20067751.3174
       215.0004        216.0004
 -20279294.35049 -15786343.66347  20832567.962    20832568.3934   20832576.9764
       198.0004        199.0004
  -4987757.53647  -3878290.80046  23179607.794    23179606.7754   23179612.2644
       162.0004        164.0004
 21  2  2  1 30  0.0000000  0  9G19G30G28G09G17G14G07G01G21
  -8619275.88747  -6696183.72746  23273694.807    23273694.3874   23273698.9224
       163.0004        165.0004
 -19425648.89449 -15113248.99847  20719239.089    20719238.8854   20719245.9124
       210.0004        210.0004
  -3555603.34147  -2765251.53245  23154360.373    23154360.0234   23154364.1964
       159.0004        161.0004
  -2984679.87348  -2306270.87646  23705051.183    23705051.0994   23705058.9934
       187.0004        186.0004
 -16168968.57748 -12573118.43847  21687455.440    21687455.8504   21687460.0144
       194.0004        195.0004
  -6261527.85548  -4871403.64346  22550756.693    22550757.0414   22550761.5844
       178.0004        178.0004
 -28182447.29949 -21936736.54348  20068837.681    20068838.5044   20068843.0164
       215.0004        216.0004
 -20255814.34149 -15768047.54947  20837035.494    20837036.6834   20837044.0354
       198.0004        198.0004
  -4907152.12947  -3815481.40546  23194946.822    23194946.4254   23194950.5704
       164.0004        166.0004
 21  2  2  1 30 30.0000000  0 10G19G30G28G09G17G14G07G01G21G22
  -8682475.46847  -6745430.12046  23261669.950    23261669.2214   23261671.2994
       164.0004        165.0004
 -19476474.20849 -15152853.14147  20709566.472    20709566.6814   20709574.2084
       210.0004        210.0004
  -3581659.09547  -2785554.75445  23149401.815    23149401.5054   23149405.1164
       159.0004        160.0004
  -2906054.73948  -2245004.53147  23720012.265    23720012.5274   23720021.2414
       187.0004        188.0004
 -16187798.45049 -12587791.06647  21683872.445    21683872.4764   21683876.8254
       195.0004        195.0004
  -6295563.53648  -4897924.96046  22544280.071    22544279.9604   22544285.1954
       179.0004        179.0004
 -28176133.96049 -21931817.06248  20070039.126    20070039.4294   20070044.2544
       215.0004        216.0004
 -20231724.05049 -15749275.88147  20841619.921    20841620.4984   20841627.8064
       198.0004        198.0004
  -4826222.98547  -3752419.72146  23210346.118    23210346.7014   23210351.3504
       163.0004        164.0004
  -3666197.81046  -2844183.82545  24784606.586    24784606.8874   24784606.6994
       133.0004        139.0004
 21  2  2  1 31  0.0000000  0 10G19G30G28G09G17G14G07G01G21G22
  -8745355.08847  -6794427.20446  23249702.529    23249702.3194   23249706.5464
       163.0004        165.0004
 -19526859.72649 -15192114.58047  20699979.438    20699979.3804   20699986.0484
       210.0004        211.0004
  -3607848.04147  -2805961.72145  23144418.480    23144418.6984   23144422.3734
       159.0004        161.0004
  -2827521.66548  -2183809.96047  23734957.341    23734957.8144   23734965.0284
       188.0004        188.0004
 -16206247.77949 -12602167.15447  21680361.444    21680361.7914   21680366.1874
       195.0004        195.0004
  -6329673.63048  -4924504.20946  22537788.594    22537788.9894   22537793.9164
       178.0004        178.0004
 -28169241.84849 -21926446.58948  20071350.973    20071351.6114   20071355.7704
       215.0004        216.0004
 -20207023.60949 -15730028.76647  20846320.228    20846320.8474   20846328.1644
       198.0004        198.0004
  -4744970.81647  -3689106.35046  23225808.822    23225807.8934   23225813.0004
       163.0004        165.0004
  -3688591.21646  -2861633.22645  24780342.769    24780343.2754   24780346.6734
       134.0004        140.0004
 21  2  2  1 31 30.0000000  0 10G19G30G28G09G17G14G07G01G21G22
  -8807912.03047  -6843172.87146  23237798.599    23237797.6224   23237802.2494
       164.0004        166.0004
 -19576800.55749 -15231029.53147  20690476.151    20690475.7494   20690482.6424
       211.0004        211.0004
  -3634167.88847  -2826470.70945  23139409.811    23139410.0344   23139412.8734
       159.0004        161.0004
  -2749080.49048  -2122686.99946  23749884.233    23749884.8134   23749892.4034
       187.0004        187.0004
 -16224316.14849 -12616246.39347  21676922.830    21676923.3074   21676927.8094
       195.0004        196.0004
  -6363855.18648  -4951139.22146  22531284.495    22531285.0624   22531288.6284
       178.0004        178.0004
 -28161767.99949 -21920622.82948  20072773.195    20072773.5314   20072777.8384
       215.0004        216.0004
 -20181710.89349 -15710304.57347  20851136.953    20851137.5324   20851145.7924
       198.0004        198.0004
  -4663395.73547  -3625541.37646  23241331.197    23241330.2564   23241336.6484
       163.0004        164.0004
  -3710885.76147  -2879005.58845  24776100.557    24776102.7484   24776105.0344
       135.0004        142.0004
 21  2  2  1 32  0.0000000  0 10G19G30G28G09G17G14G07G01G21G22
  -8870146.76348  -6891667.49746  23225955.964    23225955.9274   23225959.4464
       166.0004        169.0004
 -19626295.52249 -15269597.05247  20681056.508    20681057.0374   20681063.9924
       211.0004        211.0004
  -3660620.03947  -2847082.78045  23134375.867    23134375.0524   23134380.5734
       159.0004        161.0004
  -2670734.73348  -2061638.35946  23764794.549    23764794.0724   23764800.0934
       187.0004        186.0004
 -16242005.41649 -12630030.25047  21673557.158    21673557.4984   21673561.6154
       196.0004        197.0004
  -6398109.11148  -4977830.60746  22524765.832    22524766.0854   22524771.3294
       178.0004        177.0004
 -28153713.16949 -21914346.35348  20074305.314    20074306.1584   20074310.6474
       215.0004        216.0004
 -20155787.49549 -15690104.52647  20856070.256    20856071.0294   20856078.1934
       198.0004        198.0004
  -4581501.37647  -3561727.59346  23256915.621    23256915.1074   23256919.9924
       164.0004        166.0004
  -3733080.34647  -2896300.10945  24771878.352    24771878.5764   24771881.0064
       137.0004        142.0004
 21  2  2  1 32 30.0000000  0 10G19G30G28G09G17G14G07G01G21G22
  -8932060.35348  -6939911.78746  23214174.132    23214173.3274   23214176.9984
       166.0004        166.0004
 -19675343.51049 -15307816.26447  20671723.825    20671723.4814   20671730.4334
       211.0004        211.0004
  -3687205.57447  -2867798.74945  23129317.010    23129315.8434   23129321.7964
       159.0004        160.0004
  -2592487.90748  -2000666.79846  23779682.256    23779682.5384   23779690.7284
       186.0004        186.0004
 -16259317.87449 -12643520.46047  21670263.068    21670263.2374   21670267.6744
       197.0004        197.0004
  -6432436.25548  -5004578.99446  22518233.328    22518234.2464   22518239.3594
       178.0004        179.0004
 -28145077.96349 -21907617.62448  20075949.431    20075949.8624   20075953.9384
       215.0004        216.0004
 -20129255.14649 -15669429.95847  20861119.829    20861119.7114   20861126.9364
       197.0004        198.0004
  -4499291.09147  -3497667.63746  23272559.092    23272557.9994   23272564.1084
       163.0004        164.0004
  -3755173.45247  -2913515.59145  24767673.493    24767674.4284   24767677.7294
       135.0004        140.0004
 21  2  2  1 33  0.0000000  0 10G19G30G28G09G17G14G07G01G21G22
  -8993650.84847  -6987904.38046  23202453.233    23202452.3244   23202457.1374
       164.0004        166.0004
 -19723940.70149 -15345684.20847  20662475.294    20662475.5764   20662482.8554
       211.0004        211.0004
  -3713923.47647  -2888617.90145  23124232.711    23124232.9974   23124237.6444
       160.0004        162.0004
  -2514340.91748  -1939773.07147  23794554.816    23794555.0564   23794561.0844
       188.0004        189.0004
 -16276253.12149 -12656716.74147  21667039.903    21667040.2004   21667044.2204
       196.0004        196.0004
  -6466834.76648  -5031383.01946  22511687.792    22511688.4094   22511693.1704
       178.0004        179.0004
 -28135860.35549 -21900435.08048  20077703.221    20077703.8534   20077707.8674
       215.0004        216.0004
 -20102112.94649 -15648280.17647  20866284.365    20866285.0734   20866292.1014
       198.0004        198.0004
  -4416765.58747  -3433362.05446  23288262.502    23288261.8344   23288268.8874
       162.0004        163.0004
  -3777161.52246  -2930649.16245  24763489.956    24763488.3054   24763492.1544
       133.0004        139.0004
 21  2  2  1 33 30.0000000  0 10G19G30G28G09G17G14G07G01G21G22
  -9054918.85948  -7035645.67646  23190795.678    23190794.6384   23190798.2924
       166.0004        169.0004
 -19772085.90849 -15383199.96247  20653314.339    20653314.1084   20653321.1934
       211.0004        212.0004
  -3740775.12347  -2909541.27246  23119124.022    23119122.9524   23119127.6174
       161.0004        163.0004
  -2436297.19548  -1878959.78847  23809406.157    23809406.1234   23809412.6024
       190.0004        191.0004
 -16292813.29649 -12669620.76947  21663888.720    21663889.0144   21663893.5924
       196.0004        196.0004
  -6501305.44948  -5058243.28546  22505128.037    22505128.4994   22505133.3314
       179.0004        178.0004
 -28126060.97149 -21892799.20548  20079568.429    20079568.9774   20079572.9274
       215.0004        216.0004
 -20074362.52049 -15626656.46147  20871564.222    20871565.3744   20871573.1184
       197.0004        197.0004
  -4333928.24047  -3368813.47346  23304026.333    23304026.0184   23304031.6794
       162.0004        163.0004
  -3799043.33047  -2947699.92045  24759327.793    24759325.6384   24759329.2804
       135.0004        141.0004
 21  2  2  1 34  0.0000000  0 10G19G30G28G09G17G14G07G01G21G22
  -9115864.56148  -7083135.79946  23179197.457    23179197.2024   23179200.4524
       166.0004        168.0004
 -19819777.54349 -15420362.27647  20644238.453    20644238.3564   20644245.7554
       212.0004        212.0004
  -3767761.25447  -2930569.43846  23113988.094    23113987.9434   23113992.1274
       161.0004        163.0004
  -2358359.67348  -1818229.24547  23824234.744    23824235.5064   23824244.6024
       190.0004        190.0004
 -16309000.61049 -12682234.23547  21660808.576    21660808.9004   21660813.0374
       196.0004        197.0004
  -6535848.52848  -5085159.96646  22498555.455    22498555.8304   22498560.6344
       179.0004        178.0004
 -28115680.11149 -21884710.22548  20081543.063    20081543.8904   20081548.1904
       215.0004        216.0004
 -20046005.13649 -15604559.78647  20876960.682    20876961.5694   20876969.0164
       197.0004        198.0004
  -4250781.75747  -3304024.01146  23319848.662    23319848.8164   23319854.5124
       161.0004        163.0004
  -3820816.76947  -2964666.24345  24755183.573    24755182.9334   24755183.4614
       137.0004        142.0004
 21  2  2  1 34 30.0000000  0 10G19G30G28G09G17G14G07G01G21G22
  -9176486.18748  -7130373.42846  23167661.227    23167660.9314   23167664.4144
       167.0004        168.0004
 -19867011.77449 -15457168.19248  20635249.801    20635250.3664   20635257.8284
       212.0004        213.0004
  -3794880.60947  -2951701.42245  23108826.199    23108826.0654   23108830.8564
       159.0004        157.0004
  -2280529.11948  -1757582.07947  23839046.573    23839046.7494   23839055.1074
       190.0004        191.0004
 -16324814.95749 -12694557.10647  21657798.228    21657798.9214   21657803.6264
       195.0004        194.0004
  -6570462.14148  -5112131.64346  22491967.799    22491968.4744   22491974.0534
       178.0004        178.0004
 -28104715.71349 -21876166.55948  20083630.163    20083630.6314   20083634.6174
       215.0004        216.0004
 -20017039.85249 -15581989.44947  20882473.393    20882473.9964   20882481.2784
       198.0004        198.0004
  -4167327.30247  -3238994.59745  23335730.191    23335729.9374   23335735.3974
       160.0004        161.0004
  -3842478.27947  -2981545.40545  24751060.743    24751060.4914   24751063.8514
       139.0004        144.0004
 21  2  2  1 35  0.0000000  0 10G19G30G28G09G17G14G07G01G21G22
  -9236784.15548  -7177358.81846  23156187.520    23156186.3364   23156190.7254
       167.0004        169.0004
 -19913787.11249 -15493616.50548  20626349.567    20626349.4284   20626356.5214
       213.0004        213.0004
  -3822133.99847  -2972937.83645  23103640.621    23103639.7304   23103644.5834
       157.0004        159.0004
  -2202808.63048  -1697020.67047  23853836.402    23853836.8754   23853843.9444
       191.0004        191.0004
 -16340257.73349 -12706590.42647  21654860.215    21654860.3904   21654865.1014
       195.0004        196.0004
  -6605146.65848  -5139158.52446  22485367.820    22485367.9394   22485372.8084
       177.0004        176.0004
 -28093167.91749 -21867168.27148  20085827.493    20085827.7904   20085832.1044
       215.0004        216.0004
 -19987468.16949 -15558946.56147  20888100.657    20888100.7764   20888108.4424
       197.0004        197.0004
  -4083567.63647  -3173727.30545  23351668.590    23351669.0104   23351673.3284
       160.0004        161.0004
  -3864026.14247  -2998335.97445  24746959.420    24746959.9344   24746964.3954
       138.0004        143.0004
 21  2  2  1 35 30.0000000  0 10G19G30G28G09G17G14G07G01G21G22
  -9296758.20448  -7224091.84546  23144773.883    23144773.1354   23144777.7184
       168.0004        169.0004
 -19960101.52549 -15529705.66648  20617536.171    20617535.9314   20617543.2654
       213.0004        213.0004
  -3849521.50747  -2994278.75245  23098429.448    23098428.9654   23098433.8164
       159.0004        162.0004
  -2125200.59648  -1636546.89247  23868604.118    23868604.9724   23868612.4014
       190.0004        189.0004
 -16355330.15749 -12718335.17047  21651992.773    21651992.5854   21651996.9484
       196.0004        197.0004
  -6639901.83148  -5166240.48146  22478752.882    22478753.8924   22478759.4194
       176.0004        176.0004
 -28081036.87249 -21857715.52148  20088136.236    20088136.6644   20088140.4764
       214.0004        216.0004
 -19957290.88849 -15535431.78947  20893843.128    20893843.4034   20893850.9894
       197.0004        197.0004
  -3999505.36947  -3108224.25445  23367665.471    23367665.1884   23367668.9694
       159.0004        161.0004
  -3885458.34047  -3015036.33445  24742882.719    24742880.8014   24742885.6664
       136.0004        141.0004
 21  2  2  1 36  0.0000000  0 10G19G30G28G09G17G14G07G01G21G22
  -9356407.50848  -7270571.80346  23133423.652    23133423.6924   23133426.6094
       169.0004        172.0004
 -20005952.16149 -15565433.43948  20608810.635    20608810.7384   20608818.2504
       213.0004        214.0004
  -3877042.90047  -3015723.99346  23093191.404    23093192.2074   23093196.8014
       160.0004        163.0004
  -2047706.79548  -1576162.12947  23883351.989    23883351.9604   23883359.2164
       189.0004        188.0004
 -16370033.61149 -12729792.40147  21649194.535    21649194.5224   21649198.6574
       196.0004        196.0004
  -6674726.65648  -5193376.72846  22472128.410    22472128.3554   22472133.0864
       178.0004        179.0004
 -28068321.37849 -21847807.35148  20090555.683    20090556.1934   20090560.2444
       214.0004        215.0004
 -19926508.15149 -15511445.23847  20899700.530    20899701.7174   20899709.2904
       197.0004        198.0004
  -3915142.11447  -3042486.67545  23383718.998    23383719.2164   23383722.0694
       158.0004        159.0004
  -3906771.92047  -3031644.31245  24738824.913    24738825.2574   24738830.0714
       137.0004        142.0004
 21  2  2  1 36 30.0000000  0 10G19G30G28G09G17G14G07G01G21G22
  -9415732.60448  -7316799.11146  23122134.503    23122133.6444   23122137.5324
       171.0004        173.0004
 -20051337.90949 -15600798.95048  20600174.447    20600174.5194   20600181.6784
       213.0004        214.0004
  -3904699.37847  -3037274.47445  23087930.332    23087929.1844   23087933.3884
       160.0004        162.0004
  -1970330.50348  -1515868.89447  23898076.199    23898076.3834   23898083.0244
       188.0004        188.0004
 -16384370.02949 -12740963.61347  21646465.112    21646465.8844   21646470.7744
       195.0004        194.0004
  -6709621.81148  -5220567.74246  22465486.399    22465486.7304   22465492.5524
       178.0004        177.0004
 -28055022.27049 -21837444.40748  20093086.382    20093087.0204   20093091.1004
       214.0004        215.0004
 -19895121.77249 -15486988.29947  20905673.238    20905673.8154   20905681.7734
       198.0004        198.0004
  -3830481.19047  -2976517.09045  23399830.095    23399828.6414   23399832.8144
       157.0004        158.0004
  -3927965.46047  -3048158.71945  24734792.967    24734791.6684   24734796.8024
       140.0004        144.0004
 21  2  2  1 37  0.0000000  0 10G19G30G28G09G17G14G07G01G21G22
  -9474733.81648  -7362774.08046  23110907.081    23110906.3034   23110910.0474
       172.0004        173.0004
 -20096256.92249 -15635800.78048  20591626.632    20591626.5004   20591633.5914
       213.0004        214.0004
  -3932491.36147  -3058930.59046  23082641.612    23082641.3394   23082644.8244
       162.0004        164.0004
  -1893074.36148  -1455669.31947  23912778.417    23912778.0504   23912785.0414
       189.0004        189.0004
 -16398341.34148 -12751850.34347  21643807.097    21643807.3244   21643811.3394
       194.0004        193.0004
  -6744587.15848  -5247813.48646  22458833.703    22458833.5874   22458838.2684
       178.0004        179.0004
 -28041139.47549 -21826626.65648  20095727.897    20095728.3454   20095732.8164
       214.0004        215.0004
 -19863132.89249 -15462061.88547  20911760.087    20911760.9814   20911768.6104
       197.0004        197.0004
  -3745525.49147  -2910317.84445  23415996.455    23415995.6504   23415998.7694
       156.0004        158.0004
  -3949036.98547  -3064578.07145  24730785.511    24730784.2064   24730786.9734
       142.0004        147.0004
 21  2  2  1 37 30.0000000  0 10G19G30G28G09G17G14G07G01G21G22
  -9533409.94948  -7408495.73346  23099739.623    23099739.8154   23099744.6944
       172.0004        172.0004
 -20140706.22349 -15670436.62648  20583168.654    20583168.6754   20583175.1894
       214.0004        214.0004
  -3960418.03747  -3080691.64145  23077325.349    23077325.1034   23077331.4334
       160.0004        160.0004
  -1815939.79048  -1395564.47747  23927454.345    23927455.4714   23927462.9284
       188.0004        188.0004
 -16411947.65848 -12762452.67947  21641218.447    21641218.5934   21641223.0284
       194.0004        195.0004
  -6779621.51248  -5275112.98146  22452165.720    22452166.0904   22452172.1754
       178.0004        177.0004
 -28026672.09849 -21815353.40848  20098481.045    20098481.7534   20098485.8804
       214.0004        215.0004
 -19830541.53749 -15436666.03647  20917961.938    20917963.0004   20917970.7824
       197.0004        197.0004
  -3660276.33047  -2843889.92545  23432218.419    23432217.2934   23432222.6444
       157.0004        158.0004
  -3969983.28647  -3080899.85445  24726799.681    24726798.0414   24726800.3674
       143.0004        147.0004
 21  2  2  1 38  0.0000000  0 10G19G30G28G09G17G14G07G01G21G22
  -9591760.34548  -7453963.56746  23088637.961    23088636.6124   23088640.3024
       171.0004        172.0004
 -20184683.10249 -15704704.31748  20574800.082    20574800.0034   20574806.6464
       214.0004        214.0004
  -3988479.27547  -3102557.54045  23071987.332    23071986.4454   23071991.4694
       159.0004        160.0004
  -1738928.49148  -1335555.67946  23942110.760    23942111.1344   23942117.6394
       187.0004        186.0004
 -16425189.96649 -12772771.33247  21638698.100    21638698.7194   21638702.7884
       196.0004        197.0004
  -6814723.82248  -5302465.41946  22445487.093    22445487.6144   22445492.3044
       178.0004        178.0004
 -28011619.33349 -21803623.97548  20101345.612    20101346.0794   20101350.4894
       214.0004        215.0004
 -19797347.95549 -15410800.89447  20924278.298    20924279.3214   20924287.1584
       197.0004        197.0004
  -3574735.47847  -2777234.72245  23448495.407    23448495.8594   23448500.6634
       158.0004        160.0004
  -3990801.68347  -3097121.93745  24722835.529    24722834.3454   24722839.3344
       143.0004        146.0004
 21  2  2  1 38 30.0000000  0 10G19G30G28G09G17G14G07G01G21G22
  -9649784.87348  -7499177.48546  23077596.673    23077595.6224   23077598.8584
       172.0004        173.0004
 -20228185.69849 -15738602.45548  20566521.394    20566521.5584   20566528.1744
       214.0004        214.0004
  -4016675.06647  -3124528.30845  23066622.147    23066621.3814   23066625.3314
       159.0004        161.0004
  -1662042.96148  -1275644.87246  23956739.985    23956740.6434   23956747.9344
       184.0004        183.0004
 -16438069.69849 -12782807.49447  21636247.085    21636247.5214   21636252.2674
       197.0004        197.0004
  -6849893.91748  -5329870.70546  22438793.737    22438794.0274   22438799.3074
       177.0004        175.0004
 -27995981.30349 -21791438.51848  20104321.431    20104321.6164   20104326.3944
       214.0004        215.0004
 -19763553.31649 -15384467.41347  20930709.980    20930710.5434   20930718.1034
       196.0004        197.0004
  -3488905.72847  -2710354.40445  23464828.665    23464828.2794   23464834.5334
       157.0004        159.0004
  -4011490.31147  -3113242.93645  24718895.976    24718896.7094   24718901.2634
       139.0004        142.0004
 21  2  2  1 39  0.0000000  0 10G19G30G28G09G17G14G07G01G21G22
  -9707482.90848  -7544136.98246  23066615.735    23066615.9574   23066619.4734
       171.0004        171.0004
 -20271211.82449 -15772129.31948  20558333.541    20558333.9654   20558340.3704
       214.0004        214.0004
  -4045005.64047  -3146604.08545  23061228.984    23061229.5254   23061233.9764
       159.0004        160.0004
  -1585285.29048  -1215833.71846  23971348.309    23971347.6744   23971353.7954
       182.0004        182.0004
 -16450588.34149 -12792562.28147  21633864.980    21633865.2654   21633869.7414
       197.0004        197.0004
  -6885131.28648  -5357328.38646  22432086.676    22432088.6444   22432093.6644
       176.0004        176.0004
 -27979757.62149 -21778796.70148  20107408.719    20107409.1344   20107413.4344
       214.0004        215.0004
 -19729158.43649 -15357666.19547  20937254.915    20937255.8174   20937262.8374
       196.0004        197.0004
  -3402789.33147  -2643250.74745  23481217.326    23481216.5034   23481221.6854
       159.0004        161.0004
  -4032046.44447  -3129260.70645  24714986.480    24714986.2954   24714990.2464
       137.0004        143.0004
 21  2  2  1 39 30.0000000  0 10G19G30G28G09G17G14G07G01G21G22
  -9764855.31048  -7588842.73146  23055697.749    23055697.9954   23055701.5924
       169.0004        169.0004
 -20313759.88449 -15805283.65748  20550237.176    20550237.1554   20550243.7584
       214.0004        214.0004
  -4073471.34247  -3168785.15345  23055813.804    23055814.0474   23055817.3914
       158.0004        161.0004
  -1508658.30648  -1156124.39346  23985930.421    23985930.1994   23985936.3854
       184.0004        186.0004
 -16462747.61649 -12802037.02347  21631550.925    21631551.3094   21631555.6524
       196.0004        196.0004
  -6920435.85348  -5384838.45046  22425371.197    22425371.1644   22425376.3094
       177.0004        177.0004
 -27962948.52649 -21765698.71948  20110607.406    20110607.9674   20110612.2324
       214.0004        214.0004
 -19694164.76949 -15330398.40847  20943914.317    20943914.2104   20943921.7484
       196.0004        197.0004
  -3316388.88447  -2575925.71545  23497658.212    23497657.9034   23497664.0544
       160.0004        162.0004
  -4052468.33847  -3145173.86445  24711103.134    24711100.8034   24711103.6204
       138.0004        143.0004
 21  2  2  1 40  0.0000000  0 10G19G30G28G09G17G14G07G01G21G22
  -9821902.43848  -7633295.05246  23044843.714    23044843.6204   23044846.1604
       169.0004        172.0004
 -20355828.60549 -15838064.48448  20542231.620    20542231.9504   20542238.6634
       214.0004        214.0004
  -4102073.15147  -3191072.28745  23050370.407    23050370.5744   23050374.8434
       159.0004        162.0004
  -1432164.94648  -1096519.18247  24000485.725    24000486.2744   24000494.0894
       187.0004        188.0004
 -16474549.16849 -12811233.02047  21629305.865    21629306.0054   21629309.6194
       196.0004        195.0004
  -6955808.04248  -5412401.18546  22418639.017    22418639.6824   22418644.7194
       176.0004        175.0004
 -27945554.88949 -21752145.24048  20113917.047    20113917.3214   20113922.2854
       213.0004        214.0004
 -19658574.05949 -15302665.38247  20950686.472    20950687.6564   20950694.7494
       196.0004        196.0004
  -3229707.80447  -2508382.03645  23514151.872    23514151.3614   23514158.8414
       159.0004        161.0004
  -4072754.46447  -3160981.21945  24707239.980    24707240.1654   24707244.3094
       139.0004        144.0004
 21  2  2  1 40 30.0000000  0 10G19G30G28G09G17G14G07G01G21G22
  -9878622.95948  -7677492.82746  23034049.904    23034048.7234   23034051.5524
       172.0004        173.0004
 -20397414.88649 -15870469.39348  20534318.072    20534318.1544   20534325.2174
       214.0004        214.0004
  -4130810.22747  -3213464.83245  23044901.760    23044901.2344   23044906.1324
       159.0004        160.0004
  -1355806.39748  -1037019.04246  24015016.249    24015016.1554   24015024.5084
       186.0004        185.0004
 -16485994.48949 -12820151.45447  21627127.470    21627127.8104   21627131.7954
       195.0004        195.0004
  -6991246.27248  -5440015.40746  22411895.359    22411896.1754   22411900.3734
       175.0004        175.0004
 -27927575.43249 -21738135.29248  20117338.367    20117339.0304   20117343.3754
       213.0004        214.0004
 -19622386.32049 -15274467.14047  20957573.872    20957574.1664   20957581.1244
       196.0004        197.0004
  -3142747.11747  -2440620.50345  23530700.092    23530700.1444   23530706.7664
       159.0004        161.0004
  -4092901.55547  -3176680.24445  24703404.879    24703406.2434   24703411.2394
       138.0004        142.0004
 21  2  2  1 41  0.0000000  0 10G19G30G28G09G17G14G07G01G21G22
  -9935016.70548  -7721435.99346  23023317.789    23023316.9344   23023321.0604
       172.0004        172.0004
 -20438516.46849 -15902496.60448  20526496.803    20526496.9114   20526503.6544
       214.0004        214.0004
  -4159682.13847  -3235962.41445  23039408.074    23039406.8684   23039412.5214
       159.0004        162.0004
  -1279584.65248   -977625.45746  24029519.278    24029520.7904   24029529.1554
       185.0004        185.0004
 -16497083.92049 -12828792.55347  21625016.706    21625017.3464   21625022.1374
       195.0004        196.0004
  -7026749.85448  -5467680.53246  22405139.268    22405139.7974   22405144.3934
       175.0004        175.0004
 -27909009.98549 -21723668.71648  20120871.619    20120871.9564   20120876.2284
       213.0004        214.0004
 -19585602.32249 -15245804.27647  20964572.606    20964573.6444   20964580.9714
       196.0004        196.0004
  -3055509.32247  -2372643.00045  23547301.976    23547302.0144   23547306.4484
       158.0004        160.0004
  -4112906.99647  -3192268.83845  24699596.745    24699597.6444   24699603.8334
       137.0004        141.0004
 21  2  2  1 41 30.0000000  0 10G19G30G28G09G17G14G07G01G21G22
  -9991083.20348  -7765124.17446  23012649.564    23012649.0224   23012651.5574
       171.0004        173.0004
 -20479131.02249 -15934144.31748  20518767.527    20518767.9224   20518775.0874
       214.0004        214.0004
  -4188688.75347  -3258564.97145  23033887.474    23033887.4184   23033892.8454
       159.0004        160.0004
  -1203501.59548   -918339.98046  24043998.618    24043998.6564   24044006.8214
       184.0004        183.0004
 -16507819.08649 -12837157.60847  21622973.760    21622974.5054   21622979.1284
       196.0004        196.0004
  -7062317.92748  -5495395.91446  22398371.695    22398372.0264   22398376.0294
       176.0004        176.0004
 -27889858.27349 -21708745.30948  20124515.674    20124516.3624   20124521.0184
       213.0004        214.0004
 -19548222.82249 -15216677.39147  20971684.876    20971685.8854   20971694.0064
       196.0004        196.0004
  -2967996.49747  -2304451.17545  23563954.485    23563953.3294   23563959.1794
       159.0004        160.0004
  -4132768.18447  -3207745.08145  24695822.581    24695821.8254   24695823.8204
       137.0004        142.0004
 21  2  2  1 42  0.0000000  0 10G19G30G28G09G17G14G07G01G21G22
 -10046824.00748  -7808558.53546  23002040.824    23002040.9584   23002044.8634
       172.0004        175.0004
 -20519258.46149 -15965412.44548  20511132.093    20511132.0094   20511139.3234
       214.0004        215.0004
  -4217831.98447  -3281273.98245  23028341.326    23028342.0974   23028345.4044
       158.0004        160.0004
  -1127561.30648   -859165.74646  24058448.920    24058449.1564   24058458.0094
       182.0004        182.0004
 -16518203.26549 -12845249.16347  21620998.404    21620998.4304   21621002.7574
       196.0004        196.0004
  -7097951.90548  -5523162.64446  22391590.812    22391590.8064   22391594.2764
       176.0004        175.0004
 -27870122.34949 -21693366.67548  20128271.199    20128271.8774   20128276.2334
       213.0004        214.0004
 -19510250.83049 -15187088.81547  20978911.992    20978912.4584   20978919.6104
       196.0004        196.0004
  -2880212.47147  -2236048.06345  23580659.680    23580659.0274   23580664.6764
       158.0004        161.0004
  -4152484.82847  -3223108.68245  24692068.390    24692067.4714   24692073.4194
       139.0004        144.0004
 21  2  2  1 42 30.0000000  0 10G19G30G28G09G17G14G07G01G21G22
 -10102237.40448  -7851737.78946  22991497.264    22991496.4294   22991500.0484
       174.0004        175.0004
 -20558894.88349 -15996297.97348  20503589.660    20503589.4144   20503596.4944
       214.0004        214.0004
  -4247109.69647  -3304087.79445  23022771.111    23022771.1314   23022776.0384
       159.0004        162.0004
  -1051764.00148   -800102.91346  24072873.353    24072873.3434   24072881.8074
       182.0004        183.0004
 -16528235.87149 -12853066.76647  21619088.816    21619089.3794   21619094.0014
       196.0004        196.0004
  -7133649.30848  -5550978.79146  22384796.670    22384797.6404   22384802.6084
       176.0004        176.0004
 -27849799.98049 -21677531.07048  20132138.486    20132138.8894   20132143.7224
       212.0004        213.0004
 -19471685.50449 -15157037.90647  20986251.156    20986251.0094   20986258.7324
       196.0004        196.0004
  -2792158.26347  -2167434.40545  23597416.274    23597415.4184   23597421.1524
       158.0004        160.0004
  -4172052.61847  -3238356.27145  24688344.544    24688345.1544   24688346.6934
       138.0004        142.0004
 21  2  2  1 43  0.0000000  0 10G19G30G28G09G17G14G07G01G21G22
 -10157324.07648  -7894662.46646  22981014.085    22981013.4264   22981016.8914
       174.0004        175.0004
 -20598039.29849 -16026800.11548  20496139.834    20496140.1314   20496147.3084
       214.0004        214.0004
  -4276523.25647  -3327007.46245  23017172.862    23017173.4964   23017178.7334
       159.0004        161.0004
   -976112.86448   -741153.99546  24087270.261    24087270.4324   24087277.1644
       183.0004        184.0004
 -16537919.20049 -12860612.20747  21617246.953    21617246.8084   21617250.9654
       196.0004        196.0004
  -7169410.62348  -5578844.73546  22377991.841    22377992.6014   22377996.9404
       177.0004        177.0004
 -27828892.57349 -21661239.59248  20136117.312    20136118.0714   20136122.5074
       213.0004        214.0004
 -19432529.04149 -15126526.36647  20993701.713    20993702.3804   20993710.0504
       196.0004        196.0004
  -2703837.12647  -2098612.73445  23614222.563    23614222.5734   23614227.4534
       158.0004        160.0004
  -4191470.43447  -3253487.02245  24684648.142    24684647.7484   24684652.3074
       136.0004        140.0004
 21  2  2  1 43 30.0000000  0 11G19G30G28G09G06G17G14G07G01G21G22
 -10212083.44848  -7937332.10546  22970593.407    22970593.4424   22970596.4254
       173.0004        174.0004
 -20636689.11649 -16056916.87248  20488786.038    20488785.8834   20488792.5884
       214.0004        214.0004
  -4306071.82847  -3350032.32045  23011550.614    23011550.8504   23011556.1884
       160.0004        162.0004
   -900609.36548   -682320.10946  24101637.480    24101636.9294   24101643.7314
       180.0004        179.0004
  -1028405.51257   -771056.67245  24215307.095    24215306.6835   24215317.0794
       139.0004        150.0004
 -16547254.14349 -12867886.17947  21615469.557    21615470.3404   21615474.3984
       197.0004        197.0004
  -7205234.59748  -5606759.54746  22371174.914    22371174.9824   22371180.0174
       176.0004        176.0004
 -27807399.23449 -21644491.55148  20140207.135    20140207.5884   20140212.3894
       213.0004        214.0004
 -19392781.93149 -15095554.60247  21001265.461    21001265.7834   21001273.0474
       195.0004        195.0004
  -2615250.52047  -2029584.21545  23631080.874    23631080.1194   23631084.2534
       157.0004        158.0004
  -4210735.38747  -3268498.67845  24680985.286    24680983.8594   24680985.1774
       137.0004        143.0004
 21  2  2  1 44  0.0000000  0 11G19G30G28G09G06G17G14G07G01G21G22
 -10266516.93048  -7979747.78546  22960235.812    22960235.2044   22960237.9944
       174.0004        175.0004
 -20674843.78449 -16086647.76848  20481525.104    20481525.1464   20481532.0044
       215.0004        215.0004
  -4335756.73747  -3373163.42045  23005902.333    23005900.7844   23005905.3624
       160.0004        162.0004
   -825257.05748   -623604.07346  24115975.192    24115975.4854   24115983.0744
       176.0004        175.0004
  -1136918.33447   -855612.08445  24194654.705    24194658.7334   24194666.9734
       146.0004        151.0004
 -16556243.34649 -12874890.73347  21613759.861    21613759.5254   21613763.7544
       197.0004        198.0004
  -7241122.08348  -5634723.79946  22364345.174    22364346.4784   22364351.2444
       177.0004        178.0004
 -27785321.62449 -21627288.20948  20144408.301    20144409.0634   20144413.4344
       213.0004        213.0004
 -19352446.78749 -15064124.60247  21008939.746    21008941.1804   21008948.8354
       195.0004        195.0004
  -2526402.71247  -1960352.16045  23647987.332    23647987.6344   23647992.2794
       155.0004        157.0004
  -4229846.35647  -3283390.33145  24677348.401    24677346.8004   24677350.3984
       137.0004        142.0004
 21  2  2  1 44 30.0000000  0 11G19G30G28G09G06G17G14G07G01G21G22
 -10320622.47148  -8021907.95746  22949939.806    22949939.0334   22949942.2204
       174.0004        175.0004
 -20712499.77849 -16115990.12348  20474359.781    20474359.6934   20474366.2284
       215.0004        215.0004
  -4365576.32447  -3396399.48846  23000227.188    23000227.2674   23000232.3934
       162.0004        164.0004
   -750056.34748   -565006.15446  24130286.312    24130286.1574   24130294.1544
       176.0004        178.0004
  -1245400.91247   -940143.87245  24174014.002    24174014.4174   24174022.2694
       147.0004        150.0004
 -16564887.30249 -12881626.29447  21612114.254    21612114.7374   21612118.5804
       196.0004        195.0004
  -7277070.82248  -5662735.82646  22357504.493    22357504.9084   22357510.0904
       177.0004        176.0004
 -27762658.42149 -21609628.59248  20148721.520    20148721.5704   20148726.0414
       213.0004        214.0004
 -19311523.14149 -15032236.05547  21016728.636    21016728.6814   21016736.2614
       195.0004        195.0004
  -2437293.94947  -1890916.77445  23664944.625    23664943.7954   23664948.6034
       155.0004        157.0004
  -4248799.58547  -3298159.08545  24673742.017    24673740.6484   24673745.1124
       138.0004        143.0004
 21  2  2  1 45  0.0000000  0 11G19G30G28G09G06G17G14G07G01G21G22
 -10374399.99648  -8063812.49746  22939705.584    22939705.8224   22939708.7104
       174.0004        174.0004
 -20749655.15749 -16144942.37148  20467288.925    20467288.9874   20467296.0234
       215.0004        215.0004
  -4395530.50847  -3419740.38745  22994527.401    22994526.9314   22994531.4344
       161.0004        161.0004
   -675009.42048   -506528.02846  24144567.169    24144567.5984   24144575.7484
       179.0004        181.0004
  -1353850.51747  -1024649.98245  24153376.763    24153377.5434   24153385.7154
       146.0004        149.0004
 -16573187.35049 -12888093.84647  21610535.071    21610535.1704   21610539.9314
       196.0004        196.0004
  -7313080.21748  -5690795.09746  22350653.035    22350653.7104   22350657.4514
       176.0004        176.0004
 -27739409.49949 -21591512.57248  20153145.124    20153145.9684   20153150.3864
       213.0004        214.0004
 -19270012.25948 -14999889.90147  21024627.443    21024627.8664   21024635.8734
       194.0004        194.0004
  -2347926.94247  -1821280.13545  23681950.409    23681950.4484   23681954.7214
       155.0004        156.0004
  -4267592.81747  -3312803.18345  24670162.174    24670161.9964   24670166.7244
       138.0004        143.0004
 21  2  2  1 45 30.0000000  0 11G19G30G28G09G06G17G14G07G01G21G22
 -10427851.07848  -8105462.66746  22929534.744    22929533.4464   22929537.3144
       173.0004        173.0004
 -20786309.44149 -16173504.16048  20460313.890    20460314.0154   20460320.9054
       215.0004        215.0004
  -4425620.65647  -3443187.26045  22988801.444    22988802.1704   22988804.1654
       160.0004        162.0004
   -600119.71548   -448172.43346  24158818.230    24158818.6424   24158825.7024
       179.0004        180.0004
  -1462265.87747  -1109129.43345  24132745.221    24132746.4494   24132754.1954
       146.0004        149.0004
 -16581145.93049 -12894295.32847  21609021.048    21609021.1624   21609025.2384
       196.0004        197.0004
  -7349151.09948  -5718902.27946  22343787.689    22343788.5454   22343793.7004
       176.0004        176.0004
 -27715576.64149 -21572941.50648  20157680.871    20157681.3064   20157685.5184
       213.0004        213.0004
 -19227916.82448 -14967088.26447  21032638.316    21032638.4364   21032645.9624
       194.0004        194.0004
  -2258305.41647  -1751445.18445  23699004.970    23699004.5144   23699009.4904
       155.0004        158.0004
  -4286224.96547  -3327321.73345  24666614.494    24666616.5024   24666622.5394
       138.0004        142.0004
 21  2  2  1 46  0.0000000  0 11G19G30G28G09G06G17G14G07G01G21G22
 -10480974.80148  -8146857.76046  22919425.304    22919423.9314   22919428.3114
       173.0004        173.0004
 -20822459.61349 -16201673.13148  20453434.477    20453434.9954   20453441.6844
       215.0004        216.0004
  -4455845.45247  -3466739.04246  22983049.741    22983049.4324   22983054.4884
       161.0004        163.0004
   -525388.14148   -389940.03746  24173039.226    24173039.5774   24173047.6364
       180.0004        181.0004
  -1570643.10447  -1193579.15645  24112121.883    24112121.9494   24112131.1664
       145.0004        149.0004
 -16588763.92649 -12900231.41647  21607570.714    21607571.1184   21607575.5574
       197.0004        198.0004
  -7385281.61048  -5747055.93046  22336913.595    22336913.6674   22336918.4554
       177.0004        177.0004
 -27691159.01549 -21553914.78248  20162326.164    20162327.1364   20162332.2254
       212.0004        213.0004
 -19185237.00048 -14933831.24847  21040758.796    21040760.1454   21040768.2274
       194.0004        194.0004
  -2168430.85347  -1681413.07145  23716106.348    23716107.0714   23716112.4924
       155.0004        158.0004
  -4304692.88347  -3341712.32145  24663101.997    24663102.0294   24663107.2354
       138.0004        143.0004
 21  2  2  1 46 30.0000000  0 11G19G30G28G09G06G17G14G07G01G21G22
 -10533771.20248  -8187997.81246  22909377.828    22909378.1934   22909381.4014
       171.0004        172.0004
 -20858103.83349 -16229447.86748  20446652.260    20446652.0464   20446659.0074
       215.0004        216.0004
  -4486204.90647  -3490395.74846  22977272.027    22977272.3614   22977277.0104
       161.0004        163.0004
   -450816.82748   -331832.53746  24187230.523    24187229.8674   24187237.3634
       180.0004        180.0004
  -1678979.45647  -1277997.06545  24091506.443    24091507.2684   24091515.0474
       147.0004        151.0004
 -16596042.94449 -12905903.37147  21606185.652    21606186.2814   21606191.1544
       198.0004        199.0004
  -7421471.17948  -5775255.60446  22330025.084    22330026.1644   22330031.2444
       176.0004        176.0004
 -27666156.67849 -21534432.46048  20167085.112    20167085.6484   20167089.8824
       212.0004        214.0004
 -19141974.06648 -14900119.88047  21048992.350    21048992.6294   21049000.8684
       194.0004        194.0004
  -2078305.45647  -1611185.50945  23733257.739    23733257.2484   23733263.3774
       157.0004        159.0004
  -4322994.41847  -3355973.28245  24659620.555    24659620.8954   24659624.6144
       139.0004        144.0004
 21  2  2  1 47  0.0000000  0 11G19G30G28G09G06G17G14G07G01G21G22
 -10586239.92848  -8228882.52746  22899393.874    22899394.0754   22899397.3004
       172.0004        175.0004
 -20893240.35549 -16256826.97548  20439965.222    20439965.5844   20439972.5694
       215.0004        215.0004
  -4516698.90147  -3514157.30146  22971470.070    22971469.5024   22971474.5944
       163.0004        165.0004
   -376407.89648   -273851.55646  24201390.921    24201389.6434   24201397.4724
       179.0004        179.0004
  -1787272.31447  -1362381.04945  24070898.740    24070898.9204   24070906.8284
       149.0004        152.0004
 -16602983.78449 -12911311.79647  21604865.089    21604865.4194   21604870.2814
       198.0004        199.0004
  -7457719.21248  -5803500.83446  22323128.897    22323129.1234   22323134.2274
       177.0004        179.0004
 -27640570.10549 -21514494.87748  20171954.437    20171954.5924   20171959.0934
       213.0004        213.0004
 -19098129.49748 -14865955.27447  21057335.464    21057336.0504   21057343.4204
       193.0004        193.0004
  -1987931.81647  -1540764.51545  23750455.598    23750455.2274   23750461.1464
       157.0004        160.0004
  -4341126.99447  -3370102.56145  24656171.785    24656169.7234   24656174.0614
       137.0004        141.0004
 21  2  2  1 47 30.0000000  0 11G19G30G28G09G06G17G14G07G01G21G22
 -10638382.17148  -8269512.81846  22889471.511    22889470.8354   22889474.2974
       174.0004        176.0004
 -20927868.29149 -16283809.77848  20433375.875    20433376.0124   20433383.3254
       215.0004        215.0004
  -4547328.44047  -3538024.44146  22965640.890    22965640.1754   22965645.8854
       163.0004        166.0004
   -302164.33548   -215999.43246  24215517.687    24215517.8514   24215526.1804
       179.0004        180.0004
  -1895519.95247  -1446729.81545  24050299.303    24050299.5324   24050308.7744
       149.0004        152.0004
 -16609589.98349 -12916459.47147  21603607.447    21603607.8654   21603612.6944
       198.0004        197.0004
  -7494026.02648  -5831791.84646  22316219.511    22316220.3314   22316224.6474
       177.0004        177.0004
 -27614400.48049 -21494102.95748  20176933.202    20176934.0814   20176939.2614
       212.0004        213.0004
 -19053705.63348 -14831339.26047  21065789.630    21065790.1054   21065797.3624
       193.0004        194.0004
  -1897313.04747  -1470152.46845  23767699.475    23767699.4204   23767705.9604
       156.0004        158.0004
  -4359089.40947  -3384099.25645  24652753.926    24652753.4564   24652754.9534
       137.0004        142.0004
 21  2  2  1 48  0.0000000  0 11G19G30G28G09G06G17G14G07G01G21G22
 -10690197.31948  -8309888.24746  22879611.795    22879611.1574   22879614.4934
       175.0004        176.0004
 -20961985.17349 -16310394.37748  20426883.888    20426883.9064   20426890.9544
       215.0004        216.0004
  -4578092.70747  -3561996.59046  22959786.391    22959787.3934   22959791.1524
       163.0004        164.0004
   -228087.44148   -158277.20646  24229614.339    24229615.1614   24229621.9524
       181.0004        182.0004
  -2003718.76347  -1531040.53045  24029709.244    24029710.8654   24029719.5614
       149.0004        153.0004
 -16615862.03449 -12921346.79347  21602413.677    21602414.6104   21602419.6174
       197.0004        197.0004
  -7530390.21748  -5860127.58446  22309299.855    22309301.0114   22309304.9444
       177.0004        178.0004
 -27587647.35049 -21473256.38748  20182026.056    20182026.0634   20182030.0674
       213.0004        214.0004
 -19008703.12048 -14796272.37147  21074352.911    21074353.6024   21074361.2184
       194.0004        194.0004
  -1806451.15647  -1399351.02245  23784988.821    23784990.2814   23784996.3304
       156.0004        158.0004
  -4376878.83947  -3397961.16145  24649367.243    24649366.2054   24649369.9184
       137.0004        142.0004
 21  2  2  1 48 30.0000000  0 11G19G30G28G09G06G17G14G07G01G21G22
 -10741685.12248  -8350008.61446  22869813.205    22869812.7674   22869818.0134
       176.0004        177.0004
 -20995589.09849 -16336579.26348  20420489.207    20420489.1824   20420496.4594
       215.0004        215.0004
  -4608991.11947  -3586073.27846  22953907.111    22953906.3994   22953911.6444
       163.0004        166.0004
   -154179.13748   -100686.35046  24243678.616    24243678.8904   24243685.9744
       181.0004        181.0004
  -2111866.02047  -1615311.06245  24009130.503    24009131.2994   24009139.4084
       151.0004        155.0004
 -16621801.46949 -12925974.92747  21601284.073    21601284.4184   21601288.4714
       196.0004        195.0004
  -7566810.94448  -5888507.39346  22302369.956    22302369.7934   22302374.9474
       177.0004        179.0004
 -27560311.10549 -21451955.41547  20187224.844    20187226.4754   20187231.8324
       212.0004        212.0004
 -18963123.29649 -14760755.64347  21083027.324    21083027.4094   21083035.0774
       207.0004        210.0004
  -1715348.33847  -1328361.82145  23802326.161    23802325.3644   23802330.6754
       153.0004        155.0004
  -4394492.99047  -3411686.48145  24646014.651    24646014.1164   24646018.9084
       139.0004        143.0004
 21  2  2  1 49  0.0000000  0 11G19G30G28G09G06G17G14G07G01G21G22
 -10792845.84148  -8389874.10646  22860078.397    22860077.8234   22860081.6194
       175.0004        176.0004
 -21028678.50449 -16362363.21748  20414192.507    20414192.3894   20414199.3984
       215.0004        215.0004
  -4640023.73747  -3610254.51046  22948001.664    22948001.4794   22948006.1804
       164.0004        166.0004
    -80441.72348    -43228.63446  24257709.299    24257709.6794   24257717.2574
       180.0004        180.0004
  -2219959.10147  -1699539.39745  23988560.414    23988562.0544   23988569.8954
       153.0004        156.0004
 -16627409.85549 -12930345.08247  21600216.512    21600216.8904   21600221.5584
       195.0004        196.0004
  -7603287.75548  -5916930.87846  22295427.819    22295428.3554   22295433.1644
       178.0004        178.0004
 -27532392.34349 -21430200.55348  20192541.328    20192541.2374   20192544.6504
       212.0004        213.0004
 -18916967.80849 -14724790.31847  21091809.356    21091810.1674   21091818.1034
       211.0004        210.0004
  -1624007.57947  -1257187.20845  23819707.853    23819707.0524   23819712.9904
       152.0004        153.0004
  -4411929.73747  -3425273.57745  24642696.925    24642695.6574   24642699.4784
       138.0004        142.0004
 21  2  2  1 49 30.0000000  0 11G19G30G28G09G06G17G14G07G01G21G22
 -10843679.28448  -8429484.54846  22850405.688    22850404.5444   22850407.6414
       175.0004        177.0004
 -21061251.15349 -16387744.51048  20407994.124    20407994.2424   20408001.0674
       215.0004        216.0004
  -4671190.21347  -3634540.06746  22942070.085    22942070.2204   22942075.0294
       163.0004        165.0004
     -6876.57048     14094.86446  24271709.164    24271709.1184   24271716.3104
       180.0004        181.0004
  -2327994.76447  -1783722.98345  23968002.841    23968004.1694   23968012.2704
       152.0004        154.0004
 -16632688.57149 -12934458.35847  21599211.866    21599212.5984   21599216.5384
       196.0004        197.0004
  -7639819.42148  -5945397.12746  22288476.564    22288476.9854   22288480.5234
       178.0004        179.0004
 -27503890.96349 -21407991.67847  20197961.037    20197962.1724   20197968.1184
       212.0004        212.0004
 -18870237.64249 -14688377.19848  21100701.837    21100702.7244   21100710.3134
       220.0004        225.0004
  -1532430.14547  -1185828.17445  23837134.873    23837134.2644   23837138.1964
       150.0004        152.0004
  -4429186.54147  -3438720.42245  24639413.314    24639412.9344   24639416.4274
       139.0004        143.0004
 21  2  2  1 50  0.0000000  0 11G19G30G28G09G06G17G14G07G01G21G22
 -10894187.00548  -8468841.20446  22840793.252    22840791.9614   22840796.3644
       174.0004        174.0004
 -21093306.90349 -16412723.03148  20401894.599    20401894.4714   20401901.2344
       215.0004        216.0004
  -4702491.92447  -3658931.02746  22936114.350    22936115.8254   22936118.5914
       164.0004        166.0004
     66512.72348     71281.31946  24285674.075    24285675.0084   24285681.7804
       180.0004        181.0004
  -2435971.79047  -1867860.89445  23947455.630    23947456.5344   23947464.9044
       153.0004        156.0004
 -16637640.75349 -12938317.20947  21598270.293    21598270.4454   21598274.5784
       197.0004        198.0004
  -7676406.77348  -5973906.76646  22281513.057    22281514.1994   22281519.3984
       178.0004        178.0004
 -27474808.99149 -21385330.44847  20203500.738    20203499.5274   20203501.8584
       212.0004        212.0004
 -18822935.84049 -14651518.66248  21109703.119    21109703.8684   21109711.4144
       223.0004        224.0004
  -1440620.44847  -1114288.15545  23854605.474    23854605.2744   23854608.2164
       148.0004        150.0004
  -4446262.25147  -3452026.16845  24636165.107    24636164.2624   24636166.9344
       139.0004        145.0004
 21  2  2  1 50 30.0000000  0 11G19G30G28G09G06G17G14G07G01G21G22
 -10944367.43948  -8507942.81046  22831244.590    22831243.7754   22831247.6214
       174.0004        175.0004
 -21124842.51249 -16437296.21848  20395892.871    20395893.2724   20395899.8124
       215.0004        216.0004
  -4733926.77248  -3683425.71546  22930133.779    22930133.2384   22930137.8214
       167.0004        169.0004
    139725.72948    128330.43546  24299606.554    24299606.2604   24299613.8394
       181.0004        182.0004
  -2543885.92147  -1951949.78145  23926919.801    23926921.5054   23926929.3994
       152.0004        154.0004
 -16642266.14849 -12941921.37947  21597389.358    21597389.8384   21597394.6804
       198.0004        198.0004
  -7713047.53948  -6002457.99446  22274541.136    22274541.4504   22274546.6124
       179.0004        179.0004
 -27445145.35049 -21362215.87847  20209140.446    20209142.0024   20209146.8514
       212.0004        212.0004
 -18775062.40649 -14614214.65848  21118812.763    21118813.6694   21118821.6954
       224.0004        224.0004
  -1348579.51547  -1042567.94245  23872122.200    23872121.0014   23872123.2804
       148.0004        151.0004
  -4463153.30047  -3465188.03945  24632951.616    24632951.2014   24632953.7274
       140.0004        144.0004
 21  2  2  1 51  0.0000000  0 11G19G30G28G09G06G17G14G07G01G21G22
 -10994221.38348  -8546790.04546  22821757.671    22821756.9874   22821760.8794
       175.0004        176.0004
 -21155856.95849 -16461463.33548  20389991.401    20389991.5414   20389998.0424
       215.0004        215.0004
  -4765495.31748  -3708024.57146  22924125.033    22924125.2144   22924131.3554
       167.0004        168.0004
    212759.80048    185240.08746  24313504.700    24313505.2544   24313511.7844
       182.0004        183.0004
  -2651734.96047  -2035987.95645  23906396.502    23906396.9764   23906406.1994
       151.0004        154.0004
 -16646567.40949 -12945273.01647  21596571.162    21596571.7194   21596575.8934
       197.0004        198.0004
  -7749741.67048  -6031050.85346  22267558.899    22267559.2934   22267563.8084
       179.0004        179.0004
 -27414901.47349 -21338649.24747  20214898.038    20214898.4264   20214902.2744
       212.0004        212.0004
 -18726619.57549 -14576467.00848  21128031.406    21128032.2864   21128040.1754
       224.0004        225.0004
  -1256310.31947   -970669.87545  23889678.876    23889678.5134   23889681.8864
       148.0004        150.0004
  -4479858.33547  -3478204.97945  24629771.567    24629770.9694   24629773.9644
       139.0004        144.0004
 21  2  2  1 51 30.0000000  0 11G19G30G28G09G06G17G14G07G01G21G22
 -11043748.41548  -8585382.55146  22812332.631    22812332.4364   22812336.2474
       176.0004        176.0004
 -21186348.03849 -16485222.64148  20384189.469    20384189.2814   20384196.2114
       215.0004        216.0004
  -4797196.92848  -3732727.14546  22918092.613    22918092.0954   22918096.1064
       167.0004        167.0004
    285613.55448    242009.20646  24327369.909    24327369.3344   24327375.4904
       183.0004        184.0004
  -2759515.65247  -2119972.88145  23885886.671    23885887.4194   23885895.8214
       151.0004        153.0004
 -16650545.52049 -12948372.86247  21595813.972    21595814.5114   21595818.7084
       197.0004        197.0004
  -7786487.85648  -6059684.26346  22260566.513    22260567.3384   22260571.9564
       179.0004        180.0004
 -27384076.84049 -21314630.07347  20220762.754    20220763.2084   20220768.0344
       212.0004        212.0004
 -18677608.33049 -14538276.44148  21137358.496    21137358.7474   21137366.7954
       224.0004        225.0004
  -1163814.60047   -898595.30945  23907279.929    23907279.5164   23907283.2544
       147.0004        150.0004
  -4496374.44847  -3491074.69445  24626629.591    24626627.8494   24626631.2384
       140.0004        145.0004
 21  2  2  1 52  0.0000000  0 11G19G30G28G09G06G17G14G07G01G21G22
 -11092950.11448  -8623721.53246  22802970.384    22802969.4414   22802973.0664
       176.0004        176.0004
 -21216315.16049 -16508573.64748  20378487.199    20378486.7654   20378493.8494
       216.0004        216.0004
  -4829032.42947  -3757534.01546  22912034.252    22912034.1214   22912038.3074
       164.0004        165.0004
    358283.99748    298635.48446  24341197.376    24341197.4454   24341204.2594
       183.0004        183.0004
  -2867226.25847  -2203903.19945  23865390.048    23865390.5684   23865398.7164
       149.0004        151.0004
 -16654203.66549 -12951223.35047  21595117.829    21595118.1994   21595122.7874
       197.0004        196.0004
  -7823286.29848  -6088358.38746  22253564.176    22253564.2544   22253569.0514
       180.0004        180.0004
 -27352673.02449 -21290159.57247  20226738.556    20226739.4724   20226744.3254
       211.0004        212.0004
 -18628031.34649 -14499645.01548  21146791.697    21146792.7764   21146801.0514
       224.0004        224.0004
  -1071095.71147   -826346.84445  23924924.981    23924922.7224   23924927.5124
       146.0004        150.0004
  -4512700.59347  -3503796.33445  24623521.543    24623519.5244   24623524.7574
       140.0004        144.0004
 21  2  2  1 52 30.0000000  0 11G19G30G28G09G06G17G14G07G01G21G22
 -11141825.25348  -8661806.05246  22793669.599    22793668.4904   22793672.0364
       175.0004        175.0004
 -21245755.50149 -16531514.17648  20372884.695    20372884.5854   20372891.2524
       216.0004        216.0004
  -4861000.43548  -3782444.15746  22905951.626    22905952.0844   22905955.4234
       165.0004        167.0004
    430770.41848    355118.41346  24354988.408    24354989.3414   24354999.1904
       181.0004        181.0004
  -2974862.78947  -2287775.76945  23844906.303    23844908.5584   23844915.8094
       149.0004        152.0004
 -16657541.51849 -12953824.27447  21594482.819    21594483.7404   21594487.7684
       197.0004        197.0004
  -7860135.01748  -6117071.67346  22246551.404    22246552.4384   22246557.4294
       180.0004        180.0004
 -27320689.89049 -21265237.67147  20232825.860    20232825.8004   20232829.9984
       211.0004        211.0004
 -18577889.03249 -14460573.08648  21156334.419    21156335.0654   21156342.6194
       225.0004        225.0004
   -978155.19047   -753925.67645  23942611.657    23942609.0794   23942613.5844
       147.0004        151.0004
  -4528833.24047  -3516367.26445  24620451.324    24620451.0304   24620454.9284
       140.0004        144.0004
 21  2  2  1 53  0.0000000  0 11G19G30G28G09G06G17G14G07G01G21G22
 -11190374.11548  -8699636.29346  22784431.649    22784430.7634   22784433.1814
       173.0004        173.0004
 -21274667.79849 -16554043.23848  20367382.433    20367382.7294   20367389.6464
       216.0004        217.0004
  -4893100.75648  -3807457.38746  22899844.103    22899842.8324   22899847.2334
       166.0004        168.0004
    503070.56548    411456.19446  24368747.099    24368748.2614   24368757.3104
       181.0004        182.0004
  -3082422.80547  -2371588.70945  23824438.930    23824438.9914   23824447.9894
       149.0004        153.0004
 -16660561.16949 -12956177.23947  21593908.484    21593908.8554   21593913.1524
       197.0004        198.0004
  -7897033.59348  -6145823.81346  22239531.003    22239530.5224   22239534.6924
       180.0004        180.0004
 -27288128.04849 -21239864.80647  20239020.807    20239021.5444   20239026.4804
       211.0004        212.0004
 -18527183.39649 -14421062.17948  21165982.938    21165983.5554   21165991.4434
       224.0004        224.0004
   -884995.75547   -681333.90245  23960337.663    23960336.2674   23960340.9624
       147.0004        151.0004
  -4544770.56847  -3528785.97545  24617414.779    24617417.4654   24617422.8704
       139.0004        144.0004
 21  2  2  1 53 30.0000000  0 11G19G30G28G09G06G17G14G07G01G21G22
 -11238597.14448  -8737212.68046  22775254.132    22775254.3114   22775257.5394
       173.0004        175.0004
 -21303050.49649 -16576159.65248  20361981.429    20361981.3074   20361988.6174
       216.0004        216.0004
  -4925333.14048  -3832573.55646  22893708.675    22893708.9774   22893713.1234
       166.0004        168.0004
    575182.55848    467647.32146  24382470.758    24382471.5254   24382479.5294
       182.0004        183.0004
  -3189903.42947  -2455339.84245  23803985.987    23803986.8264   23803995.0754
       152.0004        156.0004
 -16663265.03149 -12958284.17947  21593394.592    21593394.6944   21593398.4474
       198.0004        198.0004
  -7933981.19948  -6174614.17346  22232498.516    22232499.3384   22232504.7074
       179.0004        179.0004
 -27254988.26149 -21214041.63547  20245328.247    20245328.4024   20245333.0624
       211.0004        212.0004
 -18475916.09749 -14381113.65348  21175737.925    21175739.2104   21175747.0424
       223.0004        223.0004
   -791620.19747   -608573.78045  23978106.787    23978105.8934   23978110.8324
       148.0004        152.0004
  -4560510.46547  -3541050.87745  24614424.139    24614424.3694   24614427.0664
       138.0004        143.0004
 21  2  2  1 54  0.0000000  0 11G19G30G28G09G06G17G14G07G01G21G22
 -11286495.30648  -8774535.90546  22766140.354    22766139.6394   22766142.9804
       174.0004        176.0004
 -21330902.99849 -16597862.88548  20356681.503    20356681.4784   20356688.1734
       216.0004        216.0004
  -4957698.58048  -3857793.34946  22887550.173    22887550.5824   22887554.7224
       167.0004        168.0004
    647103.53648    523689.64646  24396158.485    24396158.6464   24396165.6714
       182.0004        183.0004
  -3297302.95147  -2539027.75945  23783548.430    23783549.3414   23783557.2984
       153.0004        155.0004
 -16665655.24349 -12960146.64847  21592939.252    21592939.5284   21592943.6704
       198.0004        198.0004
  -7970978.03248  -6203442.85646  22225458.989    22225459.8524   22225464.7944
       181.0004        182.0004
 -27221272.42949 -21187769.53647  20251742.717    20251743.7284   20251748.6514
       211.0004        211.0004
 -18424089.81949 -14340729.52448  21185600.580    21185601.7614   21185609.3694
       223.0004        224.0004
   -698031.64047   -535647.62045  23995914.160    23995914.8114   23995921.3954
       150.0004        153.0004
  -4576051.63047  -3553160.89345  24611466.368    24611465.4644   24611469.8324
       139.0004        145.0004
 21  2  2  1 54 30.0000000  0 12G19G03G30G28G09G06G17G14G07G01G21G22
 -11334067.60148  -8811605.22846  22757087.021    22757086.6054   22757089.5544
       176.0004        177.0004
  -1537354.45654  -1189988.926 3                                  24396192.877
        74.0004         74.000
 -21358222.44849 -16619150.78148  20351482.641    20351482.6964   20351489.7354
       216.0004        216.0004
  -4990195.21948  -3883115.41846  22881367.268    22881366.0634   22881371.7334
       169.0004        170.0004
    718832.91948    579582.65146  24409806.755    24409807.7804   24409814.5964
       181.0004        180.0004
  -3404617.20847  -2622649.21145  23763127.011    23763128.2434   23763136.6624
       153.0004        156.0004
 -16667732.11049 -12961764.98647  21592543.302    21592543.8584   21592547.9144
       197.0004        197.0004
  -8008021.84648  -6232308.17146  22218409.299    22218410.1944   22218414.8364
       182.0004        182.0004
 -27186979.46949 -21161047.76847  20258270.081    20258269.9624   20258275.1934
       211.0004        211.0004
 -18371704.92249 -14299910.12948  21195570.424    21195570.8444   21195577.5084
       224.0004        223.0004
   -604230.75447   -462556.06145  24013765.233    24013764.2134   24013770.4984
       149.0004        152.0004
  -4591390.31347  -3565113.10345  24608547.612    24608547.2534   24608549.9154
       139.0004        143.0004
 21  2  2  1 55  0.0000000  0 12G19G03G30G28G09G06G17G14G07G01G21G22
 -11381315.31448  -8848421.61646  22748096.526    22748096.0374   22748098.5564
       176.0004        177.0004
  -1585120.02947  -1227208.70246  24387084.934                    24387092.8844
       157.0004        173.0004
 -21385008.18749 -16640022.79048  20346385.249    20346385.6544   20346392.2084
       216.0004        216.0004
  -5022823.53948  -3908540.07546  22875157.396    22875157.3584   22875162.1964
       170.0004        171.0004
    790367.97148    635324.25246  24423419.210    24423420.2034   24423427.2984
       179.0004        179.0004
  -3511844.28047  -2706202.73645  23742723.190    23742724.0874   23742731.9604
       154.0004        157.0004
 -16669498.81049 -12963141.63847  21592207.352    21592208.1384   21592211.7934
       197.0004        198.0004
  -8045112.73848  -6261210.17346  22211350.718    22211351.6594   22211356.5954
       182.0004        182.0004
 -27152110.85249 -21133877.42947  20264904.890    20264905.0664   20264910.4234
       211.0004        212.0004
 -18318764.02949 -14258657.47748  21205644.068    21205644.3514   21205651.4374
       223.0004        222.0004
   -510221.12147   -389301.83045  24031653.600    24031653.0114   24031658.8064
       147.0004        149.0004
  -4606525.42347  -3576906.69645  24605666.062    24605665.2034   24605668.8864
       137.0004        141.0004
 21  2  2  1 55 30.0000000  0 12G19G03G30G28G09G06G17G14G07G01G21G22
 -11428237.83348  -8884984.61446  22739167.097    22739166.6324   22739169.4824
       176.0004        177.0004
  -1624913.56748  -1258216.63346  24379511.292    24379512.9864   24379520.6944
       170.0004        173.0004
 -21411258.10549 -16660477.27948  20341390.233    20341390.2434   20341397.1444
       216.0004        216.0004
  -5055582.57848  -3934066.60046  22868923.660    22868923.6494   22868927.7354
       169.0004        169.0004
    861707.50548    690913.47946  24436995.234    24436995.4904   24437002.8104
       178.0004        179.0004
  -3618980.68247  -2789685.59845  23722335.686    23722336.3834   23722344.8484
       154.0004        157.0004
 -16670955.53349 -12964276.75347  21591930.881    21591930.8794   21591935.4494
       198.0004        199.0004
  -8082249.15948  -6290147.65546  22204285.444    22204285.5274   22204289.8974
       182.0004        182.0004
 -27116667.08849 -21106258.92747  20271649.331    20271649.6984   20271654.8674
       211.0004        211.0004
 -18265268.25749 -14216972.46948  21215822.822    21215824.4924   21215831.8324
       223.0004        222.0004
   -416004.95547   -315886.63845  24049582.782    24049582.6814   24049586.4334
       148.0004        152.0004
  -4621454.10747  -3588539.44245  24602824.392    24602824.1984   24602828.6764
       136.0004        141.0004
 21  2  2  1 56  0.0000000  0 12G19G03G30G28G09G06G17G14G07G01G21G22
 -11474835.96648  -8921294.85746  22730299.829    22730299.2114   22730302.3264
       177.0004        178.0004
  -1664694.79348  -1289214.89646  24371942.353    24371942.9674   24371950.8164
       171.0004        173.0004
 -21436971.10749 -16680513.39448  20336497.367    20336497.3314   20336504.1964
       216.0004        216.0004
  -5088472.88248  -3959695.42646  22862665.257    22862666.0894   22862669.4624
       168.0004        169.0004
    932849.24848    746348.58146  24450532.747    24450531.9344   24450540.5364
       177.0004        177.0004
  -3726023.95347  -2873095.93945  23701966.347    23701967.6884   23701974.6874
       156.0004        158.0004
 -16672105.02849 -12965172.46047  21591711.217    21591711.9714   21591716.6434
       199.0004        200.0004
  -8119430.68048  -6319120.29146  22197209.980    22197210.0924   22197213.9854
       181.0004        179.0004
 -27080649.34349 -21078193.17247  20278504.025    20278504.3464   20278508.1614
       210.0004        211.0004
 -18211219.83649 -14174856.81548  21226109.118    21226109.5524   21226116.9624
       223.0004        222.0004
   -321584.47847   -242312.25745  24067550.852    24067550.7994   24067555.5244
       148.0004        151.0004
  -4636174.87347  -3600010.21045  24600027.011    24600024.7364   24600027.8604
       136.0004        141.0004
 21  2  2  1 56 30.0000000  0 12G19G03G30G28G09G06G17G14G07G01G21G22
 -11521110.77648  -8957353.11846  22721494.693    22721493.6484   22721497.0254
       177.0004        178.0004
  -1704461.95948  -1320202.19446  24364375.514    24364376.2294   24364383.4524
       171.0004        173.0004
 -21462146.50849 -16700130.58448  20331706.086    20331706.2694   20331713.6774
       216.0004        216.0004
  -5121494.48148  -3985426.53246  22856381.897    22856381.3364   22856385.7514
       168.0004        170.0004
   1003790.63548    801627.59846  24464032.008    24464032.9194   24464040.3734
       178.0004        179.0004
  -3832972.14847  -2956432.16345  23681614.509    23681615.7014   23681622.8434
       154.0004        157.0004
 -16672950.07449 -12965830.93147  21591551.163    21591551.3794   21591555.2754
       199.0004        199.0004
  -8156657.17448  -6348127.93846  22190125.116    22190125.3234   22190130.2884
       179.0004        179.0004
 -27044058.84949 -21049681.09947  20285466.428    20285466.7844   20285471.5344
       210.0004        211.0004
 -18156621.25049 -14132312.45848  21236497.877    21236499.2884   21236506.6814
       222.0004        221.0004
   -226963.12547   -168581.35345  24085557.311    24085555.9714   24085560.8764
       148.0004        151.0004
  -4650686.07447  -3611317.60645  24597263.774    24597262.3084   24597268.0534
       136.0004        143.0004
 21  2  2  1 57  0.0000000  0 12G19G03G30G28G09G06G17G14G07G01G21G22
 -11567060.53248  -8993158.11946  22712749.530    22712748.7874   22712753.2464
       176.0004        175.0004
  -1744210.73648  -1351175.25146  24356812.658    24356812.6104   24356820.5124
       172.0004        173.0004
 -21486781.16249 -16719326.42748  20327018.578    20327018.8034   20327025.7364
       216.0004        216.0004
  -5154645.29148  -4011258.31546  22850072.985    22850072.5064   22850077.9714
       168.0004        170.0004
   1074531.58648    856750.40246  24477495.484    24477495.1624   24477502.0534
       178.0004        179.0004
  -3939820.70947  -3039690.77045  23661282.003    23661283.0634   23661290.5734
       156.0004        160.0004
 -16673490.42649 -12966251.98647  21591447.673    21591448.1444   21591453.0784
       199.0004        199.0004
  -8193925.98548  -6377168.58246  22183033.547    22183033.6984   22183038.1494
       181.0004        182.0004
 -27006895.05049 -21020722.30547  20292538.395    20292538.9524   20292543.4594
       210.0004        211.0004
 -18101472.65749 -14089339.52648  21246992.531    21246993.3974   21247001.0224
       222.0004        221.0004
   -132141.75347    -94694.60145  24103601.771    24103600.0224   24103605.0994
       147.0004        151.0004
  -4664984.03247  -3622458.89845  24594543.686    24594542.6874   24594546.8724
       137.0004        142.0004
 21  2  2  1 57 30.0000000  0 12G19G03G30G28G09G06G17G14G07G01G21G22
 -11612687.55548  -9028711.65846  22704067.742    22704067.3734   22704070.8264
       176.0004        177.0004
  -1783940.41948  -1382133.45946  24349249.999    24349251.4724   24349259.4744
       173.0004        174.0004
 -21510875.61249 -16738101.34348  20322433.612    20322433.5924   20322440.5474
       216.0004        216.0004
  -5187926.71148  -4037191.90146  22843739.533    22843739.5094   22843743.8604
       168.0004        169.0004
   1145068.33748    911714.09846  24490918.668    24490918.0324   24490924.8274
       176.0004        176.0004
  -4046568.70547  -3122870.99545  23640969.193    23640969.1334   23640977.4674
       158.0004        161.0004
 -16673729.14649 -12966438.02447  21591402.116    21591402.8284   21591407.3764
       198.0004        198.0004
  -8231238.14948  -6406243.01946  22175933.756    22175933.9334   22175938.6864
       182.0004        183.0004
 -26969160.70849 -20991318.94947  20299718.302    20299719.4394   20299723.8144
       210.0004        210.0004
 -18045777.87249 -14045941.00748  21257590.555    21257591.8594   21257598.8744
       221.0004        221.0004
    -37125.17747    -20655.74745  24121681.823    24121680.4284   24121687.2254
       146.0004        149.0004
  -4679068.54747  -3633433.85045  24591862.782    24591862.7834   24591865.6544
       138.0004        143.0004
 21  2  2  1 58  0.0000000  0 12G19G03G30G28G09G06G17G14G07G01G21G22
 -11657991.61848  -9064013.49246  22695446.101    22695445.9524   22695449.2294
       177.0004        180.0004
  -1823647.64448  -1413074.14546  24341694.450    24341695.7994   24341701.5524
       173.0004        174.0004
 -21534427.71249 -16756453.61448  20317951.870    20317952.0484   20317958.9494
       216.0004        217.0004
  -5221337.99848  -4063226.66046  22837381.050    22837381.7254   22837386.4254
       169.0004        170.0004
   1215399.86948    966517.88246  24504302.491    24504301.9214   24504308.5514
       174.0004        174.0004
  -4153212.58747  -3205970.09545  23620673.743    23620675.3714   23620682.4474
       158.0004        160.0004
 -16673667.90649 -12966390.28747  21591413.535    21591414.2494   21591419.2524
       199.0004        199.0004
  -8268592.01548  -6435349.91646  22168825.054    22168825.8254   22168830.3364
       182.0004        183.0004
 -26930855.83849 -20961470.98347  20307007.989    20307008.6914   20307013.3284
       209.0004        210.0004
 -17989537.98449 -14002117.69248  21268293.643    21268294.1454   21268301.1154
       221.0004        221.0004
     58085.83847     53534.63145  24139799.121    24139799.8984   24139805.1774
       146.0004        149.0004
  -4692936.37747  -3644239.91845  24589224.024    24589222.9704   24589227.5124
       138.0004        143.0004
 21  2  2  1 58 30.0000000  0 12G19G03G30G28G09G06G17G14G07G01G21G22
 -11702972.16748  -9099063.28046  22686886.130    22686886.2464   22686890.0354
       179.0004        179.0004
  -1863329.04548  -1443994.75646  24334142.310    24334144.0694   24334151.4184
       174.0004        175.0004
 -21557435.44149 -16774381.74748  20313573.672    20313573.6064   20313580.7864
       216.0004        217.0004
  -5254877.90848  -4089361.68646  22830999.476    22830998.9644   22831002.9764
       169.0004        170.0004
   1285525.04048   1021160.82146  24517645.949    24517646.0034   24517653.1094
       173.0004        173.0004
  -4259748.88047  -3288985.40345  23600399.815    23600401.5044   23600409.6664
       156.0004        157.0004
 -16673307.87349 -12966109.77447  21591482.751    21591483.1734   21591487.4724
       199.0004        200.0004
  -8305985.98048  -6464488.09546  22161708.737    22161709.1744   22161713.7134
       182.0004        182.0004
 -26891980.56849 -20931178.60247  20314405.971    20314406.6634   20314411.4324
       210.0004        210.0004
 -17932754.25849 -13957870.65548  21279098.870    21279099.8054   21279107.1154
       221.0004        221.0004
    153488.66647    127874.47145  24157955.830    24157954.8534   24157958.0104
       148.0004        152.0004
  -4706584.69947  -3654874.97645  24586625.924    24586626.2904   24586630.4544
       137.0004        141.0004
 21  2  2  1 59  0.0000000  0 12G19G03G30G28G09G06G17G14G07G01G21G22
 -11747629.96648  -9133861.54446  22678389.767    22678389.0244   22678391.7344
       178.0004        178.0004
  -1902982.23148  -1474893.34046  24326595.632    24326598.1764   24326605.8174
       172.0004        173.0004
 -21579897.66749 -16791884.77348  20309299.243    20309299.1184   20309306.3504
       216.0004        217.0004
  -5288546.21848  -4115596.72146  22824592.038    22824592.4554   22824595.8274
       168.0004        169.0004
   1355441.94348   1075641.51346  24530950.238    24530949.8524   24530957.4504
       172.0004        173.0004
  -4366174.95247  -3371914.79445  23580148.610    23580149.8284   23580157.5274
       156.0004        158.0004
 -16672650.81549 -12965597.77547  21591608.367    21591608.5874   21591612.3464
       199.0004        200.0004
  -8343419.30148  -6493656.91046  22154586.148    22154586.3894   22154591.4734
       183.0004        183.0004
 -26852536.20549 -20900442.72647  20321912.214    20321912.5294   20321917.1934
       210.0004        210.0004
 -17875428.79549 -13913201.44748  21290007.709    21290008.3504   21290016.0004
       221.0004        220.0004
    249081.29847    202362.19245  24176144.321    24176145.7934   24176149.6424
       148.0004        151.0004
  -4720011.62947  -3665337.54345  24584071.594    24584070.0084   24584073.3784
       136.0004        141.0004
 21  2  2  1 59 30.0000000  0 12G19G03G30G28G09G06G17G14G07G01G21G22
 -11791966.60848  -9168409.54846  22669951.311    22669951.1744   22669954.5254
       177.0004        178.0004
  -1942605.68648  -1505768.71146  24319058.487    24319058.5214   24319066.0874
       172.0004        172.0004
 -21601814.25249 -16808962.62848  20305128.353    20305128.5324   20305135.7034
       216.0004        217.0004
  -5322343.70848  -4141932.39946  22818160.855    22818160.6794   22818165.5234
       169.0004        171.0004
   1425147.54048   1129957.58546  24544213.109    24544214.4644   24544221.7254
       173.0004        175.0004
  -4472489.21247  -3454757.02145  23559917.363    23559918.8664   23559926.6594
       156.0004        159.0004
 -16671699.77949 -12964856.69747  21591789.313    21591789.4764   21591793.7094
       200.0004        200.0004
  -8380892.21248  -6522856.57746  22147454.347    22147455.3084   22147460.4354
       183.0004        182.0004
 -26812525.13649 -20869265.26647  20329525.611    20329526.3574   20329530.7924
       209.0004        209.0004
 -17817564.73449 -13868112.55648  21301018.650    21301019.8154   21301026.7554
       221.0004        220.0004
    344859.85547    276994.85445  24194371.727    24194370.6674   24194374.6374
       147.0004        150.0004
  -4733216.55947  -3675627.07445  24581557.571    24581558.4644   24581562.6114
       138.0004        143.0004
 21  2  2  2  0  0.0000000  0 12G19G03G30G28G09G06G17G14G07G01G21G22
 -11835980.24948  -9202705.90246  22661576.617    22661575.8814   22661579.2064
       178.0004        180.0004
  -1982195.08948  -1536617.60146  24311524.341    24311525.7574   24311531.8644
       171.0004        172.0004
 -21623182.02249 -16825612.86448  20301062.236    20301062.2444   20301069.3064
       216.0004        216.0004
  -5356268.19048  -4168367.08646  22811705.408    22811704.5294   22811709.3554
       168.0004        169.0004
   1494641.87248   1184108.96546  24557440.073    24557439.1284   24557445.6924
       173.0004        174.0004
  -4578686.99347  -3537508.53545  23539710.150    23539710.6124   23539718.1454
       158.0004        161.0004
 -16670454.78649 -12963886.58547  21592025.707    21592025.7524   21592030.6504
       199.0004        200.0004
  -8418401.98348  -6552084.98946  22140317.572    22140317.6624   22140323.1974
       183.0004        183.0004
 -26771946.07049 -20837645.24947  20337247.926    20337248.3414   20337252.8884
       209.0004        210.0004
 -17759162.35549 -13822604.22848  21312133.194    21312133.6944   21312140.8564
       221.0004        221.0004
    440823.44747    351771.62245  24212631.523    24212631.6494   24212637.3344
       148.0004        150.0004
  -4746195.57547  -3685740.60945  24579090.040    24579087.3584   24579092.9184
       140.0004        146.0004
 21  2  2  2  0 30.0000000  0 12G19G03G30G28G09G06G17G14G07G01G21G22
 -11879673.94748  -9236752.93846  22653261.807    22653260.9524   22653265.0084
       179.0004        180.0004
  -2021750.10148  -1567439.66246  24303996.514    24303997.4764   24304004.7514
       168.0004        168.0004
 -21644002.26749 -16841836.44948  20297100.279    20297100.4624   20297107.4124
       216.0004        216.0004
  -5390321.50148  -4194902.15746  22805224.185    22805224.2794   22805228.8714
       167.0004        169.0004
   1563920.91048   1238092.59746  24570622.367    24570622.6354   24570629.5364
       173.0004        174.0004
  -4684767.72147  -3620168.85945  23519524.175    23519524.1024   23519530.8804
       158.0004        159.0004
 -16668920.09049 -12962690.72747  21592317.504    21592317.8384   21592322.4864
       199.0004        200.0004
  -8455949.97348  -6581343.16146  22133172.110    22133172.4034   22133177.1224
       183.0004        183.0004
 -26730802.46049 -20805585.30947  20345076.984    20345077.4174   20345082.2154
       209.0004        209.0004
 -17700225.78449 -13776679.64048  21323347.886    21323348.8464   21323356.1374
       221.0004        221.0004
    536967.42847    426688.96745  24230926.503    24230927.5854   24230932.1884
       146.0004        149.0004
  -4758948.80747  -3695678.20045  24576662.730    24576661.1234   24576665.9714
       140.0004        145.0004
 21  2  2  2  1  0.0000000  0 12G19G03G30G28G09G06G17G14G07G01G21G22
 -11923046.58448  -9270549.78246  22645008.474    22645008.0714   22645010.7334
       180.0004        182.0004
  -2061266.51848  -1598231.62646  24296477.965    24296477.9344   24296485.6734
       166.0004        167.0004
 -21664272.18249 -16857631.17948  20293243.248    20293243.4364   20293250.4254
       216.0004        217.0004
  -5424501.83348  -4221536.17646  22798720.731    22798721.1644   22798724.0664
       167.0004        170.0004
   1632984.45148   1291908.33546  24583764.517    24583765.0544   24583772.6764
       174.0004        175.0004
  -4790727.20947  -3702734.64045  23499360.219    23499359.9984   23499368.0134
       157.0004        159.0004
 -16667095.91849 -12961269.29047  21592664.365    21592665.3284   21592669.4144
       199.0004        199.0004
  -8493533.66848  -6610629.14746  22126020.182    22126020.7724   22126025.3494
       184.0004        184.0004
 -26689093.98249 -20773085.18947  20353013.702    20353014.4254   20353019.1504
       208.0004        209.0004
 -17640755.62549 -13730339.23548  21334665.067    21334665.5374   21334673.3694
       221.0004        221.0004
    633290.85047    501746.18945  24249258.825    24249257.7204   24249262.7574
       146.0004        149.0004
  -4771472.76047  -3705437.12545  24574279.936    24574277.8444   24574281.9984
       141.0004        146.0004
 21  2  2  2  1 30.0000000  0 12G19G03G30G28G09G06G17G14G07G01G21G22
 -11966099.14148  -9304097.21146  22636815.186    22636815.5864   22636818.8204
       179.0004        179.0004
  -2100742.44148  -1628992.08246  24288964.290    24288966.0034   24288972.7214
       165.0004        166.0004
 -21683991.29849 -16872996.72348  20289490.832    20289490.9644   20289498.0974
       216.0004        217.0004
  -5458809.24748  -4248269.23246  22792191.583    22792191.7964   22792196.0964
       167.0004        167.0004
   1701830.02348   1345554.22946  24596865.785    24596865.8244   24596873.2914
       173.0004        173.0004
  -4896563.37347  -3785204.34845  23479219.130    23479220.2494   23479227.8454
       155.0004        157.0004
 -16664984.80649 -12959624.25847  21593066.684    21593066.7984   21593071.2974
       198.0004        199.0004
  -8531152.90248  -6639942.83446  22118861.134    22118861.4894   22118866.2914
       184.0004        183.0004
 -26646822.43149 -20740146.32347  20361058.891    20361058.9054   20361063.0074
       209.0004        209.0004
 -17580754.74449 -13683585.28948  21346081.840    21346083.0594   21346091.1494
       221.0004        221.0004
    729790.69747    576940.86545  24267619.931    24267621.1954   24267625.2574
       145.0004        149.0004
  -4783766.01947  -3715016.32645  24571939.946    24571939.5964   24571943.1174
       140.0004        145.0004
 21  2  2  2  2  0.0000000  0 12G19G03G30G28G09G06G17G14G07G01G21G22
 -12008831.24448  -9337394.95046  22628683.254    22628682.6834   22628686.3334
       178.0004        177.0004
  -2140173.93247  -1659717.93846  24281462.232    24281462.7294   24281469.0524
       164.0004        165.0004
 -21703157.01149 -16887931.05348  20285843.621    20285843.8844   20285850.7834
       217.0004        217.0004
  -5493242.13548  -4275100.04346  22785639.771    22785640.3394   22785643.7574
       168.0004        170.0004
   1770457.28348   1399030.04046  24609922.747    24609923.5904   24609932.0914
       170.0004        171.0004
  -5002271.92047  -3867574.64545  23459103.377    23459104.8144   23459111.9594
       157.0004        159.0004
 -16662587.24449 -12957756.02347  21593523.254    21593523.6254   21593527.4574
       199.0004        200.0004
  -8568805.26548  -6669282.33846  22111695.479    22111696.2434   22111702.0054
       182.0004        182.0004
 -26603987.53549 -20706768.49247  20369209.632    20369209.8914   20369214.1364
       209.0004        209.0004
 -17520223.72949 -13636418.26448  21357601.525    21357601.7314   21357609.6294
       221.0004        220.0004
    826465.74047    652272.04645  24286016.206    24286018.0394   24286022.5664
       145.0004        149.0004
  -4795825.03047  -3724412.97945  24569642.258    24569642.8784   24569647.2074
       137.0004        140.0004
 21  2  2  2  2 30.0000000  0 12G19G03G30G28G09G06G17G14G07G01G21G22
 -12051243.13948  -9370443.17546  22620613.035    22620612.4374   22620615.0664
       176.0004        177.0004
  -2179558.48147  -1690407.22446  24273967.523    24273968.0534   24273975.2404
       164.0004        166.0004
 -21721768.41749 -16902433.46248  20282302.533    20282302.5084   20282308.9804
       217.0004        217.0004
  -5527800.24648  -4302028.46746  22779064.563    22779064.6634   22779068.6744
       169.0004        170.0004
   1838864.21948   1452334.11646  24622943.483    24622942.9294   24622948.7994
       170.0004        170.0004
  -5107850.31647  -3949843.52345  23439011.537    23439012.8994   23439022.1344
       157.0004        159.0004
 -16659905.27949 -12955666.19047  21594033.537    21594033.6214   21594037.9574
       199.0004        199.0004
  -8606489.96848  -6698647.05446  22104525.312    22104525.7284   22104530.0734
       183.0004        183.0004
 -26560590.78949 -20672952.85747  20377467.518    20377467.9584   20377472.4904
       209.0004        209.0004
 -17459164.96549 -13588840.01248  21369219.945    21369220.6604   21369228.6954
       220.0004        220.0004
    923312.92947    727737.37645  24304447.477    24304446.4424   24304451.6044
       145.0004        148.0004
  -4807648.18946  -3733625.83645  24567394.426    24567393.9344   24567398.7044
       134.0004        140.0004
 21  2  2  2  3  0.0000000  0 12G19G03G30G28G09G06G17G14G07G01G21G22
 -12093336.29048  -9403243.00346  22612603.324    22612602.8194   22612605.4304
       177.0004        177.0004
  -2218894.38948  -1721058.57246  24266481.801    24266482.3454   24266491.4214
       166.0004        168.0004
 -21739825.37549 -16916503.82248  20278866.060    20278866.1594   20278873.1204
       217.0004        217.0004
  -5562484.03748  -4329054.78646  22772463.294    22772463.9064   22772467.6174
       168.0004        168.0004
   1907048.22148   1505464.50346  24635918.078    24635918.2584   24635925.2824
       172.0004        174.0004
  -5213296.70547  -4032009.51445  23418947.599    23418948.1234   23418956.1484
       158.0004        160.0004
 -16656942.12049 -12953357.22447  21594596.675    21594597.1224   21594601.7024
       198.0004        198.0004
  -8644206.95348  -6728036.90646  22097347.784    22097348.8814   22097353.3564
       183.0004        184.0004
 -26516634.06649 -20638700.86447  20385831.973    20385832.3984   20385837.0644
       209.0004        209.0004
 -17397581.46549 -13540852.86448  21380939.025    21380939.9934   21380947.1614
       220.0004        220.0004
   1020329.63747    803334.78945  24322910.020    24322909.0444   24322912.7724
       143.0004        147.0004
  -4819234.21746  -3742653.90945  24565190.458    24565189.1534   24565193.4234
       133.0004        140.0004
