     2.11           OBSERVATION DATA    G (GPS)             RINEX VERSION / TYPE
teqc  2018Jun8                          20210202 03:10:41UTCPGM / RUN BY / DATE
Linux2.6.32-573.12.1.el6.x86_64|x86_64|gcc|Win64-MinGW64|=+ COMMENT
BIT 2 OF LLI FLAGS DATA COLLECTED UNDER A/S CONDITION       COMMENT
-Unknown-                                                   MARKER NAME
CRNO                                                        MARKER NUMBER
-Unknown-           -Unknown-                               OBSERVER / AGENCY
-Unknown-           ASHTECH             -Unknown-           REC # / TYPE / VERS
-Unknown-           -Unknown-                               ANT # / TYPE
   408079.7197 -6158372.8412  1605162.9970                  APPROX POSITION XYZ
        0.0000        0.0000        0.0000                  ANTENNA: DELTA H/E/N
     1     1                                                WAVELENGTH FACT L1/2
     7    L1    L2    C1    P1    P2    S1    S2            # / TYPES OF OBSERV
    30.0000                                                 INTERVAL
Forced Modulo Decimation to 30 seconds                      COMMENT
 SNR is mapped to RINEX snr flag value [1-9]                COMMENT
  L1: 1 -> 1;  90 -> 5; 210 -> 9                            COMMENT
  L2: 1 -> 1; 150 -> 5; 250 -> 9                            COMMENT
pseudorange smoothing corrections not applied               COMMENT
  2021     2     4     0     0   30.0000000     GPS         TIME OF FIRST OBS
                                                            END OF HEADER
 21  2  4  0  0 30.0000000  0  7G08G27G07G09G21G04G01
 -21711652.79949 -16905368.33747  20565862.201    20565862.3094   20565869.6814
       209.0004        210.0004
 -10934302.93349  -8479971.29547  23007388.448    23007388.8804   23007395.4804
       200.0004        199.0004
  -9814505.55348  -7625889.02846  22859455.639    22859456.2484   22859461.0534
       180.0004        180.0004
 -18308711.20049 -14233065.73948  20771534.916    20771535.7704   20771542.3114
       215.0004        215.0004
 -14388326.88448 -11194796.25646  22131982.004    22131981.8374   22131987.0454
       173.0004        175.0004
 -18485983.30849 -14387596.04947  21045887.408    21045888.3164   21045894.0984
       200.0004        198.0004
  -8644743.35547  -6721586.92346  23118348.474    23118348.9694   23118357.0544
       163.0004        164.0004
 21  2  4  0  1  0.0000000  0  7G08G27G07G09G21G04G01
 -21661576.77649 -16866348.04647  20575391.437    20575391.7824   20575398.8714
       209.0004        210.0004
 -10833808.44949  -8401663.90247  23026511.867    23026512.1994   23026519.5304
       199.0004        198.0004
  -9889493.17748  -7684320.93546  22845188.086    22845187.6464   22845191.3284
       180.0004        182.0004
 -18309472.10049 -14233658.64748  20771390.361    20771390.8984   20771397.5214
       215.0004        215.0004
 -14425696.99248 -11223915.81546  22124871.127    22124869.9264   22124875.1374
       174.0004        175.0004
 -18419475.61849 -14335771.87847  21058544.271    21058544.6004   21058550.2694
       199.0004        198.0004
  -8722262.91847  -6781991.74345  23103595.924    23103596.1764   23103605.4814
       162.0004        162.0004
 21  2  4  0  1 30.0000000  0  7G08G27G07G09G21G04G01
 -21611007.88849 -16826943.70447  20585014.571    20585014.9504   20585021.7704
       210.0004        210.0004
 -10733099.82149  -8323189.65047  23045677.327    23045677.5554   23045683.8234
       198.0004        198.0004
  -9964520.61348  -7742783.85446  22830909.547    22830910.1234   22830914.0874
       181.0004        181.0004
 -18309666.36349 -14233810.02448  20771353.601    20771354.0564   20771360.8884
       215.0004        216.0004
 -14462783.04648 -11252814.01846  22117813.040    22117812.5324   22117817.5674
       174.0004        175.0004
 -18352546.34249 -14283619.19547  21071280.216    21071280.8424   21071286.3524
       199.0004        197.0004
  -8799814.12647  -6842421.24645  23088837.459    23088838.6984   23088847.1714
       161.0004        162.0004
 21  2  4  0  2  0.0000000  0  7G08G27G07G09G21G04G01
 -21559947.20049 -16787156.14247  20594730.685    20594731.0794   20594738.3864
       209.0004        210.0004
 -10632178.70849  -8244549.81347  23064881.697    23064881.8684   23064888.3004
       197.0004        196.0004
 -10039584.62248  -7801275.27146  22816625.605    22816626.2454   22816628.9214
       181.0004        182.0004
 -18309292.91849 -14233519.02448  20771424.292    20771424.7514   20771431.6294
       215.0004        215.0004
 -14499580.84248 -11281487.61546  22110809.591    22110809.4444   22110815.2594
       173.0004        173.0004
 -18285196.51449 -14231138.80647  21084096.050    21084096.9404   21084102.7684
       199.0004        198.0004
  -8877392.71147  -6902872.07745  23074075.427    23074076.6784   23074084.2374
       161.0004        162.0004
 21  2  4  0  2 30.0000000  0  7G08G27G07G09G21G04G01
 -21508397.76349 -16746987.74547  20604539.549    20604540.3444   20604548.2584
       209.0004        209.0004
 -10531048.93749  -8165747.40147  23084125.589    23084125.6424   23084132.6824
       196.0004        197.0004
 -10114684.22648  -7859794.44746  22802334.155    22802333.9294   22802338.6694
       181.0004        181.0004
 -18308353.05649 -14232786.66848  20771603.066    20771603.7324   20771610.6534
       215.0004        216.0004
 -14536088.97348 -11309935.50246  22103862.605    22103863.0684   22103868.4794
       173.0004        174.0004
 -18217429.52149 -14178333.36447  21096992.543    21096992.8054   21096998.9414
       200.0004        199.0004
  -8954996.63347  -6963342.66646  23059308.994    23059308.3144   23059316.8314
       161.0004        163.0004
 21  2  4  0  3  0.0000000  0  7G08G27G07G09G21G04G01
 -21456362.04549 -16706440.42147  20614441.567    20614442.0764   20614449.8664
       208.0004        209.0004
 -10429713.49349  -8086784.72347  23103408.403    23103408.8004   23103416.0394
       196.0004        196.0004
 -10189817.69148  -7918339.99346  22788035.815    22788035.7834   22788040.8974
       180.0004        180.0004
 -18306847.16849 -14231613.24748  20771890.273    20771890.5494   20771897.1284
       215.0004        216.0004
 -14572304.73948 -11338155.57146  22096972.986    22096971.7014   22096976.1834
       173.0004        173.0004
 -18149247.84749 -14125204.77947  21109966.604    21109967.0334   21109973.6674
       200.0004        198.0004
  -9032622.96647  -7023830.68946  23044537.072    23044537.7994   23044545.5674
       162.0004        165.0004
 21  2  4  0  3 30.0000000  0  7G08G27G07G09G21G04G01
 -21403841.36349 -16665515.20547  20624437.258    20624437.3694   20624444.4624
       208.0004        209.0004
 -10328174.47149  -8007663.39647  23122729.299    23122730.0504   23122738.2394
       195.0004        194.0004
 -10264982.28148  -7976909.77646  22773732.833    22773733.6684   22773738.3374
       179.0004        180.0004
 -18304774.75649 -14229998.37848  20772284.390    20772284.8434   20772291.8674
       215.0004        216.0004
 -14608224.32148 -11366144.83646  22090136.288    22090135.1864   22090141.6754
       172.0004        172.0004
 -18080653.09849 -14071754.32947  21123019.649    21123020.0034   21123026.5964
       199.0004        198.0004
  -9110267.90147  -7084333.21046  23029760.839    23029761.4024   23029769.6204
       162.0004        163.0004
 21  2  4  0  4  0.0000000  0  7G08G27G07G09G21G04G01
 -21350837.59249 -16624213.55547  20634523.333    20634523.7614   20634530.8084
       209.0004        210.0004
 -10226434.23648  -7928385.29847  23142090.831    23142091.1284   23142098.6334
       194.0004        193.0004
 -10340175.28448  -8035501.71446  22759425.384    22759425.2754   22759429.7794
       179.0004        181.0004
 -18302135.71749 -14227941.98448  20772787.220    20772787.2274   20772794.1274
       216.0004        217.0004
 -14643845.06648 -11393901.22546  22083357.962    22083357.1004   22083362.2204
       172.0004        173.0004
 -18011647.18649 -14017983.49847  21136151.134    21136151.5354   21136157.6154
       199.0004        197.0004
  -9187927.87947  -7144847.47746  23014983.734    23014983.9134   23014991.9244
       162.0004        165.0004
 21  2  4  0  4 30.0000000  0  7G08G27G07G09G21G04G01
 -21297355.16549 -16582538.92647  20644700.616    20644700.8144   20644707.8804
       209.0004        209.0004
 -10124497.68248  -7848954.21547  23161486.653    23161488.9094   23161497.6854
       193.0004        193.0004
 -10415396.95248  -8094115.99846  22745110.807    22745110.6244   22745115.2194
       180.0004        180.0004
 -18298932.43749 -14225445.92948  20773396.096    20773396.5674   20773403.5954
       216.0004        216.0004
 -14679166.08648 -11421424.08446  22076637.083    22076636.7044   22076642.2654
       173.0004        174.0004
 -17942234.58349 -13963895.77647  21149360.341    21149360.5974   21149366.6604
       198.0004        197.0004
  -9265601.89647  -7205372.66846  23000201.226    23000202.0334   23000211.4394
       163.0004        165.0004
 21  2  4  0  5  0.0000000  0  7G08G27G07G09G21G04G01
 -21243394.86549 -16540491.92447  20654969.076    20654969.3014   20654976.1454
       209.0004        209.0004
 -10022366.07948  -7769371.15947  23180922.962    23180923.7954   23180932.1264
       192.0004        192.0004
 -10490643.54648  -8152749.69746  22730790.717    22730791.5024   22730795.6034
       179.0004        180.0004
 -18295163.74449 -14222509.28448  20774114.248    20774113.9354   20774120.6964
       216.0004        216.0004
 -14714183.09848 -11448710.04446  22069972.421    22069971.7164   22069978.7844
       173.0004        173.0004
 -17872416.11149 -13909491.77547  21162646.773    21162646.9474   21162652.8004
       199.0004        198.0004
  -9343285.25247  -7265905.11346  22985419.770    22985420.6534   22985428.2044
       163.0004        164.0004
 21  2  4  0  5 30.0000000  0  7G08G27G07G09G21G04G01
 -21188959.50749 -16498074.74447  20665326.614    20665327.1514   20665334.5784
       208.0004        208.0004
  -9920043.47048  -7689639.25547  23200395.712    23200395.0174   23200404.1484
       192.0004        192.0004
 -10565914.21848  -8211402.14946  22716466.615    22716467.1644   22716472.2444
       179.0004        180.0004
 -18290831.29349 -14219133.34248  20774937.658    20774938.0544   20774945.2484
       216.0004        216.0004
 -14748895.06848 -11475758.31146  22063366.644    22063366.3504   22063372.7544
       172.0004        173.0004
 -17802195.46949 -13854774.39147  21176009.080    21176009.2864   21176015.0144
       198.0004        197.0004
  -9420976.14647  -7326443.45146  22970636.035    22970635.7784   22970644.4704
       163.0004        165.0004
 21  2  4  0  6  0.0000000  0  7G08G27G07G09G21G04G01
 -21134053.65349 -16455290.96147  20675774.557    20675775.1554   20675782.8854
       207.0004        207.0004
  -9817534.54548  -7609762.19047  23219901.666    23219902.1564   23219910.4034
       191.0004        191.0004
 -10641208.83348  -8270073.27046  22702139.457    22702139.9624   22702143.9904
       180.0004        182.0004
 -18285937.32549 -14215319.85948  20775869.395    20775869.6634   20775876.1784
       215.0004        216.0004
 -14783300.87248 -11502568.02246  22056820.748    22056820.3704   22056824.8774
       173.0004        174.0004
 -17731576.86949 -13799746.91947  21189446.882    21189447.2334   21189453.5174
       198.0004        197.0004
  -9498673.25947  -7386986.64846  22955850.321    22955850.4754   22955859.3174
       163.0004        164.0004
 21  2  4  0  6 30.0000000  0  7G08G27G07G09G21G04G01
 -21078678.77349 -16412141.71247  20686313.126    20686313.0574   20686320.4914
       207.0004        208.0004
  -9714841.09248  -7529741.33647  23239445.405    23239444.4894   23239452.1074
       190.0004        191.0004
 -10716524.28948  -8328760.63546  22687807.493    22687807.8474   22687811.9344
       181.0004        181.0004
 -18280481.27749 -14211068.40348  20776907.557    20776908.0014   20776914.4064
       215.0004        216.0004
 -14817396.95348 -11529136.38646  22050331.434    22050331.5544   22050336.5944
       173.0004        174.0004
 -17660561.75849 -13744410.48247  21202960.567    21202961.2934   21202967.2574
       198.0004        198.0004
  -9576372.47647  -7447531.47146  22941063.532    22941064.1634   22941073.4934
       162.0004        164.0004
 21  2  4  0  7  0.0000000  0  7G08G27G07G09G21G04G01
 -21022836.89049 -16368628.54447  20696939.555    20696939.7434   20696946.9544
       207.0004        208.0004
  -9611965.70448  -7449578.70047  23259021.569    23259021.4164   23259029.0994
       191.0004        192.0004
 -10791858.28548  -8387462.44746  22673472.519    22673472.2984   22673476.6974
       180.0004        180.0004
 -18274463.41349 -14206379.15748  20778053.092    20778053.0814   20778059.8394
       216.0004        216.0004
 -14851180.39848 -11555461.12346  22043902.597    22043902.6754   22043908.2844
       173.0004        174.0004
 -17589152.38349 -13688766.81247  21216549.394    21216549.9014   21216556.6584
       198.0004        197.0004
  -9654070.40347  -7508075.27846  22926277.358    22926278.7034   22926287.5674
       162.0004        164.0004
 21  2  4  0  7 30.0000000  0  7G08G27G07G09G21G04G01
 -20966529.57649 -16324752.70247  20707654.569    20707654.7294   20707661.8294
       207.0004        208.0004
  -9508910.54848  -7369275.98347  23278629.768    23278631.3544   23278638.5224
       189.0004        189.0004
 -10867207.82748  -8446176.36346  22659133.246    22659133.8584   22659137.7854
       181.0004        181.0004
 -18267883.57449 -14201252.00548  20779304.269    20779304.7504   20779311.9294
       215.0004        216.0004
 -14884647.54348 -11581539.41346  22037535.454    22037535.1004   22037540.2274
       175.0004        175.0004
 -17517350.54649 -13632817.34147  21230212.155    21230212.8724   21230219.7734
       198.0004        197.0004
  -9731763.30147  -7568615.18046  22911494.339    22911495.2324   22911503.3474
       162.0004        163.0004
 21  2  4  0  8  0.0000000  0  7G08G27G07G09G21G04G01
 -20909759.48049 -16280516.25447  20718458.290    20718458.1484   20718464.6814
       208.0004        209.0004
  -9405678.19548  -7288835.19347  23298275.164    23298275.9214   23298284.7404
       191.0004        192.0004
 -10942570.97148  -8504900.86946  22644791.634    22644792.2194   22644796.8084
       181.0004        182.0004
 -18260742.10149 -14195687.22448  20780663.562    20780663.7384   20780670.7384
       215.0004        216.0004
 -14917796.15548 -11607369.48146  22031227.264    22031226.6614   22031232.0744
       175.0004        175.0004
 -17445158.51649 -13576563.81847  21243950.740    21243950.8514   21243956.7984
       198.0004        196.0004
  -9809447.83047  -7629148.55946  22896712.097    22896712.5014   22896720.5254
       162.0004        163.0004
 21  2  4  0  8 30.0000000  0  7G08G27G07G09G21G04G01
 -20852529.29349 -16235921.27947  20729348.058    20729348.2864   20729355.3464
       207.0004        208.0004
  -9302272.67448  -7208259.47447  23317953.684    23317953.2564   23317960.8694
       190.0004        191.0004
 -11017946.78848  -8563635.24046  22630448.005    22630448.1634   22630453.2614
       182.0004        183.0004
 -18253040.74849 -14189686.17148  20782129.030    20782129.4864   20782136.1834
       215.0004        216.0004
 -14950624.88648 -11632950.29446  22024980.137    22024979.2724   22024985.3594
       176.0004        176.0004
 -17372580.05349 -13520009.16347  21257761.472    21257761.7484   21257768.1934
       197.0004        195.0004
  -9887121.99847  -7689673.85646  22881931.047    22881931.4974   22881939.1184
       162.0004        163.0004
 21  2  4  0  9  0.0000000  0  7G08G27G07G09G21G04G01
 -20794843.22949 -16190971.10447  20740324.745    20740325.1984   20740332.4664
       207.0004        207.0004
  -9198697.91748  -7127551.88847  23337663.022    23337662.5614   23337670.2354
       190.0004        190.0004
 -11093334.08048  -8622378.59846  22616103.968    22616103.8204   22616106.6934
       182.0004        184.0004
 -18244781.25449 -14183250.21148  20783701.008    20783701.1754   20783707.8804
       215.0004        215.0004
 -14983132.04648 -11658280.53246  22018794.559    22018793.5964   22018798.2584
       176.0004        176.0004
 -17299618.71549 -13463156.17647  21271645.581    21271645.9954   21271651.7934
       197.0004        195.0004
  -9964783.78047  -7750189.52345  22867152.364    22867152.3404   22867160.7514
       161.0004        162.0004
 21  2  4  0  9 30.0000000  0  7G08G27G07G09G21G04G01
 -20736703.73749 -16145667.61347  20751387.924    20751388.4574   20751395.9164
       206.0004        206.0004
  -9094957.58048  -7046715.26447  23357405.089    23357404.7214   23357412.0444
       190.0004        191.0004
 -11168731.67348  -8681129.98246  22601755.534    22601756.3784   22601759.2834
       184.0004        185.0004
 -18235965.06649 -14176380.46348  20785378.513    20785379.0284   20785385.5834
       215.0004        215.0004
 -15015315.80748 -11683358.77446  22012669.264    22012669.1084   22012673.3944
       175.0004        176.0004
 -17226277.84149 -13406007.46647  21285602.283    21285602.7904   21285608.3724
       196.0004        195.0004
 -10042430.85447  -7810693.71246  22852377.072    22852377.5844   22852385.4594
       162.0004        165.0004
 21  2  4  0 10  0.0000000  0  7G08G27G07G09G21G04G01
 -20678112.67749 -16100012.23247  20762537.994    20762538.2244   20762545.1814
       206.0004        206.0004
  -8991053.01948  -6965750.69747  23377178.224    23377177.6664   23377184.6054
       192.0004        194.0004
 -11244135.92548  -8739886.52946  22587406.501    22587406.8964   22587411.8284
       185.0004        186.0004
 -18226591.44149 -14169076.32548  20787162.427    20787162.4794   20787169.6064
       215.0004        215.0004
 -15047172.40148 -11708182.08246  22006607.702    22006607.0614   22006612.2124
       175.0004        176.0004
 -17152558.68749 -13348563.96247  21299631.108    21299631.1434   21299637.1694
       197.0004        196.0004
 -10120058.69847  -7871182.90246  22837605.221    22837604.5044   22837612.5544
       163.0004        165.0004
 21  2  4  0 10 30.0000000  0  7G08G27G07G09G21G04G01
 -20619073.29649 -16054007.51247  20773773.437    20773773.8934   20773780.3214
       206.0004        207.0004
  -8886988.23448  -6884661.25547  23396980.508    23396980.3414   23396987.4484
       193.0004        193.0004
 -11319545.78848  -8798647.43846  22573056.125    22573056.6484   22573061.4994
       186.0004        186.0004
 -18216662.21049 -14161339.26548  20789051.387    20789051.9294   20789058.8424
       214.0004        215.0004
 -15078700.30248 -11732749.25246  22000608.216    22000606.9134   22000612.9284
       176.0004        175.0004
 -17078464.86549 -13290828.51947  21313729.633    21313730.3124   21313736.7704
       197.0004        196.0004
 -10197665.21247  -7931655.52546  22822836.962    22822837.4484   22822845.1134
       164.0004        167.0004
 21  2  4  0 11  0.0000000  0  7G08G27G07G09G21G04G01
 -20559585.75549 -16007653.56847  20785093.612    20785093.9254   20785100.4694
       207.0004        207.0004
  -8782763.62248  -6803447.26547  23416813.147    23416813.5724   23416821.3294
       193.0004        193.0004
 -11394956.88648  -8857409.32746  22558706.100    22558706.1624   22558710.7144
       186.0004        186.0004
 -18206175.70449 -14153167.96548  20791047.222    20791047.5364   20791054.2194
       214.0004        215.0004
 -15109894.65548 -11757056.51846  21994671.961    21994671.7204   21994676.1344
       175.0004        175.0004
 -17003996.60449 -13232801.30847  21327900.601    21327901.1004   21327907.4484
       197.0004        195.0004
 -10275244.91247  -7992107.21046  22808072.968    22808073.6824   22808082.3034
       164.0004        166.0004
 21  2  4  0 11 30.0000000  0  7G08G27G07G09G21G04G01
 -20499652.83749 -15960952.58447  20796498.044    20796498.1204   20796505.5734
       207.0004        207.0004
  -8678382.17648  -6722111.10447  23436676.726    23436677.1924   23436684.5544
       193.0004        194.0004
 -11470367.27848  -8916170.66246  22544356.523    22544356.7914   22544360.9094
       185.0004        186.0004
 -18195132.85549 -14144563.15248  20793148.936    20793149.1194   20793155.7634
       215.0004        215.0004
 -15140753.02348 -11781101.98946  21988799.713    21988799.6334   21988803.4714
       175.0004        175.0004
 -16929156.65749 -13174484.46847  21342142.500    21342142.7194   21342149.1174
       196.0004        195.0004
 -10352794.77447  -8052535.65746  22793316.264    22793315.9944   22793324.7714
       164.0004        166.0004
 21  2  4  0 12  0.0000000  0  7G08G27G07G09G21G04G01
 -20439278.38949 -15913907.55147  20807986.594    20807986.8014   20807994.5554
       206.0004        206.0004
  -8573848.76448  -6640656.46847  23456568.390    23456568.5754   23456575.6214
       192.0004        192.0004
 -11545776.77648  -8974931.29446  22530005.399    22530006.1644   22530010.5524
       185.0004        186.0004
 -18183536.52049 -14135527.04448  20795355.305    20795355.6824   20795362.6244
       215.0004        215.0004
 -15171274.99848 -11804885.32746  21982991.115    21982990.5994   21982995.7364
       174.0004        174.0004
 -16853949.67949 -13115881.63347  21356454.331    21356454.6074   21356460.2234
       196.0004        195.0004
 -10430313.71048  -8112939.99946  22778564.382    22778565.4774   22778574.3144
       165.0004        168.0004
 21  2  4  0 12 30.0000000  0  7G08G27G07G09G21G04G01
 -20378463.81749 -15866519.57647  20819559.949    20819559.7714   20819566.8144
       206.0004        206.0004
  -8469164.52548  -6559084.35747  23476489.117    23476489.6104   23476496.2824
       192.0004        191.0004
 -11621181.56948  -9033688.27747  22515657.399    22515657.8804   22515661.3114
       187.0004        188.0004
 -18171385.84349 -14126058.98648  20797667.498    20797667.7544   20797674.7574
       215.0004        215.0004
 -15201456.68448 -11828403.51146  21977246.759    21977246.8434   21977253.1104
       174.0004        176.0004
 -16778376.60449 -13056993.53647  21370835.037    21370835.5884   21370841.0854
       196.0004        194.0004
 -10507796.81948  -8173316.44446  22763820.656    22763820.7784   22763828.4114
       167.0004        169.0004
 21  2  4  0 13  0.0000000  0  7G08G27G07G09G21G04G01
 -20317213.93349 -15818792.38547  20831214.395    20831214.7524   20831221.9024
       205.0004        205.0004
  -8364334.39648  -6477398.53947  23496438.182    23496438.4814   23496445.2864
       192.0004        193.0004
 -11696581.58448  -9092441.52546  22501309.066    22501309.4484   22501312.9774
       187.0004        187.0004
 -18158683.77249 -14116161.27248  20800084.540    20800084.9844   20800091.6864
       215.0004        215.0004
 -15231297.33748 -11851655.94446  21971569.466    21971569.3824   21971574.4784
       175.0004        176.0004
 -16702442.21849 -12997823.88147  21385284.557    21385284.6984   21385290.9024
       195.0004        193.0004
 -10585243.13148  -8233664.20946  22749082.519    22749083.4684   22749091.6174
       168.0004        170.0004
 21  2  4  0 13 30.0000000  0  7G08G27G07G09G21G04G01
 -20255530.93449 -15770727.70347  20842952.493    20842953.0294   20842959.6524
       205.0004        206.0004
  -8259361.31248  -6395601.34647  23516413.548    23516413.7324   23516420.1014
       191.0004        191.0004
 -11771974.53348  -9151189.27746  22486962.524    22486962.2394   22486966.1464
       187.0004        187.0004
 -18145431.35949 -14105834.72448  20802606.501    20802606.9924   20802613.7714
       215.0004        215.0004
 -15260795.02148 -11874641.14046  21965955.549    21965956.1084   21965960.8194
       174.0004        175.0004
 -16626149.36749 -12938374.92047  21399802.909    21399803.5614   21399809.8464
       195.0004        194.0004
 -10662649.59248  -8293980.91646  22734353.334    22734353.7164   22734361.7174
       169.0004        171.0004
 21  2  4  0 14  0.0000000  0  7G08G27G07G09G21G04G01
 -20193417.42849 -15722327.55447  20854773.303    20854773.5284   20854779.9514
       205.0004        206.0004
  -8154247.95048  -6313694.83047  23536416.210    23536415.5274   23536422.1904
       189.0004        189.0004
 -11847358.30048  -9209929.85047  22472616.905    22472616.8854   22472621.6904
       187.0004        188.0004
 -18131629.35149 -14095079.90048  20805233.131    20805233.3124   20805240.1824
       215.0004        215.0004
 -15289947.10348 -11897357.01346  21960408.286    21960407.3604   21960413.0854
       174.0004        174.0004
 -16549500.54049 -12878648.56747  21414389.354    21414389.5104   21414395.0844
       196.0004        194.0004
 -10740012.82648  -8354263.93746  22719632.312    22719632.4214   22719639.5824
       170.0004        172.0004
 21  2  4  0 14 30.0000000  0  7G08G27G07G09G21G04G01
 -20130875.63549 -15673593.67747  20866674.277    20866674.1664   20866681.7464
       206.0004        206.0004
  -8048996.73648  -6231680.91747  23556443.956    23556444.6244   23556451.2024
       190.0004        190.0004
 -11922730.53148  -9268661.46547  22458274.676    22458275.0344   22458278.4864
       188.0004        188.0004
 -18117278.24949 -14083897.22948  20807964.026    20807964.1904   20807971.0114
       215.0004        216.0004
 -15318750.88148 -11919801.50946  21954927.008    21954926.8944   21954932.0724
       174.0004        175.0004
 -16472497.96449 -12818646.56147  21429041.763    21429042.5084   21429048.9454
       195.0004        194.0004
 -10817329.25448  -8414510.49846  22704918.867    22704918.5764   22704926.9204
       170.0004        171.0004
 21  2  4  0 15  0.0000000  0  7G08G27G07G09G21G04G01
 -20067906.00749 -15624526.43247  20878656.357    20878656.6004   20878664.0984
       205.0004        205.0004
  -7943608.51048  -6149560.21847  23576498.923    23576499.2784   23576506.5514
       190.0004        191.0004
 -11998087.14648  -9327380.89747  22443933.606    22443934.4224   22443938.2244
       188.0004        189.0004
 -18102377.17549 -14072285.99848  20810799.511    20810799.6714   20810806.5924
       215.0004        216.0004
 -15347201.75948 -11941970.99946  21949513.303    21949512.6204   21949518.6064
       175.0004        176.0004
 -16395142.48149 -12758369.56447  21443762.092    21443762.7414   21443768.5754
       195.0004        194.0004
 -10894593.84348  -8474716.64846  22690215.158    22690215.9424   22690224.3834
       170.0004        172.0004
 21  2  4  0 15 30.0000000  0  7G08G27G07G09G21G04G01
 -20004513.88049 -15575129.97347  20890719.227    20890719.7964   20890727.3234
       204.0004        205.0004
  -7838088.19048  -6067336.61447  23596577.317    23596578.6244   23596585.9744
       190.0004        189.0004
 -12073427.66148  -9386087.78647  22429597.260    22429598.1504   22429602.0054
       189.0004        189.0004
 -18086929.11949 -14060248.55848  20813739.427    20813739.8794   20813746.3254
       215.0004        216.0004
 -15375299.66148 -11963865.44846  21944166.181    21944166.4104   21944171.9254
       175.0004        176.0004
 -16317438.80449 -12697821.25647  21458548.342    21458548.9634   21458554.9524
       195.0004        193.0004
 -10971805.37148  -8534881.47046  22675522.218    22675522.9844   22675530.2354
       171.0004        173.0004
 21  2  4  0 16  0.0000000  0  7G08G27G07G09G21G04G01
 -19940701.48149 -15525406.01747  20902862.731    20902862.8734   20902870.2374
       204.0004        204.0004
  -7732438.63748  -5985012.27647  23616681.910    23616682.9314   23616690.9174
       188.0004        188.0004
 -12148749.75448  -9444780.30247  22415264.285    22415264.2184   22415268.6574
       189.0004        189.0004
 -18070935.29749 -14047785.83748  20816782.965    20816782.9854   20816789.7894
       215.0004        215.0004
 -15403042.48148 -11985483.20946  21938887.306    21938886.7634   21938893.2094
       176.0004        178.0004
 -16239389.82648 -12637003.86947  21473400.662    21473401.1644   21473407.3674
       194.0004        194.0004
 -11048960.84148  -8595002.58246  22660839.905    22660840.8164   22660848.3414
       171.0004        172.0004
 21  2  4  0 16 30.0000000  0  7G08G27G07G09G21G04G01
 -19876470.17449 -15475355.65047  20915086.141    20915085.9334   20915093.0484
       204.0004        205.0004
  -7626661.16248  -5902588.30946  23636812.515    23636813.0034   23636819.2134
       187.0004        186.0004
 -12224050.53648  -9503456.22847  22400934.269    22400934.8274   22400938.9844
       188.0004        188.0004
 -18054395.22149 -14034897.48048  20819930.288    20819930.5384   20819937.1654
       215.0004        215.0004
 -15430426.25848 -12006821.20946  21933676.199    21933675.4994   21933681.4104
       177.0004        178.0004
 -16160996.74748 -12575918.37547  21488318.088    21488318.6874   21488324.9484
       194.0004        192.0004
 -11126055.51548  -8655076.35446  22646167.634    22646169.7614   22646177.8744
       171.0004        172.0004
 21  2  4  0 17  0.0000000  0  7G08G27G07G09G21G04G01
 -19811824.64049 -15424982.47647  20927387.056    20927387.1584   20927394.6174
       204.0004        204.0004
  -7520761.02748  -5820068.72346  23656965.132    23656964.8324   23656971.1764
       185.0004        185.0004
 -12299329.98748  -9562115.52347  22386608.918    22386609.7884   22386613.5194
       187.0004        188.0004
 -18037312.41249 -14021586.18348  20823180.270    20823180.9644   20823188.0204
       215.0004        215.0004
 -15457450.96648 -12027879.39346  21928533.718    21928533.1504   21928538.1974
       177.0004        177.0004
 -16082264.76448 -12514568.77747  21503300.482    21503301.0064   21503307.1004
       194.0004        193.0004
 -11203088.68548  -8715102.17846  22631510.113    22631510.5924   22631519.6034
       171.0004        173.0004
 21  2  4  0 17 30.0000000  0  7G08G27G07G09G21G04G01
 -19746766.31549 -15374287.66847  20939766.571    20939766.9274   20939774.7014
       203.0004        203.0004
  -7414739.59648  -5737454.63446  23677140.922    23677140.6144   23677146.4194
       186.0004        186.0004
 -12374584.02148  -9620755.01847  22372289.501    22372289.2814   22372293.0664
       188.0004        189.0004
 -18019686.54749 -14007851.74848  20826535.390    20826535.7714   20826542.3114
       215.0004        216.0004
 -15484112.45748 -12048654.56246  21923459.963    21923459.5894   21923464.6304
       177.0004        178.0004
 -16003195.19048 -12452956.12747  21518346.575    21518347.2814   21518354.2264
       194.0004        193.0004
 -11280055.63848  -8775076.40946  22616864.711    22616865.0064   22616873.7614
       172.0004        174.0004
 21  2  4  0 18  0.0000000  0  7G08G27G07G09G21G04G01
 -19681301.51649 -15323276.13547  20952224.171    20952224.6044   20952232.3794
       203.0004        203.0004
  -7308602.98248  -5654750.76046  23697337.675    23697337.7244   23697344.0974
       186.0004        187.0004
 -12449813.53848  -9679375.41947  22357973.731    22357974.1904   22357977.8494
       188.0004        188.0004
 -18001522.26549 -13993697.75848  20829991.822    20829991.8324   20829998.6584
       215.0004        215.0004
 -15510412.52248 -12069148.09746  21918455.311    21918454.8504   21918459.8764
       177.0004        178.0004
 -15923794.13748 -12391085.18047  21533456.768    21533457.1614   21533463.1754
       194.0004        192.0004
 -11356956.55448  -8834999.19546  22602230.460    22602231.4294   22602239.4524
       172.0004        173.0004
 21  2  4  0 18 30.0000000  0  7G08G27G07G09G21G04G01
 -19615430.37249 -15271947.96647  20964759.532    20964759.7104   20964767.2524
       203.0004        203.0004
  -7202352.14548  -5571957.92046  23717558.736    23717557.6334   23717561.9654
       187.0004        187.0004
 -12525015.15848  -9737974.08046  22343662.233    22343662.9064   22343666.4994
       187.0004        187.0004
 -17982818.60749 -13979123.47948  20833550.430    20833550.6574   20833557.6844
       215.0004        215.0004
 -15536347.06748 -12089356.83346  21913519.841    21913519.3364   21913524.6944
       178.0004        178.0004
 -15844062.52148 -12328956.66547  21548629.637    21548629.5114   21548635.5534
       193.0004        192.0004
 -11433786.41148  -8894866.59046  22587609.535    22587610.8324   22587619.5214
       172.0004        172.0004
 21  2  4  0 19  0.0000000  0  7G08G27G07G09G21G04G01
 -19549154.70549 -15220304.58247  20977370.983    20977371.2664   20977379.0464
       202.0004        202.0004
  -7095988.47748  -5489077.15746  23737799.140    23737796.9474   23737802.9244
       187.0004        187.0004
 -12600185.08548  -9796548.05147  22329358.133    22329358.5284   22329363.0934
       187.0004        188.0004
 -17963575.58049 -13964128.91848  20837212.717    20837212.7074   20837220.2764
       215.0004        216.0004
 -15561912.12548 -12109277.65346  21908654.134    21908654.6984   21908659.6664
       178.0004        179.0004
 -15764001.85348 -12266571.73447  21563863.840    21563864.2514   21563870.6364
       194.0004        193.0004
 -11510540.63548  -8954675.05846  22573003.591    22573004.4094   22573013.1094
       171.0004        172.0004
 21  2  4  0 19 30.0000000  0  7G08G27G07G09G21G04G01
 -19482478.21449 -15168348.85647  20990059.543    20990059.7244   20990067.0974
       202.0004        203.0004
  -6989515.88948  -5406111.50046  23758058.635    23758058.2464   23758064.5764
       187.0004        186.0004
 -12675322.02648  -9855096.27647  22315059.647    22315060.4104   22315065.1654
       187.0004        189.0004
 -17943795.41049 -13948715.79648  20840976.902    20840977.3164   20840983.9334
       216.0004        216.0004
 -15587106.71648 -12128909.77646  21903860.631    21903860.1334   21903865.4584
       179.0004        180.0004
 -15683615.90648 -12203933.33647  21579161.098    21579161.7534   21579167.8854
       194.0004        193.0004
 -11587217.06548  -9014422.90346  22558413.329    22558413.2884   22558420.4724
       171.0004        172.0004
 21  2  4  0 20  0.0000000  0  7G08G27G07G09G21G04G01
 -19415401.61149 -15116081.38147  21002823.476    21002823.8114   21002831.5454
       202.0004        202.0004
  -6882934.74348  -5323061.29546  23778338.620    23778338.8324   23778345.8284
       185.0004        185.0004
 -12750421.34748  -9913615.23447  22300770.658    22300770.2044   22300773.6104
       189.0004        189.0004
 -17923477.06549 -13932883.32948  20844843.578    20844843.5934   20844850.0184
       216.0004        216.0004
 -15611926.18548 -12148249.62446  21899138.822    21899137.8704   21899143.5814
       180.0004        180.0004
 -15602905.18748 -12141041.87347  21594519.441    21594520.1554   21594526.7594
       193.0004        192.0004
 -11663810.11848  -9074105.79146  22543838.419    22543838.5804   22543847.0214
       170.0004        172.0004
 21  2  4  0 20 30.0000000  0  8G08G27G07G30G09G21G04G01
 -19347929.44449 -15063505.67847  21015662.773    21015663.1614   21015670.8844
       201.0004        202.0004
  -6776250.22948  -5239930.52846  23798639.895    23798640.1334   23798647.2874
       184.0004        184.0004
 -12825483.25848  -9972105.04847  22286485.784    22286486.2324   22286490.1554
       188.0004        188.0004
   -407968.75257   -293587.79045  24239242.414                    24239248.7274
       143.0004        155.0004
 -17902624.22149 -13916634.37648  20848811.102    20848811.5604   20848818.5374
       215.0004        215.0004
 -15636370.75748 -12167297.33446  21894486.968    21894486.5214   21894492.1454
       180.0004        181.0004
 -15521874.91048 -12077901.41247  21609939.134    21609939.9564   21609946.2594
       193.0004        191.0004
 -11740318.97648  -9133723.08246  22529279.332    22529280.1064   22529287.6464
       171.0004        172.0004
 21  2  4  0 21  0.0000000  0  8G08G27G07G30G09G21G04G01
 -19280063.58649 -15010623.16447  21028576.689    21028577.3114   21028584.9664
       201.0004        201.0004
  -6669463.97148  -5156720.44346  23818959.876    23818960.7134   23818967.4154
       182.0004        182.0004
 -12900504.07748 -10030562.79947  22272209.173    22272210.5254   22272214.6524
       188.0004        189.0004
   -492446.03947   -359414.22245  24223167.465    24223166.2944   24223173.4804
       151.0004        156.0004
 -17881236.99549 -13899968.98648  20852881.341    20852881.5994   20852888.0654
       215.0004        215.0004
 -15660437.27148 -12186050.43546  21889905.892    21889906.5014   21889910.8864
       181.0004        182.0004
 -15440526.71048 -12014513.19847  21625419.172    21625419.5204   21625426.1044
       192.0004        191.0004
 -11816739.25848  -9193271.32346  22514736.356    22514736.4584   22514745.3394
       170.0004        171.0004
 21  2  4  0 21 30.0000000  0  8G08G27G07G30G09G21G04G01
 -19211807.85549 -14957436.88547  21041566.108    21041566.2984   21041573.6814
       201.0004        201.0004
  -6562579.42048  -5073433.82646  23839300.147    23839300.5784   23839307.6594
       182.0004        183.0004
 -12975482.18848 -10088987.31647  22257942.376    22257942.5064   22257946.0834
       189.0004        189.0004
   -577026.00847   -425320.67745  24207072.005    24207071.4594   24207078.9294
       154.0004        158.0004
 -17859317.44649 -13882888.82348  20857052.301    20857052.8684   20857059.0224
       215.0004        215.0004
 -15684124.35048 -12204507.87946  21885399.444    21885398.7944   21885403.3694
       180.0004        180.0004
 -15358864.19448 -11950880.08047  21640959.688    21640959.7174   21640965.5394
       193.0004        192.0004
 -11893068.50648  -9252748.64246  22500212.140    22500211.8434   22500220.4804
       171.0004        173.0004
 21  2  4  0 22  0.0000000  0  8G08G27G07G30G09G21G04G01
 -19143166.26149 -14903949.92747  21054628.039    21054628.5064   21054635.9124
       201.0004        202.0004
  -6455601.06948  -4990074.04846  23859658.040    23859658.6264   23859664.0594
       182.0004        182.0004
 -13050417.48148 -10147378.45847  22243681.446    22243681.8934   22243686.6074
       188.0004        188.0004
   -661708.91647   -491307.35345  24190956.230    24190956.6744   24190964.8354
       157.0004        160.0004
 -17836868.62549 -13865396.24348  20861324.443    20861324.7724   20861330.9514
       215.0004        215.0004
 -15707431.21648 -12222669.06846  21880963.354    21880963.6204   21880968.6714
       180.0004        181.0004
 -15276891.87348 -11887005.56047  21656557.868    21656558.6474   21656564.7254
       192.0004        191.0004
 -11969305.12348  -9312153.77246  22485704.067    22485704.2124   22485712.3584
       171.0004        172.0004
 21  2  4  0 22 30.0000000  0  8G08G27G07G30G09G21G04G01
 -19074139.36849 -14850162.70847  21067763.699    21067763.9464   21067771.2464
       201.0004        201.0004
  -6348529.66048  -4906641.80946  23880033.049    23880033.3224   23880039.6834
       183.0004        184.0004
 -13125305.59748 -10205732.79247  22229430.776    22229430.9214   22229435.7354
       188.0004        188.0004
   -746491.41147   -557371.61445  24174824.043    24174824.1394   24174830.7364
       158.0004        161.0004
 -17813889.93149 -13847490.75748  20865697.185    20865697.1294   20865704.1404
       215.0004        215.0004
 -15730353.55648 -12240530.58646  21876601.635    21876601.0104   21876606.9444
       180.0004        179.0004
 -15194610.64248 -11822890.30347  21672215.579    21672216.0684   21672222.7884
       193.0004        192.0004
 -12045443.88448  -9371482.65346  22471214.603    22471215.9854   22471223.9764
       172.0004        174.0004
 21  2  4  0 23  0.0000000  0  8G08G27G07G30G09G21G04G01
 -19004729.83449 -14796077.35847  21080971.397    21080971.7704   21080979.8484
       200.0004        200.0004
  -6241367.05848  -4823138.49346  23900424.036    23900424.4434   23900432.7894
       182.0004        182.0004
 -13200143.12748 -10264047.74247  22215189.853    22215190.4614   22215194.5834
       189.0004        190.0004
   -831371.25647   -623511.74845  24158671.852    24158671.4404   24158678.6554
       157.0004        160.0004
 -17790381.92549 -13829172.83348  20870169.952    20870170.3534   20870177.2764
       214.0004        214.0004
 -15752889.04548 -12258090.70046  21872313.861    21872312.7394   21872318.9554
       180.0004        180.0004
 -15112022.49648 -11758535.91347  21687931.287    21687932.2644   21687938.2904
       193.0004        192.0004
 -12121480.69548  -9430732.10846  22456747.136    22456747.3194   22456754.0444
       173.0004        173.0004
 21  2  4  0 23 30.0000000  0  8G08G27G07G30G09G21G04G01
 -18934942.19849 -14741697.40647  21094251.461    21094251.6634   21094259.9384
       199.0004        199.0004
  -6134118.63748  -4739568.34546  23920832.863    23920832.8064   23920840.7974
       180.0004        180.0004
 -13274930.29748 -10322323.48347  22200958.442    22200959.0354   22200963.1084
       190.0004        190.0004
   -916349.59347   -689728.64145  24142501.293    24142500.6704   24142507.5554
       157.0004        160.0004
 -17766348.58649 -13810445.57748  20874743.919    20874744.1324   20874750.8244
       214.0004        215.0004
 -15775038.03648 -12275349.66246  21868098.738    21868098.5554   21868103.7644
       180.0004        181.0004
 -15029132.84748 -11693946.60247  21703705.274    21703705.7474   21703711.3724
       192.0004        190.0004
 -12197414.96548  -9489901.67346  22442295.641    22442296.9434   22442304.0964
       171.0004        172.0004
 21  2  4  0 24  0.0000000  0  8G08G27G07G30G09G21G04G01
 -18864778.22749 -14687024.16347  21107603.206    21107603.4514   21107611.6884
       199.0004        200.0004
  -6026785.29248  -4655931.98846  23941257.718    23941257.2384   23941265.9854
       178.0004        178.0004
 -13349662.77448 -10380556.57447  22186737.745    22186738.0764   22186742.0164
       190.0004        190.0004
  -1001423.18147   -756019.74945  24126311.868    24126311.5154   24126318.6094
       158.0004        160.0004
 -17741789.64249 -13791308.73548  20879416.828    20879417.3024   20879424.5304
       214.0004        215.0004
 -15796796.39848 -12292304.20946  21863959.129    21863958.3184   21863963.7494
       181.0004        181.0004
 -14945942.81648 -11629123.20447  21719536.135    21719536.1844   21719542.0464
       192.0004        190.0004
 -12273241.59148  -9548987.33446  22427867.127    22427867.5044   22427875.1124
       171.0004        172.0004
 21  2  4  0 24 30.0000000  0  8G08G27G07G30G09G21G04G01
 -18794241.58749 -14632060.52947  21121026.430    21121026.3254   21121034.3254
       199.0004        200.0004
  -5919370.89248  -4572232.44746  23961700.411    23961699.0444   23961706.2744
       179.0004        181.0004
 -13424339.36948 -10438746.11447  22172527.425    22172527.5724   22172531.9824
       190.0004        191.0004
  -1086591.72247   -822384.82545  24110104.517    24110104.5334   24110110.9644
       157.0004        159.0004
 -17716707.69549 -13771764.35048  20884190.611    20884190.7414   20884197.2204
       214.0004        215.0004
 -15818163.35248 -12308953.75946  21859892.097    21859892.1514   21859897.1914
       180.0004        180.0004
 -14862456.41248 -11564068.84847  21735423.046    21735423.4424   21735428.5714
       191.0004        190.0004
 -12348958.48048  -9607987.46546  22413458.871    22413459.0594   22413467.3324
       172.0004        173.0004
 21  2  4  0 25  0.0000000  0  8G08G27G07G30G09G21G04G01
 -18723333.70649 -14576807.64247  21134519.627    21134520.1384   21134527.5994
       199.0004        200.0004
  -5811877.25048  -4488471.21446  23982153.872    23982153.7574   23982160.6604
       177.0004        176.0004
 -13498957.62948 -10496890.21847  22158327.628    22158327.5114   22158331.8434
       190.0004        189.0004
  -1171852.91047   -888822.11545  24093881.192    24093880.2034   24093885.9924
       157.0004        159.0004
 -17691103.35849 -13751812.92648  20889062.341    20889062.4564   20889069.6184
       214.0004        214.0004
 -15839135.63848 -12325295.78646  21855899.992    21855900.5304   21855905.6764
       179.0004        179.0004
 -14778675.64748 -11498785.16247  21751365.924    21751366.5674   21751371.9074
       191.0004        191.0004
 -12424561.50748  -9666898.91046  22399071.040    22399071.9884   22399080.2244
       173.0004        174.0004
 21  2  4  0 25 30.0000000  0  8G08G27G07G30G09G21G04G01
 -18652059.42249 -14521269.23747  21148083.043    21148082.7674   21148090.5184
       199.0004        198.0004
  -5704308.48948  -4404651.42146  24002622.914    24002623.4754   24002630.0614
       175.0004        176.0004
 -13573515.96248 -10554987.59847  22144139.941    22144139.9534   22144144.6454
       190.0004        192.0004
  -1257206.66947   -955331.52045  24077637.150    24077638.4094   24077643.7134
       157.0004        160.0004
 -17664979.51849 -13731456.68448  20894033.742    20894033.9284   20894040.8214
       214.0004        214.0004
 -15859712.69048 -12341329.84246  21851985.150    21851984.4604   21851989.2924
       179.0004        179.0004
 -14694604.79948 -11433275.41647  21767364.302    21767364.5474   21767370.2454
       191.0004        190.0004
 -12500048.76148  -9725720.12546  22384706.380    22384706.9334   22384714.4414
       172.0004        173.0004
 21  2  4  0 26  0.0000000  0  8G08G27G07G30G09G21G04G01
 -18580418.44749 -14465445.10047  21161714.973    21161715.0774   21161723.7824
       198.0004        198.0004
  -5596663.98748  -4320772.59646  24023106.282    24023106.7674   24023114.3924
       173.0004        173.0004
 -13648008.86748 -10613034.00747  22129963.484    22129964.3894   22129969.2014
       192.0004        192.0004
  -1342648.23247  -1021909.33045  24061378.954    24061378.2904   24061385.4744
       158.0004        161.0004
 -17638334.48149 -13710694.31448  20899103.815    20899103.9774   20899111.0254
       214.0004        214.0004
 -15879889.93648 -12357052.34746  21848145.797    21848145.8634   21848150.8214
       179.0004        180.0004
 -14610243.49148 -11367539.33647  21783417.060    21783417.6664   21783423.9204
       190.0004        189.0004
 -12575413.73748  -9784446.06346  22370364.411    22370365.3524   22370373.7784
       173.0004        175.0004
 21  2  4  0 26 30.0000000  0  8G08G27G07G30G09G21G04G01
 -18508417.07849 -14409340.15747  21175416.176    21175416.5974   21175424.7774
       198.0004        199.0004
  -5488950.39548  -4236839.96646  24043605.373    24043604.9144   24043611.6784
       174.0004        175.0004
 -13722437.80548 -10671030.60047  22115801.262    22115801.8924   22115805.5734
       193.0004        193.0004
  -1428180.01047  -1088557.44345  24045101.128    24045102.3364   24045109.5244
       160.0004        162.0004
 -17611173.70249 -13689530.09448  20904272.494    20904272.4614   20904279.8824
       213.0004        214.0004
 -15899668.72548 -12372464.40246  21844382.106    21844382.1144   21844387.6664
       180.0004        181.0004
 -14525598.49848 -11301582.21947  21799523.851    21799524.6384   21799530.7294
       189.0004        188.0004
 -12650657.01848  -9843077.20146  22356046.558    22356047.1104   22356055.3054
       174.0004        175.0004
 21  2  4  0 27  0.0000000  0  8G08G27G07G30G09G21G04G01
 -18436056.10749 -14352954.95547  21189186.126    21189186.8834   21189194.4394
       198.0004        199.0004
  -5381167.97748  -4152853.67946  24064114.399    24064114.1094   24064122.1984
       172.0004        173.0004
 -13796798.03948 -10728973.61347  22101651.030    22101651.1494   22101655.5544
       193.0004        193.0004
  -1513798.12447  -1155272.85246  24028809.183    24028809.8934   24028817.4774
       162.0004        164.0004
 -17583496.43049 -13667963.37848  20909539.363    20909539.5864   20909546.2384
       213.0004        213.0004
 -15919044.52648 -12387562.38046  21840694.914    21840694.3824   21840699.9204
       180.0004        180.0004
 -14440670.39748 -11235404.46847  21815686.006    21815687.0554   21815692.4504
       189.0004        189.0004
 -12725772.99948  -9901609.10146  22341753.867    22341754.0904   22341761.1734
       175.0004        175.0004
 21  2  4  0 27 30.0000000  0  8G08G27G07G30G09G21G04G01
 -18363340.47249 -14296293.41347  21203024.925    21203024.2424   21203031.4234
       198.0004        198.0004
  -5273322.11248  -4068817.95946  24084636.526    24084637.0784   24084644.2994
       174.0004        175.0004
 -13871089.84948 -10786863.32047  22087513.180    22087513.6914   22087517.9184
       192.0004        192.0004
  -1599503.70347  -1222056.39745  24012500.807    24012501.1324   24012507.4004
       161.0004        162.0004
 -17555306.89849 -13645997.51448  20914903.491    20914903.7374   20914910.6794
       213.0004        213.0004
 -15938018.04648 -12402346.92346  21837084.320    21837084.0214   21837089.4534
       181.0004        181.0004
 -14355464.68948 -11169010.40847  21831899.892    21831900.4544   21831906.2774
       189.0004        188.0004
 -12800761.02348  -9960041.30746  22327483.892    22327483.6844   22327491.7744
       175.0004        176.0004
 21  2  4  0 28  0.0000000  0  8G08G27G07G30G09G21G04G01
 -18290271.01549 -14239356.16147  21216928.908    21216928.9094   21216936.2574
       197.0004        197.0004
  -5165413.04148  -3984732.93846  24105169.592    24105171.4014   24105179.6384
       174.0004        176.0004
 -13945308.43648 -10844695.97147  22073390.364    22073390.4614   22073394.2254
       192.0004        193.0004
  -1685292.89247  -1288905.09045  23996174.975    23996175.3214   23996181.6174
       158.0004        157.0004
 -17526604.39849 -13623631.92448  20920365.235    20920365.5604   20920372.7734
       213.0004        214.0004
 -15956585.29648 -12416814.88846  21833550.610    21833550.6364   21833556.1894
       181.0004        181.0004
 -14269981.96248 -11102400.49446  21848166.476    21848166.6554   21848173.3434
       188.0004        187.0004
 -12875615.45148 -10018369.40446  22313238.809    22313238.7664   22313247.2544
       176.0004        176.0004
 21  2  4  0 28 30.0000000  0  8G08G27G07G30G09G21G04G01
 -18216851.10849 -14182145.85047  21230899.028    21230899.9284   21230907.8174
       196.0004        197.0004
  -5057444.14148  -3900601.35646  24125717.494    24125718.5134   24125724.2364
       175.0004        176.0004
 -14019452.06548 -10902470.21947  22059280.716    22059281.4784   22059285.6934
       193.0004        194.0004
  -1771164.83647  -1355818.29745  23979835.088    23979834.2444   23979840.5824
       156.0004        157.0004
 -17497391.28149 -13600868.45548  20925924.297    20925924.9484   20925931.5854
       213.0004        214.0004
 -15974744.75548 -12430965.10246  21830095.795    21830095.4424   21830100.7284
       181.0004        181.0004
 -14184225.80548 -11035577.52246  21864485.262    21864486.4294   21864491.6744
       188.0004        187.0004
 -12950333.66648 -10076591.37646  22299019.692    22299020.2064   22299028.8944
       176.0004        176.0004
 21  2  4  0 29  0.0000000  0  8G08G27G07G30G09G21G04G01
 -18143084.05749 -14124665.03447  21244937.378    21244937.6784   21244944.9844
       197.0004        197.0004
  -4949418.34348  -3816425.40546  24146273.169    24146275.0764   24146281.8614
       175.0004        176.0004
 -14093518.42248 -10960184.27047  22045186.429    22045186.7584   22045190.9254
       193.0004        193.0004
  -1857118.23247  -1422794.96545  23963478.675    23963479.2904   23963485.1804
       157.0004        160.0004
 -17467669.50449 -13577708.63348  20931579.929    20931580.4484   20931587.2344
       213.0004        213.0004
 -15992494.93648 -12444796.39946  21826717.371    21826717.1964   21826722.6114
       181.0004        181.0004
 -14098199.42948 -10968543.99546  21880855.278    21880855.8024   21880862.8834
       187.0004        186.0004
 -13024912.66748 -10134704.87746  22284828.489    22284829.1534   22284837.0314
       176.0004        177.0004
 21  2  4  0 29 30.0000000  0  8G08G27G07G30G09G21G04G01
 -18068972.84249 -14066916.03247  21259040.737    21259040.5194   21259047.6914
       197.0004        197.0004
  -4841338.61548  -3732207.47146  24166841.221    24166841.9854   24166848.1764
       176.0004        176.0004
 -14167505.79948 -11017836.76847  22031106.942    22031107.1614   22031111.2864
       193.0004        192.0004
  -1943151.91747  -1489834.20745  23947106.473    23947106.7164   23947114.1304
       158.0004        160.0004
 -17437441.11649 -13554154.05648  20937332.899    20937332.9864   20937339.6914
       212.0004        213.0004
 -16009834.19748 -12458307.49246  21823418.554    21823418.1274   21823423.0644
       181.0004        182.0004
 -14011906.10248 -10901302.45346  21897276.683    21897276.6984   21897283.5214
       187.0004        186.0004
 -13099349.53648 -10192707.62546  22270663.678    22270663.6604   22270672.5374
       175.0004        175.0004
 21  2  4  0 30  0.0000000  0  8G08G27G07G30G09G21G04G01
 -17994520.36549 -14008901.11647  21273208.315    21273208.5734   21273216.0684
       197.0004        197.0004
  -4733207.44748  -3647949.43446  24187417.227    24187417.8264   24187425.4144
       175.0004        175.0004
 -14241411.37048 -11075425.52847  22017042.706    22017043.6634   22017047.8364
       193.0004        194.0004
  -2029264.25847  -1556934.69245  23930720.769    23930719.3204   23930727.1454
       157.0004        159.0004
 -17406707.73249 -13530205.97148  20943180.705    20943180.8414   20943188.4134
       212.0004        213.0004
 -16026760.70348 -12471496.97546  21820196.350    21820196.4694   21820202.2644
       180.0004        182.0004
 -13925348.65248 -10833855.09246  21913748.480    21913748.7584   21913755.1264
       187.0004        187.0004
 -13173640.83448 -10250596.93946  22256525.789    22256526.5024   22256535.2434
       175.0004        177.0004
 21  2  4  0 30 30.0000000  0  8G08G27G07G30G09G21G04G01
 -17919725.18249 -13950619.13547  21287440.678    21287441.2164   21287448.9404
       197.0004        197.0004
  -4625023.25148  -3563650.09946  24208003.938    24208005.4434   24208011.4504
       176.0004        177.0004
 -14315228.55048 -11132945.39247  22002996.226    22002997.1244   22003000.8694
       194.0004        194.0004
  -2115449.33047  -1624091.85945  23914318.255    23914319.0914   23914326.0234
       157.0004        160.0004
 -17375466.81349 -13505862.38748  20949125.752    20949126.2564   20949133.0314
       212.0004        213.0004
 -16043268.29348 -12484360.01146  21817055.889    21817055.8264   21817060.3294
       181.0004        182.0004
 -13838525.72948 -10766200.86746  21930269.837    21930270.1864   21930276.8714
       187.0004        185.0004
 -13247778.95848 -10308366.88746  22242418.242    22242419.2324   22242426.6264
       176.0004        178.0004
 21  2  4  0 31  0.0000000  0  8G08G27G07G30G09G21G04G01
 -17844595.49549 -13892076.53247  21301737.388    21301737.8034   21301745.5124
       196.0004        197.0004
  -4516793.43048  -3479315.16346  24228598.891    24228600.2854   24228607.1364
       178.0004        179.0004
 -14388959.69748 -11190398.23347  21988965.817    21988966.2654   21988970.3004
       194.0004        195.0004
  -2201710.35847  -1691308.25645  23897905.420    23897904.7284   23897910.9114
       159.0004        162.0004
 -17343724.98549 -13481128.50748  20955166.928    20955166.7644   20955173.1314
       212.0004        213.0004
 -16059360.14948 -12496899.12246  21813994.527    21813993.9774   21813998.5674
       182.0004        182.0004
 -13751445.12348 -10698345.86846  21946840.928    21946841.1524   21946847.4454
       187.0004        187.0004
 -13321765.45248 -10366018.70446  22228339.759    22228340.1664   22228347.4594
       177.0004        178.0004
 21  2  4  0 31 30.0000000  0  8G08G27G07G30G09G21G04G01
 -17769135.20049 -13833276.29447  21316098.207    21316098.1224   21316105.1784
       196.0004        197.0004
  -4408522.23148  -3394947.99246  24249202.712    24249204.0164   24249210.1104
       179.0004        179.0004
 -14462603.75548 -11247783.19647  21974952.292    21974952.4884   21974956.2984
       194.0004        195.0004
  -2288047.37147  -1758583.83945  23881475.794    23881475.6324   23881481.7744
       160.0004        161.0004
 -17311485.63749 -13456006.93548  20961301.035    20961301.6234   20961308.6244
       212.0004        213.0004
 -16075035.61448 -12509113.74146  21811009.915    21811010.2784   21811015.8104
       181.0004        181.0004
 -13664111.35348 -10630293.57446  21963459.914    21963460.2024   21963466.6444
       187.0004        185.0004
 -13395598.66848 -10423551.03546  22214289.686    22214289.5124   22214298.1914
       177.0004        178.0004
 21  2  4  0 32  0.0000000  0  8G08G27G07G30G09G21G04G01
 -17693344.53149 -13774218.63347  21330521.290    21330521.0784   21330527.8054
       197.0004        198.0004
  -4300209.86548  -3310548.75146  24269814.876    24269815.2014   24269822.5184
       181.0004        182.0004
 -14536156.00348 -11305096.63047  21960955.534    21960955.9244   21960959.4424
       194.0004        194.0004
  -2374456.43147  -1825915.55245  23865031.876    23865031.6134   23865038.7604
       157.0004        158.0004
 -17278748.21749 -13430497.26248  20967531.659    20967531.4414   20967538.3574
       213.0004        213.0004
 -16090290.42248 -12521000.59046  21808107.506    21808107.4164   21808112.4894
       182.0004        182.0004
 -13576524.99848 -10562044.47746  21980126.947    21980127.4464   21980133.3104
       185.0004        184.0004
 -13469272.87248 -10480959.48746  22200268.750    22200269.6354   22200278.5124
       177.0004        178.0004
 21  2  4  0 32 30.0000000  0  8G08G27G07G30G09G21G04G01
 -17617226.58049 -13714905.94947  21345005.255    21345005.6674   21345012.8614
       198.0004        198.0004
  -4191858.35648  -3226119.04746  24290433.379    24290433.6794   24290439.9794
       180.0004        179.0004
 -14609613.00048 -11362335.86047  21946976.842    21946976.9394   21946981.6294
       194.0004        194.0004
  -2460935.28447  -1893301.68045  23848574.171    23848574.5354   23848582.3954
       155.0004        156.0004
 -17245513.97349 -13404600.46348  20973855.202    20973855.5064   20973862.3884
       213.0004        213.0004
 -16105122.12548 -12532557.76046  21805285.483    21805285.5484   21805291.1574
       183.0004        183.0004
 -13488688.44248 -10493600.41246  21996841.578    21996842.2624   21996848.7404
       185.0004        185.0004
 -13542784.15148 -10538241.01046  22186279.862    22186280.9224   22186289.1774
       178.0004        180.0004
 21  2  4  0 33  0.0000000  0  8G08G27G07G30G09G21G04G01
 -17540784.38249 -13655340.58047  21359551.267    21359551.7654   21359558.7564
       197.0004        196.0004
  -4083470.96248  -3141661.31346  24311059.112    24311059.4054   24311065.2254
       176.0004        175.0004
 -14682973.40748 -11419499.78947  21933016.254    21933017.2204   21933021.6844
       194.0004        195.0004
  -2547483.05747  -1960741.47745  23832105.500    23832105.4754   23832112.7494
       153.0004        155.0004
 -17211785.48949 -13378318.51048  20980273.404    20980273.6504   20980280.6294
       212.0004        213.0004
 -16119530.01848 -12543784.66746  21802544.080    21802543.1694   21802548.6704
       183.0004        183.0004
 -13400605.31348 -10424964.20546  22013603.667    22013604.0114   22013610.4114
       186.0004        186.0004
 -13616129.94048 -10595393.54846  22172323.066    22172324.3214   22172331.5534
       178.0004        179.0004
 21  2  4  0 33 30.0000000  0  8G08G27G07G30G09G21G04G01
 -17464022.26349 -13595525.93747  21374158.788    21374159.0194   21374166.2954
       196.0004        196.0004
  -3975051.37248  -3057178.49346  24331691.676    24331691.0004   24331697.4014
       175.0004        174.0004
 -14756235.97949 -11476587.50247  21919076.388    21919076.4074   21919080.0474
       195.0004        196.0004
  -2634099.17247  -2028234.54245  23815622.756    23815622.7264   23815630.3604
       154.0004        157.0004
 -17177565.71649 -13351653.75348  20986785.681    20986785.9054   20986792.3954
       212.0004        213.0004
 -16133513.64948 -12554680.98946  21799882.000    21799881.5794   21799887.6044
       182.0004        182.0004
 -13312279.70948 -10356139.07546  22030411.987    22030411.9904   22030417.8544
       186.0004        184.0004
 -13689308.00848 -10652415.40746  22158397.796    22158398.4704   22158407.0734
       178.0004        179.0004
 21  2  4  0 34  0.0000000  0  8G08G27G07G30G09G21G04G01
 -17386941.80849 -13535463.25547  21388826.870    21388827.1494   21388834.5134
       196.0004        197.0004
  -3866601.11048  -2972671.83046  24352328.755    24352328.4124   24352333.2174
       171.0004        171.0004
 -14829396.73149 -11533595.88247  21905153.034    21905153.2694   21905158.4324
       196.0004        195.0004
  -2720780.93947  -2095778.77545  23799128.595    23799128.4384   23799135.8324
       156.0004        159.0004
 -17142855.51849 -13324606.87148  20993391.112    20993390.9314   20993397.3774
       212.0004        213.0004
 -16147069.92248 -12565244.32746  21797302.354    21797302.0284   21797307.6784
       182.0004        182.0004
 -13223713.52448 -10287126.48146  22047265.482    22047265.6714   22047271.7804
       185.0004        184.0004
 -13762314.03048 -10709303.22046  22144504.507    22144505.6124   22144513.8164
       178.0004        178.0004
 21  2  4  0 34 30.0000000  0  9G08G27G07G30G09G21G17G04G01
 -17309546.15249 -13475154.95047  21403554.598    21403555.1994   21403562.1654
       196.0004        197.0004
  -3758122.87648  -2888143.28646  24372971.324    24372971.4934   24372977.2414
       172.0004        173.0004
 -14902453.61549 -11590523.31547  21891250.148    21891251.2504   21891255.8324
       195.0004        196.0004
  -2807526.82847  -2163372.97345  23782622.601    23782621.6384   23782628.4854
       159.0004        162.0004
 -17107657.00449 -13297179.45747  21000088.421    21000088.7014   21000095.6964
       212.0004        212.0004
 -16160197.54348 -12575473.62946  21794804.560    21794803.6774   21794809.1144
       182.0004        182.0004
   -927995.64654   -697840.81345  24169756.224
        74.0004        147.0004
 -13134909.92248 -10217928.86246  22064163.163    22064163.7444   22064170.3924
       185.0004        185.0004
 -13835144.80848 -10766054.47546  22130645.645    22130646.5824   22130655.4734
       178.0004        179.0004
 21  2  4  0 35  0.0000000  0  9G08G27G07G30G09G21G17G04G01
 -17231839.22749 -13414604.08647  21418341.882    21418341.8224   21418349.6004
       196.0004        196.0004
  -3649619.88848  -2803595.51546  24393619.465    24393618.9644   24393624.8484
       173.0004        174.0004
 -14975404.60149 -11647368.23547  21877369.285    21877369.3974   21877373.4744
       195.0004        195.0004
  -2894335.82747  -2231016.35346  23766102.195    23766101.8904   23766109.2274
       160.0004        163.0004
 -17071972.75949 -13269373.55347  21006878.491    21006879.0704   21006886.3904
       212.0004        212.0004
 -16172894.83648 -12585367.61246  21792388.806    21792388.1144   21792393.1294
       182.0004        182.0004
  -1024446.68747   -772997.45045  24151402.912    24151402.3304   24151407.8824
       140.0004        150.0004
 -13045872.45848 -10148549.02046  22081106.026    22081106.8214   22081113.7264
       185.0004        184.0004
 -13907797.72048 -10822667.10446  22116820.779    22116821.1104   22116829.3714
       179.0004        180.0004
 21  2  4  0 35 30.0000000  0  9G08G27G07G30G09G21G17G04G01
 -17153824.53149 -13353813.41747  21433187.835    21433187.6744   21433195.0104
       196.0004        196.0004
  -3541095.52248  -2719031.11546  24414270.423    24414270.5034   24414275.9454
       173.0004        174.0004
 -15048248.00649 -11704129.32147  21863507.344    21863507.6414   21863511.9174
       196.0004        196.0004
  -2981207.18047  -2298708.29046  23749570.232    23749570.0514   23749579.2704
       161.0004        163.0004
 -17035805.58049 -13241191.34548  21013761.552    21013761.3674   21013768.7854
       212.0004        213.0004
 -16185161.69448 -12594926.19446  21790055.351    21790053.8454   21790059.4804
       182.0004        183.0004
  -1120670.85747   -847977.30245  24133091.729    24133092.2574   24133097.3864
       148.0004        153.0004
 -12956604.96748 -10078989.95446  22098093.519    22098093.7834   22098100.6474
       185.0004        184.0004
 -13980270.23548 -10879139.18846  22103030.195    22103030.5884   22103037.7214
       179.0004        179.0004
 21  2  4  0 36  0.0000000  0  9G08G27G07G30G09G21G17G04G01
 -17075504.51549 -13292784.83147  21448091.032    21448091.2954   21448098.8714
       195.0004        196.0004
  -3432552.00848  -2634451.74346  24434926.179    24434925.5574   24434931.0144
       171.0004        171.0004
 -15120980.96349 -11760804.35247  21849667.393    21849667.6344   21849671.6244
       196.0004        197.0004
  -3068138.75047  -2366447.15145  23733028.313    23733027.9754   23733036.3824
       161.0004        162.0004
 -16999157.13449 -13212634.11847  21020735.735    21020735.5564   21020742.5044
       211.0004        212.0004
 -16196995.80148 -12604147.56946  21787802.498    21787802.1124   21787807.3054
       183.0004        184.0004
  -1216665.76147   -922778.49845  24114823.210    24114824.2644   24114830.1454
       149.0004        152.0004
 -12867110.10048 -10009253.70346  22115124.217    22115124.5794   22115130.7834
       185.0004        185.0004
 -14052558.77148 -10935467.90646  22089273.434    22089273.9154   22089282.1244
       179.0004        181.0004
 21  2  4  0 36 30.0000000  0  9G08G27G07G30G09G21G17G04G01
 -16996880.24549 -13231519.19148  21463052.898    21463053.6014   21463060.9094
       211.0004        213.0004
  -3323989.98648  -2549858.00446  24455583.734    24455583.8844   24455590.5974
       169.0004        169.0004
 -15193599.30749 -11817390.08547  21835848.111    21835848.5344   21835852.6694
       197.0004        196.0004
  -3155127.03347  -2434230.23945  23716474.554    23716474.6954   23716481.6314
       159.0004        160.0004
 -16962027.55449 -13183701.99647  21027801.019    21027801.4674   21027808.1524
       211.0004        212.0004
 -16208393.87048 -12613029.18846  21785633.959    21785633.6484   21785639.4544
       184.0004        184.0004
  -1312427.09747   -997397.69145  24096601.500    24096602.1714   24096607.6094
       150.0004        154.0004
 -12777388.98648  -9939341.16146  22132198.151    22132198.8164   22132204.3454
       185.0004        185.0004
 -14124658.09648 -10991649.19346  22075554.125    22075554.2204   22075563.2314
       180.0004        180.0004
 21  2  4  0 37  0.0000000  0  9G08G27G07G30G09G21G17G04G01
 -16917955.55049 -13170019.41748  21478072.773    21478072.6064   21478079.2074
       215.0004        213.0004
  -3215412.73848  -2465252.34246  24476244.788    24476245.9054   24476251.2114
       170.0004        172.0004
 -15266101.09849 -11873884.96947  21822051.953    21822051.5704   21822056.2984
       196.0004        196.0004
  -3242171.06547  -2502056.74445  23699911.070    23699911.4714   23699918.0654
       157.0004        159.0004
 -16924419.63149 -13154397.11847  21034957.423    21034957.4714   21034964.6254
       211.0004        211.0004
 -16219355.19648 -12621570.44546  21783547.802    21783546.8414   21783553.2454
       184.0004        183.0004
  -1407953.32647  -1071833.68145  24078423.923    24078424.5694   24078429.3124
       154.0004        157.0004
 -12687445.33548  -9869255.19646  22149313.371    22149314.3464   22149320.5104
       186.0004        185.0004
 -14196565.64848 -11047681.03646  22061869.787    22061870.0454   22061879.4844
       180.0004        180.0004
 21  2  4  0 37 30.0000000  0  9G08G27G07G30G09G21G17G04G01
 -16838730.17749 -13108285.35748  21493148.318    21493148.4154   21493155.4744
       224.0004        226.0004
  -3106820.00048  -2380634.65246  24496909.287    24496909.3604   24496916.3574
       170.0004        171.0004
 -15338481.04249 -11930284.93247  21808277.932    21808278.7554   21808282.3984
       196.0004        196.0004
  -3329266.36147  -2569923.19745  23683337.961    23683337.6264   23683343.5904
       157.0004        160.0004
 -16886332.63549 -13124718.94947  21042204.303    21042205.2184   21042212.1334
       210.0004        211.0004
 -16229875.33348 -12629767.96546  21781545.248    21781545.1324   21781551.3044
       183.0004        182.0004
  -1503240.18747  -1146083.18345  24060291.403    24060292.2604   24060296.1534
       153.0004        156.0004
 -12597279.36748  -9798996.00546  22166471.686    22166471.8744   22166477.7974
       184.0004        182.0004
 -14268275.37948 -11103558.75346  22048223.975    22048225.3194   22048232.5244
       179.0004        179.0004
 21  2  4  0 38  0.0000000  0  9G08G27G07G30G09G21G17G04G01
 -16759210.51649 -13046321.98448  21508279.380    21508279.9734   21508287.2544
       225.0004        225.0004
  -2998217.16348  -2296009.11146  24517574.376    24517575.8314   24517582.8314
       170.0004        170.0004
 -15410739.28549 -11986590.05747  21794527.784    21794528.2984   21794532.5824
       196.0004        197.0004
  -3416414.09047  -2637830.53945  23666753.570    23666753.3934   23666760.5004
       158.0004        160.0004
 -16847771.57049 -13094671.37147  21049542.717    21049543.1084   21049550.2274
       211.0004        211.0004
 -16239955.18848 -12637622.38446  21779627.648    21779627.0404   21779631.4724
       182.0004        183.0004
  -1598287.48247  -1220146.01245  24042205.710    24042205.9774   24042209.1714
       152.0004        155.0004
 -12506897.00348  -9728568.19446  22183670.757    22183671.2204   22183677.2314
       183.0004        183.0004
 -14339786.86948 -11159281.99046  22034615.821    22034616.3764   22034623.7054
       180.0004        181.0004
 21  2  4  0 38 30.0000000  0  9G08G27G07G30G09G21G17G04G01
 -16679398.66149 -12984130.92648  21523467.849    21523467.9544   21523475.0734
       226.0004        225.0004
  -2889606.53248  -2211377.40446  24538241.555    24538243.7634   24538250.5754
       169.0004        171.0004
 -15482872.95649 -12042798.10047  21780800.871    21780801.3964   21780805.6504
       196.0004        197.0004
  -3503612.19547  -2705777.11845  23650161.004    23650160.8104   23650167.4154
       159.0004        162.0004
 -16808738.17649 -13064255.73947  21056971.096    21056971.3944   21056977.7864
       210.0004        211.0004
 -16249592.71048 -12645132.13146  21777793.972    21777793.4574   21777796.9034
       181.0004        181.0004
  -1693092.96347  -1294020.38145  24024164.237    24024164.9704   24024167.8974
       150.0004        152.0004
 -12416300.88348  -9657973.81246  22200910.339    22200911.0514   22200916.4064
       183.0004        182.0004
 -14411096.46348 -11214847.88846  22021046.040    22021047.1094   22021054.4264
       180.0004        181.0004
 21  2  4  0 39  0.0000000  0  9G08G27G07G30G09G21G17G04G01
 -16599297.19549 -12921714.21148  21538710.385    21538711.0064   21538718.2674
       226.0004        226.0004
  -2780989.81048  -2126741.02746  24558908.799    24558911.6794   24558920.2734
       167.0004        167.0004
 -15554879.06949 -12098906.77347  21767099.196    21767099.1934   21767103.4544
       196.0004        197.0004
  -3590858.40747  -2773761.16746  23633557.912    23633558.1714   23633565.3774
       161.0004        163.0004
 -16769234.09549 -13033473.35547  21064488.085    21064488.3944   21064495.5364
       211.0004        211.0004
 -16258786.03348 -12652295.76646  21776044.546    21776043.8004   21776047.7704
       182.0004        182.0004
  -1787654.40547  -1367704.64945  24006168.630    24006169.6784   24006173.3634
       149.0004        152.0004
 -12325493.51148  -9587214.84546  22218191.048    22218191.5444   22218197.0354
       182.0004        182.0004
 -14482200.37248 -11270253.54346  22007514.558    22007515.7264   22007524.1714
       179.0004        179.0004
 21  2  4  0 39 30.0000000  0  9G08G27G07G30G09G21G17G04G01
 -16518908.39649 -12859073.58148  21554008.109    21554008.9664   21554015.5864
       227.0004        226.0004
  -2672368.48448  -2042101.08546  24579582.885    24579582.5084   24579590.7544
       170.0004        172.0004
 -15626754.05149 -12154913.24147  21753421.103    21753421.5284   21753426.3464
       196.0004        196.0004
  -3678149.80147  -2841780.41345  23616946.695    23616946.8244   23616954.1944
       160.0004        161.0004
 -16729260.20949 -13002324.86647  21072094.763    21072095.0094   21072102.3774
       210.0004        211.0004
 -16267532.87848 -12659111.48546  21774380.081    21774379.7324   21774383.6664
       183.0004        183.0004
  -1881967.95547  -1441195.70145  23988221.863    23988221.8214   23988226.1554
       150.0004        154.0004
 -12234476.65648  -9516292.60546  22235510.148    22235510.6374   22235517.2424
       182.0004        181.0004
 -14553094.06048 -11325495.35546  21994024.831    21994025.9614   21994033.7864
       180.0004        181.0004
 21  2  4  0 40  0.0000000  0  8G08G07G30G09G21G17G04G01
 -16438236.11649 -12796212.06648  21569360.454    21569360.4674   21569366.7944
       227.0004        226.0004
 -15698496.70049 -12210816.60147  21739769.702    21739769.6394   21739773.7734
       197.0004        198.0004
  -3765486.32047  -2909834.80146  23600327.547    23600327.4294   23600334.6684
       161.0004        164.0004
 -16688820.36849 -12970813.30647  21079791.161    21079790.9044   21079797.6114
       210.0004        211.0004
 -16275833.32548 -12665579.35746  21772799.763    21772799.7754   21772804.1274
       183.0004        184.0004
  -1976033.57747  -1514493.55445  23970321.200    23970321.8214   23970326.9674
       152.0004        156.0004
 -12143254.99148  -9445210.80146  22252868.804    22252869.4304   22252875.6604
       181.0004        181.0004
 -14623775.89248 -11380572.09946  21980574.752    21980575.0574   21980582.0794
       180.0004        181.0004
 21  2  4  0 40 30.0000000  0  8G08G07G30G09G21G17G04G01
 -16357283.69749 -12733132.25148  21584764.671    21584764.7584   21584771.1364
       226.0004        224.0004
 -15770104.75749 -12266615.07747  21726142.780    21726143.1534   21726147.3564
       197.0004        198.0004
  -3852866.15347  -2977922.97346  23583700.281    23583700.6344   23583707.7314
       163.0004        166.0004
 -16647916.85249 -12938940.43047  21087574.283    21087574.6324   21087581.2674
       210.0004        210.0004
 -16283686.14648 -12671698.42546  21771305.217    21771305.5234   21771310.3874
       183.0004        184.0004
  -2069849.09147  -1587596.50445  23952468.762    23952468.9704   23952475.0144
       155.0004        159.0004
 -12051831.59948  -9373971.80346  22270266.512    22270266.5984   22270273.4584
       181.0004        181.0004
 -14694242.65848 -11435481.25746  21967165.890    21967166.0084   21967173.0354
       180.0004        181.0004
 21  2  4  0 41  0.0000000  0  9G14G08G07G30G09G21G17G04G01
   -322527.07856   -237978.58745  23591769.345                    23591771.7224
       127.0004        146.0004
 -16276054.75449 -12669836.96648  21600221.405    21600221.9484   21600228.2644
       224.0004        223.0004
 -15841575.73349 -12322306.74247  21712542.641    21712542.4414   21712546.9214
       198.0004        197.0004
  -3940287.98547  -3046043.86646  23567064.007    23567064.0574   23567070.8854
       163.0004        165.0004
 -16606552.22849 -12906708.25847  21095445.202    21095445.7654   21095452.7254
       210.0004        210.0004
 -16291090.13248 -12677467.76146  21769896.055    21769896.3644   21769901.5894
       184.0004        184.0004
  -2163412.69647  -1660503.13645  23934664.244    23934664.4864   23934670.9704
       157.0004        160.0004
 -11960209.89048  -9302578.26846  22287701.900    22287702.2944   22287707.9264
       180.0004        180.0004
 -14764491.41148 -11490220.51946  21953797.174    21953797.8514   21953806.7234
       180.0004        181.0004
 21  2  4  0 41 30.0000000  0  9G14G08G07G30G09G21G17G04G01
   -349601.14747   -259075.23645  23586617.721    23586617.7764   23586621.7234
       138.0004        145.0004
 -16194551.83449 -12606328.19548  21615731.812    21615731.7764   21615738.2034
       225.0004        225.0004
 -15912907.49249 -12377889.91947  21698968.430    21698968.7634   21698972.9264
       197.0004        198.0004
  -4027750.16147  -3114196.20446  23550420.940    23550420.4624   23550427.6784
       164.0004        167.0004
 -16564728.80949 -12874118.58647  21103404.308    21103404.6674   21103411.5514
       210.0004        211.0004
 -16298044.03248 -12682886.36146  21768573.990    21768573.5894   21768578.3844
       184.0004        185.0004
  -2256722.33047  -1733211.88245  23916908.045    23916908.2114   23916913.4914
       157.0004        159.0004
 -11868392.96348  -9231032.61246  22305174.938    22305174.4494   22305180.4734
       178.0004        178.0004
 -14834519.01548 -11544787.48146  21940471.672    21940472.4774   21940480.5294
       181.0004        182.0004
 21  2  4  0 42  0.0000000  0  9G14G08G07G30G09G21G17G04G01
   -376619.74047   -280128.62045  23581475.332    23581476.2024   23581482.3964
       142.0004        147.0004
 -16112778.30149 -12542608.56248  21631292.501    21631292.8544   21631299.5964
       226.0004        225.0004
 -15984097.20649 -12433362.43247  21685421.239    21685421.7374   21685425.9024
       198.0004        198.0004
  -4115250.88148  -3182378.59046  23533769.058    23533769.4434   23533776.3084
       165.0004        167.0004
 -16522448.90249 -12841173.21147  21111449.752    21111450.0894   21111457.1504
       210.0004        211.0004
 -16304546.47948 -12687953.18646  21767337.033    21767335.9854   21767341.5764
       184.0004        185.0004
  -2349775.84147  -1805721.06545  23899200.642    23899201.0434   23899205.9164
       158.0004        161.0004
 -11776383.89948  -9159337.23046  22322683.437    22322683.6224   22322689.3764
       179.0004        180.0004
 -14904322.18648 -11599179.55646  21927188.127    21927188.8144   21927196.6094
       181.0004        182.0004
 21  2  4  0 42 30.0000000  0  9G14G08G07G30G09G21G17G04G01
   -403583.94347   -301139.67645  23576344.711    23576345.1934   23576353.7784
       149.0004        154.0004
 -16030736.68449 -12478680.03248  21646904.532    21646904.2794   21646911.7464
       226.0004        224.0004
 -16055142.50449 -12488722.40947  21671901.398    21671902.2854   21671906.0204
       197.0004        197.0004
  -4202788.34248  -3250589.56346  23517111.734    23517110.6834   23517119.2154
       165.0004        167.0004
 -16479714.73049 -12807873.86447  21119581.778    21119582.1104   21119589.5304
       210.0004        210.0004
 -16310595.86648 -12692666.97846  21766184.532    21766184.5364   21766190.6074
       184.0004        184.0004
  -2442571.12347  -1878029.01845  23881542.560    23881542.8914   23881547.6844
       159.0004        161.0004
 -11684185.67348  -9087494.46646  22340227.938    22340228.1714   22340233.7554
       180.0004        180.0004
 -14973897.57948 -11653394.15446  21913948.862    21913948.7974   21913957.3374
       181.0004        182.0004
 21  2  4  0 43  0.0000000  0  9G14G08G07G30G09G21G17G04G01
   -430494.16647   -322108.68745  23571224.207    23571225.0724   23571232.8704
       155.0004        159.0004
 -15948429.33649 -12414544.44048  21662566.317    21662566.6804   21662574.2404
       225.0004        223.0004
 -16126039.37849 -12543966.72447  21658411.153    21658411.1344   21658414.7254
       198.0004        198.0004
  -4290359.70848  -3318826.96846  23500448.582    23500448.0614   23500454.4324
       166.0004        168.0004
 -16436527.56149 -12774221.52347  21127800.707    21127800.7404   21127807.2254
       210.0004        211.0004
 -16316189.86648 -12697025.92846  21765120.286    21765119.5704   21765125.3494
       184.0004        184.0004
  -2535105.41647  -1950133.62345  23863933.110    23863934.0274   23863939.3094
       158.0004        161.0004
 -11591800.31748  -9015505.88546  22357806.948    22357807.8664   22357814.3834
       180.0004        179.0004
 -15043240.95448 -11707427.94046  21900753.193    21900753.0274   21900762.1014
       182.0004        184.0004
 21  2  4  0 43 30.0000000  0  9G14G08G07G30G09G21G17G04G01
   -457352.54747   -343037.29245  23566113.301    23566113.8424   23566119.7704
       157.0004        160.0004
 -15865860.22549 -12350204.86348  21678278.661    21678279.2294   21678286.7544
       224.0004        223.0004
 -16196786.42449 -12599094.28847  21644947.519    21644947.6984   21644952.0284
       198.0004        198.0004
  -4377964.06548  -3387090.09546  23483777.147    23483777.2554   23483784.0654
       166.0004        168.0004
 -16392890.61549 -12740218.70547  21136104.176    21136104.3704   21136110.8754
       210.0004        209.0004
 -16321328.38148 -12701029.95846  21764141.905    21764142.2554   21764147.2774
       184.0004        184.0004
  -2627377.36647  -2022033.80545  23846374.893    23846374.9664   23846380.5584
       159.0004        162.0004
 -11499231.72648  -8943374.52046  22375421.835    22375422.6764   22375430.0894
       178.0004        178.0004
 -15112349.92948 -11761279.08046  21887602.028    21887602.3394   21887611.2324
       183.0004        184.0004
 21  2  4  0 44  0.0000000  0  9G14G08G07G30G09G21G17G04G01
   -484159.12047   -363925.51545  23561012.566    23561013.2584   23561017.3634
       156.0004        157.0004
 -15783030.46449 -12285662.20048  21694042.158    21694041.9224   21694048.4584
       225.0004        224.0004
 -16267379.93649 -12654102.20547  21631513.780    21631514.4024   21631519.0134
       198.0004        198.0004
  -4465598.29948  -3455376.50446  23467100.465    23467100.5134   23467107.0764
       166.0004        168.0004
 -16348804.93849 -12705866.23447  21144492.914    21144493.1944   21144500.5534
       209.0004        210.0004
 -16326008.74748 -12704676.98446  21763252.701    21763251.5894   21763256.3664
       184.0004        185.0004
  -2719383.68147  -2093726.99745  23828866.740    23828867.6074   23828871.5624
       159.0004        161.0004
 -11406481.63748  -8871101.72146  22393072.925    22393073.2934   22393079.0874
       177.0004        176.0004
 -15181219.91648 -11814943.99446  21874495.815    21874496.5164   21874505.3764
       183.0004        183.0004
 21  2  4  0 44 30.0000000  0  9G14G08G07G30G09G21G17G04G01
   -510916.91247   -384775.71145  23555920.032    23555920.8154   23555924.4994
       153.0004        155.0004
 -15699945.03249 -12220920.30648  21709852.784    21709852.7494   21709859.1244
       225.0004        224.0004
 -16337818.54949 -12708989.42947  21618109.957    21618110.2454   21618114.9214
       198.0004        198.0004
  -4553262.32348  -3523686.13746  23450418.431    23450418.6924   23450425.1394
       166.0004        167.0004
 -16304274.52649 -12671167.21247  21152967.861    21152967.6984   21152974.4804
       210.0004        211.0004
 -16330230.99248 -12707967.02046  21762449.278    21762448.1784   21762453.0104
       184.0004        184.0004
  -2811124.15247  -2165213.05945  23811408.198    23811409.1154   23811414.1744
       156.0004        158.0004
 -11313554.82548  -8798691.22146  22410756.681    22410757.0064   22410762.7024
       177.0004        178.0004
 -15249849.35148 -11868421.47246  21861436.714    21861437.1554   21861445.6744
       182.0004        183.0004
 21  2  4  0 45  0.0000000  0  9G14G08G07G30G09G21G17G04G01
   -537625.42347   -405587.52545  23550837.683    23550838.2894   23550842.9134
       155.0004        159.0004
 -15616605.27749 -12155980.23748  21725711.098    21725711.1864   21725717.8874
       225.0004        223.0004
 -16408098.25049 -12763752.84247  21604736.589    21604737.1374   21604740.4134
       198.0004        198.0004
  -4640952.60647  -3592016.22546  23433731.191    23433731.2904   23433738.1144
       164.0004        165.0004
 -16259300.09249 -12636122.20447  21161525.870    21161525.6624   21161532.9674
       211.0004        211.0004
 -16333992.21648 -12710897.84746  21761732.426    21761732.4014   21761736.5774
       184.0004        185.0004
  -2902595.12947  -2236489.08745  23794001.797    23794001.8704   23794006.7224
       152.0004        152.0004
 -11220452.60448  -8726144.05146  22428473.251    22428474.0464   22428479.9384
       178.0004        178.0004
 -15318233.26048 -11921707.63846  21848423.699    21848424.7804   21848432.1584
       183.0004        184.0004
 21  2  4  0 45 30.0000000  0  9G14G08G07G30G09G21G17G04G01
   -564285.05647   -426361.23145  23545764.235    23545765.0744   23545769.8514
       159.0004        161.0004
 -15533013.32349 -12090843.64548  21741617.781    21741617.9634   21741624.8204
       223.0004        221.0004
 -16478215.60349 -12818389.74547  21591394.079    21591394.5704   21591398.3074
       199.0004        200.0004
  -4728666.34547  -3660364.59946  23417039.163    23417040.2864   23417046.7554
       164.0004        166.0004
 -16213883.07049 -12600732.33147  21170167.423    21170168.3894   21170175.4214
       210.0004        211.0004
 -16337290.92848 -12713468.27246  21761105.262    21761104.2454   21761108.9124
       184.0004        185.0004
  -2993793.36247  -2307552.59745  23776648.651    23776647.8874   23776652.1414
       150.0004        154.0004
 -11127177.21248  -8653461.92946  22446222.527    22446222.6034   22446229.3644
       178.0004        178.0004
 -15386367.49448 -11974799.24246  21835457.831    21835458.0654   21835466.8944
       183.0004        183.0004
 21  2  4  0 46  0.0000000  0  9G14G08G07G30G09G21G17G04G01
   -590899.87247   -447100.02245  23540700.353    23540700.4924   23540704.9254
       158.0004        159.0004
 -15449174.63749 -12025514.79548  21757571.909    21757571.9374   21757578.8954
       222.0004        222.0004
 -16548170.49349 -12872900.03147  21578081.965    21578082.1524   21578086.5784
       200.0004        200.0004
  -4816404.41548  -3728731.91146  23400344.295    23400344.1894   23400351.8764
       165.0004        167.0004
 -16168028.63149 -12565001.59847  21178894.359    21178894.2954   21178901.2574
       210.0004        211.0004
 -16340128.42648 -12715679.29646  21760564.661    21760564.4944   21760570.3564
       185.0004        186.0004
  -3084719.64447  -2378404.20945  23759346.060    23759346.0054   23759349.9534
       155.0004        160.0004
 -11033734.19848  -8580649.18646  22464003.652    22464004.3104   22464010.3034
       178.0004        178.0004
 -15454251.53348 -12027695.87746  21822540.271    21822540.7564   21822548.7584
       183.0004        184.0004
 21  2  4  0 46 30.0000000  0  9G14G08G07G30G09G21G17G04G01
   -617469.77547   -467803.83745  23535644.456    23535644.5134   23535648.8274
       156.0004        158.0004
 -15365091.20149 -11959995.25248  21773572.562    21773572.9884   21773579.7354
       223.0004        223.0004
 -16617958.98849 -12927280.67647  21564801.422    21564801.8824   21564805.9114
       200.0004        200.0004
  -4904163.60648  -3797115.69146  23383644.060    23383644.7174   23383651.7064
       167.0004        168.0004
 -16121737.80849 -12528930.83347  21187702.486    21187703.0584   21187710.4414
       210.0004        211.0004
 -16342502.02848 -12717528.85347  21760113.908    21760113.3304   21760119.1084
       187.0004        188.0004
  -3175370.76847  -2449041.39345  23742094.817    23742094.8774   23742099.0784
       156.0004        158.0004
 -10940125.29948  -8507707.19346  22481817.719    22481818.0094   22481823.2324
       177.0004        177.0004
 -15521880.72248 -12080393.95746  21809671.490    21809671.4704   21809679.9094
       184.0004        186.0004
 21  2  4  0 47  0.0000000  0  9G14G08G07G30G09G21G17G04G01
   -643996.16247   -488473.73046  23530595.216    23530596.3754   23530601.8164
       159.0004        163.0004
 -15280765.43549 -11894286.85948  21789619.724    21789620.0804   21789626.3474
       223.0004        223.0004
 -16687578.61149 -12981529.73847  21551553.910    21551553.9654   21551557.4474
       200.0004        200.0004
  -4991942.09448  -3865514.52646  23366939.434    23366940.3634   23366947.4114
       165.0004        165.0004
 -16075013.14449 -12492522.00247  21196594.183    21196594.5954   21196601.2504
       210.0004        210.0004
 -16344410.74348 -12719016.14947  21759750.705    21759749.7114   21759756.1774
       188.0004        189.0004
  -3265744.85347  -2519462.73345  23724896.795    23724897.7404   23724902.8444
       157.0004        160.0004
 -10846353.70448  -8434638.41246  22499661.814    22499662.0524   22499667.7544
       178.0004        178.0004
 -15589251.94548 -12132890.99546  21796849.894    21796850.7204   21796859.6974
       185.0004        186.0004
 21  2  4  0 47 30.0000000  0  9G14G08G07G30G09G21G17G04G01
   -670480.22147   -509110.65046  23525556.989    23525557.3764   23525561.7774
       163.0004        166.0004
 -15196200.83449 -11828392.37448  21805711.918    21805711.7864   21805718.6114
       223.0004        221.0004
 -16757026.53549 -13035645.01047  21538337.644    21538337.8954   21538342.3514
       199.0004        200.0004
  -5079737.99447  -3933926.92746  23350233.416    23350233.6714   23350241.1604
       164.0004        166.0004
 -16027856.98449 -12455776.96647  21205568.404    21205568.4874   21205574.7954
       210.0004        210.0004
 -16345853.37748 -12720140.27747  21759475.913    21759474.9884   21759482.1484
       188.0004        190.0004
  -3355839.58147  -2589666.40345  23707753.972    23707753.5344   23707758.7194
       159.0004        162.0004
 -10752422.34748  -8361445.16946  22517535.788    22517536.7814   22517543.1834
       178.0004        178.0004
 -15656361.84948 -12185184.43146  21784079.752    21784079.9834   21784089.2614
       185.0004        186.0004
 21  2  4  0 48  0.0000000  0  9G14G08G07G30G09G21G17G04G01
   -696922.90848   -529715.33646  23520524.517    23520524.8614   23520530.1404
       166.0004        168.0004
 -15111399.70049 -11762313.56648  21821848.231    21821848.4834   21821855.4914
       222.0004        221.0004
 -16826299.98449 -13089624.30647  21525154.937    21525155.8194   21525159.9684
       200.0004        200.0004
  -5167549.09248  -4002351.12746  23333523.834    23333524.4944   23333531.5774
       166.0004        169.0004
 -15980271.49749 -12418697.35847  21214622.791    21214623.0264   21214629.9984
       209.0004        209.0004
 -16346828.43948 -12720900.04347  21759290.063    21759289.2974   21759296.9894
       188.0004        189.0004
  -3445653.15847  -2659650.98945  23690663.147    23690663.2434   23690666.1214
       159.0004        160.0004
 -10658333.94048  -8288129.53846  22535440.230    22535441.4014   22535446.9304
       178.0004        177.0004
 -15723206.88248 -12237271.46346  21771359.138    21771359.9754   21771368.8624
       185.0004        185.0004
 21  2  4  0 48 30.0000000  0  9G14G08G07G30G09G21G17G04G01
   -723326.49548   -550289.54446  23515499.950    23515500.5394   23515505.4114
       166.0004        167.0004
 -15026366.26949 -11696053.75948  21838029.554    21838029.9714   21838036.8894
       221.0004        221.0004
 -16895397.07349 -13143466.19347  21512007.547    21512007.9044   21512010.8404
       200.0004        201.0004
  -5255374.39848  -4070786.42446  23316810.972    23316810.0214   23316818.4994
       167.0004        168.0004
 -15932260.11749 -12381285.89447  21223759.816    21223759.7484   21223766.3624
       209.0004        209.0004
 -16347335.71648 -12721295.28647  21759193.485    21759193.1394   21759200.2894
       189.0004        190.0004
  -3535184.34647  -2729415.51245  23673625.034    23673624.8124   23673630.0974
       156.0004        157.0004
 -10564092.49848  -8214694.64046  22553374.373    22553375.2654   22553380.5574
       178.0004        178.0004
 -15789784.74948 -12289150.30146  21758689.744    21758690.6394   21758699.1914
       185.0004        186.0004
 21  2  4  0 49  0.0000000  0  9G14G08G07G30G09G21G17G04G01
   -749690.57748   -570832.98146  23510483.434    23510483.8054   23510488.6684
       165.0004        166.0004
 -14941101.65049 -11629613.80348  21854254.667    21854255.2294   21854261.9774
       221.0004        221.0004
 -16964313.62049 -13197167.39547  21498892.599    21498892.6894   21498896.3124
       200.0004        200.0004
  -5343210.28848  -4139229.97146  23300096.029    23300096.2054   23300104.1234
       166.0004        167.0004
 -15883823.65449 -12343543.20847  21232976.350    21232976.4564   21232983.3514
       209.0004        209.0004
 -16347372.58048 -12721324.00447  21759186.315    21759186.0654   21759193.3064
       189.0004        189.0004
  -3624429.37947  -2798957.07745  23656640.580    23656641.1664   23656647.1364
       156.0004        159.0004
 -10469699.32448  -8141141.51846  22571337.058    22571337.2854   22571343.4644
       178.0004        178.0004
 -15856090.51948 -12340817.14046  21746073.988    21746074.5144   21746081.6104
       186.0004        187.0004
 21  2  4  0 49 30.0000000  0  9G14G08G07G30G09G21G17G04G01
   -776017.97047   -591347.83246  23505473.594    23505473.7064   23505479.0074
       164.0004        165.0004
 -14855610.41949 -11562997.27248  21870524.272    21870524.0124   21870530.6124
       221.0004        221.0004
 -17033048.49249 -13250727.03547  21485812.520    21485812.5254   21485817.0614
       200.0004        200.0004
  -5431056.44548  -4207681.50546  23283380.539    23283379.2944   23283387.5344
       166.0004        167.0004
 -15834966.18449 -12305472.46047  21242273.819    21242273.9344   21242280.9044
       209.0004        209.0004
 -16346939.59648 -12720986.58747  21759269.061    21759268.1564   21759275.4094
       189.0004        189.0004
  -3713388.13347  -2868275.55745  23639711.606    23639713.5014   23639717.5654
       156.0004        158.0004
 -10375159.01748  -8067473.76546  22589327.052    22589327.0694   22589334.1404
       178.0004        177.0004
 -15922122.53448 -12392270.65846  21733507.388    21733507.9404   21733515.7674
       186.0004        187.0004
 21  2  4  0 50  0.0000000  0  9G14G08G07G30G09G21G17G04G01
   -802308.81647   -611834.18246  23500471.083    23500470.9394   23500476.6034
       164.0004        166.0004
 -14769894.10149 -11496205.34548  21886835.481    21886835.6114   21886841.8134
       221.0004        220.0004
 -17101597.94049 -13304142.19347  21472767.919    21472768.1924   21472771.9474
       200.0004        200.0004
  -5518909.71748  -4276138.57546  23266662.754    23266661.5604   23266669.1694
       166.0004        169.0004
 -15785689.02949 -12267074.68347  21251650.856    21251651.1204   21251658.1944
       208.0004        209.0004
 -16346034.51348 -12720281.31347  21759441.186    21759440.4944   21759447.4034
       188.0004        188.0004
  -3802057.51747  -2937368.55045  23622840.804    23622840.7384   23622844.0334
       156.0004        159.0004
 -10280473.42048  -7993692.78346  22607344.787    22607346.0084   22607351.9744
       177.0004        178.0004
 -15987876.36748 -12443507.39546  21720993.472    21720995.0594   21721003.3184
       185.0004        186.0004
 21  2  4  0 50 30.0000000  0  9G14G08G07G30G09G21G17G04G01
   -828565.58447   -632293.98546  23495474.518    23495473.8444   23495479.3404
       164.0004        166.0004
 -14683957.12249 -11429241.48048  21903188.741    21903188.7984   21903194.8114
       221.0004        219.0004
 -17169960.57649 -13357411.77947  21459758.278    21459759.0854   21459763.1384
       200.0004        200.0004
  -5606769.40548  -4344600.68846  23249942.934    23249942.7454   23249950.1664
       169.0004        172.0004
 -15735995.98949 -12228352.84447  21261106.896    21261107.1144   21261114.1384
       208.0004        208.0004
 -16344657.67748 -12719208.44146  21759703.395    21759702.9184   21759708.1634
       187.0004        186.0004
  -3890436.91847  -3006235.62945  23606021.913    23606021.5594   23606026.7354
       155.0004        157.0004
 -10185646.81648  -7919801.93446  22625391.020    22625390.5694   22625396.4004
       177.0004        176.0004
 -16053350.06048 -12494525.85346  21708535.333    21708536.2494   21708544.4414
       185.0004        185.0004
 21  2  4  0 51  0.0000000  0  9G14G08G07G30G09G21G17G04G01
   -854788.64247   -652727.52646  23490484.038    23490484.3414   23490488.6364
       164.0004        165.0004
 -14597801.72149 -11362107.40448  21919582.663    21919583.2824   21919589.4954
       220.0004        219.0004
 -17238132.66549 -13410532.88247  21446785.962    21446786.4924   21446790.6784
       200.0004        200.0004
  -5694632.68348  -4413065.54746  23233222.081    23233222.9674   23233230.2554
       170.0004        171.0004
 -15685888.72249 -12189308.22647  21270642.494    21270642.6174   21270649.6594
       208.0004        209.0004
 -16342807.16548 -12717766.46246  21760055.687    21760054.8164   21760059.8334
       186.0004        186.0004
  -3978523.52847  -3074874.52445  23589259.309    23589260.0184   23589264.7664
       155.0004        159.0004
 -10090681.28348  -7845802.82146  22643460.736    22643461.7814   22643468.1924
       175.0004        174.0004
 -16118539.44948 -12545322.78046  21696131.298    21696130.9654   21696139.3234
       186.0004        187.0004
 21  2  4  0 51 30.0000000  0  9G14G08G07G30G09G21G17G04G01
   -880978.67048   -673135.32746  23485498.750    23485499.4234   23485505.3534
       165.0004        166.0004
 -14511429.61649 -11294804.47248  21936019.342    21936019.3144   21936025.6004
       220.0004        219.0004
 -17306110.81549 -13463502.86647  21433850.151    21433850.5074   21433854.9524
       200.0004        201.0004
  -5782496.94548  -4481531.20446  23216503.127    23216502.4724   23216509.3024
       168.0004        168.0004
 -15635369.14549 -12149942.31947  21280255.331    21280256.1444   21280263.4274
       208.0004        209.0004
 -16340481.39748 -12715954.15046  21760497.601    21760497.4934   21760502.3614
       185.0004        185.0004
  -4066314.90847  -3143283.38346  23572554.614    23572555.0774   23572557.6534
       160.0004        163.0004
  -9995579.25148  -7771697.33446  22661557.781    22661558.8074   22661565.3604
       174.0004        175.0004
 -16183440.71848 -12595895.17946  21683780.211    21683780.6934   21683788.9314
       187.0004        187.0004
 21  2  4  0 52  0.0000000  0  9G14G08G07G30G09G21G17G04G01
   -907137.13548   -693518.52446  23480523.226    23480523.7334   23480527.7134
       165.0004        167.0004
 -14424844.45349 -11227335.50648  21952495.684    21952496.0244   21952502.8424
       220.0004        219.0004
 -17373892.83949 -13516320.02547  21420951.994    21420952.2364   21420956.5154
       201.0004        201.0004
  -5870360.40548  -4549996.24546  23199783.335    23199782.8624   23199790.1664
       169.0004        171.0004
 -15584440.08749 -12110257.33747  21289947.521    21289947.9014   21289954.5874
       208.0004        209.0004
 -16337679.93148 -12713771.17046  21761029.770    21761030.1844   21761035.0294
       184.0004        184.0004
  -4153809.19847  -3211460.73745  23555903.917    23555904.3554   23555909.6014
       161.0004        162.0004
  -9900343.94248  -7697488.02146  22679680.793    22679681.2954   22679687.8104
       174.0004        175.0004
 -16248050.83248 -12646240.69546  21671484.799    21671486.0144   21671493.0724
       186.0004        187.0004
 21  2  4  0 52 30.0000000  0  9G14G08G07G30G09G21G17G04G01
   -933265.50648   -713878.27546  23475549.926    23475550.8004   23475555.1324
       165.0004        166.0004
 -14338049.51649 -11159703.09048  21969011.510    21969012.0734   21969019.0314
       219.0004        218.0004
 -17441476.20449 -13568982.39247  21408090.693    21408091.5164   21408095.4554
       201.0004        201.0004
  -5958221.27348  -4618459.24946  23183063.946    23183063.2844   23183071.0994
       170.0004        173.0004
 -15533104.34549 -12070255.48347  21299715.872    21299716.1744   21299723.1424
       207.0004        206.0004
 -16334401.58148 -12711216.61546  21761654.491    21761654.2744   21761658.0884
       184.0004        184.0004
  -4241004.81247  -3279405.35146  23539312.632    23539312.8054   23539315.8614
       161.0004        163.0004
  -9804978.59048  -7623177.36146  22697828.797    22697829.6144   22697835.6614
       174.0004        174.0004
 -16312366.81748 -12696357.05046  21659246.307    21659247.0304   21659254.2624
       187.0004        187.0004
 21  2  4  0 53  0.0000000  0  9G14G08G07G30G09G21G17G04G01
   -959365.41047   -734215.83546  23470582.927    23470583.3384   23470589.3804
       164.0004        164.0004
 -14251047.60849 -11091909.40748  21985568.931    21985568.2024   21985575.7114
       219.0004        218.0004
 -17508858.64049 -13621488.18547  21395268.619    21395269.1034   21395273.5004
       201.0004        202.0004
  -6046077.92848  -4686919.00646  23166345.805    23166345.0014   23166351.2514
       171.0004        172.0004
 -15481364.90649 -12029939.02847  21309560.848    21309561.1654   21309568.6754
       206.0004        206.0004
 -16330646.18048 -12708290.33646  21762369.677    21762369.1914   21762372.6354
       183.0004        183.0004
  -4327900.33147  -3347116.13045  23522775.333    23522775.9674   23522780.0594
       158.0004        158.0004
  -9709486.55548  -7548767.98246  22716000.269    22716001.2854   22716006.8344
       173.0004        173.0004
 -16376385.81648 -12746241.97047  21647063.349    21647064.2474   21647072.7014
       187.0004        188.0004
 21  2  4  0 53 30.0000000  0  9G14G08G07G30G09G21G17G04G01
   -985438.11347   -754532.23846  23465622.478    23465622.9394   23465627.0444
       163.0004        165.0004
 -14163841.95949 -11023956.96748  22002163.185    22002163.2224   22002170.0044
       219.0004        219.0004
 -17576037.27749 -13673835.17047  21382484.946    21382485.5404   21382490.0434
       202.0004        202.0004
  -6133928.43848  -4755373.93246  23149627.399    23149627.5084   23149634.8404
       172.0004        174.0004
 -15429224.38649 -11989310.05847  21319483.618    21319483.8074   21319491.3844
       206.0004        207.0004
 -16326412.48248 -12704991.33046  21763175.362    21763174.9364   21763178.7004
       183.0004        183.0004
  -4414493.95847  -3414591.66945  23506296.559    23506297.0194   23506303.1354
       156.0004        158.0004
  -9613870.89448  -7474262.28746  22734195.348    22734195.7234   22734201.6154
       172.0004        173.0004
 -16440104.69948 -12795893.03647  21634937.666    21634938.2274   21634947.2444
       187.0004        188.0004
 21  2  4  0 54  0.0000000  0  9G14G08G07G30G09G21G17G04G01
  -1011483.62847   -774827.43746  23460666.103    23460666.2094   23460670.2954
       163.0004        164.0004
 -14076434.31449 -10955847.11448  22018796.274    22018796.4064   22018802.9694
       219.0004        219.0004
 -17643008.43749 -13726020.48347  21369740.461    21369741.1104   21369745.8214
       202.0004        202.0004
  -6221769.49048  -4823821.50146  23132911.015    23132911.8054   23132918.6874
       172.0004        173.0004
 -15376684.17449 -11948369.64647  21329481.825    21329481.9084   21329488.5334
       206.0004        207.0004
 -16321698.51648 -12701318.09046  21764072.406    21764072.2954   21764076.0884
       184.0004        184.0004
  -4500782.49647  -3481829.45145  23489876.954    23489876.7784   23489882.5934
       158.0004        162.0004
  -9518133.28948  -7399661.57046  22752414.417    22752414.2454   22752420.2954
       172.0004        172.0004
 -16503518.95248 -12845306.73747  21622870.472    21622871.1504   21622879.0434
       187.0004        188.0004
 21  2  4  0 54 30.0000000  0  9G14G08G07G30G09G21G17G04G01
  -1037503.95247   -795102.98346  23455714.136    23455714.3594   23455719.7874
       163.0004        165.0004
 -13988828.38749 -10887582.75248  22035467.105    22035467.3404   22035473.7424
       219.0004        218.0004
 -17709769.85749 -13778042.37047  21357036.998    21357037.4064   21357040.8054
       202.0004        202.0004
  -6309599.82448  -4892260.71846  23116198.443    23116199.3304   23116206.3894
       173.0004        174.0004
 -15323747.70249 -11907120.45147  21339554.979    21339555.6184   21339562.4784
       206.0004        207.0004
 -16316504.50848 -12697270.80046  21765060.129    21765059.4434   21765063.4234
       183.0004        183.0004
  -4586765.19747  -3548828.93645  23473515.194    23473515.6764   23473518.9224
       157.0004        159.0004
  -9422277.56348  -7324968.80646  22770654.501    22770654.9024   22770660.5664
       171.0004        171.0004
 -16566626.15248 -12894481.16747  21610862.565    21610862.9934   21610870.8764
       187.0004        188.0004
 21  2  4  0 55  0.0000000  0  9G14G08G07G30G09G21G17G04G01
  -1063500.41847   -815359.95746  23450766.787    23450767.4554   23450772.1174
       163.0004        164.0004
 -13901026.87149 -10819165.99048  22052174.356    22052175.1484   22052181.7714
       219.0004        218.0004
 -17776319.44249 -13829899.19647  21344372.510    21344372.9714   21344377.3114
       203.0004        203.0004
  -6397417.45248  -4960690.02346  23099487.512    23099487.7094   23099494.7784
       173.0004        172.0004
 -15270417.66549 -11865564.58047  21349703.863    21349704.0494   21349711.3194
       207.0004        207.0004
 -16310829.69448 -12692848.87146  21766139.525    21766139.7414   21766144.1124
       183.0004        183.0004
  -4672440.03347  -3615588.50645  23457211.409    23457211.3474   23457216.0424
       157.0004        160.0004
  -9326306.80148  -7250186.38846  22788917.362    22788917.6044   22788924.0944
       171.0004        172.0004
 -16629423.21748 -12943413.93447  21598912.982    21598912.9454   21598921.3694
       188.0004        189.0004
 21  2  4  0 55 30.0000000  0  9G14G08G07G30G09G21G17G04G01
  -1089473.60847   -835598.83846  23445824.887    23445825.3844   23445830.4414
       162.0004        163.0004
 -13813032.36249 -10750598.85948  22068919.396    22068919.5304   22068926.2774
       217.0004        216.0004
 -17842653.35249 -13881587.96847  21331749.638    21331750.6894   21331754.1624
       203.0004        203.0004
  -6485219.69048  -5029107.38046  23082778.055    23082778.7374   23082785.5184
       170.0004        170.0004
 -15216696.15549 -11823703.67547  21359926.941    21359926.9374   21359933.6304
       207.0004        207.0004
 -16304672.42448 -12688050.99046  21767312.694    21767311.8954   21767316.1834
       183.0004        184.0004
  -4757804.96047  -3682106.60645  23440966.766    23440967.0624   23440972.0844
       159.0004        162.0004
  -9230223.32748  -7175316.16446  22807200.211    22807200.5884   22807207.4544
       171.0004        171.0004
 -16691906.31748 -12992102.06047  21587022.883    21587023.7674   21587030.7464
       189.0004        191.0004
 21  2  4  0 56  0.0000000  0  9G14G08G07G30G09G21G17G04G01
  -1115424.46347   -855820.28045  23440885.192    23440886.9704   23440891.0154
       161.0004        162.0004
 -13724847.26849 -10681883.20048  22085700.355    22085700.6884   22085707.8574
       217.0004        217.0004
 -17908768.68349 -13933106.40647  21319168.633    21319169.2254   21319172.8924
       203.0004        203.0004
  -6573004.17648  -5097510.87546  23066073.949    23066074.2364   23066081.9134
       170.0004        173.0004
 -15162585.50949 -11781539.52647  21370223.089    21370223.3704   21370230.2744
       206.0004        206.0004
 -16298031.81848 -12682876.46946  21768574.694    21768574.5164   21768579.9384
       184.0004        184.0004
  -4842857.61247  -3748381.38146  23424782.835    23424783.6254   23424786.2374
       161.0004        163.0004
  -9134029.79948  -7100360.19346  22825505.111    22825505.8064   22825512.4044
       170.0004        170.0004
 -16754071.91648 -13040542.76947  21575193.400    21575193.5314   21575200.6644
       190.0004        190.0004
 21  2  4  0 56 30.0000000  0  9G14G08G07G30G09G21G17G04G01
  -1141354.92847   -876025.77645  23435951.597    23435952.1464   23435957.9994
       160.0004        162.0004
 -13636475.27549 -10613021.90648  22102517.739    22102517.8884   22102524.4694
       218.0004        217.0004
 -17974663.41149 -13984452.95147  21306628.834    21306629.3604   21306633.6084
       203.0004        203.0004
  -6660769.50048  -5165899.40946  23049373.162    23049372.8204   23049380.3264
       173.0004        175.0004
 -15108089.03549 -11739074.74247  21380594.193    21380594.1634   21380601.1674
       206.0004        206.0004
 -16290907.77848 -12677325.26146  21769930.599    21769930.2404   21769935.5174
       184.0004        184.0004
  -4927597.08947  -3814412.13646  23408655.852    23408656.6414   23408661.2894
       161.0004        163.0004
  -9037729.91348  -7025321.31446  22843831.823    22843831.9324   22843837.8794
       170.0004        171.0004
 -16815917.53448 -13088734.15447  21563423.383    21563423.7434   21563431.4964
       189.0004        188.0004
 21  2  4  0 57  0.0000000  0  9G14G08G07G30G09G21G17G04G01
  -1167266.67247   -896216.76045  23431021.305    23431021.0684   23431026.1684
       161.0004        162.0004
 -13547919.80649 -10544017.65348  22119368.455    22119369.2234   22119376.1364
       217.0004        217.0004
 -18040335.43549 -14035625.95647  21294131.496    21294132.3984   21294137.0024
       203.0004        203.0004
  -6748514.12048  -5234271.83446  23032676.350    23032675.8084   23032683.1034
       173.0004        175.0004
 -15053210.05149 -11696311.90947  21391037.156    21391037.5184   21391044.5634
       206.0004        206.0004
 -16283300.27148 -12671397.33046  21771378.830    21771378.5574   21771383.2584
       184.0004        185.0004
  -5012022.05147  -3880197.78946  23392591.517    23392592.3814   23392596.2914
       163.0004        167.0004
  -8941327.13948  -6950202.27346  22862176.510    22862175.9234   22862183.1934
       169.0004        169.0004
 -16877440.57248 -13136674.17447  21551715.644    21551716.6924   21551724.3364
       188.0004        188.0004
 21  2  4  0 57 30.0000000  0  9G14G08G07G30G09G21G17G04G01
  -1193160.10847   -916393.44845  23426092.312    23426093.6294   23426099.0114
       160.0004        161.0004
 -13459182.96049 -10474872.07048  22136255.068    22136254.7794   22136262.0904
       216.0004        215.0004
 -18105781.06249 -14086622.56147  21281678.241    21281678.5294   21281682.3414
       203.0004        203.0004
  -6836235.08148  -5302625.84246  23015983.809    23015984.3464   23015990.8694
       174.0004        175.0004
 -14997950.38949 -11653252.43647  21401553.351    21401553.0964   21401559.6264
       205.0004        205.0004
 -16275207.63748 -12665091.37646  21772919.209    21772918.1884   21772923.1484
       184.0004        185.0004
  -5096129.89948  -3945736.35346  23376585.848    23376585.9364   23376590.8554
       165.0004        166.0004
  -8844823.64248  -6875004.74146  22880539.691    22880541.3314   22880547.6214
       169.0004        171.0004
 -16938637.00048 -13184359.69147  21540071.976    21540071.4124   21540079.4774
       188.0004        189.0004
 21  2  4  0 58  0.0000000  0  9G14G08G07G30G09G21G17G04G01
  -1219036.65547   -936556.94945  23421169.184    23421169.9204   23421174.8334
       160.0004        162.0004
 -13370267.60549 -10405587.38248  22153175.162    22153174.8534   22153182.0464
       215.0004        214.0004
 -18170997.81249 -14137440.79747  21269267.455    21269268.1694   21269272.2724
       203.0004        203.0004
  -6923930.41948  -5370959.87746  22999296.038    22999296.2794   22999301.7524
       174.0004        174.0004
 -14942312.92949 -11609898.56947  21412140.108    21412140.1704   21412146.8774
       205.0004        205.0004
 -16266629.35548 -12658406.98046  21774550.723    21774550.7684   21774555.8874
       185.0004        186.0004
  -5179919.05748  -4011026.55046  23360641.594    23360641.5294   23360646.0694
       165.0004        167.0004
  -8748222.52448  -6799731.14946  22898923.921    22898923.1364   22898930.3074
       171.0004        172.0004
 -16999503.76248 -13231788.31947  21528488.727    21528489.1944   21528496.3614
       188.0004        189.0004
 21  2  4  0 58 30.0000000  0  9G14G08G07G30G09G21G17G04G01
  -1244898.31547   -956708.88445  23416247.006    23416248.3654   23416253.4654
       161.0004        162.0004
 -13281177.92449 -10336166.85648  22170127.679    22170127.5694   22170135.1554
       214.0004        214.0004
 -18235983.85349 -14188079.27947  21256901.933    21256902.1094   21256905.8214
       203.0004        203.0004
  -7011598.93048  -5439273.00746  22982612.141    22982613.0084   22982619.0994
       173.0004        173.0004
 -14886301.28949 -11566253.13947  21422798.075    21422798.7504   21422805.8704
       205.0004        204.0004
 -16257565.83548 -12651344.48346  21776275.871    21776275.2034   21776280.2744
       185.0004        185.0004
  -5263388.76548  -4076067.84446  23344756.826    23344757.5294   23344763.2564
       167.0004        169.0004
  -8651527.61048  -6724384.47246  22917322.348    22917322.9894   22917329.3134
       169.0004        169.0004
 -17060038.67948 -13278958.37347  21516968.883    21516968.9334   21516977.4934
       188.0004        188.0004
 21  2  4  0 59  0.0000000  0  9G14G08G07G30G09G21G17G04G01
  -1270744.01447   -976848.36946  23411330.100    23411330.8404   23411334.7604
       162.0004        164.0004
 -13191914.14449 -10266610.67248  22187113.190    22187113.7604   22187121.4374
       214.0004        213.0004
 -18300734.13549 -14238534.05447  21244579.931    21244580.2934   21244584.7664
       203.0004        203.0004
  -7099236.16748  -5507561.74646  22965935.767    22965936.3524   22965943.3084
       173.0004        175.0004
 -14829915.90049 -11522316.48147  21433527.848    21433528.7374   21433535.5644
       204.0004        204.0004
 -16248013.84248 -12643901.36746  21778092.977    21778093.0624   21778098.5044
       185.0004        186.0004
  -5346535.01848  -4140857.10246  23328934.619    23328935.6584   23328941.7794
       166.0004        169.0004
  -8554739.57548  -6648965.23846  22935741.088    22935741.3134   22935747.5004
       168.0004        169.0004
 -17120236.25448 -13325865.56347  21505512.500    21505513.4984   21505522.6374
       188.0004        189.0004
 21  2  4  0 59 30.0000000  0  9G14G08G07G30G09G21G17G04G01
  -1296576.19847   -996977.34645  23406414.191    23406414.6124   23406419.7894
       162.0004        162.0004
 -13102480.27749 -10196921.95448  22204132.094    22204132.9214   22204140.3844
       214.0004        214.0004
 -18365247.29449 -14288804.05647  21232303.757    21232304.3194   21232307.8124
       203.0004        203.0004
  -7186841.19348  -5575825.39046  22949264.727    22949263.6594   22949272.2704
       173.0004        172.0004
 -14773160.75049 -11478091.70547  21444328.530    21444329.2174   21444335.3574
       204.0004        204.0004
 -16237974.12448 -12636078.19846  21780003.582    21780003.1434   21780008.7214
       186.0004        186.0004
  -5429357.24248  -4205393.88046  23313175.235    23313175.1384   23313181.1424
       169.0004        171.0004
  -8457862.56648  -6573476.66046  22954177.339    22954176.8174   22954183.9584
       169.0004        171.0004
 -17180094.53448 -13372508.36047  21494123.463    21494123.5214   21494132.4524
       190.0004        192.0004
 21  2  4  1  0  0.0000000  0  9G14G08G07G30G09G21G17G04G01
  -1322396.56247  -1017097.09645  23401501.172    23401501.4194   23401506.1844
       159.0004        160.0004
 -13012879.81449 -10127103.41048  22221184.062    22221184.0044   22221190.7704
       214.0004        214.0004
 -18429520.89249 -14338887.37647  21220073.427    21220073.4084   21220077.0014
       204.0004        204.0004
  -7274412.41348  -5644062.69646  22932599.952    22932599.8634   22932607.9614
       171.0004        171.0004
 -14716039.09549 -11433581.31547  21455199.132    21455199.0354   21455205.9824
       204.0004        204.0004
 -16227446.82848 -12627875.09646  21782007.379    21782006.7124   21782012.1814
       186.0004        187.0004
  -5511854.33348  -4269677.30046  23297476.217    23297476.4654   23297482.6264
       169.0004        169.0004
  -8360900.04648  -6497921.43846  22972627.722    22972628.4394   22972633.9454
       170.0004        171.0004
 -17239610.89548 -13418884.74447  21482800.140    21482800.2024   21482806.4964
       193.0004        196.0004
 21  2  4  1  0 30.0000000  0  9G14G08G07G30G09G21G17G04G01
  -1348206.15947  -1037208.46245  23396588.718    23396588.7464   23396594.7774
       157.0004        157.0004
 -12923115.30549 -10057157.04948  22238265.520    22238265.4974   22238272.3174
       213.0004        213.0004
 -18493552.13249 -14388781.84847  21207887.568    21207887.9504   21207892.5364
       204.0004        204.0004
  -7361947.48648  -5712271.82446  22915942.096    22915942.7164   22915950.0714
       171.0004        172.0004
 -14658553.57349 -11388787.40747  21466137.120    21466137.2954   21466144.7234
       203.0004        203.0004
 -16216430.83648 -12619291.20046  21784103.303    21784102.6844   21784108.5094
       187.0004        187.0004
  -5594024.33048  -4333705.86246  23281838.990    23281840.1334   23281846.1444
       168.0004        169.0004
  -8263854.83848  -6422301.80646  22991096.025    22991095.7384   22991100.2534
       169.0004        169.0004
 -17298782.11548 -13464992.19147  21471538.745    21471539.4754   21471545.9704
       194.0004        193.0004
 21  2  4  1  1  0.0000000  0  9G14G08G07G30G09G21G17G04G01
  -1374006.39747  -1057312.55245  23391679.979    23391680.3844   23391684.8784
       156.0004        158.0004
 -12833190.27649  -9987085.61147  22255376.072    22255376.5634   22255384.3904
       213.0004        212.0004
 -18557338.28249 -14438485.34547  21195749.101    21195749.9644   21195754.2054
       203.0004        203.0004
  -7449444.48948  -5780451.32446  22899292.503    22899292.5864   22899300.1324
       170.0004        172.0004
 -14600707.23049 -11343712.34447  21477143.806    21477144.8414   21477152.8474
       203.0004        203.0004
 -16204926.07948 -12610326.44546  21786292.787    21786292.6104   21786298.3064
       187.0004        187.0004
  -5675866.21548  -4397478.74146  23266265.265    23266265.9954   23266270.9174
       166.0004        167.0004
  -8166730.14348  -6346620.23246  23009577.039    23009577.8634   23009584.0974
       169.0004        170.0004
 -17357605.29548 -13510828.43647  21460343.242    21460344.0224   21460352.2394
       192.0004        190.0004
 21  2  4  1  1 30.0000000  0  9G14G08G07G30G09G21G17G04G01
  -1399797.35747  -1077409.43045  23386771.958    23386772.5734   23386777.7924
       156.0004        158.0004
 -12743106.02649  -9916890.09447  22272519.411    22272519.4614   22272527.0654
       213.0004        212.0004
 -18620875.83049 -14487995.13247  21183659.782    21183659.6574   21183663.3564
       204.0004        204.0004
  -7536900.12448  -5848598.56646  22882648.956    22882649.7634   22882658.3544
       172.0004        173.0004
 -14542501.70949 -11298357.40347  21488221.630    21488221.7684   21488228.8024
       202.0004        203.0004
 -16192931.01848 -12600979.63147  21788576.373    21788575.3784   21788580.7354
       187.0004        188.0004
  -5757376.89848  -4460993.55746  23250754.844    23250755.6604   23250759.8694
       167.0004        168.0004
  -8069527.70648  -6270878.07846  23028074.115    23028074.2054   23028080.2884
       169.0004        169.0004
 -17416076.24948 -13556390.19147  21449215.086    21449216.2074   21449225.9734
       189.0004        188.0004
 21  2  4  1  2  0.0000000  0  9G14G08G07G30G09G21G17G04G01
  -1425579.45247  -1097499.37145  23381865.867    23381865.5634   23381870.2954
       156.0004        157.0004
 -12652864.67949  -9846572.17747  22289692.427    22289692.1644   22289699.4834
       213.0004        212.0004
 -18684161.06149 -14537308.30247  21171615.900    21171616.2684   21171620.7524
       204.0004        204.0004
  -7624311.42548  -5916711.24746  22866017.664    22866017.1814   22866024.6984
       173.0004        175.0004
 -14483939.04549 -11252724.16747  21499365.637    21499365.7144   21499373.1134
       203.0004        204.0004
 -16180444.42348 -12591249.80846  21790951.860    21790951.2074   21790956.7104
       187.0004        187.0004
  -5838554.30948  -4524248.65646  23235308.548    23235308.2594   23235311.8144
       167.0004        167.0004
  -7972249.69748  -6195077.04446  23046585.267    23046585.7474   23046591.6984
       168.0004        169.0004
 -17474191.03448 -13601674.40547  21438156.529    21438157.9244   21438167.1874
       188.0004        189.0004
 21  2  4  1  2 30.0000000  0  9G14G08G07G30G09G21G17G04G01
  -1451356.21547  -1117585.14445  23376960.108    23376960.1074   23376966.4134
       155.0004        156.0004
 -12562471.62249  -9776136.02147  22306892.435    22306893.2904   22306900.1474
       211.0004        210.0004
 -18747193.64949 -14586424.58747  21159620.756    21159621.4514   21159626.2534
       204.0004        204.0004
  -7711678.60548  -5984789.54146  22849391.484    22849391.7244   22849399.1144
       173.0004        174.0004
 -14425024.46649 -11206816.69847  21510576.135    21510576.8114   21510583.7084
       203.0004        203.0004
 -16167468.11148 -12581138.36546  21793420.767    21793420.3464   21793426.1714
       187.0004        187.0004
  -5919399.05848  -4587244.52646  23219923.284    23219923.3744   23219926.1564
       165.0004        165.0004
  -7874901.46648  -6119221.25146  23065110.507    23065110.9384   23065116.4834
       169.0004        170.0004
 -17531948.93848 -13646680.53647  21427167.713    21427168.2804   21427175.5004
       190.0004        192.0004
 21  2  4  1  3  0.0000000  0  9G14G08G07G30G09G21G17G04G01
  -1477127.62247  -1137666.75045  23372055.508    23372055.9754   23372061.2924
       155.0004        158.0004
 -12471928.53649  -9705582.97447  22324122.878    22324122.3184   22324130.4874
       210.0004        209.0004
 -18809969.67849 -14635340.98347  21147675.754    21147676.1884   21147680.1104
       204.0004        205.0004
  -7798998.17048  -6052830.77646  22832776.867    22832775.9444   22832781.9594
       174.0004        174.0004
 -14365759.55149 -11160636.25747  21521854.220    21521854.6084   21521861.8674
       203.0004        204.0004
 -16154000.19948 -12570643.88746  21795983.747    21795983.1764   21795988.8484
       187.0004        187.0004
  -5999908.40047  -4649979.09345  23204602.227    23204602.8614   23204604.8384
       161.0004        161.0004
  -7777484.66248  -6043312.06446  23083648.658    23083648.4834   23083654.7594
       169.0004        169.0004
 -17589345.70148 -13691405.29047  21416245.938    21416246.5564   21416253.2394
       192.0004        193.0004
 21  2  4  1  3 30.0000000  0  9G14G08G07G30G09G21G17G04G01
  -1502894.02847  -1157744.46145  23367153.556    23367153.6514   23367158.0574
       156.0004        159.0004
 -12381237.48249  -9634914.63647  22341380.077    22341380.4934   22341388.1234
       210.0004        209.0004
 -18872485.65049 -14684054.74347  21135779.262    21135779.4894   21135783.6464
       204.0004        205.0004
  -7886267.18948  -6120832.60746  22816168.081    22816168.6374   22816174.8844
       173.0004        174.0004
 -14306146.31649 -11114184.39947  21533198.324    21533198.9084   21533205.7834
       203.0004        205.0004
 -16140039.78948 -12559765.64146  21798640.121    21798639.4154   21798644.8544
       187.0004        187.0004
  -6080079.60847  -4712450.16945  23189345.792    23189347.0084   23189347.1204
       158.0004        158.0004
  -7680001.39648  -5967351.12146  23102197.406    23102198.9934   23102203.7144
       166.0004        165.0004
 -17646377.43848 -13735845.59947  21405393.215    21405393.5634   21405400.6914
       193.0004        194.0004
 21  2  4  1  4  0.0000000  0  9G14G08G07G30G09G21G17G04G01
  -1528656.76647  -1177819.28045  23362251.528    23362250.9594   23362255.6424
       158.0004        161.0004
 -12290400.80349  -9564132.80647  22358667.004    22358666.6004   22358673.5144
       209.0004        209.0004
 -18934738.73249 -14732563.63147  21123932.340    21123932.8524   21123937.4734
       204.0004        205.0004
  -7973483.50648  -6188793.36346  22799572.515    22799572.4224   22799579.1244
       176.0004        180.0004
 -14246187.74649 -11067463.43147  21544608.579    21544608.7084   21544615.7024
       204.0004        204.0004
 -16125586.58348 -12548503.38346  21801390.348    21801390.0534   21801395.6904
       187.0004        187.0004
  -6159911.63147  -4774656.93145  23174153.969    23174155.0004   23174157.2214
       157.0004        160.0004
  -7582454.75648  -5891340.74246  23120760.654    23120761.1434   23120767.1604
       165.0004        166.0004
 -17703041.21548 -13779999.17647  21394611.058    21394610.8684   21394617.9154
       194.0004        195.0004
 21  2  4  1  4 30.0000000  0  9G14G08G07G30G09G21G17G04G01
  -1554417.34747  -1197892.44845  23357348.474    23357348.7554   23357353.5804
       160.0004        162.0004
 -12199422.24449  -9493240.43747  22375979.554    22375979.1124   22375986.3984
       210.0004        210.0004
 -18996726.96049 -14780866.15747  21112137.525    21112137.6044   21112141.2394
       205.0004        205.0004
  -8060645.43748  -6256711.73646  22782985.714    22782985.8194   22782992.4164
       178.0004        179.0004
 -14185887.18249 -11020475.98847  21556083.162    21556083.5164   21556090.7674
       204.0004        205.0004
 -16110640.71948 -12536857.23547  21804234.661    21804234.4104   21804239.4524
       187.0004        188.0004
  -6239403.25147  -4836598.46546  23159028.354    23159028.5874   23159031.0314
       160.0004        164.0004
  -7484848.07448  -5815283.58946  23139336.288    23139336.2454   23139342.2024
       165.0004        166.0004
 -17759334.41248 -13823863.99747  21383897.393    21383898.0444   21383906.0124
       194.0004        193.0004
 21  2  4  1  5  0.0000000  0  9G14G08G07G30G09G21G17G04G01
  -1580177.84547  -1217965.55145  23352445.730    23352445.8184   23352451.6454
       160.0004        161.0004
 -12108305.40749  -9422240.31447  22393317.813    22393317.8704   22393325.4154
       209.0004        209.0004
 -19058448.16949 -14828960.60847  21100391.283    21100391.7174   21100396.0284
       205.0004        205.0004
  -8147751.44748  -6324586.55646  22766410.025    22766409.7244   22766416.3634
       179.0004        180.0004
 -14125248.29649 -10973224.91147  21567622.832    21567622.5584   21567628.8234
       204.0004        204.0004
 -16095202.59948 -12524827.52946  21807171.777    21807172.0494   21807177.2044
       187.0004        187.0004
  -6318553.78447  -4898274.16746  23143966.206    23143965.8004   23143970.9274
       162.0004        166.0004
  -7387185.09447  -5739182.57646  23157918.839    23157919.4674   23157925.8524
       164.0004        164.0004
 -17815254.85548 -13867438.36547  21373256.917    21373256.9804   21373264.3204
       193.0004        193.0004
 21  2  4  1  5 30.0000000  0 10G14G08G07G30G09G21G17G04G01G28
  -1605937.74847  -1238038.18645  23347544.078    23347544.9274   23347549.3344
       160.0004        161.0004
 -12017051.81849  -9351133.62847  22410681.706    22410682.3034   22410690.4534
       208.0004        207.0004
 -19119898.10749 -14876843.68047  21088697.362    21088697.9354   21088702.9844
       204.0004        205.0004
  -8234797.80448  -6392414.85746  22749845.314    22749845.7954   22749852.4824
       179.0004        181.0004
 -14064272.32549 -10925711.17247  21579226.311    21579226.3954   21579233.1204
       204.0004        205.0004
 -16079270.31748 -12512412.75246  21810203.910    21810203.4514   21810208.7274
       187.0004        187.0004
  -6397360.11748  -4959681.70146  23128969.983    23128970.0474   23128976.7874
       167.0004        171.0004
  -7289467.03947  -5663038.66046  23176514.146    23176514.7854   23176521.1054
       163.0004        165.0004
 -17870797.90948 -13910718.64247  21362686.335    21362686.5594   21362694.9844
       192.0004        191.0004
  -1644191.73854  -1273320.43744  23678286.640
        74.0004        112.0004
 21  2  4  1  6  0.0000000  0 10G14G08G07G30G09G21G17G04G01G28
  -1631699.24947  -1258112.07645  23342642.490    23342642.8644   23342647.0674
       159.0004        161.0004
 -11925664.43649  -9279922.69947  22428072.865    22428073.6084   22428080.5014
       207.0004        207.0004
 -19181075.03649 -14924514.02047  21077056.821    21077057.5914   21077060.9384
       204.0004        205.0004
  -8321783.17048  -6460195.66546  22733294.113    22733293.1164   22733299.9164
       181.0004        182.0004
 -14002963.19649 -10877937.82847  21590892.414    21590892.8194   21590899.7114
       205.0004        205.0004
 -16062844.48648 -12499613.38646  21813329.766    21813329.0154   21813334.6334
       186.0004        187.0004
  -6475821.57448  -5020820.45646  23114038.560    23114038.8994   23114045.6544
       170.0004        172.0004
  -7191697.92847  -5586854.95146  23195119.565    23195119.7714   23195126.3574
       163.0004        164.0004
 -17925961.52548 -13953703.26147  21352188.882    21352189.2494   21352198.1024
       191.0004        192.0004
  -1659108.19444  -1162545.53543  23675447.331
        74.0004         74.0004
 21  2  4  1  6 30.0000000  0 10G14G08G07G30G09G21G17G04G01G28
  -1657464.50747  -1278188.88046  23337739.151    23337740.1084   23337744.1344
       161.0004        163.0004
 -11834147.70949  -9208610.95847  22445488.528    22445488.4674   22445496.3804
       208.0004        209.0004
 -19241977.08249 -14971970.16647  21065467.786    21065467.9524   21065471.5924
       205.0004        205.0004
  -8408706.39048  -6527928.02746  22716753.059    22716752.4954   22716758.8754
       182.0004        184.0004
 -13941324.84049 -10829907.93747  21602621.937    21602622.1354   21602629.5124
       204.0004        204.0004
 -16045926.05948 -12486430.18046  21816549.520    21816548.7794   21816554.2124
       186.0004        187.0004
  -6553937.91148  -5081690.28746  23099173.959    23099174.4674   23099180.9324
       171.0004        173.0004
  -7093881.61647  -5510634.44746  23213732.958    23213733.6544   23213741.4014
       163.0004        165.0004
 -17980743.77548 -13996390.70847  21341763.246    21341764.3864   21341773.2584
       191.0004        192.0004
  -1674014.52244  -1174160.51945  23672610.809
        74.0004        145.0004
 21  2  4  1  7  0.0000000  0 10G14G08G07G30G09G21G17G04G01G28
  -1683233.21347  -1298268.39646  23332835.130    23332835.8454   23332840.0244
       162.0004        163.0004
 -11742503.08349  -9137199.57447  22462926.807    22462927.3054   22462935.9664
       208.0004        209.0004
 -19302600.27449 -15019209.02847  21053930.910    21053931.2124   21053935.4464
       205.0004        205.0004
  -8495563.68548  -6595609.04846  22700223.547    22700223.5484   22700230.2764
       182.0004        180.0004
 -13879358.70749 -10781622.65947  21614414.227    21614414.2774   21614420.2444
       204.0004        204.0004
 -16028513.44248 -12472861.90546  21819862.818    21819862.4404   21819867.8604
       186.0004        187.0004
  -6631706.42248  -5142289.10946  23084374.734    23084375.4894   23084381.1504
       171.0004        173.0004
  -6996019.53547  -5434378.31246  23232357.303    23232356.4594   23232362.1794
       163.0004        164.0004
 -18035140.21548 -14038777.53047  21331412.521    21331412.7444   21331422.0014
       191.0004        191.0004
  -1688910.91546  -1185768.12545  23669776.102                    23669781.3554
       110.0004        148.0004
 21  2  4  1  7 30.0000000  0 10G14G08G07G30G09G21G17G04G01G28
  -1709007.15747  -1318351.98545  23327930.377    23327931.5764   23327936.0764
       161.0004        162.0004
 -11650733.59749  -9065690.88147  22480391.117    22480390.8344   22480398.6594
       208.0004        207.0004
 -19362942.77549 -15066229.15547  21042448.342    21042448.8364   21042452.2884
       205.0004        205.0004
  -8582353.46948  -6663237.43246  22683708.566    22683708.1164   22683714.0964
       180.0004        180.0004
 -13817068.35349 -10733084.70847  21626267.149    21626267.3274   21626273.9304
       203.0004        203.0004
 -16010606.71648 -12458908.59046  21823269.638    21823269.8034   21823275.3144
       186.0004        186.0004
  -6709125.91448  -5202615.93746  23069643.465    23069643.2504   23069648.5384
       173.0004        174.0004
  -6898115.22347  -5358089.22446  23250987.004    23250987.5324   23250993.7844
       163.0004        164.0004
 -18089148.46548 -14080861.86247  21321135.994    21321136.0974   21321143.9594
       191.0004        193.0004
  -1703799.76147  -1197369.80345  23666943.807    23666942.4214   23666947.1244
       143.0004        152.0004
 21  2  4  1  8  0.0000000  0 10G14G08G07G30G09G21G17G04G01G28
  -1734786.41547  -1338439.70245  23323026.705    23323026.8724   23323030.0044
       161.0004        162.0004
 -11558840.88549  -8994086.18047  22497877.096    22497877.5044   22497884.9324
       207.0004        207.0004
 -19423000.37449 -15113027.29247  21031020.984    21031020.5334   21031023.8474
       205.0004        206.0004
  -8669072.42248  -6730810.64846  22667206.094    22667206.3274   22667211.1334
       179.0004        180.0004
 -13754455.61549 -10684295.57047  21638181.552    21638181.8434   21638189.0694
       202.0004        201.0004
 -15992204.63848 -12444569.27946  21826772.007    21826771.3694   21826777.1104
       185.0004        185.0004
  -6786194.07748  -5262668.99946  23054977.607    23054977.6314   23054983.2974
       173.0004        174.0004
  -6800170.54147  -5281768.67746  23269624.782    23269625.4324   23269631.9364
       163.0004        165.0004
 -18142764.51248 -14122640.59447  21310933.822    21310933.9714   21310941.1844
       193.0004        193.0004
  -1718681.32947  -1208965.81745  23664110.353    23664110.9004   23664116.2114
       149.0004        153.0004
 21  2  4  1  8 30.0000000  0 10G14G08G07G30G09G21G17G04G01G28
  -1760570.86347  -1358531.46445  23318118.870    23318119.6424   23318123.6774
       159.0004        159.0004
 -11466826.60649  -8922386.76547  22515386.930    22515386.8304   22515394.4954
       206.0004        205.0004
 -19482769.14749 -15159600.36647  21019646.304    21019646.3464   21019651.0704
       206.0004        206.0004
  -8755716.91648  -6798325.87246  22650718.452    22650717.9354   22650724.2944
       181.0004        183.0004
 -13691522.17849 -10635256.54647  21650157.443    21650157.5714   21650165.2434
       202.0004        202.0004
 -15973306.03548 -12429843.09246  21830367.731    21830367.6484   21830373.5604
       186.0004        186.0004
  -6862908.26548  -5322446.28246  23040379.050    23040378.8854   23040384.3254
       172.0004        172.0004
  -6702186.96447  -5205417.86246  23288270.201    23288271.0814   23288277.2514
       163.0004        165.0004
 -18195984.17148 -14164110.45847  21300805.145    21300805.8994   21300813.5764
       193.0004        194.0004
  -1733556.55547  -1220556.89045  23661279.632    23661280.4454   23661284.9034
       149.0004        153.0004
 21  2  4  1  9  0.0000000  0 10G14G08G07G30G09G21G17G04G01G28
  -1786362.00047  -1378628.43445  23313211.432    23313211.5484   23313216.5534
       159.0004        161.0004
 -11374694.31949  -8850595.36847  22532918.313    22532918.5424   22532926.7254
       204.0004        204.0004
 -19542246.79749 -15205946.58647  21008327.696    21008328.4074   21008332.5524
       206.0004        206.0004
  -8842285.10948  -6865781.58246  22634244.650    22634244.8624   22634252.1434
       183.0004        185.0004
 -13628271.36349 -10585970.19547  21662193.675    21662193.8374   21662201.1204
       201.0004        201.0004
 -15953911.16648 -12414730.20146  21834058.428    21834058.7254   21834064.3154
       186.0004        186.0004
  -6939267.40448  -5381946.88346  23025847.228    23025848.4944   23025853.2144
       170.0004        172.0004
  -6604167.87647  -5129039.35946  23306922.742    23306923.2814   23306928.7064
       164.0004        165.0004
 -18248804.83448 -14205269.39947  21290754.316    21290754.5734   21290762.6954
       194.0004        195.0004
  -1748426.48547  -1232143.85145  23658451.225    23658450.8304   23658454.8904
       150.0004        153.0004
 21  2  4  1  9 30.0000000  0 10G14G08G07G30G09G21G17G04G01G28
  -1812162.11647  -1398732.42745  23308301.184    23308301.5264   23308306.4214
       159.0004        161.0004
 -11282447.60649  -8778714.81247  22550472.496    22550472.9924   22550480.9524
       205.0004        205.0004
 -19601431.76849 -15252064.74747  20997065.594    20997065.7514   20997069.7514
       205.0004        205.0004
  -8928775.88148  -6933176.97546  22617786.012    22617785.6914   22617792.4694
       183.0004        183.0004
 -13564707.35649 -10536439.80247  21674287.950    21674288.8904   21674296.7724
       200.0004        200.0004
 -15934021.14048 -12399231.46446  21837844.888    21837843.5904   21837849.5284
       186.0004        187.0004
  -7015271.25448  -5441170.61746  23011384.569    23011385.0274   23011390.7934
       170.0004        172.0004
  -6506117.33347  -5052636.33846  23325580.979    23325581.3264   23325587.5974
       164.0004        164.0004
 -18301224.83449 -14246116.14547  21280779.652    21280780.1044   21280787.9394
       195.0004        196.0004
  -1763294.20047  -1243729.07145  23655622.599    23655621.9204   23655626.1004
       152.0004        155.0004
 21  2  4  1 10  0.0000000  0 10G14G08G07G30G09G21G17G04G01G28
  -1837972.02347  -1418844.06045  23303389.599    23303390.2954   23303394.5164
       159.0004        160.0004
 -11190088.91349  -8706747.01147  22568048.908    22568048.5364   22568056.5504
       205.0004        206.0004
 -19660321.14249 -15297952.58447  20985858.698    20985859.5064   20985863.4604
       205.0004        206.0004
  -9015186.56648  -7000509.98246  22601343.158    22601342.5254   22601349.4994
       183.0004        183.0004
 -13500832.71349 -10486667.37447  21686445.329    21686444.8234   21686451.7064
       200.0004        201.0004
 -15913635.36048 -12383346.44646  21841723.087    21841723.2324   21841728.2204
       186.0004        187.0004
  -7090918.15848  -5500116.23646  22996990.274    22996990.3854   22996994.9714
       170.0004        172.0004
  -6408037.82247  -4976210.76446  23344245.290    23344245.7704   23344251.2184
       163.0004        164.0004
 -18353240.87749 -14286648.12247  21270881.546    21270882.0024   21270889.0974
       195.0004        196.0004
  -1778161.10747  -1255313.65845  23652791.914    23652791.9434   23652796.5844
       151.0004        154.0004
 21  2  4  1 10 30.0000000  0 10G14G08G07G30G09G21G17G04G01G28
  -1863792.90647  -1438964.20345  23298476.143    23298475.9734   23298481.5344
       158.0004        160.0004
 -11097621.35649  -8634694.37747  22585643.174    22585644.3024   22585652.3664
       205.0004        205.0004
 -19718912.14549 -15343607.91247  20974710.197    20974710.4474   20974713.9464
       206.0004        206.0004
  -9101514.94748  -7067778.85246  22584914.297    22584914.4744   22584921.1134
       182.0004        182.0004
 -13436650.53549 -10436655.29647  21698658.462    21698658.7424   21698664.8864
       201.0004        201.0004
 -15892754.02948 -12367075.25846  21845696.768    21845696.4994   21845702.1854
       186.0004        186.0004
  -7166206.90048  -5558782.74646  22982662.024    22982662.9564   22982666.5594
       171.0004        171.0004
  -6309932.25347  -4899764.86746  23362914.012    23362914.8424   23362920.1414
       162.0004        164.0004
 -18404850.11049 -14326863.10247  21261060.288    21261060.6214   21261068.1484
       196.0004        196.0004
  -1793028.59947  -1266898.71145  23649963.655    23649963.4524   23649967.2684
       153.0004        156.0004
 21  2  4  1 11  0.0000000  0 10G14G08G07G30G09G21G17G04G01G28
  -1889624.29247  -1459092.57745  23293561.720    23293561.8304   23293565.4274
       159.0004        161.0004
 -11005045.41449  -8562557.30647  22603260.446    22603260.6844   22603269.3724
       204.0004        204.0004
 -19777200.63349 -15389027.53847  20963618.149    20963617.9364   20963621.8294
       206.0004        206.0004
  -9187757.08048  -7134980.52746  22568503.395    22568503.5344   22568509.9454
       182.0004        183.0004
 -13372162.17549 -10386404.65147  21710929.831    21710930.0694   21710937.2604
       200.0004        201.0004
 -15871375.32148 -12350416.53446  21849765.354    21849765.0474   21849769.6734
       186.0004        186.0004
  -7241134.75548  -5617168.10346  22968404.700    22968405.3824   22968407.3504
       169.0004        170.0004
  -6211801.93647  -4823299.70046  23381588.484    23381589.2044   23381593.9494
       162.0004        163.0004
 -18456048.14149 -14366757.68647  21251317.646    21251317.9064   21251325.7604
       196.0004        196.0004
  -1807896.79947  -1278484.33045  23647134.137    23647134.0424   23647137.9184
       153.0004        155.0004
 21  2  4  1 11 30.0000000  0 10G14G08G07G30G09G21G17G04G01G28
  -1915469.41547  -1479231.62046  23288642.880    23288642.8304   23288647.8054
       161.0004        163.0004
 -10912366.52249  -8490340.00147  22620896.406    22620896.9424   22620905.5294
       203.0004        203.0004
 -19835185.83549 -15434210.80147  20952583.338    20952583.7444   20952587.7064
       205.0004        206.0004
  -9273912.82248  -7202114.86646  22552107.764    22552108.0934   22552114.8434
       180.0004        180.0004
 -13307372.75149 -10335919.37747  21723258.628    21723259.0914   21723266.5064
       201.0004        201.0004
 -15849501.43148 -12333371.92846  21853928.238    21853927.3924   21853932.2184
       186.0004        186.0004
  -7315702.24348  -5675272.59546  22954215.433    22954215.5834   22954219.3674
       171.0004        174.0004
  -6113651.82347  -4746819.08645  23400266.041    23400265.5004   23400270.6214
       161.0004        162.0004
 -18506834.14449 -14406331.17747  21241652.281    21241653.1474   21241661.0534
       195.0004        195.0004
  -1822769.33847  -1290073.29245  23644303.894    23644303.0424   23644308.4714
       152.0004        154.0004
 21  2  4  1 12  0.0000000  0 10G14G08G07G30G09G21G17G04G01G28
  -1941329.07547  -1499381.97245  23283721.051    23283721.4914   23283726.2864
       161.0004        162.0004
 -10819586.95749  -8418044.23547  22638551.886    22638552.7524   22638560.8294
       203.0004        203.0004
 -19892864.79249 -15479155.44647  20941607.727    20941607.8364   20941612.1314
       206.0004        206.0004
  -9359979.53748  -7269179.82846  22535730.789    22535730.2734   22535737.6944
       180.0004        180.0004
 -13242284.95449 -10285201.61647  21735645.339    21735645.3084   21735652.6484
       200.0004        201.0004
 -15827132.02048 -12315941.20346  21858183.738    21858183.6634   21858189.5894
       186.0004        185.0004
  -7389907.95048  -5733095.19346  22940094.417    22940094.4204   22940098.7674
       173.0004        175.0004
  -6015484.43647  -4670325.00545  23418946.331    23418946.4814   23418952.1994
       160.0004        162.0004
 -18557205.02249 -14445581.19947  21232067.597    21232067.8744   21232076.4724
       195.0004        195.0004
  -1837647.45247  -1301666.59745  23641473.181    23641472.8704   23641477.2254
       154.0004        156.0004
 21  2  4  1 12 30.0000000  0 10G14G08G07G30G09G21G17G04G01G28
  -1967202.63247  -1519543.19846  23278797.625    23278798.6184   23278803.1984
       162.0004        163.0004
 -10726707.67549  -8345670.76847  22656226.833    22656227.1724   22656234.7324
       203.0004        204.0004
 -19950233.32349 -15523858.19847  20930690.929    20930690.9794   20930695.3704
       206.0004        207.0004
  -9445953.13348  -7336172.23546  22519370.531    22519370.3604   22519377.0234
       179.0004        179.0004
 -13176900.07149 -10234252.35447  21748087.031    21748087.3314   21748094.6114
       200.0004        201.0004
 -15804265.38148 -12298123.03546  21862536.042    21862535.3874   21862540.5314
       186.0004        187.0004
  -7463748.63948  -5790633.38246  22926042.234    22926043.0274   22926047.1514
       173.0004        173.0004
  -5917300.93247  -4593818.37645  23437628.103    23437628.8474   23437635.6764
       159.0004        160.0004
 -18607156.21349 -14484504.19047  21222562.469    21222563.1494   21222570.7114
       195.0004        195.0004
  -1852530.78147  -1313263.98145  23638640.630    23638639.9864   23638644.4994
       153.0004        155.0004
 21  2  4  1 13  0.0000000  0 10G14G08G07G30G09G21G17G04G01G28
  -1993091.90947  -1539716.61646  23273870.804    23273871.4934   23273876.8194
       163.0004        165.0004
 -10633731.85049  -8273222.07147  22673919.450    22673919.1434   22673927.0954
       202.0004        202.0004
 -20007288.91149 -15568317.11147  20919833.354    20919834.0594   20919838.3184
       206.0004        207.0004
  -9531831.92148  -7403090.78246  22503028.770    22503028.2154   22503034.9244
       180.0004        182.0004
 -13111221.75749 -10183074.46547  21760584.968    21760585.1054   21760592.3474
       200.0004        200.0004
 -15780902.37248 -12279918.08646  21866981.323    21866981.1704   21866986.5374
       186.0004        185.0004
  -7537223.67948  -5847886.63246  22912060.821    22912060.6694   22912064.5204
       172.0004        172.0004
  -5819104.79847  -4517301.92445  23456315.640    23456316.0714   23456321.7964
       159.0004        161.0004
 -18656685.52748 -14523098.45047  21213137.219    21213137.3584   21213145.3744
       194.0004        193.0004
  -1867421.72547  -1324867.30645  23635806.216    23635805.7034   23635811.7164
       151.0004        153.0004
 21  2  4  1 13 30.0000000  0 10G14G08G07G30G09G21G17G04G01G28
  -2018998.47547  -1559903.55745  23268940.433    23268941.7884   23268945.9044
       162.0004        162.0004
 -10540663.34249  -8200701.17647  22691630.097    22691629.7104   22691638.2414
       202.0004        202.0004
 -20064029.72349 -15612530.73847  20909036.260    20909036.4094   20909040.4024
       207.0004        207.0004
  -9617614.12748  -7469934.07346  22486704.153    22486704.1474   22486710.8154
       181.0004        182.0004
 -13045253.58849 -10131670.70847  21773138.324    21773138.7864   21773145.9934
       199.0004        199.0004
 -15757043.51648 -12261326.76446  21871521.789    21871521.3994   21871526.4384
       186.0004        186.0004
  -7610332.65648  -5904854.63746  22898148.697    22898149.8944   22898153.7264
       172.0004        175.0004
  -5720899.39547  -4440778.25045  23475002.826    23475003.4904   23475008.7224
       158.0004        159.0004
 -18705790.72748 -14561362.23947  21203791.088    21203792.3534   21203801.0164
       193.0004        194.0004
  -1882322.42247  -1336478.25045  23632971.084    23632971.1014   23632976.1554
       150.0004        152.0004
 21  2  4  1 14  0.0000000  0 10G14G08G07G30G09G21G17G04G01G28
  -2044922.63447  -1580104.20346  23264008.383    23264009.3104   23264013.1794
       161.0004        163.0004
 -10447503.54549  -8128109.13247  22709356.758    22709356.5604   22709365.8804
       200.0004        200.0004
 -20120452.23949 -15656496.34047  20898299.373    20898299.7094   20898304.1564
       207.0004        208.0004
  -9703296.60348  -7536699.62946  22470398.649    22470398.8764   22470407.0804
       181.0004        182.0004
 -12978997.77849 -10080042.80947  21785746.741    21785746.5764   21785753.8704
       199.0004        199.0004
 -15732688.43448 -12242348.76346  21876156.481    21876156.0084   21876160.9914
       186.0004        186.0004
  -7683073.27248  -5961535.61646  22884306.108    22884306.5844   22884311.6394
       174.0004        176.0004
  -5622686.78047  -4364248.94845  23493693.801    23493693.8474   23493698.5024
       157.0004        158.0004
 -18754468.17648 -14599292.72047  21194529.397    21194530.0094   21194537.4004
       194.0004        195.0004
  -1897233.49747  -1348097.25445  23630133.561    23630133.7554   23630137.7204
       151.0004        155.0004
 21  2  4  1 14 30.0000000  0 10G14G08G07G30G09G21G17G04G01G28
  -2070866.33447  -1600320.06746  23259071.454    23259071.4714   23259076.3514
       162.0004        165.0004
 -10354256.07949  -8055448.77447  22727100.829    22727101.6894   22727110.7054
       200.0004        201.0004
 -20176554.74949 -15700212.58847  20887623.722    20887623.7984   20887627.7864
       207.0004        208.0004
  -9788877.86548  -7603386.31746  22454113.191    22454113.3194   22454120.9384
       181.0004        181.0004
 -12912458.22449 -10028193.80847  21798408.857    21798408.8814   21798415.8784
       199.0004        199.0004
 -15707837.85548 -12222984.65846  21880885.770    21880885.1594   21880890.1224
       186.0004        186.0004
  -7755445.74348  -6017929.71946  22870534.296    22870534.6774   22870540.1184
       175.0004        176.0004
  -5524470.60547  -4287716.84845  23512383.499    23512383.2454   23512388.7234
       155.0004        157.0004
 -18802716.03949 -14636888.44547  21185347.984    21185348.4924   21185356.5764
       195.0004        195.0004
  -1912157.41947  -1359726.30445  23627293.650    23627293.9564   23627297.3974
       151.0004        154.0004
 21  2  4  1 15  0.0000000  0 10G14G08G07G30G09G21G17G04G01G28
  -2096829.76748  -1620551.32946  23254131.950    23254132.2194   23254136.3354
       166.0004        167.0004
 -10260923.04849  -7982721.73447  22744862.034    22744861.8794   22744871.3694
       201.0004        202.0004
 -20232333.59449 -15743676.63347  20877008.667    20877009.2264   20877013.4084
       207.0004        207.0004
  -9874354.63148  -7669991.57746  22437848.897    22437847.8244   22437855.4094
       181.0004        182.0004
 -12845637.08849  -9976125.38147  21811124.629    21811124.7584   21811131.2704
       198.0004        199.0004
 -15682490.86648 -12203233.75846  21885708.739    21885708.1504   21885713.9504
       186.0004        187.0004
  -7827447.76548  -6074035.16346  22856834.059    22856833.4174   22856838.0344
       174.0004        175.0004
  -5426252.80647  -4211183.51445  23531072.811    23531073.1174   23531079.3354
       155.0004        157.0004
 -18850530.59849 -14674146.53747  21176249.516    21176249.9464   21176258.0404
       196.0004        196.0004
  -1927094.63147  -1371365.68045  23624451.835    23624451.2324   23624455.3734
       151.0004        154.0004
 21  2  4  1 15 30.0000000  0 10G14G08G07G30G09G21G17G04G01G28
  -2122814.24048  -1640798.93346  23249185.595    23249186.3164   23249191.0394
       166.0004        167.0004
 -10167507.20749  -7909930.16547  22762637.165    22762638.0574   22762647.3274
       200.0004        200.0004
 -20287786.27949 -15786886.53247  20866456.156    20866456.8674   20866460.9424
       207.0004        207.0004
  -9959724.70048  -7736513.71046  22421602.251    22421602.5024   22421609.4244
       181.0004        182.0004
 -12778537.57149  -9923840.04947  21823893.000    21823893.2884   21823899.7264
       199.0004        199.0004
 -15656648.14348 -12183096.55846  21890626.149    21890625.7974   21890631.1614
       186.0004        186.0004
  -7899078.16548  -6129851.02046  22843201.094    22843201.4674   22843207.9914
       174.0004        176.0004
  -5328036.38247  -4134651.24145  23549763.598    23549762.5684   23549769.1264
       156.0004        158.0004
 -18897909.30249 -14711064.99447  21167234.067    21167234.3884   21167242.1344
       196.0004        197.0004
  -1942047.02647  -1383016.88545  23621606.726    23621605.5914   23621609.7394
       150.0004        153.0004
 21  2  4  1 16  0.0000000  0 10G14G08G07G30G09G21G17G04G01G28
  -2148820.80248  -1661063.77746  23244237.148    23244237.7294   23244242.3614
       166.0004        167.0004
 -10074010.71549  -7837075.76947  22780429.858    22780430.3934   22780439.4624
       199.0004        198.0004
 -20342910.17049 -15829840.21847  20855966.498    20855966.8744   20855971.4654
       207.0004        207.0004
 -10044985.75448  -7802950.90046  22405378.084    22405378.3354   22405385.2634
       182.0004        183.0004
 -12711162.73649  -9871340.19547  21836715.019    21836714.8874   21836721.6174
       199.0004        200.0004
 -15630310.01448 -12162573.32646  21895638.746    21895637.8974   21895642.5834
       186.0004        186.0004
  -7970336.01948  -6185376.62446  22829642.788    22829643.1974   22829647.8284
       177.0004        179.0004
  -5229824.07547  -4058122.17845  23568452.793    23568452.8174   23568458.2244
       156.0004        158.0004
 -18944849.47849 -14747641.75247  21158301.378    21158302.0184   21158309.9294
       197.0004        197.0004
  -1957016.14247  -1394681.13845  23618757.712    23618757.6094   23618762.7504
       152.0004        156.0004
 21  2  4  1 16 30.0000000  0 10G14G08G07G30G09G21G17G04G01G28
  -2174850.03348  -1681346.28446  23239284.858    23239285.2274   23239289.3794
       167.0004        169.0004
  -9980436.41149  -7764160.72047  22798236.242    22798236.7834   22798246.2274
       197.0004        197.0004
 -20397702.16349 -15872535.27447  20845540.331    20845540.8864   20845544.6624
       207.0004        207.0004
 -10130134.86548  -7869300.85046  22389175.335    22389175.4824   22389181.4264
       183.0004        183.0004
 -12643515.19249  -9818627.80947  21849586.815    21849586.4854   21849594.3134
       198.0004        198.0004
 -15603475.85948 -12141663.57346  21900744.508    21900744.0254   21900749.8064
       186.0004        185.0004
  -8041219.23648  -6240610.26046  22816153.057    22816153.5184   22816159.1234
       176.0004        176.0004
  -5131618.31147  -3981598.18845  23587140.756    23587140.7654   23587147.2124
       156.0004        158.0004
 -18991347.89749 -14783874.26547  21149452.468    21149453.2694   21149461.3104
       197.0004        198.0004
  -1972002.96347  -1406359.15845  23615905.848    23615905.8504   23615910.0284
       153.0004        156.0004
 21  2  4  1 17  0.0000000  0 10G14G08G07G30G09G21G17G04G01G28
  -2200903.25248  -1701647.48746  23234326.976    23234326.6544   23234331.6534
       168.0004        168.0004
  -9886787.24749  -7691187.37447  22816057.773    22816057.9084   22816066.4284
       196.0004        196.0004
 -20452159.57749 -15914969.62747  20835177.089    20835177.3964   20835182.1384
       207.0004        208.0004
 -10215169.95248  -7935561.95946  22372993.906    22372993.3734   22373000.0974
       183.0004        184.0004
 -12575598.25749  -9765705.53247  21862510.742    21862510.5464   21862518.5804
       197.0004        197.0004
 -15576146.76248 -12120368.16646  21905944.633    21905944.6514   21905949.8454
       185.0004        185.0004
  -8111727.16848  -6295551.48646  22802735.794    22802736.4624   22802740.9114
       175.0004        174.0004
  -5033422.04247  -3905081.62145  23605826.292    23605826.0174   23605832.9304
       155.0004        155.0004
 -19037402.13849 -14819760.68847  21140688.842    21140689.5654   21140697.2384
       197.0004        198.0004
  -1987009.13447  -1418052.27645  23613050.498    23613050.2084   23613054.7974
       154.0004        157.0004
 21  2  4  1 17 30.0000000  0 10G14G08G07G30G09G21G17G04G01G28
  -2226981.14948  -1721967.93146  23229364.969    23229365.0964   23229368.6494
       168.0004        170.0004
  -9793065.07049  -7618157.11147  22833893.312    22833893.5034   22833900.6794
       197.0004        198.0004
 -20506279.82049 -15957141.25247  20824878.333    20824878.7614   20824883.4594
       207.0004        208.0004
 -10300088.26548  -8001732.07046  22356833.693    22356834.2254   22356840.7724
       184.0004        185.0004
 -12507414.60549  -9712575.41447  21875486.323    21875486.1554   21875494.0544
       196.0004        197.0004
 -15548322.18548 -12098686.68246  21911240.201    21911239.9364   21911245.1354
       185.0004        185.0004
  -8181858.76048  -6350199.46146  22789390.809    22789390.7244   22789396.1614
       174.0004        175.0004
  -4935237.79547  -3828574.44245  23624509.598    23624509.7374   23624516.6134
       154.0004        156.0004
 -19083009.16349 -14855298.63047  21132010.646    21132010.9474   21132019.0494
       198.0004        199.0004
  -2002035.92847  -1429761.44445  23610191.075    23610191.1574   23610195.2234
       155.0004        158.0004
 21  2  4  1 18  0.0000000  0 10G14G08G07G30G09G21G17G04G01G28
  -2253085.07648  -1742308.65146  23224397.407    23224397.4444   23224401.1504
       168.0004        167.0004
  -9699273.04049  -7545072.39747  22851740.834    22851740.9024   22851748.9384
       198.0004        198.0004
 -20560060.62049 -15999048.37147  20814644.389    20814645.3564   20814649.1754
       208.0004        209.0004
 -10384887.68148  -8067809.53846  22340696.553    22340697.2464   22340703.8634
       186.0004        187.0004
 -12438967.63249  -9659240.12447  21888509.393    21888510.4004   21888518.8334
       195.0004        195.0004
 -15520002.89848 -12076619.68446  21916629.690    21916628.6534   21916633.7634
       185.0004        185.0004
  -8251612.76348  -6404553.21046  22776117.278    22776116.8774   22776122.1134
       174.0004        175.0004
  -4837068.56447  -3752078.94145  23643189.987    23643190.5954   23643197.4274
       154.0004        157.0004
 -19128166.62349 -14890486.25447  21123417.236    21123417.9284   21123425.5384
       198.0004        199.0004
  -2017085.48047  -1441488.35845  23607327.124    23607327.2664   23607331.4784
       155.0004        157.0004
 21  2  4  1 18 30.0000000  0 10G14G08G07G30G09G21G17G04G01G28
  -2279215.75648  -1762670.22046  23219424.025    23219424.4044   23219428.2764
       166.0004        166.0004
  -9605413.53749  -7471935.13947  22869601.088    22869601.4904   22869610.3044
       197.0004        197.0004
 -20613498.67249 -16040688.41647  20804475.886    20804475.9564   20804480.2014
       208.0004        208.0004
 -10469565.50148  -8133792.26346  22324583.457    22324583.9464   22324589.5484
       186.0004        187.0004
 -12370260.08548  -9605701.78947  21901584.551    21901584.6854   21901592.7864
       194.0004        193.0004
 -15491188.99948 -12054167.29846  21922111.714    21922111.2604   21922117.0014
       185.0004        185.0004
  -8320988.21048  -6458611.98646  22762915.532    22762915.3744   22762920.6564
       175.0004        176.0004
  -4738916.87447  -3675597.13845  23661868.902    23661868.5724   23661874.3774
       154.0004        156.0004
 -19172871.53249 -14925321.23747  21114909.565    21114910.1684   21114918.7024
       198.0004        199.0004
  -2032158.69247  -1453233.71245  23604458.670    23604458.5804   23604463.7644
       155.0004        158.0004
 21  2  4  1 19  0.0000000  0 10G14G08G07G30G09G21G17G04G01G28
  -2305373.31447  -1783052.73846  23214446.024    23214446.3804   23214451.9024
       164.0004        164.0004
  -9511488.05649  -7398746.46647  22887474.788    22887475.0034   22887483.8254
       196.0004        195.0004
 -20666590.56949 -16082058.73147  20794371.862    20794372.4354   20794377.0244
       208.0004        208.0004
 -10554118.36748  -8199677.61247  22308493.623    22308493.5634   22308500.2594
       187.0004        188.0004
 -12301294.12348  -9551962.10747  21914707.429    21914708.3624   21914716.0764
       193.0004        193.0004
 -15461879.79948 -12031328.95246  21927689.572    21927689.0274   21927694.0794
       185.0004        185.0004
  -8389983.03748  -6512374.19846  22749785.912    22749786.6664   22749790.4744
       174.0004        173.0004
  -4640784.57947  -3599130.42445  23680543.427    23680543.1704   23680548.6544
       155.0004        158.0004
 -19217120.37949 -14959800.85247  21106490.104    21106490.7444   21106498.4614
       199.0004        199.0004
  -2047256.02647  -1464997.85845  23601586.024    23601585.9114   23601589.7034
       156.0004        158.0004
 21  2  4  1 19 30.0000000  0 10G14G08G07G30G09G21G17G04G01G28
  -2331560.48347  -1803458.29146  23209461.699    23209463.1964   23209467.9624
       164.0004        167.0004
  -9417501.05249  -7325509.84347  22905358.992    22905359.9794   22905368.6564
       195.0004        195.0004
 -20719335.37249 -16123158.57747  20784335.314    20784335.8784   20784340.1514
       208.0004        209.0004
 -10638545.62248  -8265465.06446  22292427.075    22292427.3824   22292434.4404
       187.0004        187.0004
 -12232074.57648  -9498024.80247  21927880.860    21927881.0544   21927888.4414
       193.0004        194.0004
 -15432077.39848 -12008106.28146  21933361.115    21933360.3004   21933365.9624
       185.0004        185.0004
  -8458597.62348  -6565840.09246  22736729.034    22736728.4734   22736733.4544
       173.0004        173.0004
  -4542676.06647  -3522682.22745  23699211.159    23699212.3264   23699219.2684
       157.0004        160.0004
 -19260912.28949 -14993924.40047  21098156.986    21098157.4014   21098165.2234
       199.0004        200.0004
  -2062380.59547  -1476783.20645  23598708.783    23598707.9924   23598711.1294
       155.0004        157.0004
 21  2  4  1 20  0.0000000  0 10G14G08G07G30G09G21G17G04G01G28
  -2357776.38448  -1823886.26446  23204474.659    23204475.0454   23204479.7634
       166.0004        167.0004
  -9323453.79049  -7252226.28547  22923256.323    22923256.2844   22923265.3824
       195.0004        195.0004
 -20771728.47749 -16163984.39047  20774365.646    20774365.9844   20774370.1044
       208.0004        209.0004
 -10722842.89748  -8331151.25947  22276386.227    22276386.1434   22276392.7334
       187.0004        188.0004
 -12162602.61949  -9443890.81147  21941101.984    21941102.3484   21941109.8084
       195.0004        197.0004
 -15401780.56948 -11984498.36246  21939125.643    21939125.5734   21939130.9204
       185.0004        185.0004
  -8526829.39448  -6619007.71746  22723744.253    22723745.2334   22723748.9254
       171.0004        171.0004
  -4444592.27847  -3446253.31345  23717876.115    23717876.6544   23717883.8334
       158.0004        160.0004
 -19304242.71849 -15027688.36547  21089910.855    21089911.1334   21089919.5484
       199.0004        198.0004
  -2077532.35347  -1488589.75545  23595823.693    23595823.7404   23595828.1074
       154.0004        155.0004
 21  2  4  1 20 30.0000000  0 10G14G08G07G30G09G21G17G04G01G28
  -2384021.21648  -1844336.77446  23199479.457    23199479.3914   23199484.3844
       165.0004        164.0004
  -9229347.31748  -7178896.58047  22941164.820    22941164.1304   22941172.5674
       194.0004        194.0004
 -20823766.55449 -16204533.54547  20764462.558    20764463.3314   20764467.4854
       208.0004        209.0004
 -10807006.95448  -8396733.65847  22260370.457    22260370.7584   22260376.9874
       188.0004        189.0004
 -12092880.51349  -9389561.90047  21954370.293    21954370.1844   21954376.3934
       197.0004        199.0004
 -15370988.58548 -11960504.60046  21944985.498    21944984.3384   21944990.1484
       184.0004        184.0004
  -8594676.38748  -6671875.47646  22710833.461    22710834.3164   22710838.1584
       172.0004        175.0004
  -4346535.04647  -3369845.09945  23736535.812    23736536.3884   23736544.0514
       157.0004        159.0004
 -19347108.25649 -15061090.07547  21081753.665    21081754.1414   21081762.1304
       198.0004        199.0004
  -2092711.72347  -1500417.83045  23592935.725    23592934.8464   23592940.6834
       154.0004        157.0004
 21  2  4  1 21  0.0000000  0 10G14G08G07G30G09G21G17G04G01G28
  -2410297.84247  -1864812.05346  23194479.779    23194479.9104   23194485.2494
       163.0004        164.0004
  -9135186.32449  -7105524.37947  22959083.067    22959083.2374   22959091.5234
       195.0004        196.0004
 -20875448.91849 -16244805.53347  20754628.402    20754628.4484   20754632.7354
       208.0004        209.0004
 -10891037.21848  -8462211.78547  22244378.862    22244379.8654   22244387.3574
       188.0004        189.0004
 -12022913.20649  -9335041.93047  21967684.464    21967684.8134   21967690.6744
       198.0004        199.0004
 -15339704.11048 -11936127.09446  21950938.390    21950938.1164   21950943.9514
       184.0004        184.0004
  -8662139.65748  -6724444.25246  22697996.174    22697996.3574   22698000.0424
       174.0004        175.0004
  -4248508.99147  -3293461.17145  23755189.635    23755190.7724   23755197.0704
       156.0004        158.0004
 -19389508.23449 -15094129.01947  21073685.175    21073685.7274   21073694.0244
       198.0004        198.0004
  -2107921.96747  -1512269.97845  23590041.108    23590040.6564   23590045.4454
       154.0004        157.0004
 21  2  4  1 21 30.0000000  0 10G14G08G07G30G09G21G17G04G01G28
  -2436606.32847  -1885312.20146  23189473.177    23189474.2954   23189477.9414
       162.0004        163.0004
  -9040972.42248  -7032110.96147  22977011.658    22977011.9414   22977019.7504
       194.0004        195.0004
 -20926771.91249 -16284797.46847  20744861.667    20744862.1544   20744866.4124
       208.0004        209.0004
 -10974930.24748  -8527582.96947  22228416.310    22228415.9464   22228422.7164
       190.0004        192.0004
 -11952702.85149  -9280332.54847  21981045.537    21981045.5794   21981051.3374
       199.0004        199.0004
 -15307926.21948 -11911365.08546  21956986.157    21956985.4414   21956991.0254
       184.0004        185.0004
  -8729217.38848  -6776712.57546  22685230.423    22685230.5134   22685236.1214
       173.0004        173.0004
  -4150515.92747  -3217102.94345  23773837.058    23773837.8634   23773843.3564
       156.0004        158.0004
 -19431439.15349 -15126802.44447  21065705.583    21065706.6774   21065714.3634
       198.0004        198.0004
  -2123163.76747  -1524146.67745  23587139.938    23587140.0044   23587145.1294
       153.0004        155.0004
 21  2  4  1 22  0.0000000  0 10G14G08G07G30G09G21G17G04G01G28
  -2462947.74647  -1905837.98846  23184460.712    23184460.4294   23184465.5184
       162.0004        164.0004
  -8946708.31148  -6958658.42547  22994949.007    22994948.7734   22994957.8174
       194.0004        194.0004
 -20977733.11149 -16324507.50747  20735164.273    20735164.4614   20735169.0034
       209.0004        209.0004
 -11058683.68548  -8592845.38847  22212478.136    22212477.8464   22212485.1144
       191.0004        192.0004
 -11882252.59149  -9225436.24747  21994450.681    21994450.9564   21994457.8054
       198.0004        198.0004
 -15275655.64548 -11886219.17846  21963126.496    21963126.1524   21963131.9004
       184.0004        185.0004
  -8795908.37148  -6828679.57146  22672540.164    22672540.8294   22672545.3164
       175.0004        176.0004
  -4052558.60447  -3140772.57145  23792477.599    23792478.3324   23792484.7744
       156.0004        158.0004
 -19472898.55249 -15159108.46547  21057816.374    21057816.9074   21057825.1544
       197.0004        198.0004
  -2138438.44147  -1536049.04445  23584233.373    23584233.5414   23584237.1654
       151.0004        152.0004
 21  2  4  1 22 30.0000000  0 10G14G08G07G30G09G21G17G04G01G28
  -2489324.07748  -1926390.96246  23179440.764    23179442.0444   23179447.1614
       165.0004        167.0004
  -8852397.68248  -6885169.66747  23012896.686    23012896.1714   23012903.8064
       194.0004        194.0004
 -21028330.93649 -16363934.38947  20725535.436    20725536.0694   20725540.3744
       209.0004        210.0004
 -11142296.13248  -8657997.92847  22196566.703    22196566.7464   22196574.3254
       191.0004        191.0004
 -11811566.61249  -9170356.26247  22007901.186    22007901.4404   22007909.1864
       197.0004        197.0004
 -15242894.15648 -11860690.74546  21969360.863    21969360.5544   21969365.7074
       184.0004        184.0004
  -8862212.79048  -6880345.33546  22659925.022    22659924.5814   22659927.7094
       175.0004        176.0004
  -3954640.76847  -3064472.95645  23811110.921    23811111.6814   23811117.6234
       157.0004        159.0004
 -19513884.94749 -15191045.90647  21050016.609    21050017.3244   21050025.6304
       197.0004        197.0004
  -2153748.66147  -1547979.09345  23581320.723    23581320.4494   23581323.7254
       149.0004        151.0004
 21  2  4  1 23  0.0000000  0 10G14G08G07G30G09G21G17G04G01G28
  -2515735.01348  -1946970.90446  23174415.616    23174416.5704   23174420.9214
       167.0004        170.0004
  -8758041.70249  -6811645.53247  23030851.249    23030851.9854   23030859.7524
       195.0004        196.0004
 -21078561.43549 -16403075.05447  20715976.866    20715977.6644   20715981.6394
       209.0004        210.0004
 -11225763.77948  -8723037.66847  22180684.021    22180683.5204   22180690.1974
       190.0004        189.0004
 -11740646.59149  -9115093.92547  22021396.707    22021396.9524   22021404.9154
       196.0004        194.0004
 -15209640.71748 -11834778.96546  21975688.965    21975688.6074   21975693.4254
       184.0004        185.0004
  -8928128.59848  -6931708.29046  22647379.808    22647380.1474   22647383.9534
       174.0004        173.0004
  -3856763.79547  -2988205.19745  23829736.872    23829737.5474   23829743.0364
       158.0004        160.0004
 -19554394.54449 -15222611.81747  21042308.080    21042308.6584   21042317.4734
       197.0004        197.0004
  -2169094.53547  -1559936.89145  23578399.817    23578398.9644   23578403.2664
       148.0004        151.0004
 21  2  4  1 23 30.0000000  0 10G14G08G07G30G09G21G17G04G01G28
  -2542182.85348  -1967579.56946  23169384.879    23169385.2454   23169387.7894
       170.0004        172.0004
  -8663643.88749  -6738088.79947  23048815.752    23048815.3634   23048823.1474
       195.0004        196.0004
 -21128423.15249 -16441928.35347  20706489.291    20706489.4104   20706493.5524
       209.0004        210.0004
 -11309085.47648  -8787963.68047  22164827.895    22164828.0154   22164834.1854
       189.0004        190.0004
 -11669497.01348  -9059652.70147  22034935.162    22034935.5794   22034943.8174
       193.0004        193.0004
 -15175897.32048 -11808485.39846  21982109.974    21982109.5864   21982115.2644
       184.0004        185.0004
  -8993656.07948  -6982768.64646  22634909.586    22634910.7364   22634915.0294
       174.0004        176.0004
  -3758931.71547  -2911972.40745  23848355.333    23848354.7254   23848360.9644
       157.0004        159.0004
 -19594426.17849 -15253805.29447  21034690.517    21034690.7294   21034699.0084
       197.0004        197.0004
  -2184478.89247  -1571924.70745  23575471.620    23575472.8874   23575476.5294
       148.0004        151.0004
 21  2  4  1 24  0.0000000  0 10G14G08G07G30G09G21G17G04G01G28
  -2568667.10548  -1988216.60846  23164345.296    23164344.8894   23164348.3644
       171.0004        172.0004
  -8569205.86649  -6664500.74747  23066787.489    23066786.3724   23066793.9884
       196.0004        196.0004
 -21177912.24349 -16480491.27947  20697071.892    20697071.8124   20697075.8114
       210.0004        210.0004
 -11392257.30248  -8852772.87747  22148999.965    22149000.1764   22149007.3434
       189.0004        189.0004
 -11598119.60148  -9004033.94747  22048517.752    22048518.2124   22048526.5024
       193.0004        193.0004
 -15141663.17248 -11781809.43046  21988624.664    21988623.8964   21988629.5934
       184.0004        185.0004
  -9058792.98248  -7033524.66746  22622515.088    22622515.7224   22622519.5594
       175.0004        176.0004
  -3661145.78247  -2835775.59445  23866962.100    23866962.4274   23866968.4224
       155.0004        156.0004
 -19633975.96949 -15284623.29747  21027164.169    21027164.9904   21027172.6814
       197.0004        197.0004
  -2199901.65447  -1583942.44745  23572537.236    23572536.9104   23572542.2354
       145.0004        148.0004
 21  2  4  1 24 30.0000000  0 10G14G08G07G30G09G21G17G04G01G28
  -2595188.69548  -2008882.78946  23159294.852    23159295.3544   23159301.2394
       168.0004        166.0004
  -8474729.80149  -6590883.04647  23084763.071    23084763.6214   23084772.8124
       195.0004        195.0004
 -21227026.19449 -16518761.90347  20687725.446    20687725.8444   20687729.7074
       210.0004        210.0004
 -11475276.79248  -8917463.38247  22133203.128    22133202.9374   22133209.8214
       188.0004        190.0004
 -11526517.38148  -8948240.02347  22062143.853    22062144.6514   22062151.5914
       192.0004        192.0004
 -15106938.81448 -11754751.49046  21995232.577    21995232.4934   21995237.5534
       184.0004        185.0004
  -9123538.51848  -7083975.72546  22610195.461    22610195.4944   22610198.8854
       176.0004        178.0004
  -3563408.65147  -2759616.79745  23885562.011    23885561.4354   23885567.3764
       154.0004        156.0004
 -19673041.46649 -15315063.93747  21019730.528    21019730.6194   21019738.6954
       197.0004        198.0004
  -2215364.02347  -1595991.02245  23569596.754    23569596.2994   23569598.5524
       144.0004        148.0004
 21  2  4  1 25  0.0000000  0 11G14G08G19G07G30G09G21G17G04G01G28
  -2621747.91548  -2029578.30246  23154239.096    23154240.7564   23154247.4904
       165.0004        165.0004
  -8380217.78148  -6517237.33947  23102747.567    23102748.1114   23102757.6254
       194.0004        194.0004
  -2670558.12356  -2040690.416 3                                  24579935.227
       110.0004         74.000
 -21275761.82149 -16556737.72347  20678451.138    20678451.6164   20678455.8194
       210.0004        211.0004
 -11558140.78348  -8982032.72547  22117434.389    22117434.3684   22117440.7914
       189.0004        189.0004
 -11454692.86248  -8892272.87747  22075813.003    22075813.4034   22075819.3584
       193.0004        194.0004
 -15071724.53848 -11727311.78146  22001934.037    22001934.3404   22001938.0544
       184.0004        185.0004
  -9187891.36348  -7134120.77246  22597949.923    22597948.9164   22597953.9564
       178.0004        179.0004
  -3465722.35247  -2683497.59245  23904150.668    23904150.5624   23904156.0214
       153.0004        155.0004
 -19711619.63149 -15345124.83847  21012388.917    21012389.4574   21012398.1604
       197.0004        197.0004
  -2230867.08547  -1608071.31445  23566645.454    23566644.8314   23566650.1754
       146.0004        152.0004
 21  2  4  1 25 30.0000000  0 10G14G08G07G30G09G21G17G04G01G28
  -2648345.62848  -2050303.80946  23149181.140    23149181.6424   23149184.9374
       165.0004        166.0004
  -8285672.30848  -6443565.56247  23120739.962    23120740.3994   23120748.5264
       193.0004        193.0004
 -21324116.47949 -16594416.68847  20669249.562    20669249.8294   20669254.1684
       210.0004        211.0004
 -11640846.69148  -9046478.89247  22101695.681    22101695.8694   22101702.7434
       189.0004        190.0004
 -11382649.01748  -8836134.82247  22089522.128    22089522.8424   22089528.9524
       194.0004        194.0004
 -15036020.29048 -11699490.28046  22008727.966    22008727.8654   22008732.5084
       184.0004        185.0004
  -9251850.37448  -7183958.95546  22585777.226    22585777.6504   22585782.9684
       178.0004        178.0004
  -3368089.38547  -2607419.96545  23922729.152    23922729.5274   23922735.0694
       152.0004        154.0004
 -19749707.93149 -15374804.01947  21005140.709    21005141.5364   21005149.5824
       197.0004        197.0004
  -2246412.20547  -1620184.39845  23563686.833    23563686.3344   23563691.5394
       150.0004        154.0004
 21  2  4  1 26  0.0000000  0 11G14G08G19G07G30G09G21G17G04G01G28
  -2674983.81648  -2071060.79746  23144113.825    23144113.8424   23144116.8974
       167.0004        168.0004
  -8191096.23148  -6369869.91447  23138735.877    23138736.7824   23138746.9904
       193.0004        194.0004
   -614149.78447   -438843.87545  24899673.364    24899672.7784   24899675.0594
       138.0004        145.0004
 -21372088.37949 -16631797.38347  20660121.566    20660121.6854   20660125.3374
       210.0004        211.0004
 -11723392.96248  -9110800.65947  22085988.815    22085988.6524   22085994.8464
       190.0004        191.0004
 -11310389.96448  -8779829.04347  22103272.259    22103272.4144   22103279.9054
       194.0004        195.0004
 -14999828.30948 -11671288.72146  22015614.521    22015613.7944   22015619.7234
       184.0004        184.0004
  -9315415.68948  -7233490.35246  22573682.125    22573682.3094   22573686.8184
       179.0004        180.0004
  -3270513.41447  -2531386.72345  23941296.509    23941297.2614   23941303.5864
       152.0004        154.0004
 -19787304.94149 -15404100.37347  20997986.232    20997987.3634   20997995.4854
       197.0004        197.0004
  -2262001.46347  -1632331.87545  23560719.788    23560719.8894   23560724.6344
       151.0004        153.0004
 21  2  4  1 26 30.0000000  0 11G14G08G19G07G30G09G21G17G04G01G28
  -2701664.55548  -2091850.94546  23139034.580    23139035.0644   23139039.4074
       166.0004        167.0004
  -8096494.09248  -6296153.97247  23156737.892    23156739.2504   23156748.9444
       194.0004        194.0004
   -706374.73247   -510707.43645  24882122.546    24882121.8484   24882126.1114
       141.0004        145.0004
 -21419676.32949 -16668878.90747  20651065.440    20651065.6994   20651069.7204
       210.0004        211.0004
 -11805778.34048  -9174997.06247  22070310.168    22070310.1204   22070317.3264
       189.0004        189.0004
 -11237919.98348  -8723358.94547  22117062.423    22117062.6504   22117070.3434
       194.0004        194.0004
 -14963150.22548 -11642708.38946  22022595.569    22022594.8784   22022598.8554
       184.0004        185.0004
  -9378587.35848  -7282715.01846  22561661.327    22561660.4924   22561665.7104
       179.0004        179.0004
  -3172998.31847  -2455400.92845  23959852.966    23959853.5824   23959860.4474
       152.0004        155.0004
 -19824409.55649 -15433013.05147  20990926.158    20990926.9044   20990934.4054
       198.0004        198.0004
  -2277637.40247  -1644515.69345  23557745.030    23557745.1724   23557750.2464
       149.0004        151.0004
 21  2  4  1 27  0.0000000  0 12G14G08G19G07G30G22G09G21G17G04G01G28
  -2728387.85248  -2112674.31946  23133948.459    23133949.5914   23133953.5924
       165.0004        166.0004
  -8001866.83248  -6222418.45947  23174746.288    23174747.0814   23174755.0814
       193.0004        193.0004
   -798400.52647   -582415.78745  24864611.277    24864610.5094   24864615.5824
       145.0004        150.0004
 -21466876.96749 -16705658.63747  20642083.153    20642083.6674   20642087.6744
       210.0004        211.0004
 -11887999.50348  -9239065.47947  22054663.052    22054663.7874   22054670.9864
       188.0004        189.0004
   2372117.23254
        74.0004
 -11165241.39148  -8666726.27547  22130892.660    22130893.0604   22130900.1714
       193.0004        192.0004
 -14925985.92648 -11613749.18446  22029667.360    22029666.3754   22029670.8184
       184.0004        185.0004
  -9441364.03348  -7331631.88846  22549713.781    22549714.7844   22549718.9664
       178.0004        180.0004
  -3075545.89247  -2379463.98345  23978397.488    23978398.3914   23978405.0164
       150.0004        153.0004
 -19861018.59749 -15461539.57347  20983960.330    20983960.6604   20983967.9324
       198.0004        199.0004
  -2293320.75047  -1656736.47545  23554761.432    23554761.2894   23554763.7234
       149.0004        151.0004
 21  2  4  1 27 30.0000000  0 12G14G08G19G07G30G22G09G21G17G04G01G28
  -2755152.44648  -2133529.84246  23128854.839    23128856.2534   23128861.8234
       166.0004        168.0004
  -7907214.80848  -6148663.65747  23192758.145    23192758.6844   23192766.5044
       192.0004        192.0004
   -890223.47247   -653966.09445  24847138.658    24847138.0274   24847142.6044
       150.0004        154.0004
 -21513685.68749 -16742132.97347  20633175.762    20633176.4144   20633180.4394
       210.0004        211.0004
 -11970051.61948  -9303002.20447  22039050.816    22039051.0874   22039056.9954
       189.0004        190.0004
   2372117.23244
        74.0004
 -11092355.04248  -8609931.73747  22144762.961    22144763.0094   22144770.2664
       192.0004        193.0004
 -14888333.81248 -11584409.87246  22036831.979    22036831.5074   22036835.7514
       184.0004        184.0004
  -9503743.44248  -7380239.20146  22537843.694    22537843.8874   22537848.7244
       179.0004        180.0004
  -2978156.46447  -2303576.15145  23996931.469    23996931.1664   23996936.4494
       149.0004        151.0004
 -19897127.49749 -15489676.36747  20977089.056    20977089.6414   20977097.2304
       199.0004        200.0004
  -2309050.55447  -1668993.45845  23551766.570    23551767.2524   23551770.8314
       149.0004        151.0004
 21  2  4  1 28  0.0000000  0 12G14G08G19G07G30G22G09G21G17G04G01G28
  -2781959.80148  -2154418.67946  23123753.374    23123754.5044   23123759.8034
       166.0004        166.0004
  -7812541.42848  -6074892.21247  23210773.690    23210774.1974   23210782.7154
       192.0004        192.0004
   -981842.61347   -725357.58345  24829703.272    24829702.5164   24829707.6934
       152.0004        155.0004
 -21560100.30349 -16778300.20947  20624343.775    20624343.9174   20624348.0434
       211.0004        212.0004
 -12051932.80048  -9366805.72847  22023469.009    22023468.7024   22023474.5894
       189.0004        188.0004
   2372117.23246
       114.0004
 -11019264.65148  -8552978.19147  22158672.068    22158672.2224   22158678.7734
       193.0004        193.0004
 -14850195.51748 -11554691.70246  22044088.114    22044088.3454   22044093.6114
       184.0004        184.0004
  -9565724.90548  -7428536.42546  22526049.515    22526049.5134   22526053.7584
       180.0004        181.0004
  -2880833.27047  -2227739.90345  24015449.986    24015450.2594   24015455.6364
       148.0004        150.0004
 -19932734.52049 -15517422.09547  20970311.696    20970312.9714   20970321.3024
       199.0004        199.0004
  -2324828.94147  -1681288.30745  23548765.125    23548764.6294   23548769.1364
       149.0004        152.0004
 21  2  4  1 28 30.0000000  0 11G14G08G19G07G30G09G21G17G04G01G28
  -2808809.19447  -2175340.26746  23118644.771    23118645.9144   23118650.9064
       164.0004        164.0004
  -7717847.43148  -6001104.71447  23228794.855    23228793.8794   23228802.2004
       191.0004        191.0004
  -1073254.85947   -796587.89245  24812306.927    24812306.4974   24812313.0574
       152.0004        155.0004
 -21606116.94549 -16814157.35347  20615586.765    20615586.9834   20615591.4114
       211.0004        211.0004
 -12133638.88048  -9430472.81747  22007920.001    22007920.0514   22007927.7184
       188.0004        188.0004
 -10945971.67348  -8495866.79947  22172618.754    22172619.0764   22172626.5744
       192.0004        193.0004
 -14811569.89248 -11524593.82546  22051438.545    22051439.4454   22051444.0274
       184.0004        184.0004
  -9627306.02448  -7476521.71246  22514329.294    22514330.0934   22514335.8374
       180.0004        181.0004
  -2783577.29447  -2151956.02645  24033956.112    24033957.6114   24033963.0134
       145.0004        147.0004
 -19967835.76549 -15544773.72647  20963632.857    20963633.6084   20963641.6304
       199.0004        199.0004
  -2340655.59547  -1693620.73945  23545752.387    23545753.0704   23545757.3544
       149.0004        153.0004
 21  2  4  1 29  0.0000000  0 11G14G08G19G07G30G09G21G17G04G01G28
  -2835703.63547  -2196296.98346  23113527.560    23113526.9404   23113532.8544
       162.0004        163.0004
  -7623137.08748  -5927304.46247  23246817.496    23246817.2084   23246824.5964
       191.0004        191.0004
  -1164460.84347   -867657.48745  24794951.892    24794950.9584   24794955.4824
       150.0004        151.0004
 -21651735.27549 -16849704.11647  20606906.400    20606906.7384   20606910.5084
       211.0004        212.0004
 -12215169.45648  -9494003.13347  21992405.473    21992405.8054   21992413.1144
       189.0004        191.0004
 -10872481.39248  -8438601.65047  22186604.633    22186604.2404   22186610.9354
       192.0004        192.0004
 -14772460.05848 -11494118.62346  22058881.511    22058881.0814   22058886.5314
       184.0004        184.0004
  -9688488.59148  -7524196.42446  22502688.563    22502688.8834   22502693.1904
       182.0004        183.0004
  -2686393.22947  -2076228.19045  24052452.107    24052451.5904   24052457.0244
       145.0004        149.0004
 -20002431.13349 -15571731.13647  20957049.691    20957050.2074   20957058.4964
       199.0004        200.0004
  -2356534.05647  -1705993.57645  23542730.811    23542730.9864   23542736.1244
       151.0004        154.0004
 21  2  4  1 29 30.0000000  0 11G14G08G19G07G30G09G21G17G04G01G28
  -2862643.59847  -2217289.14646  23108399.855    23108399.9624   23108406.0814
       162.0004        163.0004
  -7528412.48848  -5853493.11547  23264843.111    23264842.6584   23264850.2194
       191.0004        191.0004
  -1255458.45447   -938564.68645  24777635.094    24777633.7304   24777639.3234
       145.0004        147.0004
 -21696952.11249 -16884938.03147  20598301.295    20598301.4484   20598306.3834
       211.0004        211.0004
 -12296521.55548  -9557394.38347  21976924.885    21976924.9514   21976931.5994
       190.0004        191.0004
 -10798796.46148  -8381184.83547  22200625.652    22200625.7444   22200632.8684
       192.0004        192.0004
 -14732866.37548 -11463266.40346  22066416.509    22066415.9424   22066420.7374
       183.0004        183.0004
  -9749271.51748  -7571559.72546  22491121.610    22491122.1594   22491127.4174
       183.0004        184.0004
  -2589283.29547  -2000558.11445  24070931.959    24070930.6434   24070936.9524
       144.0004        148.0004
 -20036517.92749 -15598292.27347  20950563.618    20950564.3004   20950571.8814
       200.0004        201.0004
  -2372465.27947  -1718407.49645  23539699.710    23539699.7784   23539703.7734
       152.0004        156.0004
 21  2  4  1 30  0.0000000  0 11G14G08G19G07G30G09G21G17G04G01G28
  -2889629.92747  -2238317.45146  23103265.604    23103265.9954   23103271.0334
       164.0004        166.0004
  -7433676.33848  -5779672.74547  23282867.931    23282868.9564   23282878.5504
       190.0004        190.0004
  -1346246.45747  -1009308.56345  24760358.185    24760356.9954   24760361.8064
       143.0004        145.0004
 -21741765.14349 -16919857.28847  20589773.999    20589774.1364   20589778.3814
       211.0004        212.0004
 -12377692.67548  -9620644.61347  21961479.459    21961479.2414   21961485.3494
       191.0004        192.0004
 -10724920.00848  -8323618.76947  22214683.072    22214683.6624   22214691.5504
       192.0004        193.0004
 -14692789.87048 -11432037.95846  22074041.808    22074041.5984   22074047.2064
       183.0004        182.0004
  -9809653.47848  -7618610.59246  22479630.871    22479631.0474   22479636.8354
       183.0004        183.0004
  -2492249.98147  -1924947.75845  24089396.570    24089395.4874   24089402.2134
       146.0004        151.0004
 -20070093.94349 -15624455.40447  20944174.340    20944174.8614   20944182.6444
       200.0004        201.0004
  -2388450.40047  -1730863.42045  23536657.619    23536658.4584   23536662.5044
       153.0004        156.0004
 21  2  4  1 30 30.0000000  0 11G14G08G19G07G30G09G21G17G04G01G28
  -2916662.78748  -2259382.01746  23098121.215    23098121.8064   23098126.9344
       166.0004        169.0004
  -7338929.85548  -5705844.33047  23300898.852    23300898.7204   23300907.9114
       189.0004        188.0004
  -1436822.23147  -1079887.09045  24743122.276    24743122.6104   24743126.3444
       141.0004        146.0004
 -21786171.08349 -16954459.31747  20581323.448    20581323.8514   20581328.2724
       211.0004        212.0004
 -12458679.53948  -9683751.25647  21946067.980    21946068.2734   21946074.0804
       192.0004        193.0004
 -10650854.47648  -8265905.36547  22228777.124    22228777.4224   22228784.6424
       191.0004        190.0004
 -14652230.80348 -11400433.46946  22081760.547    22081759.8844   22081764.4594
       182.0004        182.0004
  -9869633.69748  -7665348.39046  22468217.893    22468217.3564   22468222.8094
       184.0004        185.0004
  -2395295.25847  -1849398.63145  24107844.795    24107846.6344   24107850.4174
       147.0004        151.0004
 -20103156.32649 -15650218.28147  20937882.700    20937883.2744   20937891.3784
       200.0004        200.0004
  -2404490.23547  -1743361.99145  23533605.935    23533605.8304   23533609.5374
       152.0004        154.0004
 21  2  4  1 31  0.0000000  0 11G14G08G19G07G30G09G21G17G04G01G28
  -2943743.34048  -2280483.75246  23092969.297    23092969.1094   23092973.4464
       167.0004        168.0004
  -7244176.26048  -5632010.37947  23318927.148    23318929.2714   23318939.1214
       188.0004        188.0004
  -1527184.46247  -1150299.19945  24725926.885    24725927.0994   24725931.1074
       143.0004        147.0004
 -21830167.97049 -16988742.62247  20572951.279    20572951.8754   20572956.0034
       211.0004        212.0004
 -12539479.90948  -9746712.59547  21930692.039    21930692.2784   21930699.0524
       193.0004        193.0004
 -10576603.24348  -8208047.28047  22242907.716    22242907.5404   22242915.0664
       190.0004        191.0004
 -14611189.87548 -11368453.53746  22089570.601    22089570.0204   22089575.2504
       182.0004        183.0004
  -9929211.72548  -7711772.83046  22456880.330    22456880.3714   22456884.5144
       183.0004        183.0004
  -2298421.94347  -1773912.94045  24126281.447    24126280.8444   24126286.3544
       148.0004        152.0004
 -20135703.14749 -15675579.44347  20931689.121    20931689.5954   20931697.6544
       200.0004        200.0004
  -2420586.43147  -1755904.48245  23530542.995    23530542.8494   23530547.4164
       151.0004        153.0004
 21  2  4  1 31 30.0000000  0 11G14G08G19G07G30G09G21G17G04G01G28
  -2970871.46648  -2301622.52746  23087805.570    23087805.4094   23087811.4224
       165.0004        165.0004
  -7149416.48848  -5558171.63546  23336961.687    23336962.2154   23336971.0824
       187.0004        187.0004
  -1617330.87147  -1220543.17045  24708773.689    24708773.4314   24708775.0754
       143.0004        147.0004
 -21873752.15849 -17022704.35047  20564657.550    20564658.0094   20564661.9354
       211.0004        212.0004
 -12620090.24348  -9809525.86247  21915352.213    21915352.1734   21915358.5084
       193.0004        193.0004
 -10502168.42848  -8150046.14647  22257071.821    22257072.2694   22257079.3414
       191.0004        192.0004
 -14569667.22848 -11336098.24646  22097472.117    22097471.0624   22097476.5734
       182.0004        182.0004
  -9988385.97548  -7757882.64646  22445619.599    22445620.4524   22445624.6074
       182.0004        183.0004
  -2201631.62147  -1698491.94145  24144698.901    24144698.8974   24144704.8614
       148.0004        151.0004
 -20167731.25449 -15700536.42247  20925594.133    20925594.8124   20925602.8854
       200.0004        201.0004
  -2436739.35647  -1768491.17645  23527467.327    23527468.7884   23527472.3844
       149.0004        151.0004
 21  2  4  1 32  0.0000000  0 11G14G08G19G07G30G09G21G17G04G01G28
  -2998049.60848  -2322800.30346  23082635.237    23082634.6744   23082638.4964
       166.0004        168.0004
  -7054655.02748  -5484331.54447  23354996.329    23354995.7044   23355004.0464
       187.0004        188.0004
  -1707262.06547  -1290619.41645  24691661.869    24691659.4974   24691661.8334
       143.0004        147.0004
 -21916922.97849 -17056343.94747  20556442.019    20556442.6074   20556446.9724
       211.0004        212.0004
 -12700509.67948  -9872190.34947  21900048.540    21900048.9294   21900055.2134
       193.0004        194.0004
 -10427554.86748  -8091905.70247  22271269.850    22271270.2614   22271277.3064
       190.0004        189.0004
 -14527665.66448 -11303369.73446  22105465.404    22105464.0584   22105468.8704
       182.0004        182.0004
 -10047157.07048  -7803678.28646  22434436.493    22434436.8144   22434440.4834
       184.0004        185.0004
  -2104928.52147  -1623138.88145  24163101.209    24163099.9364   24163106.7754
       148.0004        151.0004
 -20199240.22849 -15725088.84947  20919598.388    20919599.1554   20919606.4104
       201.0004        201.0004
  -2452951.76147  -1781124.17445  23524384.579    23524384.5074   23524388.0334
       149.0004        153.0004
 21  2  4  1 32 30.0000000  0 11G14G08G19G07G30G09G21G17G04G01G28
  -3025279.07248  -2344018.06446  23077453.679    23077452.8544   23077457.2614
       167.0004        168.0004
  -6959894.57448  -5410492.24247  23373030.857    23373029.2084   23373036.7354
       188.0004        189.0004
  -1796976.32447  -1360526.60145  24674588.811    24674587.8684   24674589.7854
       142.0004        146.0004
 -21959678.52149 -17089659.95647  20548306.385    20548306.8564   20548310.7774
       211.0004        212.0004
 -12780736.01848  -9934704.36847  21884782.210    21884782.3304   21884789.2284
       194.0004        196.0004
 -10352766.07348  -8033628.72347  22285501.550    22285501.9734   22285509.2104
       188.0004        189.0004
 -14485186.29348 -11270268.91446  22113547.848    22113548.1144   22113552.2724
       181.0004        181.0004
 -10105525.81648  -7849160.40446  22423329.600    22423329.4224   22423333.4494
       184.0004        185.0004
  -2008315.51147  -1547856.02045  24181484.970    24181484.5234   24181490.9814
       147.0004        150.0004
 -20230228.35349 -15749235.41947  20913701.685    20913702.2634   20913709.8244
       201.0004        201.0004
  -2469225.83647  -1793805.25045  23521287.121    23521286.7144   23521291.1834
       149.0004        152.0004
 21  2  4  1 33  0.0000000  0 11G14G08G19G07G30G09G21G17G04G01G28
  -3052559.64348  -2365275.62146  23072260.133    23072260.8244   23072267.0174
       167.0004        168.0004
  -6865135.90548  -5336654.35147  23391063.344    23391062.1524   23391067.3444
       189.0004        189.0004
  -1886471.55347  -1430263.12245  24657558.920    24657557.6304   24657559.4184
       142.0004        146.0004
 -22002015.21849 -17122649.60047  20540250.225    20540250.3184   20540254.4244
       211.0004        212.0004
 -12860765.72249  -9997065.17947  21869552.656    21869552.9524   21869560.8754
       195.0004        196.0004
 -10277804.11048  -7975216.81447  22299766.416    22299767.2334   22299773.7094
       187.0004        188.0004
 -14442229.16748 -11236795.82546  22121722.893    22121722.5054   22121726.5364
       181.0004        182.0004
 -10163490.52348  -7894327.72346  22412298.132    22412299.0924   22412302.8934
       184.0004        185.0004
  -1911794.14247  -1472644.57345  24199852.237    24199852.7984   24199857.6064
       147.0004        150.0004
 -20260692.55349 -15772973.75647  20907905.027    20907905.2624   20907912.7454
       201.0004        201.0004
  -2485561.25647  -1806534.11345  23518178.310    23518177.6604   23518181.7924
       149.0004        151.0004
 21  2  4  1 33 30.0000000  0 11G14G08G19G07G30G09G21G17G04G01G28
  -3079891.61948  -2386573.26446  23067060.199    23067060.5184   23067064.6144
       167.0004        168.0004
  -6770381.23148  -5262819.54946  23409090.715    23409091.4204   23409097.8304
       188.0004        187.0004
  -1975745.59847  -1499827.26845  24640567.631    24640568.1924   24640572.4944
       141.0004        144.0004
 -22043930.54949 -17155310.90047  20532273.755    20532274.0334   20532278.4994
       211.0004        212.0004
 -12940595.75649 -10059270.38347  21854362.076    21854361.8674   21854369.0974
       195.0004        196.0004
 -10202671.63648  -7916672.03047  22314064.197    22314064.0444   22314071.5834
       187.0004        188.0004
 -14398795.13848 -11202951.12046  22129988.165    22129987.4664   22129992.7554
       181.0004        181.0004
 -10221049.61448  -7939178.95746  22401345.217    22401345.3564   22401349.2534
       183.0004        183.0004
  -1815366.52547  -1397506.19145  24218201.795    24218202.7934   24218207.8314
       149.0004        153.0004
 -20290630.28449 -15796301.84647  20902207.944    20902208.2334   20902215.8314
       201.0004        201.0004
  -2501959.10147  -1819311.66945  23515058.651    23515057.7364   23515062.1024
       149.0004        153.0004
 21  2  4  1 34  0.0000000  0 11G14G08G19G07G30G09G21G17G04G01G28
  -3107274.01848  -2407910.17946  23061849.430    23061849.3664   23061854.5434
       166.0004        167.0004
  -6675630.85348  -5188988.10947  23427122.016    23427121.7284   23427129.9984
       187.0004        188.0004
  -2064795.15447  -1569216.55245  24623623.412    24623622.6964   24623627.1324
       139.0004        144.0004
 -22085419.70249 -17187640.12147  20524378.054    20524378.8684   20524383.1184
       211.0004        212.0004
 -13020221.69549 -10121316.58347  21839210.282    21839210.3924   21839216.2064
       195.0004        196.0004
 -10127369.93448  -7857995.38946  22328392.534    22328393.5104   22328400.9594
       187.0004        187.0004
 -14354882.88148 -11168733.78346  22138343.708    22138343.2034   22138348.6514
       181.0004        181.0004
 -10278201.10448  -7983712.58546  22390469.615    22390470.4314   22390473.1944
       183.0004        183.0004
  -1719033.24647  -1322441.29545  24236532.636    24236532.9744   24236540.3344
       150.0004        152.0004
 -20320037.67749 -15819216.68647  20896611.699    20896612.1354   20896619.8424
       201.0004        201.0004
  -2518418.89847  -1832137.48845  23511925.820    23511925.8454   23511930.1484
       151.0004        153.0004
 21  2  4  1 34 30.0000000  0 11G14G08G19G07G30G09G21G17G04G01G28
  -3134709.03648  -2429288.11546  23056628.496    23056629.5144   23056633.9534
       167.0004        169.0004
  -6580888.83848  -5115163.20146  23445150.469    23445150.6064   23445157.7834
       186.0004        186.0004
  -2153620.23347  -1638430.86545  24606719.860    24606719.4524   24606722.9314
       139.0004        143.0004
 -22126482.13549 -17219636.83547  20516564.838    20516564.9364   20516569.1054
       211.0004        212.0004
 -13099642.41649 -10183202.86647  21824095.970    21824096.1794   21824103.3694
       196.0004        196.0004
 -10051903.54348  -7799190.41846  22342754.200    22342754.6834   22342760.8904
       186.0004        186.0004
 -14310494.96248 -11134145.77946  22146790.800    22146789.7514   22146794.8944
       181.0004        181.0004
 -10334945.98048  -8027929.35846  22379671.958    22379671.9484   22379675.1474
       182.0004        183.0004
  -1622798.25747  -1247452.99445  24254844.663    24254845.1144   24254852.8194
       150.0004        153.0004
 -20348914.10249 -15841717.78847  20891115.802    20891116.6704   20891125.1984
       201.0004        201.0004
  -2534943.53447  -1845013.82945  23508779.396    23508779.4684   23508783.7284
       147.0004        148.0004
 21  2  4  1 35  0.0000000  0 11G14G08G19G07G30G09G21G17G04G01G28
  -3162196.59048  -2450706.99346  23051398.984    23051398.9904   23051403.7784
       168.0004        169.0004
  -6486156.17948  -5041345.54546  23463177.161    23463177.3854   23463185.2614
       185.0004        186.0004
  -2242218.49347  -1707468.42245  24589859.492    24589858.9694   24589862.8754
       137.0004        142.0004
 -22167114.41749 -17251298.36748  20508833.030    20508833.3244   20508837.2584
       212.0004        213.0004
 -13178854.41749 -10244926.50347  21809022.499    21809023.1144   21809029.5634
       196.0004        196.0004
  -9976274.66748  -7740258.82746  22357146.418    22357146.4564   22357152.8014
       186.0004        187.0004
 -14265631.68848 -11099187.39046  22155327.514    22155327.7084   22155332.4634
       180.0004        181.0004
 -10391282.58648  -8071828.02046  22368950.599    22368950.7474   22368955.3774
       182.0004        182.0004
  -1526663.16047  -1172542.53245  24273138.980    24273139.8994   24273147.7614
       149.0004        151.0004
 -20377256.69349 -15863802.91147  20885722.655    20885723.2394   20885731.6974
       201.0004        201.0004
  -2551533.10647  -1857940.76545  23505623.804    23505623.5984   23505628.9194
       147.0004        151.0004
 21  2  4  1 35 30.0000000  0 11G14G08G19G07G30G09G21G17G04G01G28
  -3189738.08048  -2472167.88746  23046155.083    23046156.3444   23046162.9444
       168.0004        169.0004
  -6391436.06548  -4967537.69046  23481200.628    23481200.9144   23481210.0264
       185.0004        185.0004
  -2330589.27947  -1776328.73745  24573045.402    24573044.2444   24573047.2274
       141.0004        147.0004
 -22207314.86249 -17282623.39548  20501182.624    20501183.0884   20501187.2574
       212.0004        213.0004
 -13257855.79749 -10306486.03047  21793989.946    21793989.5834   21793995.8504
       196.0004        197.0004
  -9900486.97848  -7681203.49547  22371568.368    22371568.7704   22371575.2514
       187.0004        188.0004
 -14220295.04348 -11063860.13646  22163955.433    22163954.5264   22163959.8574
       181.0004        181.0004
 -10447211.42148  -8115408.91646  22358309.054    22358308.8784   22358312.3744
       182.0004        183.0004
  -1430631.08447  -1097712.37345  24291413.251    24291413.9874   24291421.2914
       147.0004        150.0004
 -20405064.16149 -15885471.05747  20880431.298    20880431.8154   20880439.6654
       201.0004        200.0004
  -2568189.55147  -1870919.79745  23502455.066    23502454.4584   23502459.5984
       149.0004        153.0004
 21  2  4  1 36  0.0000000  0 11G14G08G19G07G30G09G21G17G04G01G28
  -3217334.53348  -2493671.62146  23040905.522    23040905.7734   23040909.4454
       167.0004        166.0004
  -6296731.45048  -4893741.87647  23499223.999    23499223.7644   23499232.2084
       186.0004        188.0004
  -2418731.48847  -1845010.92245  24556272.153    24556272.0564   24556275.5794
       145.0004        150.0004
 -22247081.38449 -17313610.29648  20493615.211    20493615.5064   20493619.9024
       212.0004        213.0004
 -13336644.19749 -10367879.58347  21778996.495    21778996.5124   21779003.2624
       196.0004        197.0004
  -9824544.04848  -7622027.17546  22386019.281    22386019.0694   22386026.6554
       187.0004        186.0004
 -14174486.50948 -11028165.15546  22172671.776    22172671.1774   22172676.7134
       181.0004        181.0004
 -10502732.27748  -8158671.90546  22347742.564    22347742.2404   22347747.1594
       182.0004        182.0004
  -1334704.72347  -1022964.58045  24309665.883    24309668.1484   24309674.9324
       146.0004        149.0004
 -20432334.77649 -15906720.86247  20875242.327    20875241.9714   20875250.0284
       200.0004        200.0004
  -2584914.70047  -1883952.37245  23499270.528    23499271.3784   23499276.2504
       149.0004        152.0004
 21  2  4  1 36 30.0000000  0 11G14G08G19G07G30G09G21G17G04G01G28
  -3244986.18248  -2515218.36746  23035643.878    23035643.7244   23035649.2894
       168.0004        170.0004
  -6202044.25548  -4819959.67346  23517241.985    23517242.1114   23517249.8624
       187.0004        187.0004
  -2506642.80447  -1913513.21545  24539542.659    24539542.3914   24539546.4994
       148.0004        153.0004
 -22286411.12949 -17344256.87147  20486131.010    20486131.5014   20486135.8364
       212.0004        212.0004
 -13415216.51249 -10429104.77447  21764044.364    21764044.3994   21764051.2714
       196.0004        197.0004
  -9748448.26448  -7562731.79646  22400499.094    22400499.7134   22400507.0534
       185.0004        186.0004
 -14128205.71248 -10992102.22446  22181479.246    22181479.2484   22181483.3724
       180.0004        180.0004
 -10557844.05648  -8201616.17246  22337254.584    22337255.1254   22337259.8464
       181.0004        181.0004
  -1238886.03247   -948300.69845  24327900.190    24327902.1244   24327908.5814
       146.0004        149.0004
 -20459066.08149 -15927550.45447  20870154.255    20870155.3134   20870163.3264
       200.0004        200.0004
  -2601708.94947  -1897038.80645  23496075.523    23496075.5664   23496080.3324
       150.0004        154.0004
 21  2  4  1 37  0.0000000  0 11G14G08G19G07G30G09G21G17G04G01G28
  -3272694.57748  -2536809.31146  23030369.616    23030370.4564   23030376.5234
       169.0004        170.0004
  -6107376.72648  -4746192.79647  23535256.940    23535257.2494   23535265.2704
       188.0004        188.0004
  -2594322.78447  -1981835.22745  24522859.242    24522858.0334   24522861.5434
       150.0004        154.0004
 -22325302.91449 -17374562.15948  20478730.296    20478730.4954   20478735.0174
       212.0004        213.0004
 -13493570.95749 -10490160.19347  21749134.877    21749134.8224   21749140.8674
       197.0004        197.0004
  -9672203.62948  -7503320.38846  22415008.571    22415008.9174   22415016.1524
       185.0004        186.0004
 -14081455.12048 -10955673.16946  22190375.288    22190374.6534   22190380.4644
       180.0004        181.0004
 -10612547.41248  -8244242.14846  22326845.793    22326846.1754   22326850.3534
       183.0004        184.0004
  -1143178.22147   -873723.19245  24346114.628    24346116.2114   24346120.6454
       146.0004        149.0004
 -20485256.98149 -15947958.92647  20865171.368    20865171.6664   20865179.6284
       200.0004        201.0004
  -2618574.87147  -1910181.09645  23492866.614    23492867.3764   23492871.7474
       153.0004        157.0004
 21  2  4  1 37 30.0000000  0 11G14G08G19G07G30G09G21G17G04G01G28
  -3300460.29248  -2558444.95246  23025087.673    23025088.4094   23025092.0924
       169.0004        170.0004
  -6012731.25948  -4672443.07647  23553267.628    23553268.0714   23553275.8284
       187.0004        188.0004
  -2681770.19347  -2049976.00445  24506216.946    24506216.2454   24506220.7444
       151.0004        153.0004
 -22363753.87049 -17404523.94648  20471412.918    20471413.5874   20471418.3924
       212.0004        213.0004
 -13571704.80749 -10551043.70947  21734266.240    21734266.1444   21734272.7724
       197.0004        197.0004
  -9595813.05048  -7443795.26246  22429545.047    22429545.4614   22429552.2594
       184.0004        185.0004
 -14034235.98448 -10918879.03346  22199360.486    22199360.6344   22199365.5624
       180.0004        180.0004
 -10666841.64648  -8286549.33846  22316513.419    22316514.0354   22316518.3134
       184.0004        184.0004
  -1047583.63947   -799233.90645  24364306.145    24364307.0304   24364312.8084
       145.0004        149.0004
 -20510905.45249 -15967944.72147  20860290.053    20860290.7404   20860298.8774
       200.0004        200.0004
  -2635512.62847  -1923379.34745  23489644.523    23489644.2944   23489647.7414
       156.0004        159.0004
 21  2  4  1 38  0.0000000  0 11G14G08G19G07G30G09G21G17G04G01G28
  -3328283.53948  -2580125.41246  23019792.773    23019793.0634   23019797.6474
       169.0004        170.0004
  -5918109.27048  -4598711.69447  23571274.831    23571274.3544   23571281.9454
       188.0004        188.0004
  -2768982.76747  -2117933.82545  24489621.006    24489620.2244   24489624.3064
       151.0004        154.0004
 -22401761.35949 -17434140.18948  20464180.786    20464181.1984   20464185.3094
       212.0004        213.0004
 -13649614.92449 -10611752.89247  21719440.202    21719440.0114   21719447.2064
       197.0004        197.0004
  -9519279.09848  -7384158.42046  22444110.195    22444109.9074   22444116.3584
       184.0004        185.0004
 -13986548.91548 -10881720.28646  22208436.561    22208435.8894   22208440.7294
       180.0004        181.0004
 -10720725.99548  -8328537.13846  22306259.819    22306259.9154   22306264.4614
       184.0004        184.0004
   -952104.17547   -724834.32545  24382473.732    24382474.9794   24382481.5414
       145.0004        148.0004
 -20536009.12849 -15987506.00947  20855513.537    20855513.5534   20855521.7634
       200.0004        201.0004
  -2652523.30747  -1936634.38645  23486407.111    23486406.6424   23486410.4904
       156.0004        159.0004
 21  2  4  1 38 30.0000000  0 11G14G08G19G07G30G09G21G17G04G01G28
  -3356165.07248  -2601851.26146  23014485.720    23014486.7024   23014492.4354
       169.0004        169.0004
  -5823513.56948  -4525000.78146  23589274.318    23589274.5644   23589281.8404
       187.0004        187.0004
  -2855959.21447  -2185707.62945  24473068.970    24473068.6364   24473073.1844
       151.0004        153.0004
 -22439322.95849 -17463408.96648  20457032.978    20457033.3454   20457037.8094
       212.0004        214.0004
 -13727298.69949 -10672285.70647  21704657.529    21704657.9894   21704664.4034
       197.0004        198.0004
  -9442604.87348  -7324412.26746  22458699.413    22458699.7564   22458706.9134
       184.0004        185.0004
 -13938395.01348 -10844197.75346  22217599.862    22217598.8334   22217603.8534
       180.0004        180.0004
 -10774200.14348  -8370205.29546  22296082.737    22296083.8764   22296088.5174
       183.0004        183.0004
   -856742.25647   -650526.33945  24400619.695    24400621.2734   24400628.2574
       142.0004        144.0004
 -20560566.18149 -16006641.34847  20850839.931    20850840.8554   20850848.9024
       200.0004        201.0004
  -2669608.29047  -1949947.36945  23483156.063    23483155.2614   23483159.7214
       157.0004        159.0004
 21  2  4  1 39  0.0000000  0 11G14G08G19G07G30G09G21G17G04G01G28
  -3384104.90148  -2623622.55846  23009170.941    23009170.9114   23009174.2394
       167.0004        168.0004
  -5728945.36548  -4451311.29046  23607271.060    23607270.1254   23607278.3534
       185.0004        186.0004
  -2942697.57047  -2253295.93645  24456564.103    24456563.1474   24456566.3664
       150.0004        152.0004
 -22476435.81649 -17492328.08248  20449970.723    20449971.0814   20449975.3534
       213.0004        214.0004
 -13804752.83149 -10732639.57447  21689918.703    21689918.6004   21689925.3034
       198.0004        199.0004
  -9365792.73248  -7264558.65946  22473317.010    22473317.6994   22473324.1904
       184.0004        186.0004
 -13889774.96148 -10806311.97946  22226850.536    22226850.7604   22226855.5794
       180.0004        179.0004
 -10827262.77248  -8411552.79546  22285986.724    22285986.8354   22285991.5364
       184.0004        186.0004
   -761499.51947   -576311.23545  24418744.658    24418745.9354   24418751.8714
       139.0004        143.0004
 -20584574.08549 -16025348.79347  20846271.714    20846272.1054   20846279.9964
       200.0004        201.0004
  -2686768.08347  -1963318.61145  23479892.112    23479891.9094   23479894.2144
       158.0004        161.0004
 21  2  4  1 39 30.0000000  0 11G14G08G19G07G30G09G21G17G04G01G28
  -3412103.90748  -2645439.99846  23003843.238    23003842.8234   23003847.1344
       166.0004        168.0004
  -5634407.25648  -4377645.25746  23625258.473    23625258.9574   23625268.4504
       184.0004        184.0004
  -3029196.62547  -2320697.74445  24440103.894    24440102.9034   24440106.2294
       149.0004        152.0004
 -22513097.80449 -17520895.87948  20442993.715    20442994.4054   20442998.7494
       212.0004        213.0004
 -13881974.95949 -10792812.67647  21675223.312    21675223.6654   21675230.6254
       198.0004        199.0004
  -9288846.03548  -7204600.21046  22487960.023    22487960.3374   22487966.2404
       185.0004        185.0004
 -13840689.84948 -10768063.85546  22236191.607    22236191.3314   22236195.9004
       179.0004        180.0004
 -10879914.37448  -8452580.02246  22275967.309    22275967.5894   22275972.4704
       186.0004        187.0004
   -666378.63547   -502191.09845  24436847.490    24436846.3594   24436852.5664
       137.0004        142.0004
 -20608031.29049 -16043627.13247  20841807.122    20841808.1714   20841816.2424
       200.0004        200.0004
  -2704004.06347  -1976749.22945  23476611.686    23476611.7354   23476613.3234
       156.0004        156.0004
 21  2  4  1 40  0.0000000  0 11G14G08G19G07G30G09G21G17G04G01G28
  -3440162.00148  -2667303.44546  22998501.812    22998503.3774   22998507.7834
       167.0004        168.0004
  -5539900.62148  -4304003.75046  23643242.165    23643243.5324   23643252.2014
       185.0004        185.0004
  -3115453.80547  -2387911.07545  24423689.528    24423688.6684   24423693.5214
       151.0004        154.0004
 -22549305.79249 -17549109.90248  20436104.477    20436104.4904   20436108.4684
       212.0004        214.0004
 -13958961.65149 -10852802.30947  21660573.096    21660573.4764   21660580.1744
       198.0004        198.0004
  -9211766.98848  -7144538.62346  22502626.092    22502626.1004   22502633.7244
       183.0004        182.0004
 -13791140.28048 -10729453.79846  22245620.771    22245620.1814   22245625.7834
       180.0004        181.0004
 -10932153.47448  -8493285.79546  22266026.098    22266026.3584   22266031.0184
       186.0004        187.0004
   -571381.17447   -428167.12645  24454924.378    24454925.9614   24454931.4864
       137.0004        141.0004
 -20630935.20549 -16061474.32547  20837449.247    20837449.6504   20837457.3564
       200.0004        200.0004
  -2721316.53947  -1990239.46045  23473314.908    23473314.7554   23473320.8624
       152.0004        152.0004
 21  2  4  1 40 30.0000000  0 11G14G08G19G07G30G09G21G17G04G01G28
  -3468279.20948  -2689212.93846  22993153.284    22993152.7704   22993158.2274
       168.0004        170.0004
  -5445426.75348  -4230387.74046  23661221.285    23661221.3914   23661230.3634
       183.0004        183.0004
  -3201468.05547  -2454935.16645  24407322.543    24407321.6914   24407324.3614
       152.0004        155.0004
 -22585057.17249 -17576968.12248  20429301.495    20429301.2564   20429305.5274
       213.0004        214.0004
 -14035709.67049 -10912605.94547  21645969.079    21645968.0234   21645975.5074
       197.0004        197.0004
  -9134558.12848  -7084375.86446  22517318.797    22517319.1924   22517326.5244
       182.0004        184.0004
 -13741127.16848 -10690482.53746  22255138.078    22255137.4254   22255143.0464
       180.0004        180.0004
 -10983979.27948  -8533669.52946  22256164.299    22256164.6564   22256170.0994
       187.0004        187.0004
   -476508.89047   -354240.66145  24472977.618    24472978.2034   24472984.5854
       138.0004        143.0004
 -20653283.51349 -16078888.56447  20833195.852    20833196.7864   20833204.5644
       199.0004        199.0004
  -2738706.03847  -2003789.76345  23470003.229    23470004.0754   23470010.5344
       149.0004        150.0004
 21  2  4  1 41  0.0000000  0 11G14G08G19G07G30G09G21G17G04G01G28
  -3496457.30748  -2711169.88046  22987789.628    22987790.3474   22987795.4294
       169.0004        170.0004
  -5350988.84948  -4156799.77546  23679192.061    23679192.6164   23679201.0874
       182.0004        184.0004
  -3287238.72547  -2521769.43745  24391000.787    24390999.9644   24391001.8644
       152.0004        154.0004
 -22620350.70949 -17604469.57248  20422584.205    20422584.7254   20422589.3194
       213.0004        214.0004
 -14112217.51149 -10972222.41647  21631409.094    21631409.6124   21631416.6194
       197.0004        198.0004
  -9057223.56048  -7024115.15546  22532035.747    22532035.6684   22532042.9794
       183.0004        184.0004
 -13690652.69548 -10651151.75946  22264741.936    22264742.0094   22264747.7404
       179.0004        180.0004
 -11035392.46448  -8573731.73446  22246379.781    22246380.6454   22246385.4074
       186.0004        187.0004
   -381765.22847   -280414.43645  24491006.892    24491006.7494   24491013.8084
       138.0004        142.0004
 -20675075.57049 -16095869.36247  20829050.383    20829050.0854   20829058.0184
       200.0004        200.0004
  -2756175.03547  -2017401.95745  23466682.324    23466683.1714   23466687.4964
       150.0004        155.0004
 21  2  4  1 41 30.0000000  0 11G14G08G19G07G30G09G21G17G04G01G28
  -3524697.47948  -2733175.26346  22982417.301    22982417.1194   22982420.4324
       168.0004        169.0004
  -5256589.98248  -4083242.26046  23697156.086    23697155.6474   23697165.0824
       182.0004        182.0004
  -3372764.96847  -2588413.22945  24374724.732    24374723.4524   24374727.6914
       151.0004        153.0004
 -22655184.80149 -17631613.05848  20415956.235    20415956.5484   20415960.4814
       213.0004        214.0004
 -14188483.04349 -11031650.14747  21616897.540    21616897.4414   21616903.7754
       198.0004        198.0004
  -8979766.91048  -6963759.35746  22546776.169    22546776.1504   22546782.8804
       184.0004        185.0004
 -13639718.73148 -10611462.98246  22274434.962    22274434.3264   22274440.0734
       179.0004        180.0004
 -11086393.73948  -8613473.02446  22236675.819    22236675.8634   22236680.2234
       187.0004        187.0004
   -287153.09547   -206690.74145  24509012.125    24509012.4874   24509017.7704
       138.0004        143.0004
 -20696310.22349 -16112415.86147  20825007.617    20825008.7144   20825017.0584
       199.0004        200.0004
  -2773724.97447  -2031077.23045  23463345.050    23463344.0494   23463347.0884
       153.0004        157.0004
 21  2  4  1 42  0.0000000  0 11G14G08G19G07G30G09G21G17G04G01G28
  -3553000.42348  -2755229.49346  22977030.984    22977030.5234   22977035.9114
       170.0004        171.0004
  -5162231.89148  -4009716.49746  23715109.546    23715110.9364   23715120.4434
       181.0004        181.0004
  -3458045.18947  -2654865.29645  24358497.363    24358496.3114   24358499.9684
       154.0004        158.0004
 -22689557.03149 -17658396.61548  20409414.979    20409415.3624   20409419.6614
       213.0004        214.0004
 -14264503.72249 -11090887.03647  21602431.091    21602430.7014   21602436.9824
       198.0004        198.0004
  -8902191.22248  -6903310.76046  22561537.843    22561537.9354   22561544.8484
       184.0004        185.0004
 -13588326.51448 -10571417.09046  22284214.613    22284213.9114   22284219.6434
       179.0004        179.0004
 -11136982.74748  -8652892.98847  22227049.222    22227049.1724   22227054.0564
       187.0004        188.0004
   -192674.85247   -133071.34745  24526987.657    24526989.4444   24526996.5774
       139.0004        143.0004
 -20716985.80649 -16128526.69147  20821073.987    20821074.7244   20821082.3794
       199.0004        199.0004
  -2791357.10247  -2044816.54745  23459988.623    23459987.4384   23459990.8524
       154.0004        156.0004
 21  2  4  1 42 30.0000000  0 11G14G08G19G07G30G09G21G17G04G01G28
  -3581364.79848  -2777331.60646  22971633.168    22971633.8394   22971638.2654
       172.0004        174.0004
  -5067915.06248  -3936222.87646  23733056.866    23733058.2974   23733067.8184
       179.0004        180.0004
  -3543076.41847  -2721123.39445  24342315.293    24342315.2674   24342318.5294
       154.0004        155.0004
 -22723463.59449 -17684817.31848  20402963.629    20402963.7864   20402967.5594
       213.0004        215.0004
 -14340274.96649 -11149929.55147  21588011.587    21588011.9074   21588018.5174
       198.0004        198.0004
  -8824497.67248  -6842770.33346  22576320.282    22576321.1874   22576328.5614
       183.0004        181.0004
 -13536475.30748 -10531013.55246  22294081.339    22294081.4174   22294086.2714
       178.0004        179.0004
 -11187157.05148  -8691989.84347  22217500.336    22217501.0644   22217506.3664
       188.0004        189.0004
    -98330.83747    -59556.53345  24544943.694    24544942.6704   24544949.7274
       141.0004        146.0004
 -20737098.76449 -16144199.10747  20817246.880    20817247.3814   20817255.0334
       199.0004        199.0004
  -2809070.71447  -2058619.35745  23456615.556    23456614.8404   23456621.1134
       153.0004        155.0004
 21  2  4  1 43  0.0000000  0 11G14G08G19G07G30G09G21G17G04G01G28
  -3609791.71648  -2799482.45146  22966223.743    22966224.6204   22966228.1034
       172.0004        172.0004
  -4973641.89848  -3862763.29146  23750997.552    23750998.2844   23751007.0044
       179.0004        180.0004
  -3627857.97947  -2787186.91245  24326181.785    24326181.2124   24326184.8684
       153.0004        155.0004
 -22756902.45449 -17710873.57548  20396599.608    20396599.8854   20396604.3614
       213.0004        214.0004
 -14415794.59049 -11208776.01747  21573640.991    21573641.3704   21573647.4114
       198.0004        198.0004
  -8746689.70048  -6782140.75446  22591128.477    22591128.5304   22591135.7324
       182.0004        183.0004
 -13484167.23848 -10490254.02546  22304035.685    22304035.6934   22304040.8244
       178.0004        179.0004
 -11236917.10948  -8730763.90547  22208031.540    22208031.7274   22208037.0794
       187.0004        188.0004
     -4123.87747     13851.44745  24562868.946    24562870.3574   24562878.2394
       143.0004        147.0004
 -20756647.96149 -16159432.23447  20813526.602    20813527.2774   20813535.3604
       199.0004        200.0004
  -2826867.21447  -2072486.75445  23453228.878    23453229.6184   23453234.1954
       151.0004        154.0004
 21  2  4  1 43 30.0000000  0 11G14G08G19G07G30G09G21G17G04G01G28
  -3638281.99248  -2821682.66246  22960802.525    22960802.7574   22960807.3364
       172.0004        173.0004
  -4879414.61348  -3789339.45746  23768929.987    23768929.9674   23768938.8774
       180.0004        182.0004
  -3712388.52347  -2853054.85445  24310097.302    24310095.6934   24310100.0704
       154.0004        157.0004
 -22789872.19549 -17736564.29848  20390326.002    20390326.4674   20390330.4994
       213.0004        215.0004
 -14491060.19249 -11267424.55447  21559318.472    21559318.3894   21559325.0324
       198.0004        198.0004
  -8668770.61048  -6721424.60746  22605955.679    22605956.4244   22605963.3574
       183.0004        184.0004
 -13431403.89848 -10449139.74246  22314076.199    22314075.6064   22314080.8304
       178.0004        178.0004
 -11286263.32748  -8769215.51246  22198642.029    22198642.1034   22198646.2854
       187.0004        187.0004
     89943.53847     87150.73445  24580769.265    24580770.9204   24580777.2904
       141.0004        145.0004
 -20775631.97149 -16174224.96647  20809913.341    20809914.3404   20809922.2534
       199.0004        199.0004
  -2844748.10947  -2086419.92045  23449828.122    23449828.1164   23449830.3304
       151.0004        154.0004
 21  2  4  1 44  0.0000000  0 11G14G08G19G07G30G09G21G17G04G01G28
  -3666837.12348  -2843933.40346  22955368.428    22955368.7484   22955372.8674
       170.0004        171.0004
  -4785236.57948  -3715953.99446  23786849.789    23786850.8794   23786859.4944
       179.0004        179.0004
  -3796667.62947  -2918726.88345  24294058.353    24294057.7194   24294062.2674
       154.0004        156.0004
 -22822371.11049 -17761888.12748  20384142.224    20384142.1524   20384146.1174
       214.0004        215.0004
 -14566070.05549 -11325873.78847  21545044.978    21545044.6164   21545051.5764
       199.0004        200.0004
  -8590744.35748  -6660624.91646  22620804.526    22620804.5404   22620811.2054
       184.0004        185.0004
 -13378187.64848 -10407672.52646  22324203.275    22324201.9204   22324207.5404
       178.0004        178.0004
 -11335196.20748  -8807345.00346  22189330.313    22189330.7374   22189334.4864
       186.0004        187.0004
    183868.23347    160338.82345  24598643.075    24598644.4594   24598650.2944
       140.0004        144.0004
 -20794050.16949 -16188576.78047  20806408.852    20806409.8544   20806417.8154
       200.0004        200.0004
  -2862715.33147  -2100420.34845  23446408.844    23446408.1504   23446412.7794
       154.0004        158.0004
 21  2  4  1 44 30.0000000  0 11G14G08G19G07G30G09G21G17G04G01G28
  -3695457.16348  -2866234.76746  22949921.526    22949922.2364   22949926.2794
       170.0004        170.0004
  -4691109.04148  -3642607.86746  23804761.892    23804762.1944   23804773.4534
       179.0004        180.0004
  -3880693.77847  -2984201.78845  24278068.692    24278068.2534   24278071.8594
       152.0004        155.0004
 -22854396.81849 -17786843.23348  20378046.845    20378047.3354   20378051.9504
       214.0004        215.0004
 -14640820.99649 -11384121.27747  21530820.191    21530820.2504   21530826.6454
       200.0004        201.0004
  -8512613.43948  -6599743.68046  22635671.794    22635671.9364   22635678.3494
       183.0004        183.0004
 -13324519.28248 -10365853.02446  22334415.703    22334415.1074   22334421.2194
       178.0004        179.0004
 -11383715.18048  -8845151.98647  22180096.675    22180097.4734   22180102.0934
       187.0004        188.0004
    277648.37447    233414.23845  24616489.596    24616490.4244   24616494.1724
       139.0004        143.0004
 -20811900.44249 -16202486.07447  20803012.858    20803013.0544   20803020.8584
       200.0004        200.0004
  -2880769.57747  -2114488.57845  23442973.404    23442973.2274   23442977.5074
       156.0004        159.0004
 21  2  4  1 45  0.0000000  0 11G14G08G19G07G30G09G21G17G04G01G28
  -3724142.35448  -2888586.86546  22944463.531    22944463.8864   22944468.7514
       170.0004        171.0004
  -4597033.94148  -3569302.61946  23822664.885    23822665.7664   23822674.1614
       179.0004        180.0004
  -3964465.33847  -3049478.28745  24262127.675    24262126.8844   24262131.4204
       151.0004        153.0004
 -22885946.57149 -17811427.47348  20372043.640    20372044.0054   20372048.2004
       214.0004        215.0004
 -14715310.01349 -11442164.68147  21516645.354    21516645.2674   21516651.8584
       200.0004        200.0004
  -8434380.47448  -6538782.94446  22650558.668    22650558.6904   22650565.6534
       182.0004        183.0004
 -13270399.84448 -10323682.03146  22344714.219    22344713.6334   22344719.0504
       178.0004        178.0004
 -11431819.70848  -8882636.04346  22170943.707    22170943.4404   22170948.5734
       187.0004        187.0004
    371282.17347    306375.65145  24634306.814    24634308.7134   24634314.2394
       139.0004        144.0004
 -20829180.94549 -16215951.39947  20799723.505    20799724.2014   20799732.5754
       199.0004        199.0004
  -2898911.39947  -2128625.06545  23439520.856    23439521.1654   23439524.5834
       157.0004        159.0004
 21  2  4  1 45 30.0000000  0 11G14G08G19G07G30G09G21G17G04G01G28
  -3752892.72048  -2910989.72546  22938992.207    22938993.6404   22938997.9754
       171.0004        172.0004
  -4503012.40048  -3496039.11146  23840556.966    23840556.9714   23840565.4064
       177.0004        177.0004
  -4047980.12947  -3114554.74645  24246235.297    24246234.7704   24246238.4374
       150.0004        152.0004
 -22917017.82649 -17835638.84848  20366130.521    20366131.0134   20366135.3714
       214.0004        215.0004
 -14789533.98049 -11500001.53447  21502521.299    21502521.0204   21502528.0234
       201.0004        202.0004
  -8356048.02948  -6477744.66746  22665464.367    22665465.0364   22665472.9324
       183.0004        185.0004
 -13215830.13348 -10281160.17846  22355098.574    22355097.6054   22355103.8884
       177.0004        178.0004
 -11479509.05148  -8919796.56047  22161868.055    22161868.7734   22161873.1134
       187.0004        188.0004
    464767.80347    379221.60245  24652096.595    24652096.8134   24652103.8674
       139.0004        145.0004
 -20845889.65049 -16228971.16347  20796543.987    20796544.9364   20796552.7994
       199.0004        200.0004
  -2917141.44747  -2142830.30445  23436052.680    23436052.4654   23436055.3114
       156.0004        158.0004
 21  2  4  1 46  0.0000000  0 11G14G08G19G07G30G09G21G17G04G01G28
  -3781709.95648  -2933444.73046  22933508.807    22933509.4304   22933514.0194
       173.0004        173.0004
  -4409047.99348  -3422820.10546  23858439.323    23858439.1664   23858446.6024
       178.0004        179.0004
  -4131238.39047  -3179431.29945  24230391.764    24230391.1634   24230395.2694
       148.0004        151.0004
 -22947609.84649 -17859476.80348  20360309.082    20360309.8404   20360314.0104
       214.0004        215.0004
 -14863491.36149 -11557630.66947  21488447.617    21488447.6754   21488454.1024
       202.0004        202.0004
  -8277620.21948  -6416632.09046  22680389.741    22680389.8554   22680397.6634
       184.0004        185.0004
 -13160812.63448 -10238289.39746  22365567.465    22365566.7464   22365573.0314
       177.0004        177.0004
 -11526784.42248  -8956634.50147  22152871.837    22152872.3334   22152876.9604
       188.0004        188.0004
    558101.88247    451949.48245  24669858.283    24669858.7464   24669864.3684
       140.0004        145.0004
 -20862026.21449 -16241545.10347  20793473.586    20793474.4424   20793482.8434
       200.0004        200.0004
  -2935462.17747  -2157106.18945  23432565.479    23432564.2184   23432569.2694
       155.0004        158.0004
 21  2  4  1 46 30.0000000  0 11G14G08G19G07G30G09G21G17G04G01G28
  -3810593.85848  -2955951.68146  22928012.113    22928012.2884   22928016.7844
       171.0004        171.0004
  -4315141.64948  -3349646.35446  23876308.555    23876308.2344   23876316.5464
       176.0004        177.0004
  -4214238.03847  -3244106.33845  24214597.853    24214598.3224   24214600.2854
       150.0004        154.0004
 -22977719.68549 -17882939.02448  20354580.147    20354580.1914   20354584.3314
       214.0004        215.0004
 -14937178.75749 -11615049.42047  21474424.981    21474425.4764   21474431.8014
       202.0004        202.0004
  -8199099.33048  -6355446.99146  22695332.458    22695332.0534   22695338.5324
       183.0004        183.0004
 -13105348.32348 -10195070.45146  22376121.702    22376121.6464   22376127.5874
       176.0004        177.0004
 -11573645.33548  -8993149.49147  22143954.889    22143955.4984   22143959.7744
       189.0004        190.0004
    651283.00547    524558.12245  24687589.222    24687590.6594   24687595.5214
       141.0004        145.0004
 -20877588.45649 -16253671.52147  20790512.676    20790513.4084   20790520.9304
       200.0004        201.0004
  -2953873.21547  -2171452.46045  23429061.969    23429061.5134   23429066.5214
       157.0004        160.0004
 21  2  4  1 47  0.0000000  0 11G14G08G19G07G30G09G21G17G04G01G28
  -3839544.51048  -2978510.63046  22922503.626    22922503.7794   22922508.3394
       170.0004        172.0004
  -4221294.90148  -3276519.07046  23894166.062    23894166.7674   23894174.0904
       178.0004        179.0004
  -4296977.29747  -3308578.49145  24198853.114    24198852.4114   24198856.6954
       152.0004        156.0004
 -23007344.70849 -17906023.46248  20348941.995    20348942.4534   20348946.4034
       214.0004        215.0004
 -15010593.05649 -11672255.37847  21460455.668    21460455.1164   21460461.6644
       202.0004        202.0004
  -8120487.85248  -6294191.30046  22710290.433    22710290.4584   22710298.3314
       182.0004        182.0004
 -13049438.55648 -10151504.39146  22386762.483    22386761.8844   22386765.9314
       177.0004        178.0004
 -11620090.81548  -9029340.76247  22135116.945    22135117.3874   22135121.6634
       190.0004        192.0004
    744309.39747    597046.21145  24705292.327    24705292.6924   24705298.5624
       142.0004        146.0004
 -20892574.44349 -16265348.90147  20787660.924    20787661.7414   20787668.9574
       200.0004        201.0004
  -2972375.45247  -2185869.80645  23425541.660    23425541.8334   23425544.1904
       157.0004        160.0004
 21  2  4  1 47 30.0000000  0 11G14G08G19G07G30G09G21G17G04G01G28
  -3868562.62648  -3001122.15746  22916981.039    22916981.0734   22916986.3334
       170.0004        171.0004
  -4127510.49748  -3203440.30046  23912012.603    23912013.6314   23912022.0154
       181.0004        183.0004
  -4379455.34947  -3372847.09345  24183158.326    24183157.4324   24183159.7444
       154.0004        158.0004
 -23036483.12949 -17928728.74148  20343397.352    20343397.8964   20343401.9404
       214.0004        215.0004
 -15083731.87849 -11729246.67347  21446537.183    21446537.0084   21446544.0324
       202.0004        203.0004
  -8041789.04848  -6232867.55146  22725266.853    22725266.6484   22725273.8914
       181.0004        182.0004
 -12993084.64148 -10107592.24946  22397485.490    22397484.8554   22397489.8524
       176.0004        177.0004
 -11666121.03748  -9065208.46847  22126356.897    22126357.2674   22126362.3444
       190.0004        190.0004
    837178.56447    669411.79145  24722963.131    24722964.0114   24722969.6534
       141.0004        144.0004
 -20906983.09849 -16276576.41247  20784918.362    20784919.3734   20784927.5514
       200.0004        201.0004
  -2990970.44747  -2200359.41145  23422002.224    23422002.3574   23422006.0854
       157.0004        159.0004
 21  2  4  1 48  0.0000000  0 10G14G08G19G07G30G09G21G17G01G28
  -3897647.23348  -3023785.49246  22911447.202    22911447.5384   22911451.6514
       170.0004        171.0004
  -4033788.15848  -3130409.94546  23929848.602    23929847.9314   23929856.2964
       180.0004        179.0004
  -4461669.34347  -3436909.90545  24167512.052    24167510.6224   24167516.3014
       155.0004        158.0004
 -23065131.37449 -17951052.06148  20337945.743    20337946.2764   20337950.2644
       214.0004        215.0004
 -15156591.02649 -11786020.04147  21432672.591    21432672.3334   21432679.2974
       203.0004        204.0004
  -7963004.37648  -6171476.90346  22740257.900    22740258.6774   22740266.4184
       180.0004        180.0004
 -12936286.69048 -10063334.10046  22408292.958    22408292.3374   22408298.1844
       176.0004        176.0004
 -11711735.19548  -9100751.96947  22117677.465    22117677.1894   22117681.7944
       190.0004        189.0004
 -20920811.45949 -16287351.75347  20782287.648    20782287.8144   20782295.8004
       200.0004        201.0004
  -3009657.23447  -2214920.53345  23418446.865    23418447.0124   23418450.6684
       156.0004        159.0004
 21  2  4  1 48 30.0000000  0 10G14G08G19G07G30G09G21G17G01G28
  -3926798.83748  -3046501.01946  22905898.228    22905899.7254   22905904.3474
       171.0004        172.0004
  -3940130.47648  -3057429.91446  23947670.660    23947670.8464   23947678.9464
       180.0004        181.0004
  -4543618.37147  -3500766.25745  24151917.780    24151917.8834   24151922.0084
       155.0004        158.0004
 -23093287.72249 -17972992.06848  20332587.485    20332588.0934   20332592.2904
       214.0004        215.0004
 -15229167.92249 -11842573.45547  21418860.409    21418861.1504   21418868.1514
       202.0004        202.0004
  -7884136.89048  -6110021.70546  22755265.683    22755266.5864   22755274.0154
       179.0004        179.0004
 -12879046.31148 -10018731.20046  22419186.803    22419186.1454   22419190.6654
       176.0004        177.0004
 -11756932.88748  -9135970.92847  22109076.635    22109076.7604   22109080.6054
       189.0004        190.0004
 -20934058.26449 -16297673.92247  20779766.079    20779766.9254   20779775.2334
       200.0004        201.0004
  -3028437.14947  -2229554.22145  23414873.085    23414873.1884   23414876.9554
       157.0004        159.0004
 21  2  4  1 49  0.0000000  0 10G14G08G19G07G30G09G21G17G01G28
  -3956019.76748  -3069270.57246  22900337.735    22900338.9914   22900343.8464
       170.0004        170.0004
  -3846541.07148  -2984503.14046  23965479.266    23965480.1634   23965488.0074
       180.0004        180.0004
  -4625302.91447  -3564416.56745  24136373.762    24136372.6744   24136378.3294
       154.0004        156.0004
 -23120951.82049 -17994548.53348  20327323.425    20327324.1424   20327328.0804
       214.0004        216.0004
 -15301461.69049 -11898906.27747  21405103.953    21405104.2124   21405111.1684
       202.0004        202.0004
  -7805191.33548  -6048505.70346  22770290.315    22770290.0844   22770296.4274
       178.0004        179.0004
 -12821366.72748  -9973786.07246  22430162.593    22430161.7894   22430165.9444
       175.0004        175.0004
 -11801715.94848  -9170866.82647  22100554.192    22100554.7274   22100559.3704
       191.0004        191.0004
 -20946724.01849 -16307543.33647  20777356.901    20777356.8864   20777364.6894
       201.0004        201.0004
  -3047313.00247  -2244262.69945  23411281.849    23411279.9594   23411284.8534
       157.0004        160.0004
 21  2  4  1 49 30.0000000  0 10G14G08G19G07G30G09G21G17G01G28
  -3985309.78148  -3092093.98546  22894764.527    22894764.9394   22894769.3404
       170.0004        170.0004
  -3753020.80348  -2911630.20446  23983276.735    23983276.4864   23983284.2564
       178.0004        178.0004
  -4706720.93447  -3627859.16345  24120880.851    24120879.7414   24120885.1554
       153.0004        156.0004
 -23148121.04149 -18015719.36348  20322153.323    20322153.8384   20322157.8714
       215.0004        216.0004
 -15373469.03349 -11955015.89447  21391401.877    21391401.2754   21391408.6184
       202.0004        202.0004
  -7726170.02548  -5986930.65446  22785326.606    22785327.2904   22785334.0554
       179.0004        180.0004
 -12763248.98948  -9928499.52146  22441221.572    22441221.8044   22441225.5674
       175.0004        175.0004
 -11846083.29248  -9205438.78647  22092112.262    22092112.0144   22092116.2634
       192.0004        192.0004
 -20958806.70949 -16316958.41147  20775057.058    20775057.6774   20775065.4804
       200.0004        200.0004
  -3066285.15947  -2259046.19145  23407670.178    23407670.2184   23407674.7444
       157.0004        159.0004
 21  2  4  1 50  0.0000000  0 10G14G08G19G07G30G09G21G17G01G28
  -4014670.25548  -3114972.26846  22889177.122    22889178.4164   22889182.7334
       170.0004        171.0004
  -3659572.77448  -2838813.59646  24001063.207    24001060.6594   24001067.2764
       177.0004        178.0004
  -4787872.26147  -3691093.95245  24105439.898    24105438.5554   24105442.5254
       156.0004        159.0004
 -23174794.28349 -18036503.71248  20317078.051    20317078.1764   20317081.9224
       215.0004        216.0004
 -15445188.20649 -12010900.96447  21377753.560    21377753.7234   21377761.1214
       202.0004        203.0004
  -7647076.83948  -5925299.61146  22800378.066    22800378.1764   22800385.4824
       179.0004        179.0004
 -12704695.50948  -9882873.43046  22452365.341    22452364.2134   22452367.8204
       175.0004        175.0004
 -11890036.56048  -9239688.07447  22083746.799    22083747.4234   22083751.8784
       191.0004        191.0004
 -20970306.01949 -16325918.89847  20772869.071    20772869.5734   20772877.4714
       200.0004        201.0004
  -3085355.30547  -2273906.04645  23404040.951    23404040.7584   23404045.1064
       157.0004        159.0004
 21  2  4  1 50 30.0000000  0 10G14G08G19G07G30G09G21G17G01G28
  -4044101.13448  -3137905.42746  22883577.335    22883577.6714   22883581.9314
       171.0004        172.0004
  -3566198.58848  -2766054.51046  24018828.457    24018827.7964   24018835.8084
       177.0004        177.0004
  -4868755.05447  -3754119.51645  24090047.259    24090046.6744   24090049.9074
       154.0004        156.0004
 -23200969.17649 -18056899.75248  20312096.915    20312097.2904   20312101.6634
       215.0004        216.0004
 -15516616.02649 -12066559.02047  21364161.211    21364161.3984   21364168.6954
       202.0004        203.0004
  -7567914.19348  -5863614.43846  22815441.273    22815441.9684   22815449.5584
       179.0004        179.0004
 -12645707.61748  -9836908.84146  22463589.744    22463589.0474   22463592.7084
       174.0004        175.0004
 -11933575.01848  -9273614.14547  22075462.317    22075462.3884   22075466.8764
       190.0004        191.0004
 -20981220.18649 -16334423.45047  20770791.803    20770792.4554   20770800.6884
       201.0004        202.0004
  -3104524.02247  -2288842.73145  23400393.990    23400393.6314   23400398.8924
       157.0004        159.0004
 21  2  4  1 51  0.0000000  0 10G14G08G19G07G30G09G21G17G01G28
  -4073601.63748  -3160892.83346  22877962.525    22877962.9984   22877969.0164
       170.0004        170.0004
  -3472898.69848  -2693353.28646  24036580.692    24036580.9724   24036590.4634
       175.0004        176.0004
  -4949367.13447  -3816934.05745  24074706.564    24074706.7494   24074710.5744
       155.0004        158.0004
 -23226642.67649 -18076905.08248  20307211.226    20307211.6384   20307215.9084
       215.0004        216.0004
 -15587748.62449 -12121987.02447  21350625.670    21350625.8414   21350632.6734
       202.0004        203.0004
  -7488683.86448  -5801876.51046  22830520.031    22830520.0804   22830526.0744
       178.0004        179.0004
 -12586285.22048  -9790605.65946  22474896.796    22474896.2894   22474900.9044
       174.0004        174.0004
 -11976697.65248  -9307216.18247  22067255.834    22067256.6594   22067261.3924
       190.0004        191.0004
 -20991546.78249 -16342470.14047  20768827.659    20768827.9474   20768835.7814
       201.0004        202.0004
  -3123790.95447  -2303855.91445  23396727.392    23396726.5714   23396731.9224
       156.0004        157.0004
 21  2  4  1 51 30.0000000  0 10G14G08G19G07G30G09G21G17G01G28
  -4103172.07648  -3183934.75446  22872336.680    22872337.3874   22872342.0424
       170.0004        171.0004
  -3379674.87548  -2620711.36746  24054319.212    24054320.5074   24054330.3774
       178.0004        180.0004
  -5029707.11247  -3879536.64545  24059419.884    24059418.8134   24059423.5624
       158.0004        161.0004
 -23251812.45949 -18096517.91748  20302421.673    20302422.0204   20302426.1344
       215.0004        216.0004
 -15658583.25649 -12177182.84447  21337146.038    21337145.9234   21337153.2134
       202.0004        203.0004
  -7409388.64748  -5740088.03746  22845607.539    22845608.2844   22845615.0654
       177.0004        177.0004
 -12526429.93548  -9743965.20346  22486287.455    22486287.0334   22486290.9244
       173.0004        174.0004
 -12019405.12848  -9340494.73747  22059129.564    22059129.6324   22059134.9034
       191.0004        192.0004
 -21001284.52049 -16350057.98847  20766974.238    20766974.7274   20766982.5714
       201.0004        201.0004
  -3143157.01447  -2318946.34345  23393042.120    23393041.8904   23393046.4644
       158.0004        161.0004
 21  2  4  1 52  0.0000000  0 10G14G08G19G07G30G09G21G17G01G28
  -4132812.40048  -3207031.12646  22866696.426    22866697.0994   22866700.2804
       171.0004        171.0004
  -3286528.62448  -2548129.93046  24072043.383    24072044.9384   24072055.3194
       176.0004        176.0004
  -5109773.65647  -3941926.13445  24044183.247    24044182.6474   24044185.9714
       158.0004        160.0004
 -23276476.50649 -18115736.67048  20297728.669    20297728.8354   20297732.9894
       215.0004        217.0004
 -15729116.79249 -12232144.04347  21323723.374    21323723.7094   21323731.1754
       203.0004        203.0004
  -7330031.04348  -5678250.94446  22860708.390    22860708.8594   22860716.8794
       175.0004        176.0004
 -12466143.31148  -9696988.61646  22497758.256    22497758.6764   22497762.9044
       173.0004        174.0004
 -12061696.24048  -9373448.84947  22051082.145    22051082.3954   22051086.4684
       192.0004        193.0004
 -21010431.76749 -16357185.71247  20765233.227    20765234.0834   20765241.8234
       201.0004        202.0004
  -3162622.57847  -2334114.33945  23389338.223    23389337.1254   23389341.5794
       157.0004        158.0004
 21  2  4  1 52 30.0000000  0 10G14G08G19G07G30G09G21G17G01G28
  -4162523.66348  -3230182.75446  22861041.615    22861042.3374   22861047.2214
       170.0004        170.0004
  -3193462.26948  -2475610.71446  24089755.362    24089756.0824   24089764.5764
       175.0004        176.0004
  -5189566.14147  -4004102.11445  24028998.771    24028999.0304   24029000.8574
       156.0004        158.0004
 -23300633.54549 -18134560.34748  20293131.227    20293131.7584   20293136.1454
       215.0004        217.0004
 -15799347.21049 -12286869.04947  21310360.146    21310359.8514   21310366.2454
       203.0004        203.0004
  -7250614.54948  -5616367.95846  22875822.655    22875821.9264   22875828.9914
       175.0004        177.0004
 -12405427.48248  -9649677.56146  22509313.676    22509312.0924   22509316.4964
       173.0004        174.0004
 -12103572.01748  -9406079.32247  22043112.311    22043113.2114   22043117.5354
       191.0004        191.0004
 -21018987.99749 -16363852.89947  20763605.459    20763606.1564   20763613.4584
       201.0004        201.0004
  -3182189.21947  -2349361.04645  23385614.039    23385614.3754   23385618.6944
       155.0004        158.0004
 21  2  4  1 53  0.0000000  0 10G14G08G19G07G30G09G21G17G01G28
  -4192307.22448  -3253390.72346  22855374.698    22855374.8454   22855380.0404
       170.0004        172.0004
  -3100478.89748  -2403156.15146  24107449.838    24107449.9014   24107460.0844
       175.0004        176.0004
  -5269084.59247  -4066064.52645  24013867.529    24013866.2514   24013867.5624
       156.0004        158.0004
 -23324282.57449 -18152988.16748  20288631.020    20288631.4634   20288635.7624
       215.0004        216.0004
 -15869272.88949 -12341356.60047  21297052.748    21297053.1294   21297060.0584
       203.0004        203.0004
  -7171143.15848  -5554442.21046  22890944.381    22890944.8034   22890953.4824
       176.0004        178.0004
 -12344284.94448  -9602034.02246  22520948.260    22520947.6194   22520951.6204
       173.0004        174.0004
 -12145033.47548  -9438386.95647  22035222.930    22035223.4824   22035227.4744
       191.0004        192.0004
 -21026953.15049 -16370059.51047  20762089.578    20762090.0464   20762097.4354
       201.0004        201.0004
  -3201859.05047  -2364688.22945  23381871.800    23381870.5204   23381875.6854
       157.0004        161.0004
 21  2  4  1 53 30.0000000  0 10G14G08G19G07G30G09G21G17G01G28
  -4222162.86648  -3276654.85146  22849692.186    22849693.2374   22849698.5644
       171.0004        172.0004
  -3007579.46448  -2330767.04546  24125130.393    24125129.8574   24125137.1194
       176.0004        178.0004
  -5348327.00347  -4127811.83545  23998787.406    23998786.9124   23998789.3594
       154.0004        156.0004
 -23347420.97149 -18171018.10448  20284227.483    20284227.9604   20284232.5544
       215.0004        216.0004
 -15938890.52849 -12395604.11947  21283805.299    21283805.3084   21283812.9394
       203.0004        203.0004
  -7091619.06148  -5492475.39946  22906078.217    22906078.0244   22906085.9864
       177.0004        178.0004
 -12282717.22348  -9554059.19046  22532663.499    22532663.5054   22532667.5634
       173.0004        173.0004
 -12186080.68048  -9470371.79647  22027412.175    22027412.4734   22027416.5614
       191.0004        191.0004
 -21034325.48649 -16375804.19647  20760686.350    20760687.2434   20760694.5964
       201.0004        201.0004
  -3221631.95647  -2380095.70445  23378108.827    23378108.4284   23378112.4844
       157.0004        159.0004
 21  2  4  1 54  0.0000000  0 10G14G08G19G07G30G09G21G17G01G28
  -4252091.19448  -3299975.62846  22843998.580    22843999.2324   22844002.6324
       171.0004        171.0004
  -2914766.33648  -2258445.16646  24142791.719    24142791.6074   24142799.4174
       177.0004        178.0004
  -5427292.42347  -4189343.31145  23983760.451    23983760.3884   23983762.4144
       154.0004        157.0004
 -23370047.33149 -18188649.04248  20279922.978    20279922.9024   20279926.9774
       216.0004        217.0004
 -16008197.77149 -12449609.75747  21270616.834    21270616.7314   21270623.5044
       203.0004        204.0004
  -7012045.53248  -5430470.06846  22921219.972    22921220.3494   22921227.6574
       176.0004        177.0004
 -12220725.84148  -9505754.20446  22544461.269    22544460.6264   22544465.0094
       173.0004        174.0004
 -12226713.91648  -9502034.03647  22019679.715    22019680.3954   22019684.3094
       191.0004        191.0004
 -21041104.23749 -16381086.33147  20759397.010    20759397.0974   20759404.8954
       201.0004        201.0004
  -3241509.32447  -2395584.54145  23374325.449    23374324.8434   23374330.9284
       156.0004        158.0004
 21  2  4  1 54 30.0000000  0 10G14G08G19G07G30G09G21G17G01G28
  -4282092.39448  -3323353.20246  22838288.401    22838288.8354   22838294.1024
       170.0004        170.0004
  -2822040.70548  -2186191.45646  24160434.805    24160436.2824   24160444.3514
       176.0004        177.0004
  -5505980.03447  -4250658.35745  23968786.938    23968785.4954   23968789.8574
       156.0004        160.0004
 -23392159.80949 -18205879.56248  20275714.782    20275715.0544   20275718.9724
       216.0004        217.0004
 -16077191.76749 -12503371.32747  21257487.984    21257487.6944   21257494.5284
       204.0004        204.0004
  -6932425.28948  -5368428.31246  22936371.759    22936371.6824   22936378.7024
       175.0004        175.0004
 -12158312.10748  -9457120.12746  22556337.936    22556337.0194   22556340.9364
       174.0004        175.0004
 -12266932.65048  -9533373.33147  22012026.164    22012026.1094   22012031.5144
       190.0004        190.0004
 -21047288.23949 -16385905.03447  20758219.436    20758220.2244   20758227.8034
       201.0004        201.0004
  -3261491.89547  -2411155.38345  23370522.891    23370523.0064   23370528.1084
       156.0004        158.0004
 21  2  4  1 55  0.0000000  0 10G14G08G19G07G30G09G21G17G01G28
  -4312165.21748  -3346786.55246  22832565.918    22832567.1544   22832571.6594
       170.0004        171.0004
  -2729402.73448  -2114006.06446  24178062.585    24178064.0134   24178073.3754
       178.0004        179.0004
  -5584387.00347  -4311754.63645  23953866.278    23953866.1384   23953869.0124
       157.0004        159.0004
 -23413755.03649 -18222707.01648  20271605.600    20271605.6444   20271609.7454
       216.0004        217.0004
 -16145868.25949 -12556885.46247  21244418.246    21244418.6774   21244425.7544
       204.0004        204.0004
  -6852759.54648  -5306351.08846  22951531.248    22951532.0154   22951538.0084
       175.0004        177.0004
 -12095476.50248  -9408157.30646  22568295.117    22568293.6144   22568298.5194
       175.0004        176.0004
 -12306736.43348  -9564389.25547  22004452.539    22004453.2124   22004457.3324
       191.0004        192.0004
 -21052874.82849 -16390258.20447  20757156.308    20757156.9844   20757164.5994
       200.0004        200.0004
  -3281578.93047  -2426807.61945  23366701.801    23366701.6614   23366704.8834
       156.0004        160.0004
 21  2  4  1 55 30.0000000  0 10G14G08G19G07G30G09G21G17G01G28
  -4342311.47948  -3370277.18046  22826830.393    22826830.4294   22826834.5074
       171.0004        171.0004
  -2636856.43848  -2041892.09746  24195674.899    24195675.1574   24195683.8094
       175.0004        175.0004
  -5662513.81447  -4372632.69245  23939000.445    23938999.0954   23939002.0814
       157.0004        159.0004
 -23434832.41549 -18239130.96048  20267594.363    20267594.5664   20267598.6734
       216.0004        217.0004
 -16214226.16049 -12610151.37247  21231410.565    21231410.5714   21231417.5744
       204.0004        204.0004
  -6773052.75648  -5244241.91346  22966699.932    22966699.6684   22966706.2704
       177.0004        178.0004
 -12032222.51248  -9358868.48846  22580331.977    22580331.0404   22580335.7184
       175.0004        176.0004
 -12346126.65648  -9595082.92247  21996955.817    21996956.3214   21996960.5654
       191.0004        190.0004
 -21057864.63349 -16394146.36547  20756206.614    20756207.3674   20756215.0564
       200.0004        201.0004
  -3301772.61047  -2442542.95345  23362858.827    23362858.4644   23362862.9234
       156.0004        158.0004
 21  2  4  1 56  0.0000000  0 10G14G08G19G07G30G09G21G17G01G28
  -4372531.72248  -3393825.39846  22821079.120    22821079.1924   22821085.0924
       171.0004        171.0004
  -2544402.72248  -1969850.27546  24213269.158    24213269.2134   24213277.9594
       175.0004        176.0004
  -5740359.56647  -4433291.69345  23924186.899    23924185.7514   23924190.1014
       157.0004        159.0004
 -23455390.72549 -18255150.43048  20263681.803    20263682.4194   20263686.3874
       216.0004        217.0004
 -16282263.00249 -12663167.08647  21218463.021    21218463.3114   21218470.7014
       204.0004        204.0004
  -6693307.96748  -5182103.12146  22981873.688    22981874.5054   22981881.9274
       176.0004        177.0004
 -11968551.79348  -9309254.93446  22592447.891    22592447.5484   22592452.0424
       175.0004        177.0004
 -12385103.51648  -9625454.48847  21989538.860    21989539.5904   21989543.5834
       190.0004        190.0004
 -21062256.84149 -16397568.85347  20755371.453    20755371.8644   20755379.5024
       200.0004        201.0004
  -3322074.09347  -2458362.30145  23358995.146    23358994.1804   23358999.9574
       157.0004        160.0004
 21  2  4  1 56 30.0000000  0 10G14G08G19G07G30G09G21G17G01G28
  -4402825.94848  -3417431.28546  22815313.608    22815314.6684   22815319.6224
       170.0004        171.0004
  -2452043.76948  -1897882.31046  24230843.381    24230844.4614   24230853.6344
       177.0004        179.0004
  -5817922.78147  -4493730.54645  23909426.319    23909425.4414   23909429.9934
       159.0004        162.0004
 -23475427.69749 -18270763.67048  20259869.264    20259869.6914   20259873.5094
       216.0004        217.0004
 -16349975.81749 -12715930.32247  21205578.460    21205578.4634   21205585.5634
       204.0004        205.0004
  -6613527.75348  -5119936.71646  22997054.705    22997055.6574   22997063.4774
       176.0004        177.0004
 -11904465.96148  -9259317.92846  22604643.755    22604642.8654   22604647.9524
       176.0004        177.0004
 -12423667.64148  -9655504.44547  21982201.223    21982201.2044   21982205.3774
       190.0004        191.0004
 -21066050.23949 -16400524.74447  20754650.084    20754650.3464   20754657.9144
       201.0004        201.0004
  -3342484.17047  -2474266.23245  23355110.754    23355109.6404   23355114.7544
       156.0004        157.0004
 21  2  4  1 57  0.0000000  0 10G14G08G19G07G30G09G21G17G01G28
  -4433193.11548  -3441094.04346  22809535.455    22809536.1724   22809540.7254
       170.0004        172.0004
  -2359779.78148  -1825988.33646  24248402.991    24248401.9384   24248410.8404
       176.0004        177.0004
  -5895201.36247  -4553947.60846  23894721.124    23894720.8444   23894724.5424
       161.0004        164.0004
 -23494940.77449 -18285968.68148  20256156.097    20256156.3894   20256160.8424
       216.0004        218.0004
 -16417360.66549 -12768438.00947  21192755.543    21192755.5544   21192762.2334
       204.0004        205.0004
  -6533713.62148  -5057743.88746  23012243.407    23012244.1904   23012251.4234
       176.0004        177.0004
 -11839965.94048  -9209058.17846  22616916.934    22616916.6724   22616921.7544
       176.0004        177.0004
 -12461817.52848  -9685231.63547  21974941.299    21974941.5134   21974946.1604
       191.0004        192.0004
 -21069242.64249 -16403012.33547  20754041.521    20754042.2234   20754050.4264
       201.0004        201.0004
  -3363001.85847  -2490254.07345  23351207.939    23351207.5474   23351210.3054
       154.0004        157.0004
 21  2  4  1 57 30.0000000  0 10G14G08G19G07G30G09G21G17G01G28
  -4463634.36048  -3464814.46846  22803742.279    22803742.6884   22803748.4084
       170.0004        171.0004
  -2267613.29748  -1754170.33046  24265941.142    24265941.6004   24265948.9764
       177.0004        178.0004
  -5972194.95947  -4613942.61946  23880069.750    23880069.5084   23880072.6664
       161.0004        164.0004
 -23513928.46449 -18300764.28948  20252542.903    20252543.1914   20252547.4724
       216.0004        218.0004
 -16484415.75649 -12820688.72647  21179994.962    21179995.1924   21180002.3664
       204.0004        205.0004
  -6453869.27648  -4995527.50946  23027438.476    23027438.1844   23027444.1664
       174.0004        173.0004
 -11775053.72048  -9158477.21946  22629270.107    22629268.2594   22629274.9144
       176.0004        177.0004
 -12499554.50748  -9714637.05947  21967759.443    21967760.3544   21967764.5044
       190.0004        190.0004
 -21071834.04549 -16405031.59747  20753548.667    20753549.3814   20753557.6034
       201.0004        202.0004
  -3383628.91447  -2506327.10145  23347282.781    23347282.0244   23347285.6634
       155.0004        157.0004
 21  2  4  1 58  0.0000000  0 10G14G08G19G07G30G09G21G17G01G28
  -4494150.53148  -3488593.28246  22797935.545    22797935.7824   22797940.8824
       171.0004        172.0004
  -2175546.81948  -1682430.25346  24283458.988    24283459.9654   24283468.9014
       176.0004        177.0004
  -6048903.09847  -4673715.17246  23865472.924    23865471.7904   23865476.1054
       162.0004        164.0004
 -23532390.15249 -18315150.03348  20249029.801    20249030.3044   20249033.9864
       216.0004        218.0004
 -16551139.05349 -12872680.90447  21167298.456    21167298.5024   21167305.6544
       205.0004        206.0004
  -6373998.14948  -4933290.26146  23042637.244    23042637.2254   23042643.8464
       173.0004        174.0004
 -11709731.28748  -9107576.62646  22641699.049    22641698.7594   22641704.8884
       177.0004        177.0004
 -12536879.77248  -9743721.67947  21960657.059    21960657.1714   21960662.1864
       190.0004        191.0004
 -21073824.20449 -16406582.35947  20753170.238    20753170.5954   20753178.4924
       201.0004        201.0004
  -3404366.92447  -2522486.57445  23343334.935    23343334.4324   23343339.5794
       156.0004        159.0004
 21  2  4  1 58 30.0000000  0 10G14G08G19G07G30G09G21G17G01G28
  -4524740.59248  -3512429.69946  22792114.652    22792115.0944   22792119.4774
       170.0004        170.0004
  -2083580.55848  -1610768.27446  24300960.196    24300960.7854   24300969.4124
       176.0004        176.0004
  -6125323.71847  -4733263.68846  23850928.951    23850929.6924   23850933.4214
       162.0004        164.0004
 -23550322.51949 -18329123.31648  20245617.360    20245617.5884   20245621.9914
       216.0004        218.0004
 -16617526.62749 -12924411.48847  21154665.369    21154665.4254   21154672.4004
       206.0004        207.0004
  -6294101.83248  -4871033.38746  23057839.947    23057840.6784   23057847.8764
       173.0004        173.0004
 -11643999.65548  -9056357.18946  22654207.295    22654207.3424   22654213.4104
       176.0004        177.0004
 -12573791.93548  -9772484.40447  21953633.357    21953633.8674   21953638.0944
       192.0004        193.0004
 -21075211.01649 -16407662.98447  20752906.207    20752906.9934   20752914.1864
       201.0004        201.0004
  -3425215.17347  -2538731.96245  23339367.506    23339368.0784   23339372.0964
       156.0004        158.0004
 21  2  4  1 59  0.0000000  0 10G14G08G19G07G30G09G21G17G01G28
  -4555404.43448  -3536323.62846  22786278.529    22786279.2164   22786284.2194
       169.0004        169.0004
  -1991715.92148  -1539185.46746  24318442.815    24318441.6934   24318450.8264
       173.0004        173.0004
  -6201455.25547  -4792586.95646  23836443.222    23836442.6654   23836446.4914
       163.0004        165.0004
 -23567723.69949 -18342682.69948  20242305.699    20242306.2574   20242310.7924
       216.0004        218.0004
 -16683575.49549 -12975878.14847  21142096.756    21142096.5064   21142103.7354
       206.0004        206.0004
  -6214182.73148  -4808758.77546  23073048.287    23073048.5884   23073055.8654
       173.0004        174.0004
 -11577860.83348  -9004820.45546  22666793.671    22666792.9574   22666799.4364
       177.0004        177.0004
 -12610291.06048  -9800925.28747  21946687.856    21946687.6784   21946691.8764
       192.0004        192.0004
 -21075993.37449 -16408272.61547  20752756.628    20752758.0254   20752765.5964
       201.0004        201.0004
  -3446174.57447  -2555063.97445  23335379.897    23335378.8704   23335383.9464
       156.0004        158.0004
 21  2  4  1 59 30.0000000  0 10G14G08G19G07G30G09G21G17G01G28
  -4586143.25548  -3560275.95846  22780430.194    22780430.4624   22780434.5904
       169.0004        171.0004
  -1899955.17548  -1467683.63246  24335903.036    24335903.3384   24335911.8024
       171.0004        172.0004
  -6277298.02247  -4851685.19346  23822010.156    23822009.2434   23822014.2014
       162.0004        163.0004
 -23584593.24449 -18355827.79848  20239095.779    20239095.9944   20239100.4664
       216.0004        218.0004
 -16749283.98449 -13027079.56947  21129593.404    21129593.0144   21129599.7894
       206.0004        207.0004
  -6134244.60448  -4746469.31746  23088259.677    23088259.9234   23088267.5294
       173.0004        174.0004
 -11511317.06148  -8952968.16746  22679456.794    22679455.6504   22679462.2994
       177.0004        177.0004
 -12646379.12448  -9829045.84147  21939820.121    21939820.3284   21939824.5844
       192.0004        192.0004
 -21076171.47949 -16408411.37847  20752723.976    20752724.0614   20752731.7394
       201.0004        202.0004
  -3467246.22747  -2571483.44545  23331368.437    23331369.7334   23331373.3194
       154.0004        156.0004
 21  2  4  2  0  0.0000000  0 10G14G08G19G07G30G09G21G17G01G28
  -4616957.39548  -3584286.97846  22774566.834    22774567.7614   22774571.7794
       170.0004        171.0004
  -1808300.48948  -1396264.42746  24353346.944    24353345.2734   24353353.5024
       173.0004        175.0004
  -6352850.97247  -4910557.63146  23807633.060    23807632.6124   23807636.5254
       162.0004        164.0004
 -23600929.57249 -18368557.42448  20235986.630    20235986.9514   20235991.6934
       216.0004        218.0004
 -16814649.59249 -13078013.81547  21117153.663    21117153.9494   21117161.3574
       207.0004        208.0004
  -6054290.40048  -4684167.36046  23103475.071    23103475.0794   23103482.6584
       173.0004        175.0004
 -11444370.30548  -8900801.87546  22692194.961    22692195.4514   22692201.2794
       176.0004        175.0004
 -12682056.24548  -9856846.20447  21933030.870    21933030.9144   21933035.2784
       192.0004        191.0004
 -21075744.71049 -16408078.82347  20752805.055    20752805.1964   20752813.1744
       201.0004        202.0004
  -3488431.07447  -2587991.11645  23327337.939    23327338.6374   23327343.7114
       155.0004        158.0004
 21  2  4  2  0 30.0000000  0 10G14G08G19G07G30G09G21G17G01G28
  -4647846.70048  -3608356.57846  22768688.008    22768687.5304   22768693.5494
       169.0004        170.0004
  -1716752.87848  -1324928.71346  24370767.019    24370766.6814   24370773.8304
       173.0004        174.0004
  -6428112.66347  -4969203.08745  23793310.189    23793309.9104   23793314.3014
       161.0004        162.0004
 -23616730.84049 -18380870.11448  20232980.143    20232980.7114   20232984.7964
       216.0004        218.0004
 -16879669.36349 -13128678.57947  21104781.361    21104781.3304   21104788.3064
       207.0004        208.0004
  -5974322.60548  -4621854.79747  23118692.566    23118692.8624   23118700.3404
       187.0004        191.0004
 -11377022.17448  -8848322.81646  22705011.646    22705011.3294   22705018.1964
       176.0004        177.0004
 -12717322.47648  -9884326.38047  21926320.025    21926320.3474   21926324.5014
       191.0004        192.0004
 -21074712.25449 -16407274.30547  20753001.590    20753001.7874   20753009.4354
       201.0004        202.0004
  -3509729.64447  -2604587.40445  23323284.596    23323283.8044   23323289.6874
       155.0004        156.0004
 21  2  4  2  1  0.0000000  0 10G14G08G19G07G30G09G21G17G01G28
  -4678811.62948  -3632485.07846  22762794.039    22762795.7994   22762800.4934
       168.0004        169.0004
  -1625314.30048  -1253677.87646  24388164.789    24388165.3704   24388173.2184
       171.0004        172.0004
  -6503082.55447  -5027621.18646  23779044.375    23779044.0504   23779048.3284
       162.0004        164.0004
 -23631995.58749 -18392764.73048  20230075.166    20230075.5264   20230080.1414
       217.0004        218.0004
 -16944340.94649 -13179072.02447  21092475.016    21092474.7694   21092481.4364
       208.0004        208.0004
  -5894344.25348  -4559533.99647  23133912.440    23133912.0854   23133919.1214
       190.0004        190.0004
 -11309275.33248  -8795533.08146  22717904.198    22717904.0184   22717909.0724
       176.0004        176.0004
 -12752178.37848  -9911486.82247  21919687.210    21919687.7594   21919691.6974
       192.0004        192.0004
 -21073073.36449 -16405997.23647  20753312.895    20753313.3204   20753320.9874
       201.0004        201.0004
  -3531143.02347  -2621273.15245  23319209.848    23319210.4044   23319214.9464
       153.0004        155.0004
 21  2  4  2  1 30.0000000  0 10G14G08G19G07G30G09G21G17G01G28
  -4709851.26248  -3656671.80846  22756889.593    22756889.6474   22756894.4744
       169.0004        171.0004
  -1533985.15248  -1182512.38246  24405543.038    24405544.4954   24405554.0854
       171.0004        172.0004
  -6577758.65947  -5085810.34546  23764835.142    23764833.4924   23764837.5404
       163.0004        165.0004
 -23646721.39649 -18404239.38948  20227272.782    20227273.3664   20227278.0814
       216.0004        218.0004
 -17008660.65749 -13229191.27847  21080234.750    21080234.8714   21080242.1494
       208.0004        208.0004
  -5814357.04449  -4497206.28347  23149132.815    23149133.0434   23149140.4214
       198.0004        203.0004
 -11241129.83548  -8742432.69746  22730871.819    22730870.3924   22730876.2214
       175.0004        175.0004
 -12786623.89548  -9938327.46947  21913132.818    21913132.7674   21913137.3124
       192.0004        192.0004
 -21070826.46549 -16404246.38947  20753740.068    20753740.6994   20753748.5634
       201.0004        201.0004
  -3552670.96547  -2638048.18045  23315114.517    23315114.0364   23315117.6274
       154.0004        157.0004
 21  2  4  2  2  0.0000000  0 10G14G08G19G07G30G09G21G17G01G28
  -4740967.52348  -3680918.23446  22750968.854    22750968.4634   22750974.2864
       171.0004        172.0004
  -1442768.99848  -1111434.88346  24422904.038    24422904.0414   24422911.2684
       171.0004        172.0004
  -6652141.47047  -5143770.97946  23750679.421    23750678.1264   23750682.3704
       163.0004        164.0004
 -23660908.21049 -18415294.07148  20224573.722    20224573.7884   20224578.3914
       217.0004        218.0004
 -17072627.53249 -13279035.60847  21068062.480    21068062.7624   21068069.3564
       208.0004        208.0004
  -5734365.38549  -4434875.13547  23164353.661    23164354.1804   23164361.4874
       201.0004        201.0004
 -11172589.38448  -8689024.56246  22743914.213    22743914.3014   22743919.1794
       174.0004        175.0004
 -12820660.86148  -9964849.78247  21906654.970    21906655.4224   21906659.8254
       192.0004        192.0004
 -21067972.68849 -16402022.66047  20754283.629    20754284.1814   20754291.5754
       201.0004        201.0004
  -3574315.51747  -2654914.06445  23310994.808    23310994.9394   23310999.2914
       156.0004        159.0004
 21  2  4  2  2 30.0000000  0 10G14G08G19G07G30G09G21G17G01G28
  -4772158.84348  -3705223.16546  22745032.335    22745032.8984   22745037.6444
       172.0004        172.0004
  -1351666.06948  -1040445.62946  24440239.824    24440239.6524   24440248.8824
       172.0004        173.0004
  -6726228.76247  -5201501.33846  23736580.763    23736580.8394   23736583.8354
       163.0004        165.0004
 -23674553.08249 -18425926.44748  20221976.536    20221977.0244   20221981.7844
       217.0004        218.0004
 -17136237.33849 -13328601.69547  21055958.874    21055958.4274   21055964.6064
       208.0004        209.0004
  -5654370.43349  -4372541.43047  23179578.135    23179577.9034   23179583.9154
       201.0004        202.0004
 -11103654.92248  -8635309.38446  22757032.660    22757031.5294   22757038.0404
       174.0004        175.0004
 -12854288.02748  -9991052.75647  21900256.208    21900256.7374   21900261.1544
       191.0004        191.0004
 -21064509.77949 -16399324.28047  20754942.595    20754943.0514   20754950.6114
       201.0004        201.0004
  -3596075.94047  -2671870.23645  23306854.812    23306854.4184   23306858.3224
       157.0004        160.0004
 21  2  4  2  3  0.0000000  0 10G14G08G19G07G30G09G21G17G01G28
  -4803426.68748  -3729587.70246  22739081.769    22739083.1374   22739087.1894
       171.0004        172.0004
  -1260678.22648   -969546.01346  24457555.092    24457554.7744   24457563.2264
       171.0004        173.0004
  -6800020.94448  -5259001.69946  23722540.376    23722539.4204   23722542.2394
       165.0004        167.0004
 -23687655.64949 -18436136.25548  20219483.621    20219484.1144   20219488.6564
       217.0004        218.0004
 -17199488.70449 -13377888.47547  21043921.436    21043921.8724   21043928.6374
       208.0004        209.0004
  -5574376.18749  -4310208.24247  23194799.614    23194799.4984   23194807.6814
       203.0004        204.0004
 -11034328.51848  -8581288.80746  22770224.142    22770224.1064   22770229.8264
       174.0004        175.0004
 -12887506.99848 -10016937.66247  21893935.242    21893935.3864   21893938.8614
       192.0004        192.0004
 -21060438.42949 -16396151.79747  20755717.232    20755717.8024   20755725.2174
       201.0004        201.0004
  -3617953.90847  -2688918.00645  23302692.376    23302691.3434   23302695.9084
       158.0004        159.0004
 21  2  4  2  3 30.0000000  0 10G14G08G19G07G30G09G21G17G01G28
  -4834770.57948  -3754011.51646  22733117.472    22733117.9344   22733122.8934
       171.0004        172.0004
  -1169806.97548   -898737.27946  24474847.079    24474846.8784   24474855.9784
       173.0004        175.0004
  -6873516.35547  -5316270.84846  23708552.800    23708552.2564   23708556.6024
       164.0004        165.0004
 -23700214.00949 -18445921.99948  20217093.519    20217094.1494   20217099.0504
       217.0004        218.0004
 -17262378.57749 -13426893.57347  21031954.582    21031954.5694   21031960.8484
       209.0004        209.0004
  -5494384.84749  -4247877.33847  23210020.889    23210021.3264   23210028.9644
       203.0004        202.0004
 -10964612.63848  -8526964.74146  22783491.648    22783490.9774   22783496.8244
       173.0004        174.0004
 -12920318.45948 -10042505.02947  21887691.155    21887691.4804   21887695.4634
       192.0004        192.0004
 -21055757.60849 -16392504.39347  20756608.115    20756608.5014   20756615.9374
       201.0004        201.0004
  -3639949.62247  -2706057.50445  23298503.621    23298505.2374   23298509.3534
       155.0004        157.0004
 21  2  4  2  4  0.0000000  0 10G14G08G19G07G30G09G21G17G01G28
  -4866189.93648  -3778494.13146  22727138.753    22727138.9094   22727144.5354
       172.0004        173.0004
  -1079053.28348   -828020.16246  24492113.550    24492115.6144   24492124.1714
       170.0004        169.0004
  -6946713.48947  -5373307.57146  23694625.052    23694623.8844   23694627.9334
       163.0004        164.0004
 -23712226.08849 -18455282.07048  20214807.908    20214808.2934   20214812.7724
       217.0004        218.0004
 -17324903.54949 -13475614.34647  21020056.973    21020056.6574   21020062.5344
       209.0004        210.0004
  -5414398.40249  -4185550.23847  23225241.236    23225241.6724   23225249.4994
       200.0004        199.0004
 -10894507.62948  -8472337.45946  22796830.879    22796830.8954   22796837.0574
       172.0004        172.0004
 -12952722.02648 -10067754.56047  21881525.126    21881525.3914   21881529.3664
       192.0004        192.0004
 -21050466.09149 -16388381.12947  20757615.155    20757615.9604   20757623.4374
       201.0004        201.0004
  -3662063.04447  -2723288.75845  23294297.066    23294297.2594   23294301.2814
       157.0004        159.0004
 21  2  4  2  4 30.0000000  0 10G14G08G19G07G30G09G21G17G01G28
  -4897684.72548  -3803035.54146  22721145.734    22721146.1494   22721150.7394
       171.0004        171.0004
   -988418.70548   -757395.79746  24509364.705    24509364.4364   24509371.4154
       170.0004        171.0004
  -7019611.13247  -5430110.92246  23680753.607    23680752.0674   23680755.9814
       161.0004        163.0004
 -23723690.47249 -18464215.37348  20212626.783    20212626.9534   20212631.1984
       217.0004        218.0004
 -17387060.93949 -13524048.68947  21008228.146    21008228.1174   21008234.7454
       209.0004        210.0004
  -5334419.42549  -4123228.96347  23240462.309    23240462.5334   23240468.9084
       200.0004        201.0004
 -10824015.81448  -8417408.75746  22810245.467    22810244.1914   22810250.5214
       171.0004        173.0004
 -12984717.54248 -10092686.13547  21875435.739    21875436.6374   21875441.0684
       192.0004        192.0004
 -21044563.31349 -16383781.56347  20758738.947    20758739.0404   20758746.4364
       201.0004        201.0004
  -3684294.88147  -2740612.25145  23290067.543    23290067.1534   23290071.8374
       157.0004        159.0004
 21  2  4  2  5  0.0000000  0 10G14G08G19G07G30G09G21G17G01G28
  -4929256.18248  -3827636.67046  22715136.088    22715137.3344   22715143.3554
       169.0004        169.0004
   -897905.62648   -686866.14146  24526586.507    24526587.6444   24526596.0244
       167.0004        167.0004
  -7092209.95147  -5486681.43546  23666937.843    23666937.3204   23666941.1004
       164.0004        167.0004
 -23734606.99849 -18472721.77248  20210548.995    20210549.2484   20210553.9604
       217.0004        218.0004
 -17448849.27749 -13572195.45447  20996470.032    20996469.9524   20996477.0194
       209.0004        210.0004
  -5254451.80649  -4060916.55147  23255677.819    23255678.9804   23255686.4304
       201.0004        201.0004
 -10753140.32248  -8362181.10446  22823734.282    22823732.8654   22823737.7024
       171.0004        172.0004
 -13016307.46048 -10117301.66947  21869425.186    21869425.0284   21869429.2414
       192.0004        192.0004
 -21038049.95049 -16378706.21847  20759978.006    20759978.5034   20759986.1714
       201.0004        202.0004
  -3706646.80847  -2758029.34245  23285813.710    23285813.3594   23285818.2444
       156.0004        157.0004
 21  2  4  2  5 30.0000000  0 10G14G08G19G07G30G09G21G17G01G28
  -4960905.03148  -3852298.09946  22709114.645    22709114.9314   22709120.3604
       168.0004        170.0004
   -807515.82047   -616432.52746  24543787.037    24543786.9374   24543795.9194
       164.0004        165.0004
  -7164509.71848  -5543018.89046  23653180.115    23653178.4404   23653183.1834
       166.0004        167.0004
 -23744974.34749 -18480800.23448  20208575.891    20208576.8564   20208580.8694
       217.0004        218.0004
 -17510266.63049 -13620053.13647  20984782.348    20984782.6074   20984789.7264
       209.0004        210.0004
  -5174498.83649  -3998615.56247  23270894.042    23270894.3574   23270901.4984
       201.0004        201.0004
 -10681883.51948  -8306656.31546  22837293.602    22837292.6554   22837297.3554
       170.0004        170.0004
 -13047492.75848 -10141601.88947  21863490.310    21863490.7614   21863495.6924
       192.0004        193.0004
 -21030926.23549 -16373155.26347  20761333.248    20761333.7454   20761341.1964
       201.0004        201.0004
  -3729120.16347  -2775541.03145  23281537.111    23281536.7944   23281541.3204
       156.0004        159.0004
 21  2  4  2  6  0.0000000  0 10G14G08G19G07G30G09G21G17G01G28
  -4992629.70048  -3877018.63046  22703078.122    22703078.8194   22703083.8224
       171.0004        173.0004
   -717249.58347   -546095.22546  24560964.843    24560965.4054   24560974.0944
       164.0004        167.0004
  -7236507.67647  -5599121.21146  23639478.486    23639478.4724   23639481.8284
       164.0004        165.0004
 -23754789.70849 -18488448.57748  20206708.841    20206708.8034   20206713.2614
       217.0004        218.0004
 -17571308.80749 -13667618.48847  20973167.208    20973167.0554   20973173.5344
       210.0004        210.0004
  -5094561.66549  -3936326.85147  23286105.149    23286105.3244   23286111.8974
       201.0004        200.0004
 -10610246.21348  -8250835.04546  22850923.087    22850923.6384   22850929.0604
       169.0004        169.0004
 -13078272.42848 -10165586.04347  21857633.918    21857634.0964   21857637.8044
       193.0004        193.0004
 -21023190.12649 -16367127.12447  20762805.292    20762805.9874   20762813.7524
       201.0004        201.0004
  -3751713.55947  -2793146.26745  23277237.042    23277236.9414   23277241.6754
       157.0004        158.0004
 21  2  4  2  6 30.0000000  0 10G14G08G19G07G30G09G21G17G01G28
  -5024430.42648  -3901798.39546  22697027.356    22697027.2434   22697032.1794
       172.0004        174.0004
   -627108.21958   -475855.20946  24578118.180    24578118.8305   24578127.1004
       166.0004        167.0004
  -7308203.26847  -5654987.89246  23625834.464    23625834.0944   23625838.0104
       163.0004        164.0004
 -23764052.15649 -18495666.07048  20204945.894    20204946.3984   20204950.9074
       217.0004        219.0004
 -17631973.43449 -13714889.62647  20961623.141    20961622.7714   20961629.4184
       209.0004        209.0004
  -5014643.10149  -3874052.62147  23301313.582    23301313.6314   23301320.2524
       201.0004        201.0004
 -10538230.84048  -8194719.13746  22864628.393    22864628.3244   22864632.3094
       168.0004        168.0004
 -13108647.14648 -10189254.63847  21851853.456    21851853.9494   21851858.1994
       193.0004        193.0004
 -21014841.53949 -16360621.71747  20764394.783    20764394.7154   20764402.4924
       201.0004        201.0004
  -3774427.82547  -2810845.68645  23272916.101    23272914.9784   23272919.6704
       157.0004        159.0004
 21  2  4  2  7  0.0000000  0 10G14G08G19G07G30G09G21G17G01G28
  -5056307.57548  -3926637.72946  22690960.179    22690960.3694   22690966.5724
       172.0004        172.0004
   -537093.98147   -405714.27746  24595249.246    24595248.6004   24595256.5594
       164.0004        165.0004
  -7379596.15547  -5710618.71645  23612249.675    23612247.6864   23612252.8704
       162.0004        162.0004
 -23772760.70249 -18502451.96248  20203288.988    20203289.3024   20203293.7314
       217.0004        219.0004
 -17692258.23849 -13761864.80447  20950150.652    20950150.7964   20950157.7474
       209.0004        210.0004
  -4934746.13949  -3811795.25347  23316517.369    23316517.3614   23316524.4784
       201.0004        201.0004
 -10465838.52248  -8138309.54146  22878405.303    22878405.2534   22878408.1654
       168.0004        170.0004
 -13138618.11048 -10212608.63847  21846149.732    21846150.1724   21846154.9764
       192.0004        192.0004
 -21005880.44649 -16353639.04547  20766099.120    20766099.8984   20766107.1964
       201.0004        201.0004
  -3797263.90247  -2828640.01945  23268569.270    23268569.1574   23268573.1934
       157.0004        159.0004
 21  2  4  2  7 30.0000000  0 10G14G08G19G07G30G09G21G17G01G28
  -5088261.33448  -3951536.79346  22684880.515    22684879.6664   22684884.3904
       170.0004        170.0004
   -447208.03147   -335673.28846  24612352.470    24612353.7034   24612361.9464
       164.0004        166.0004
  -7450685.65547  -5766013.16246  23598722.191    23598721.6004   23598725.7864
       163.0004        166.0004
 -23780914.25449 -18508805.40548  20201736.828    20201737.5804   20201741.9564
       217.0004        219.0004
 -17752160.90649 -13808542.22947  20938751.875    20938751.9624   20938758.8474
       210.0004        210.0004
  -4854873.64249  -3749556.94847  23331715.385    23331716.0044   23331723.3694
       200.0004        199.0004
 -10393071.95548  -8081608.32646  22892251.573    22892250.9024   22892255.1354
       167.0004        168.0004
 -13168186.02948 -10235648.59047  21840522.843    21840523.1354   21840527.9564
       191.0004        192.0004
 -20996306.73949 -16346179.02647  20767921.312    20767921.8934   20767929.4684
       201.0004        201.0004
  -3820222.77047  -2846530.06145  23264199.369    23264199.6294   23264205.1264
       157.0004        161.0004
 21  2  4  2  8  0.0000000  0 10G14G08G19G07G30G09G21G17G01G28
  -5120291.14848  -3976495.07546  22678783.864    22678784.0764   22678790.1624
       169.0004        171.0004
   -357451.24047   -265732.92546  24629428.811    24629431.7344   24629442.7704
       162.0004        164.0004
  -7521470.31647  -5821170.04146  23585250.359    23585250.3244   23585254.7924
       164.0004        165.0004
 -23788510.94149 -18514724.91448  20200291.629    20200292.1134   20200296.0934
       217.0004        218.0004
 -17811678.17849 -13854919.34047  20927426.327    20927426.1324   20927432.8054
       210.0004        210.0004
  -4775027.58649  -3687339.23247  23346909.890    23346910.5594   23346917.7024
       199.0004        199.0004
 -10319932.73948  -8024616.73546  22906169.488    22906169.2164   22906172.2814
       167.0004        168.0004
 -13197351.13948 -10258374.64647  21834973.436    21834973.7964   21834978.1414
       192.0004        194.0004
 -20986119.51049 -16338240.92647  20769859.323    20769860.0354   20769867.6654
       200.0004        201.0004
  -3843304.30947  -2864515.64945  23259808.541    23259808.4324   23259812.5594
       158.0004        161.0004
 21  2  4  2  8 30.0000000  0 10G14G08G19G07G30G09G21G17G01G28
  -5152396.71648  -4001512.39546  22672674.929    22672676.1714   22672680.4684
       171.0004        173.0004
   -267824.69747   -195894.09646  24646487.011    24646487.2634   24646497.6034
       164.0004        167.0004
  -7591949.36348  -5876088.76446  23571840.124    23571838.9664   23571844.0404
       166.0004        168.0004
 -23795549.27449 -18520209.34148  20198952.373    20198952.6074   20198957.3984
       217.0004        219.0004
 -17870807.33049 -13900994.01047  20916174.010    20916174.0534   20916180.8954
       210.0004        210.0004
  -4695210.40449  -3625144.03747  23362098.551    23362098.8914   23362106.6984
       199.0004        199.0004
 -10246423.13448  -7967336.50446  22920158.502    22920157.9654   22920161.3974
       166.0004        168.0004
 -13226113.77548 -10280787.09047  21829500.885    21829500.8904   21829505.0884
       194.0004        195.0004
 -20975318.32049 -16329824.41147  20771915.159    20771915.3524   20771922.5454
       200.0004        200.0004
  -3866508.74647  -2882597.04646  23255393.795    23255393.7164   23255396.7284
       161.0004        163.0004
 21  2  4  2  9  0.0000000  0 10G14G08G19G07G30G09G21G17G01G28
  -5184578.81448  -4026589.35946  22666552.264    22666552.0204   22666556.6884
       173.0004        175.0004
   -178331.01457   -126158.77446  24663513.711    24663516.1525   24663527.4144
       164.0004        166.0004
  -7662122.39448  -5930769.02746  23558486.837    23558486.3054   23558490.8244
       166.0004        167.0004
 -23802029.00649 -18525258.46748  20197719.000    20197719.3204   20197723.9404
       217.0004        218.0004
 -17929546.61649 -13946764.86747  20904996.643    20904996.4274   20905003.0294
       209.0004        210.0004
  -4615425.52849  -3562973.99547  23377281.944    23377282.2484   23377289.1554
       201.0004        202.0004
 -10172545.74448  -7909769.69346  22934215.583    22934215.4544   22934220.0634
       167.0004        168.0004
 -13254475.55248 -10302887.15947  21824102.826    21824103.0534   21824107.5414
       194.0004        193.0004
 -20963903.76049 -16320929.92047  20774086.814    20774087.6624   20774095.0064
       200.0004        200.0004
  -3889837.36847  -2900775.14945  23250953.086    23250953.1814   23250957.7904
       160.0004        161.0004
 21  2  4  2  9 30.0000000  0 10G14G08G19G07G30G09G21G17G01G28
  -5216837.72248  -4051726.17146  22660413.047    22660413.8834   22660418.7284
       176.0004        178.0004
    -88971.65348    -56528.10846  24680524.416    24680523.9984   24680531.2044
       166.0004        168.0004
  -7731989.32847  -5985210.81045  23545191.318    23545191.2044   23545193.5034
       163.0004        162.0004
 -23807948.87449 -18529871.37048  20196592.971    20196593.1334   20196597.2444
       217.0004        218.0004
 -17987893.72849 -13992230.17247  20893893.218    20893893.5724   20893900.1454
       210.0004        210.0004
  -4535675.87749  -3500831.40147  23392458.694    23392458.7154   23392464.7754
       202.0004        202.0004
 -10098302.21448  -7851917.58846  22948345.653    22948343.6594   22948349.0984
       167.0004        169.0004
 -13282437.14048 -10324675.41947  21818782.612    21818782.7984   21818786.9114
       194.0004        194.0004
 -20951875.88949 -16311557.55047  20776375.562    20776376.1644   20776384.0824
       199.0004        200.0004
  -3913290.90147  -2919050.63745  23246490.267    23246489.8114   23246494.0754
       159.0004        162.0004
 21  2  4  2 10  0.0000000  0 10G14G08G19G07G30G09G21G17G01G28
  -5249174.15748  -4076923.40046  22654260.386    22654260.4364   22654264.3894
       177.0004        178.0004
       251.35148     12996.29146  24697502.712    24697502.3674   24697509.1924
       166.0004        167.0004
  -7801549.87047  -6039413.82946  23531955.155    23531954.1534   23531956.9684
       162.0004        163.0004
 -23813308.60449 -18534047.79148  20195572.217    20195572.7944   20195577.6544
       217.0004        219.0004
 -18045846.95649 -14037388.53347  20882865.208    20882864.9564   20882871.8094
       210.0004        210.0004
  -4455964.74049  -3438718.83047  23407626.122    23407626.4164   23407632.6244
       201.0004        199.0004
 -10023695.81548  -7793782.72346  22962541.922    22962542.3794   22962545.5504
       167.0004        168.0004
 -13310000.13048 -10346153.05747  21813536.631    21813537.4414   21813542.4054
       194.0004        195.0004
 -20939235.32949 -16301707.75947  20778781.654    20778782.1794   20778789.4384
       200.0004        201.0004
  -3936870.56747  -2937424.39946  23242003.382    23242003.2454   23242007.3764
       161.0004        164.0004
 21  2  4  2 10 30.0000000  0 10G14G08G19G07G30G09G21G17G01G28
  -5281588.00248  -4102180.93846  22648091.161    22648092.0004   22648096.5154
       177.0004        176.0004
     89336.82748     82413.57246  24714452.037    24714453.4724   24714461.3984
       166.0004        167.0004
  -7870803.46247  -6093377.65346  23518775.634    23518775.6024   23518778.6624
       162.0004        165.0004
 -23818107.07449 -18537786.86648  20194659.312    20194659.6864   20194664.6184
       217.0004        218.0004
 -18103403.69649 -14082237.94947  20871912.090    20871912.5504   20871919.6504
       210.0004        210.0004
  -4376294.69449  -3376638.27547  23422787.016    23422787.2604   23422793.6014
       199.0004        199.0004
  -9948728.84748  -7735366.89046  22976806.519    22976806.9444   22976811.4684
       167.0004        168.0004
 -13337165.66949 -10367320.99747  21808367.942    21808368.0194   21808372.6724
       195.0004        196.0004
 -20925981.91449 -16291380.41847  20781303.078    20781304.0274   20781311.3784
       200.0004        200.0004
  -3960576.75047  -2955896.74645  23237491.869    23237491.7704   23237496.5454
       160.0004        162.0004
 21  2  4  2 11  0.0000000  0 10G14G08G19G07G30G09G21G17G01G28
  -5314075.88348  -4127496.17046  22641908.322    22641909.1704   22641913.8244
       176.0004        176.0004
    178286.74947    151725.19045  24731378.178    24731378.8444   24731387.9584
       161.0004        161.0004
  -7939745.97448  -6147099.08846  23505656.223    23505656.0634   23505659.5864
       165.0004        167.0004
 -23822339.92649 -18541085.20348  20193854.194    20193854.4154   20193858.8294
       217.0004        218.0004
 -18160558.08049 -14126773.84147  20861036.725    20861036.4834   20861043.6234
       210.0004        211.0004
  -4296665.01949  -3314589.17347  23437940.232    23437940.2944   23437947.0304
       198.0004        198.0004
  -9873399.83048  -7676668.96446  22991142.438    22991142.0664   22991146.4354
       167.0004        168.0004
 -13363930.96849 -10388177.07747  21803274.784    21803274.8714   21803279.4024
       196.0004        196.0004
 -20912112.23549 -16280572.86747  20783942.553    20783943.0804   20783950.7744
       200.0004        200.0004
  -3984406.89747  -2974465.69246  23232958.646    23232957.9614   23232962.6704
       161.0004        164.0004
 21  2  4  2 11 30.0000000  0 10G14G08G19G07G30G09G21G17G01G28
  -5346640.11148  -4152870.88246  22635712.540    22635712.6624   22635717.5774
       176.0004        176.0004
    267097.53347    220928.36146  24748282.116    24748281.2174   24748287.3554
       162.0004        163.0004
  -8008379.17847  -6200579.48946  23492596.142    23492595.4694   23492598.3274
       164.0004        165.0004
 -23826008.53549 -18543943.86348  20193155.913    20193156.4104   20193160.8704
       217.0004        218.0004
 -18217310.12449 -14170996.21147  20850236.804    20850236.7374   20850243.6054
       210.0004        210.0004
  -4217080.70349  -3252575.41347  23453084.335    23453084.5454   23453091.5534
       198.0004        198.0004
  -9797713.68148  -7617692.72446  23005544.897    23005544.3574   23005549.2194
       168.0004        170.0004
 -13390298.98649 -10408723.57047  21798257.003    21798257.6334   21798260.8494
       195.0004        194.0004
 -20897628.67849 -16269286.97247  20786698.416    20786699.2344   20786706.8704
       200.0004        200.0004
  -4008363.95547  -2993133.51246  23228398.282    23228398.6304   23228402.2194
       161.0004        163.0004
 21  2  4  2 12  0.0000000  0  9G14G19G07G30G09G21G17G01G28
  -5379277.84248  -4178302.88946  22629501.526    22629502.3294   22629506.0064
       175.0004        176.0004
  -8076699.66147  -6253816.23946  23479595.455    23479594.6034   23479598.3494
       164.0004        165.0004
 -23829108.76949 -18546359.65248  20192566.330    20192566.5014   20192571.0134
       217.0004        219.0004
 -18273654.50149 -14214900.93947  20839514.952    20839514.8404   20839521.6674
       210.0004        210.0004
  -4137541.60649  -3190596.90047  23468220.409    23468220.3004   23468228.0094
       199.0004        200.0004
  -9721668.95948  -7558437.10646  23020015.480    23020014.7174   23020021.6164
       168.0004        169.0004
 -13416268.08648 -10428959.25547  21793314.620    21793314.9064   21793319.0294
       193.0004        192.0004
 -20882528.45949 -16257520.57247  20789572.142    20789572.6494   20789580.4484
       200.0004        200.0004
  -4032445.39747  -3011898.29546  23223816.289    23223815.7964   23223820.5514
       161.0004        163.0004
 21  2  4  2 12 30.0000000  0  9G14G19G07G30G09G21G17G01G28
  -5411992.38448  -4203794.75646  22623276.748    22623276.8744   22623281.1654
       177.0004        178.0004
  -8144710.11647  -6306811.40346  23466653.100    23466652.5594   23466655.9764
       164.0004        166.0004
 -23831643.51749 -18548334.78248  20192083.193    20192083.7784   20192088.4884
       217.0004        218.0004
 -18329592.17949 -14258488.74247  20828869.599    20828870.0234   20828877.2104
       210.0004        210.0004
  -4058053.65949  -3128658.24247  23483346.737    23483346.3414   23483354.0064
       200.0004        199.0004
  -9645271.36948  -7498906.50946  23034553.271    23034552.9974   23034559.0704
       168.0004        169.0004
 -13441842.65048 -10448887.48347  21788448.773    21788448.7284   21788452.6004
       193.0004        194.0004
 -20866814.96349 -16245276.28847  20792562.123    20792562.9854   20792570.8364
       200.0004        200.0004
  -4056655.03147  -3030762.93846  23219207.853    23219208.6484   23219213.1804
       161.0004        163.0004
 21  2  4  2 13  0.0000000  0  9G14G19G07G30G09G21G17G01G28
  -5444783.31148  -4229346.13246  22617036.207    22617036.5484   22617041.9514
       178.0004        179.0004
  -8212409.33648  -6359564.02546  23453770.847    23453769.6304   23453774.0744
       166.0004        168.0004
 -23833610.95249 -18549867.86648  20191709.293    20191709.6764   20191714.2224
       217.0004        218.0004
 -18385120.32849 -14301757.43947  20818303.293    20818303.3224   20818310.8624
       210.0004        210.0004
  -3978619.03549  -3066761.12847  23498461.095    23498461.8944   23498469.4694
       198.0004        196.0004
  -9568522.79748  -7439102.43646  23049157.878    23049157.5694   23049163.3644
       168.0004        170.0004
 -13467023.08049 -10468508.60547  21783656.942    21783657.1184   21783661.7774
       195.0004        196.0004
 -20850487.88549 -16232553.89647  20795668.949    20795669.9794   20795677.6044
       200.0004        200.0004
  -4080992.96147  -3049727.58046  23214578.441    23214578.6164   23214581.5204
       161.0004        163.0004
 21  2  4  2 13 30.0000000  0  9G14G19G07G30G09G21G17G01G28
  -5477650.38648  -4254956.83246  22610782.116    22610782.4794   22610788.1654
       178.0004        178.0004
  -8279796.83448  -6412073.76746  23440946.877    23440946.6774   23440949.9604
       166.0004        166.0004
 -23835010.13149 -18550958.14748  20191443.545    20191443.5844   20191448.2994
       217.0004        218.0004
 -18440236.38549 -14344705.02347  20807814.909    20807815.2214   20807822.4374
       210.0004        210.0004
  -3899240.23548  -3004907.50047  23513566.904    23513567.1774   23513574.1154
       194.0004        192.0004
  -9491425.42648  -7379026.56646  23063829.543    23063829.1524   23063833.9164
       168.0004        169.0004
 -13491809.84849 -10487822.97147  21778940.181    21778940.7184   21778944.9624
       196.0004        197.0004
 -20833547.18449 -16219353.34247  20798892.776    20798893.3824   20798901.7144
       200.0004        200.0004
  -4105459.53447  -3068792.45145  23209922.381    23209922.5744   23209925.5594
       161.0004        162.0004
 21  2  4  2 14  0.0000000  0  9G14G19G07G30G09G21G17G01G28
  -5510593.13248  -4280626.48746  22604512.374    22604513.0004   22604518.6194
       177.0004        176.0004
  -8346871.78447  -6464339.93146  23428183.279    23428182.2074   23428186.4334
       164.0004        166.0004
 -23835839.67549 -18551604.54648  20191284.982    20191285.4404   20191290.0184
       217.0004        218.0004
 -18494937.51549 -14387329.28147  20797405.968    20797405.9154   20797413.1354
       210.0004        210.0004
  -3819919.39548  -2943099.04147  23528660.470    23528661.2224   23528668.4374
       193.0004        192.0004
  -9413981.10548  -7318680.32246  23078567.200    23078566.4974   23078571.5614
       168.0004        169.0004
 -13516203.70349 -10506831.17047  21774297.788    21774298.2194   21774302.6554
       195.0004        195.0004
 -20815992.58149 -16205674.42247  20802233.323    20802233.7604   20802242.0824
       200.0004        200.0004
  -4130054.67147  -3087957.47645  23205241.239    23205241.2844   23205246.3044
       160.0004        162.0004
 21  2  4  2 14 30.0000000  0  9G14G19G07G30G09G21G17G01G28
  -5543611.35448  -4306354.99946  22598230.356    22598230.7694   22598234.2704
       175.0004        174.0004
  -8413633.20748  -6516361.85246  23415478.625    23415477.8064   23415482.0094
       165.0004        167.0004
 -23836098.57749 -18551806.29848  20191235.883    20191236.4654   20191241.0864
       217.0004        218.0004
 -18549221.30349 -14429628.33447  20787075.998    20787075.9394   20787083.4654
       210.0004        210.0004
  -3740659.02648  -2881337.72947  23543744.890    23543745.0134   23543751.8624
       194.0004        195.0004
  -9336192.18248  -7258065.55346  23093368.489    23093368.5124   23093373.3974
       167.0004        168.0004
 -13540205.60249 -10525533.94747  21769730.180    21769730.4624   21769734.6504
       195.0004        195.0004
 -20797824.26049 -16191517.28447  20805691.027    20805691.3624   20805699.6314
       200.0004        200.0004
  -4154778.86647  -3107223.10445  23200535.931    23200536.8504   23200540.9844
       160.0004        161.0004
 21  2  4  2 15  0.0000000  0  9G14G19G07G30G09G21G17G01G28
  -5576705.04148  -4332142.29746  22591933.514    22591933.6874   22591937.3904
       177.0004        178.0004
  -8480080.50548  -6568138.95946  23402834.766    23402833.6414   23402838.1074
       166.0004        167.0004
 -23835786.64949 -18551563.25448  20191296.052    20191296.2194   20191299.9744
       217.0004        218.0004
 -18603085.43549 -14471600.39847  20776825.782    20776825.9984   20776833.2384
       210.0004        211.0004
  -3661461.82748  -2819625.62247  23558815.054    23558814.9544   23558822.5014
       194.0004        194.0004
  -9258060.68748  -7197183.87646  23108235.860    23108235.7884   23108241.1264
       166.0004        167.0004
 -13563816.40249 -10543931.97947  21765237.676    21765238.2244   21765241.5914
       195.0004        196.0004
 -20779042.43749 -16176882.10547  20809264.697    20809265.4064   20809273.0364
       199.0004        199.0004
  -4179632.58747  -3126589.66045  23195807.733    23195806.9034   23195811.0824
       159.0004        160.0004
 21  2  4  2 15 30.0000000  0  9G14G19G07G30G09G21G17G01G28
  -5609873.18148  -4357987.61346  22585621.409    22585621.3464   22585624.4974
       176.0004        176.0004
  -8546212.80348  -6619670.61046  23390250.360    23390249.1224   23390253.0884
       166.0004        167.0004
 -23834901.48149 -18550873.52548  20191463.649    20191463.9744   20191468.5654
       217.0004        218.0004
 -18656526.60249 -14513242.87847  20766656.723    20766656.5784   20766663.6074
       210.0004        210.0004
  -3582329.34948  -2757963.95747  23573872.791    23573872.8544   23573880.9974
       192.0004        192.0004
  -9179587.78548  -7136036.15746  23123170.251    23123169.1714   23123174.0504
       166.0004        167.0004
 -13587036.19949 -10562025.31947  21760819.640    21760819.4854   21760823.9634
       196.0004        196.0004
 -20759646.43649 -16161768.34247  20812955.324    20812955.9784   20812964.2754
       199.0004        199.0004
  -4204615.65247  -3146056.98246  23191053.259    23191053.4344   23191056.7934
       160.0004        163.0004
 21  2  4  2 16  0.0000000  0  9G14G19G07G30G09G21G17G01G28
  -5643116.57948  -4383891.55246  22579294.330    22579294.9174   22579299.8554
       176.0004        177.0004
  -8612030.31747  -6670956.99346  23377724.573    23377724.4544   23377728.0664
       164.0004        165.0004
 -23833443.16249 -18549737.17448  20191741.170    20191741.5404   20191746.4124
       217.0004        218.0004
 -18709543.42549 -14554554.67847  20756567.409    20756567.6164   20756575.0804
       210.0004        210.0004
  -3503265.19748  -2696355.51647  23588919.576    23588919.4604   23588925.9374
       193.0004        194.0004
  -9100776.71048  -7074624.91946  23138167.309    23138167.3704   23138169.7104
       165.0004        167.0004
 -13609867.19549 -10579815.69547  21756474.195    21756474.6984   21756479.3074
       196.0004        196.0004
 -20739637.50249 -16146176.95547  20816763.480    20816763.7664   20816772.1524
       199.0004        199.0004
  -4229729.02347  -3165625.86346  23186275.680    23186274.7334   23186279.1494
       162.0004        165.0004
