     2.11           OBSERVATION DATA    G (GPS)             RINEX VERSION / TYPE
teqc  2018Jun8                          20210202 03:10:42UTCPGM / RUN BY / DATE
Linux2.6.32-573.12.1.el6.x86_64|x86_64|gcc|Win64-MinGW64|=+ COMMENT
BIT 2 OF LLI FLAGS DATA COLLECTED UNDER A/S CONDITION       COMMENT
-Unknown-                                                   MARKER NAME
CRNO                                                        MARKER NUMBER
-Unknown-           -Unknown-                               OBSERVER / AGENCY
-Unknown-           ASHTECH             -Unknown-           REC # / TYPE / VERS
-Unknown-           -Unknown-                               ANT # / TYPE
   408074.6207 -6158364.8294  1605158.4814                  APPROX POSITION XYZ
        0.0000        0.0000        0.0000                  ANTENNA: DELTA H/E/N
     1     1                                                WAVELENGTH FACT L1/2
     7    L1    L2    C1    P1    P2    S1    S2            # / TYPES OF OBSERV
    30.0000                                                 INTERVAL
Forced Modulo Decimation to 30 seconds                      COMMENT
 SNR is mapped to RINEX snr flag value [1-9]                COMMENT
  L1: 1 -> 1;  90 -> 5; 210 -> 9                            COMMENT
  L2: 1 -> 1; 150 -> 5; 250 -> 9                            COMMENT
pseudorange smoothing corrections not applied               COMMENT
  2021     1    31     0     0   30.0000000     GPS         TIME OF FIRST OBS
                                                            END OF HEADER
 21  1 31  0  0 30.0000000  0  7G07G04G08G27G09G21G01
 -12668212.05648  -9853697.27746  22502325.812    22502325.5274   22502330.1614
       186.0004        185.0004
 -15981395.69748 -12434798.81547  21384229.953    21384230.3424   21384236.5194
       194.0004        193.0004
 -19886049.31849 -15479262.41447  20818342.881    20818343.1984   20818350.1604
       205.0004        204.0004
  -7319404.65248  -5668627.47447  23486957.209    23486958.2134   23486964.3544
       190.0004        190.0004
 -18171055.49949 -14142909.72848  20797794.026    20797794.0394   20797801.0764
       214.0004        214.0004
 -12087851.68648  -9406147.21446  21970519.878    21970520.0234   21970526.0394
       174.0004        175.0004
 -10684708.94648  -8308411.01646  22756882.228    22756882.7774   22756891.3904
       166.0004        168.0004
 21  1 31  0  1  0.0000000  0  7G07G04G08G27G09G21G01
 -12743551.74848  -9912403.50946  22487989.377    22487989.3304   22487994.0114
       185.0004        186.0004
 -15905107.71348 -12375353.63147  21398747.680    21398748.0294   21398753.7954
       194.0004        193.0004
 -19824784.47549 -15431523.57147  20830000.843    20830001.3764   20830008.3274
       204.0004        204.0004
  -7214488.93648  -5586874.95447  23506922.069    23506922.2834   23506929.8454
       190.0004        189.0004
 -18157826.19949 -14132601.18448  20800310.836    20800311.4414   20800318.6714
       214.0004        214.0004
 -12117653.12548  -9429369.08846  21964850.072    21964850.0464   21964854.8944
       174.0004        175.0004
 -10762159.96648  -8368762.43646  22742144.811    22742144.3244   22742152.4434
       167.0004        169.0004
 21  1 31  0  1 30.0000000  0  7G07G04G08G27G09G21G01
 -12818882.14248  -9971102.48346  22473654.805    22473655.1864   22473658.5864
       186.0004        187.0004
 -15828462.91548 -12315630.40647  21413332.008    21413332.4484   21413339.1554
       194.0004        193.0004
 -19763086.03549 -15383446.84447  20841741.631    20841742.3794   20841748.9274
       204.0004        204.0004
  -7109431.21548  -5505011.78947  23526915.129    23526914.9494   23526921.0804
       189.0004        188.0004
 -18144046.62149 -14121863.83648  20802933.673    20802933.4974   20802940.6654
       214.0004        214.0004
 -12147109.80348  -9452322.31846  21959243.653    21959243.9634   21959249.0564
       173.0004        174.0004
 -10839569.05648  -8429081.18346  22727413.462    22727413.9754   22727421.9594
       168.0004        169.0004
 21  1 31  0  2  0.0000000  0  7G07G04G08G27G09G21G01
 -12894201.17848 -10029792.62346  22459322.045    22459322.8234   22459325.8324
       186.0004        187.0004
 -15751463.96348 -12255631.21747  21427985.268    21427985.0594   21427991.6764
       194.0004        193.0004
 -19700957.02949 -15335034.60847  20853565.553    20853565.6604   20853572.2054
       205.0004        205.0004
  -7004234.27048  -5423040.14247  23546933.082    23546933.0674   23546940.1084
       188.0004        189.0004
 -18129717.71549 -14110698.44748  20805659.974    20805660.5884   20805667.1364
       214.0004        215.0004
 -12176219.34148  -9475005.03746  21953704.720    21953704.6374   21953709.6324
       173.0004        173.0004
 -10916933.00748  -8489364.77346  22712692.330    22712692.3654   22712700.0214
       169.0004        169.0004
 21  1 31  0  2 30.0000000  0  7G07G04G08G27G09G21G01
 -12969505.31648 -10088471.17546  22444991.452    22444992.1024   22444996.6844
       187.0004        186.0004
 -15674112.42048 -12195357.29547  21442703.981    21442704.7064   21442710.9404
       194.0004        192.0004
 -19638399.11149 -15286288.16347  20865469.134    20865469.5384   20865476.8114
       205.0004        205.0004
  -6898899.78948  -5340961.33047  23566976.104    23566977.0044   23566984.2794
       188.0004        188.0004
 -18114839.29249 -14099104.87348  20808491.217    20808491.4574   20808498.8074
       214.0004        215.0004
 -12204978.16548  -9497414.49846  21948232.134    21948231.6894   21948236.9264
       172.0004        173.0004
 -10994247.53648  -8549609.84046  22697978.542    22697979.7684   22697988.5464
       168.0004        170.0004
 21  1 31  0  3  0.0000000  0  8G07G04G08G27G30G09G21G01
 -13044793.52548 -10147137.27247  22430664.835    22430665.5544   22430669.9164
       187.0004        188.0004
 -15596411.64048 -12134811.22047  21457489.605    21457490.5034   21457496.6634
       193.0004        192.0004
 -19575415.12449 -15237209.71447  20877454.322    20877454.5604   20877462.1194
       204.0004        204.0004
  -6793431.22448  -5258778.00547  23587045.854    23587047.3634   23587054.4664
       189.0004        189.0004
  -1173422.34556   -901189.37745  24416451.482                    24416460.1864
       122.0004        144.0004
 -18099412.99749 -14087084.36348  20811426.855    20811427.2454   20811434.1544
       214.0004        215.0004
 -12233384.58048  -9519549.31746  21942826.999    21942826.1404   21942832.2854
       173.0004        174.0004
 -11071510.09748  -8609814.39646  22683276.043    22683276.6824   22683285.0324
       170.0004        171.0004
 21  1 31  0  3 30.0000000  0  8G07G04G08G27G30G09G21G01
 -13120063.58748 -10205789.23046  22416340.751    22416341.5074   22416346.0344
       186.0004        186.0004
 -15518365.01648 -12073995.67947  21472342.596    21472342.3464   21472348.1634
       193.0004        192.0004
 -19512008.58649 -15187802.02047  20889520.106    20889520.4854   20889528.3464
       203.0004        204.0004
  -6687832.03448  -5176492.93046  23607140.412    23607141.7504   23607148.7084
       186.0004        185.0004
  -1256769.15647   -966134.89245  24400591.773    24400592.0554   24400599.2254
       138.0004        145.0004
 -18083440.54249 -14074638.29448  20814466.727    20814466.6064   20814473.4974
       214.0004        214.0004
 -12261436.85748  -9541408.22346  21937488.685    21937488.4114   21937493.8584
       174.0004        176.0004
 -11148718.15448  -8669976.50846  22668583.408    22668584.3124   22668593.1234
       170.0004        172.0004
 21  1 31  0  4  0.0000000  0  8G07G04G08G27G30G09G21G01
 -13195318.23748 -10264429.19546  22402020.428    22402020.9934   22402025.5934
       186.0004        187.0004
 -15439979.61348 -12012916.15847  21487258.128    21487258.3204   21487264.8134
       193.0004        191.0004
 -19448186.59849 -15138070.59847  20901665.006    20901665.3044   20901673.2454
       203.0004        204.0004
  -6582109.36148  -5094111.62246  23627259.226    23627260.1694   23627268.5934
       185.0004        185.0004
  -1340237.06747  -1031174.79745  24384709.033    24384709.1614   24384715.0214
       140.0004        145.0004
 -18066927.31149 -14061770.84948  20817608.186    20817608.7474   20817616.0834
       214.0004        214.0004
 -12289137.10748  -9562992.81446  21932217.697    21932216.8444   21932223.0134
       175.0004        176.0004
 -11225872.90148  -8730097.08246  22653900.718    22653902.1704   22653910.5104
       170.0004        170.0004
 21  1 31  0  4 30.0000000  0  8G07G04G08G27G30G09G21G01
 -13270552.27348 -10323053.10246  22387703.910    22387704.6964   22387708.5854
       186.0004        186.0004
 -15361255.28948 -11951572.53247  21502238.501    21502239.1064   21502245.7494
       193.0004        192.0004
 -19383948.19749 -15088014.69747  20913889.848    20913890.1734   20913897.1184
       204.0004        204.0004
  -6476263.15248  -5011634.05446  23647402.653    23647402.7004   23647409.3734
       184.0004        184.0004
  -1423821.90547  -1096305.79145  24368803.097    24368803.1954   24368810.3274
       142.0004        146.0004
 -18049871.48849 -14048480.59148  20820854.093    20820854.2264   20820861.3364
       214.0004        214.0004
 -12316479.64748  -9584298.66546  21927014.492    21927014.0854   21927019.3024
       175.0004        176.0004
 -11302968.18448  -8790171.31346  22639229.398    22639231.2434   22639240.2314
       169.0004        170.0004
 21  1 31  0  5  0.0000000  0  8G07G04G08G27G30G09G21G01
 -13345761.45648 -10381657.61446  22373392.483    22373392.8064   22373396.8684
       186.0004        187.0004
 -15282193.13348 -11889965.65647  21517283.274    21517283.4434   21517290.8584
       192.0004        191.0004
 -19319294.97949 -15037635.53947  20926192.582    20926192.9684   20926199.9344
       203.0004        203.0004
  -6370294.51148  -4929061.08146  23667567.785    23667568.0254   23667575.0904
       183.0004        184.0004
  -1507520.63547  -1161525.50645  24352875.719    24352875.9824   24352883.1114
       142.0004        147.0004
 -18032272.53649 -14034767.11548  20824203.275    20824203.6194   20824210.7074
       214.0004        214.0004
 -12343460.78448  -9605322.89946  21921880.847    21921879.8114   21921885.1634
       175.0004        176.0004
 -11379999.17748  -8850195.43946  22624573.120    22624572.8764   22624581.5554
       170.0004        171.0004
 21  1 31  0  5 30.0000000  0  8G07G04G08G27G30G09G21G01
 -13420943.41748 -10440240.95046  22359085.859    22359086.3074   22359090.4434
       187.0004        187.0004
 -15202795.47748 -11828097.36647  21532392.760    21532393.3574   21532399.7724
       192.0004        191.0004
 -19254228.89949 -14986934.69047  20938573.764    20938574.0984   20938581.4084
       202.0004        202.0004
  -6264205.84548  -4846394.58946  23687758.312    23687756.8494   23687762.1054
       184.0004        185.0004
  -1591331.61347  -1226832.70445  24336926.584    24336926.5624   24336934.5634
       143.0004        147.0004
 -18014131.13349 -14020630.95248  20827655.289    20827655.6374   20827662.5014
       214.0004        214.0004
 -12370078.09548  -9626063.64146  21916815.614    21916815.1714   21916819.6884
       176.0004        177.0004
 -11456962.25248  -8910166.66646  22609927.959    22609927.5814   22609935.8154
       170.0004        171.0004
 21  1 31  0  6  0.0000000  0  8G07G04G08G27G30G09G21G01
 -13496095.47848 -10498800.97446  22344785.103    22344785.6274   22344788.3624
       186.0004        186.0004
 -15123064.94348 -11765969.67947  21547565.239    21547565.2234   21547571.2144
       192.0004        190.0004
 -19188752.46949 -14935914.07547  20951033.205    20951033.8484   20951041.2504
       202.0004        202.0004
  -6157999.70948  -4763636.56646  23707968.230    23707968.0434   23707973.4324
       186.0004        187.0004
  -1675253.19847  -1292226.11745  24320957.063    24320956.9114   24320964.6534
       145.0004        149.0004
 -17995448.27149 -14006072.85848  20831210.273    20831210.7634   20831217.7514
       213.0004        214.0004
 -12396329.05848  -9646518.90646  21911820.058    21911819.0424   21911824.5794
       177.0004        178.0004
 -11533854.00448  -8970082.27946  22595295.176    22595295.6304   22595304.5404
       170.0004        170.0004
 21  1 31  0  6 30.0000000  0  8G07G04G08G27G30G09G21G01
 -13571216.31148 -10557336.66846  22330489.203    22330489.6514   22330494.3134
       186.0004        186.0004
 -15043004.92648 -11703585.25547  21562799.767    21562800.2254   21562806.3284
       192.0004        191.0004
 -19122869.57849 -14884576.75247  20963570.388    20963570.8584   20963578.2364
       201.0004        201.0004
  -6051679.50348  -4680789.63246  23728201.420    23728199.5024   23728205.6754
       185.0004        185.0004
  -1759284.80047  -1357705.25945  24304966.082    24304966.1564   24304973.3864
       146.0004        149.0004
 -17976225.76349 -13991094.27948  20834868.717    20834868.8334   20834876.0944
       214.0004        215.0004
 -12422211.90048  -9666687.33846  21906894.107    21906893.6554   21906899.7274
       177.0004        178.0004
 -11610671.88548  -9029940.33746  22580676.425    22580677.3084   22580686.1714
       170.0004        171.0004
 21  1 31  0  7  0.0000000  0  8G07G04G08G27G30G09G21G01
 -13646303.06648 -10615845.78746  22316200.977    22316201.5334   22316205.1734
       186.0004        187.0004
 -14962617.65248 -11640945.82847  21578096.855    21578097.7824   21578103.6284
       191.0004        190.0004
 -19056581.93449 -14832924.02747  20976184.525    20976184.9104   20976192.2544
       201.0004        201.0004
  -5945247.51048  -4597855.61246  23748452.868    23748452.2114   23748458.6304
       186.0004        187.0004
  -1843424.51947  -1423268.63945  24288955.249    24288954.7104   24288962.8584
       147.0004        151.0004
 -17956464.30449 -13975695.73248  20838629.260    20838629.7434   20838636.1654
       214.0004        215.0004
 -12447723.62348  -9686566.58546  21902039.268    21902039.0974   21902044.2214
       177.0004        178.0004
 -11687412.09648  -9089737.87546  22566072.646    22566073.6644   22566082.7654
       170.0004        172.0004
 21  1 31  0  7 30.0000000  0  8G07G04G08G27G30G09G21G01
 -13721353.77348 -10674326.86546  22301919.685    22301919.8384   22301923.6734
       187.0004        186.0004
 -14881906.39448 -11578053.94347  21593455.710    21593456.1944   21593462.9964
       192.0004        191.0004
 -18989892.54049 -14780958.26047  20988876.178    20988875.9594   20988883.2794
       201.0004        202.0004
  -5838706.93948  -4514836.97346  23768724.618    23768724.8524   23768732.6904
       184.0004        182.0004
  -1927671.44047  -1488915.54045  24272924.056    24272923.8564   24272931.0224
       150.0004        154.0004
 -17936165.60449 -13959878.56548  20842491.925    20842492.1994   20842498.9344
       214.0004        214.0004
 -12472862.76548  -9706155.51946  21897255.170    21897255.2744   21897261.2674
       178.0004        178.0004
 -11764071.91648  -9149472.77846  22551485.941    22551486.4164   22551494.6924
       170.0004        171.0004
 21  1 31  0  8  0.0000000  0  8G07G04G08G27G30G09G21G01
 -13796366.14248 -10732778.03546  22287643.665    22287645.0154   22287649.3844
       186.0004        186.0004
 -14800873.84548 -11514911.71147  21608875.600    21608875.9204   21608882.4234
       191.0004        190.0004
 -18922804.48749 -14728681.84447  21001641.670    21001642.0244   21001649.4754
       201.0004        201.0004
  -5732060.41048  -4431735.78646  23789017.858    23789018.7004   23789026.6734
       183.0004        183.0004
  -2012024.08847  -1554644.84345  24256871.103    24256871.3324   24256879.6834
       153.0004        156.0004
 -17915330.78549 -13943643.63648  20846456.447    20846456.7254   20846463.7524
       214.0004        214.0004
 -12497626.81048  -9725452.14946  21892544.182    21892543.2874   21892548.7514
       178.0004        179.0004
 -11840647.94448  -9209142.40246  22536914.947    22536915.3684   22536923.3454
       170.0004        172.0004
 21  1 31  0  8 30.0000000  0  8G07G04G08G27G30G09G21G01
 -13871338.58448 -10791198.11647  22273378.702    22273379.1724   22273383.0694
       187.0004        188.0004
 -14719523.62048 -11451521.93047  21624356.416    21624356.8704   21624362.8694
       191.0004        189.0004
 -18855320.88049 -14676097.19647  21014483.574    21014483.4904   21014491.1104
       201.0004        201.0004
  -5625311.49648  -4348554.81946  23809333.410    23809333.3694   23809340.2844
       182.0004        181.0004
  -2096481.89047  -1620456.08245  24240799.944    24240799.8534   24240806.0984
       153.0004        155.0004
 -17893961.95749 -13926992.58948  20850522.711    20850523.3484   20850529.8844
       214.0004        214.0004
 -12522014.49248  -9744455.50946  21887902.287    21887902.4464   21887907.1524
       179.0004        179.0004
 -11917137.79448  -9268744.85646  22522357.891    22522358.8484   22522367.5804
       170.0004        171.0004
 21  1 31  0  9  0.0000000  0  8G07G04G08G27G30G09G21G01
 -13946269.44748 -10849585.76646  22259120.356    22259120.2944   22259123.7744
       187.0004        187.0004
 -14637859.05448 -11387887.20947  21639897.274    21639897.2534   21639903.5404
       191.0004        190.0004
 -18787444.98649 -14623206.87247  21027398.718    21027399.4634   21027407.5644
       200.0004        200.0004
  -5518463.48248  -4265296.59146  23829665.217    23829665.6874   23829672.2474
       180.0004        180.0004
  -2181043.99347  -1686348.58645  24224708.230    24224707.7644   24224715.1064
       152.0004        155.0004
 -17872060.89749 -13909926.82048  20854691.049    20854691.1654   20854697.4544
       214.0004        214.0004
 -12546023.97248  -9763164.17146  21883333.480    21883333.0964   21883338.6944
       179.0004        180.0004
 -11993538.71948  -9328278.01446  22507819.539    22507820.4164   22507828.8464
       169.0004        170.0004
 21  1 31  0  9 30.0000000  0  8G07G04G08G27G30G09G21G01
 -14021156.06448 -10907938.96346  22244868.851    22244868.9584   22244873.4544
       187.0004        187.0004
 -14555882.86148 -11324009.66147  21655495.954    21655497.0994   21655503.1214
       191.0004        190.0004
 -18719179.73149 -14570013.16447  21040390.116    21040390.1664   21040398.0444
       200.0004        200.0004
  -5411519.02448  -4181963.26846  23850017.461    23850017.3674   23850021.7734
       180.0004        180.0004
  -2265708.92747  -1752321.22345  24208597.120    24208596.6324   24208604.2564
       153.0004        156.0004
 -17849628.93149 -13892447.36148  20858958.882    20858959.3504   20858965.9414
       213.0004        213.0004
 -12569653.19148  -9781576.52746  21878837.320    21878836.6374   21878841.8904
       179.0004        179.0004
 -12069847.42248  -9387739.31146  22493299.001    22493299.0524   22493307.6844
       170.0004        171.0004
 21  1 31  0 10  0.0000000  0  8G07G04G08G27G30G09G21G01
 -14095996.68548 -10966256.30946  22230626.271    22230626.9684   22230631.6544
       186.0004        187.0004
 -14473598.21748 -11259891.76147  21671154.152    21671154.3564   21671161.4374
       191.0004        191.0004
 -18650527.65649 -14516518.02747  21053454.683    21053454.5934   21053461.7484
       200.0004        200.0004
  -5304481.10248  -4098557.07246  23870385.239    23870385.4914   23870392.0454
       180.0004        180.0004
  -2350475.51447  -1818373.07145  24192465.268    24192465.9024   24192473.6354
       154.0004        157.0004
 -17826667.67149 -13874555.46648  20863328.674    20863328.8624   20863335.8524
       213.0004        214.0004
 -12592900.15448  -9799691.02246  21874412.688    21874411.9594   21874418.0364
       179.0004        178.0004
 -12146060.85548  -9447126.38446  22478795.306    22478796.0544   22478804.3954
       170.0004        172.0004
 21  1 31  0 10 30.0000000  0  8G07G04G08G27G30G09G21G01
 -14170786.89448 -11024534.36147  22216395.119    22216395.7964   22216399.9984
       188.0004        189.0004
 -14391006.03748 -11195534.22447  21686871.184    21686871.6774   21686878.4374
       191.0004        190.0004
 -18581490.12549 -14462722.53347  21066592.335    21066591.8294   21066599.0804
       200.0004        200.0004
  -5197350.59948  -4015078.75746  23890770.982    23890771.3304   23890778.0124
       181.0004        182.0004
  -2435340.51247  -1884501.60345  24176316.664    24176317.2524   24176324.3794
       155.0004        157.0004
 -17803176.58649 -13856250.71548  20867798.255    20867798.8134   20867806.0474
       213.0004        213.0004
 -12615760.68148  -9817504.39646  21870062.509    21870062.4614   21870067.4214
       178.0004        179.0004
 -12222173.96748  -9506435.26046  22464312.115    22464312.6574   22464320.5414
       170.0004        171.0004
 21  1 31  0 11  0.0000000  0  8G07G04G08G27G30G09G21G01
 -14245526.30548 -11082772.85047  22202172.451    22202173.2594   22202177.1174
       188.0004        189.0004
 -14308110.91848 -11130940.63147  21702645.793    21702645.8574   21702652.0314
       191.0004        189.0004
 -18512071.38549 -14408629.98647  21079800.887    21079801.2844   21079809.4654
       199.0004        199.0004
  -5090131.96248  -3931531.76546  23911173.750    23911173.7194   23911182.3084
       181.0004        181.0004
  -2520304.17047  -1950707.01245  24160148.659    24160148.8364   24160155.9574
       155.0004        157.0004
 -17779158.85549 -13837535.59248  20872369.278    20872369.5944   20872376.2794
       213.0004        213.0004
 -12638234.68548  -9835016.57946  21865785.761    21865785.1804   21865791.7944
       179.0004        179.0004
 -12298185.16148  -9565664.73846  22449847.141    22449847.8614   22449854.5054
       170.0004        171.0004
 21  1 31  0 11 30.0000000  0  8G07G04G08G27G30G09G21G01
 -14320212.79048 -11140970.09747  22187960.300    22187960.8854   22187964.3644
       189.0004        189.0004
 -14224916.20948 -11066113.59147  21718477.885    21718477.4964   21718483.6464
       190.0004        189.0004
 -18442274.63849 -14354242.91147  21093082.948    21093083.4144   21093091.1624
       198.0004        198.0004
  -4982828.36648  -3847918.56646  23931593.110    23931593.2344   23931601.0274
       179.0004        179.0004
  -2605365.55547  -2016988.58845  24143963.394    24143962.4074   24143969.2934
       157.0004        159.0004
 -17754616.39649 -13818411.58648  20877039.267    20877039.4724   20877046.5494
       213.0004        213.0004
 -12660320.50548  -9852226.29046  21861583.683    21861583.0654   21861588.8424
       179.0004        180.0004
 -12374091.67748  -9624812.65646  22435402.923    22435403.4494   22435411.5764
       170.0004        171.0004
 21  1 31  0 12  0.0000000  0  8G07G04G08G27G30G09G21G01
 -14394844.54648 -11199124.70547  22173759.141    22173758.9444   22173763.0914
       189.0004        189.0004
 -14141425.02348 -11001055.53947  21734365.411    21734365.6864   21734371.0884
       190.0004        188.0004
 -18372103.48749 -14299564.07647  21106435.260    21106436.4494   21106444.2804
       198.0004        198.0004
  -4875442.80948  -3764241.52346  23952030.314    23952029.1544   23952034.9234
       177.0004        177.0004
  -2690523.52947  -2083345.42745  24127757.222    24127756.9864   24127764.3634
       157.0004        159.0004
 -17729550.91649 -13798880.04948  20881809.379    20881809.6714   20881816.1144
       213.0004        213.0004
 -12682016.32448  -9869132.10646  21857456.771    21857455.3814   21857460.2214
       180.0004        180.0004
 -12449890.56948  -9683876.70446  22420979.093    22420979.2044   22420987.7384
       171.0004        172.0004
 21  1 31  0 12 30.0000000  0  8G07G04G08G27G30G09G21G01
 -14469419.18948 -11257234.80246  22159567.108    22159567.2604   22159571.1034
       188.0004        187.0004
 -14057640.35948 -10935768.79347  21750308.341    21750308.7324   21750314.4914
       190.0004        188.0004
 -18301560.27049 -14244595.32147  21119859.943    21119860.3974   21119868.0374
       198.0004        199.0004
  -4767978.19948  -3680502.86046  23972479.502    23972478.2474   23972485.2254
       178.0004        178.0004
  -2775776.68347  -2149776.42145  24111533.806    24111533.8384   24111541.0554
       156.0004        158.0004
 -17703964.06849 -13778942.23648  20886677.777    20886678.3584   20886685.4014
       213.0004        213.0004
 -12703319.97948  -9885732.32546  21853400.457    21853400.4584   21853405.6174
       179.0004        179.0004
 -12525578.66848  -9742854.41346  22406575.361    22406575.5734   22406584.4944
       171.0004        172.0004
 21  1 31  0 13  0.0000000  0  8G07G04G08G27G30G09G21G01
 -14543932.67248 -11315297.22647  22145387.444    22145388.1664   22145392.2864
       188.0004        190.0004
 -13973563.44848 -10870254.31846  21766308.013    21766308.5614   21766314.5874
       189.0004        187.0004
 -18230646.31449 -14189337.67947  21133354.566    21133355.4544   21133362.7104
       199.0004        199.0004
  -4660435.40248  -3596703.30446  23992941.406    23992942.1104   23992949.8494
       175.0004        175.0004
  -2861121.94447  -2216279.20045  24095293.679    24095293.0814   24095300.0394
       156.0004        158.0004
 -17677855.66949 -13758598.02348  20891646.003    20891646.5514   20891653.4064
       212.0004        213.0004
 -12724227.68648  -9902024.00346  21849420.652    21849420.9094   21849427.5364
       178.0004        179.0004
 -12601151.01248  -9801741.91846  22392194.934    22392194.9414   22392203.7314
       172.0004        173.0004
 21  1 31  0 13 30.0000000  0  8G07G04G08G27G30G09G21G01
 -14618382.95148 -11373310.41247  22131219.386    22131220.6904   22131224.9354
       190.0004        191.0004
 -13889197.45248 -10804514.59047  21782362.325    21782362.5744   21782369.1794
       189.0004        188.0004
 -18159364.26849 -14133793.21247  21146919.628    21146919.3524   21146927.1504
       198.0004        198.0004
  -4552817.55548  -3512845.24846  24013420.861    24013420.9064   24013427.7854
       173.0004        173.0004
  -2946558.08847  -2282852.80845  24079035.046    24079035.2374   24079042.1674
       156.0004        158.0004
 -17651227.56949 -13737848.84848  20896713.694    20896714.2504   20896720.7144
       213.0004        213.0004
 -12744737.92448  -9918005.98746  21845518.856    21845519.2554   21845523.6114
       178.0004        178.0004
 -12676604.60348  -9860536.89046  22377836.623    22377836.5284   22377844.6364
       172.0004        173.0004
 21  1 31  0 14  0.0000000  0  8G07G04G08G27G30G09G21G01
 -14692766.95348 -11431271.96447  22117066.214    22117066.4534   22117069.7814
       191.0004        192.0004
 -13804544.73148 -10738551.43246  21798470.593    21798471.1374   21798477.2004
       188.0004        187.0004
 -18087717.02649 -14077964.19147  21160553.439    21160553.5804   21160561.1174
       197.0004        197.0004
  -4445126.73448  -3428930.33646  24033913.876    24033914.6154   24033922.0624
       173.0004        175.0004
  -3032083.12047  -2349495.63745  24062760.780    24062759.9994   24062768.2294
       157.0004        159.0004
 -17624080.81649 -13716695.53348  20901879.361    20901879.7564   20901886.4254
       212.0004        213.0004
 -12764847.97148  -9933676.11946  21841692.580    21841692.0294   21841697.7614
       179.0004        179.0004
 -12751935.69748  -9919236.42446  22363501.127    22363501.7214   22363509.7354
       173.0004        174.0004
 21  1 31  0 14 30.0000000  0  8G07G04G08G27G30G09G21G01
 -14767083.73548 -11489181.12547  22102923.897    22102924.0584   22102927.9534
       192.0004        191.0004
 -13719609.37948 -10672368.05546  21814633.562    21814633.9804   21814640.1614
       188.0004        186.0004
 -18015708.55049 -14021853.68447  21174255.663    21174256.1314   21174264.1024
       197.0004        197.0004
  -4337366.86548  -3344961.61446  24054420.805    24054420.1234   24054427.1184
       172.0004        172.0004
  -3117696.78047  -2416207.51945  24046467.220    24046468.2254   24046476.4984
       157.0004        160.0004
 -17596418.12649 -13695140.18947  20907143.698    20907143.8324   20907150.3854
       212.0004        212.0004
 -12784556.96748  -9949033.74746  21837942.256    21837941.2354   21837946.5524
       179.0004        179.0004
 -12827142.13948  -9977838.81346  22349190.267    22349190.6994   22349198.9304
       173.0004        174.0004
 21  1 31  0 15  0.0000000  0  8G07G04G08G27G30G09G21G01
 -14841330.97748 -11547036.10847  22088794.507    22088794.9494   22088799.4744
       191.0004        191.0004
 -13634394.50048 -10605966.86046  21830850.132    21830850.1414   21830855.8744
       188.0004        186.0004
 -17943341.73449 -13965463.94447  21188026.762    21188027.0684   21188034.8474
       197.0004        198.0004
  -4229540.72648  -3260941.26946  24074937.898    24074938.5114   24074946.2224
       173.0004        174.0004
  -3203397.67947  -2482987.42446  24030160.300    24030160.2444   24030168.6674
       160.0004        163.0004
 -17568241.32649 -13673184.23447  20912505.148    20912505.3734   20912512.9424
       212.0004        212.0004
 -12803863.41048  -9964077.69246  21834267.687    21834267.1384   21834273.3154
       179.0004        180.0004
 -12902220.89048 -10036341.71546  22334903.530    22334903.6794   22334911.1474
       173.0004        175.0004
 21  1 31  0 15 30.0000000  0  8G07G04G08G27G30G09G21G01
 -14915506.62048 -11604835.29047  22074679.707    22074680.3134   22074683.9204
       191.0004        191.0004
 -13548903.40048 -10539350.42046  21847117.827    21847118.1974   21847124.3104
       187.0004        185.0004
 -17870619.66249 -13908797.37447  21201865.951    21201865.8064   21201873.4234
       198.0004        198.0004
  -4121651.47048  -3176871.69446  24095467.719    24095469.1334   24095476.6004
       173.0004        174.0004
  -3289184.65447  -2549834.38546  24013836.579    24013836.0314   24013843.2374
       161.0004        163.0004
 -17539552.44049 -13650829.25648  20917964.521    20917964.9354   20917972.2854
       212.0004        213.0004
 -12822765.58648  -9978806.62646  21830670.577    21830670.2624   21830676.1624
       179.0004        180.0004
 -12977169.03148 -10094742.83546  22320641.217    22320641.1494   22320649.2584
       174.0004        176.0004
 21  1 31  0 16  0.0000000  0  8G07G04G08G27G30G09G21G01
 -14989607.96548 -11662576.58647  22060578.530    22060579.0254   22060583.2024
       192.0004        193.0004
 -13463138.75048 -10472520.83246  21863437.831    21863438.6374   21863444.2404
       186.0004        185.0004
 -17797545.14649 -13851856.18947  21215771.180    21215771.2254   21215778.9614
       197.0004        197.0004
  -4013701.47248  -3092754.83746  24116010.081    24116011.0484   24116019.5054
       173.0004        173.0004
  -3375056.10347  -2616747.17645  23997494.717    23997495.0334   23997501.2304
       158.0004        158.0004
 -17510352.96449 -13628076.41248  20923520.809    20923521.3804   20923528.6834
       212.0004        213.0004
 -12841261.30748  -9993218.85246  21827151.336    21827150.4344   21827156.3684
       179.0004        179.0004
 -13051983.07248 -10153039.45746  22306403.627    22306404.2784   22306413.1584
       175.0004        176.0004
 21  1 31  0 16 30.0000000  0  8G07G04G08G27G30G09G21G01
 -15063632.19948 -11720257.79447  22046491.752    22046492.2594   22046496.2824
       192.0004        191.0004
 -13377103.04448 -10405480.01946  21879810.360    21879810.1174   21879817.4154
       185.0004        185.0004
 -17724120.26049 -13794641.98347  21229743.244    21229743.7234   21229751.6544
       196.0004        196.0004
  -3905693.02348  -3008592.35746  24136562.812    24136564.8834   24136571.9844
       173.0004        174.0004
  -3461009.87447  -2683724.13745  23981139.092    23981138.9374   23981145.3944
       156.0004        157.0004
 -17480644.04949 -13604926.60747  20929173.956    20929174.5714   20929181.8204
       212.0004        212.0004
 -12859348.27248 -10007312.54446  21823709.617    21823709.2704   21823714.9084
       180.0004        179.0004
 -13126659.24848 -10211228.66246  22292192.226    22292193.3374   22292202.8544
       174.0004        175.0004
 21  1 31  0 17  0.0000000  0  8G07G04G08G27G30G09G21G01
 -15137577.05248 -11777877.15647  22032420.425    22032421.0934   22032424.8144
       191.0004        191.0004
 -13290799.25648 -10338230.33046  21896233.200    21896233.5384   21896240.3344
       185.0004        185.0004
 -17650348.22149 -13737157.27047  21243781.836    21243782.0584   21243789.3424
       196.0004        196.0004
  -3797628.72548  -2924386.44946  24157127.380    24157129.1154   24157136.9804
       174.0004        176.0004
  -3547044.63347  -2750764.20045  23964767.151    23964766.5654   23964773.3824
       156.0004        159.0004
 -17450427.50449 -13581381.24547  20934924.333    20934924.5424   20934931.9444
       212.0004        212.0004
 -12877024.57748 -10021086.25646  21820345.369    21820345.0794   21820350.9034
       180.0004        180.0004
 -13201194.37048 -10269307.95646  22278010.308    22278009.8874   22278019.5944
       174.0004        176.0004
 21  1 31  0 17 30.0000000  0  8G07G04G08G27G30G09G21G01
 -15211440.74448 -11835433.29947  22018364.713    22018365.1754   22018369.3594
       191.0004        192.0004
 -13204230.90048 -10270774.47946  21912707.505    21912707.4654   21912713.3164
       186.0004        185.0004
 -17576232.47849 -13679404.73547  21257885.574    21257886.3154   21257893.4414
       196.0004        196.0004
  -3689511.82448  -2840139.51046  24177702.112    24177702.6284   24177710.1554
       174.0004        175.0004
  -3633159.35147  -2817866.55445  23948379.193    23948378.8054   23948387.5084
       156.0004        157.0004
 -17419705.60849 -13557442.10947  20940770.290    20940770.6304   20940777.9574
       211.0004        212.0004
 -12894288.93348 -10034538.97146  21817060.635    21817059.4274   21817065.2584
       180.0004        180.0004
 -13275585.76448 -10327275.26546  22263854.317    22263854.8004   22263863.1144
       174.0004        176.0004
 21  1 31  0 18  0.0000000  0  8G07G04G08G27G30G09G21G01
 -15285220.18048 -11892923.74847  22004325.189    22004325.4634   22004328.9284
       192.0004        192.0004
 -13117400.52448 -10203114.45246  21929230.028    21929230.6234   21929237.2534
       185.0004        183.0004
 -17501775.66949 -13621386.43847  21272054.557    21272054.8444   21272061.9484
       196.0004        196.0004
  -3581344.53948  -2755853.35746  24198286.103    24198287.0294   24198294.2714
       175.0004        176.0004
  -3719352.01547  -2885029.61845  23931976.556    23931976.1524   23931984.5184
       155.0004        157.0004
 -17388479.71649 -13533110.24347  20946713.138    20946713.3494   20946719.9454
       212.0004        212.0004
 -12911138.91148 -10047668.79846  21813853.841    21813853.2884   21813858.8704
       180.0004        181.0004
 -13349829.56148 -10385127.55146  22249725.490    22249726.1494   22249735.5974
       176.0004        177.0004
 21  1 31  0 18 30.0000000  0  8G07G04G08G27G30G09G21G01
 -15358912.68948 -11950346.46347  21990302.522    21990302.7334   21990306.3724
       192.0004        193.0004
 -13030310.69848 -10135252.25646  21945802.898    21945803.0314   21945810.8124
       185.0004        186.0004
 -17426979.97349 -13563104.06947  21286287.068    21286287.5614   21286295.3794
       196.0004        197.0004
  -3473129.21748  -2671529.74046  24218879.587    24218880.2834   24218886.0744
       175.0004        177.0004
  -3805620.73547  -2952251.96145  23915559.540    23915559.6764   23915567.8944
       155.0004        158.0004
 -17356751.25049 -13508386.76247  20952750.606    20952751.0834   20952757.6334
       212.0004        212.0004
 -12927572.84248 -10060474.40946  21810726.899    21810725.5604   21810732.0514
       181.0004        182.0004
 -13423922.22448 -10442862.07546  22235625.708    22235626.9214   22235635.2844
       176.0004        177.0004
 21  1 31  0 19  0.0000000  0  9G17G07G04G08G27G30G09G21G01
  -1680071.17654  -1280093.91045  24268671.888
        74.0004        144.0004
 -15432516.43448 -12007700.01947  21976295.763    21976295.8544   21976299.9354
       193.0004        192.0004
 -12942964.95548 -10067190.64546  21962424.340    21962424.5524   21962431.1414
       185.0004        184.0004
 -17351849.01549 -13504560.45647  21300583.575    21300584.4474   21300592.0444
       196.0004        196.0004
  -3364868.94348  -2587171.08346  24239480.662    24239481.0234   24239487.5804
       176.0004        177.0004
  -3891964.40347  -3019532.72845  23899130.707    23899130.8724   23899138.0344
       157.0004        160.0004
 -17324522.58449 -13483273.51147  20958883.405    20958883.9504   20958890.9554
       212.0004        212.0004
 -12943589.30848 -10072954.73946  21807679.572    21807679.1034   21807683.2194
       181.0004        181.0004
 -13497860.96548 -10500476.65146  22221555.612    22221556.3954   22221564.6204
       176.0004        176.0004
 21  1 31  0 19 30.0000000  0  9G17G07G04G08G27G30G09G21G01
  -1777848.70346  -1356284.06745  24250064.278    24250064.3514   24250072.6834
       133.0004        143.0004
 -15506030.03048 -12064983.31947  21962306.316    21962307.2464   21962310.5634
       192.0004        192.0004
 -12855367.62048  -9998932.99046  21979093.624    21979094.1994   21979099.6404
       184.0004        183.0004
 -17276387.00949 -13445758.89547  21314943.791    21314944.2134   21314951.8184
       195.0004        196.0004
  -3256567.75748  -2502780.51846  24260089.351    24260090.4364   24260096.6004
       178.0004        179.0004
  -3978382.93747  -3086871.79645  23882685.153    23882684.3454   23882693.1964
       158.0004        160.0004
 -17291796.91849 -13457772.98948  20965111.034    20965111.3404   20965118.4764
       212.0004        213.0004
 -12959187.53048 -10085109.14846  21804710.024    21804710.1574   21804715.8144
       181.0004        181.0004
 -13571643.95848 -10557969.85546  22207516.248    22207515.5194   22207524.8824
       176.0004        177.0004
 21  1 31  0 20  0.0000000  0  9G17G07G04G08G27G30G09G21G01
  -1875413.35546  -1432308.32745  24231498.077    24231498.5924   24231505.0844
       134.0004        140.0004
 -15579452.19048 -12122195.39247  21948335.089    21948335.5454   21948339.0874
       192.0004        193.0004
 -12767523.07348  -9930482.69746  21995808.929    21995810.3094   21995816.2544
       184.0004        183.0004
 -17200598.20149 -13386702.68247  21329367.056    21329367.3814   21329374.0184
       196.0004        197.0004
  -3148229.68748  -2418361.25546  24280706.005    24280706.6394   24280712.3974
       179.0004        179.0004
  -4064876.04947  -3154268.99245  23866225.702    23866226.3424   23866233.0624
       157.0004        159.0004
 -17258577.48649 -13431887.72147  20971432.252    20971432.4464   20971439.6564
       212.0004        212.0004
 -12974366.89748 -10096937.21746  21801821.945    21801821.6614   21801827.1654
       181.0004        182.0004
 -13645269.24548 -10615340.19146  22193505.073    22193505.9484   22193514.2284
       176.0004        178.0004
 21  1 31  0 20 30.0000000  0  9G17G07G04G08G27G30G09G21G01
  -1972761.78746  -1508164.15645  24212973.048    24212974.5094   24212980.9374
       132.0004        138.0004
 -15652779.95648 -12179333.89147  21934380.540    21934381.3024   21934385.8214
       193.0004        194.0004
 -12679432.94748  -9861841.05046  22012572.774    22012573.1434   22012580.0204
       184.0004        184.0004
 -17124484.38549 -13327393.22147  21343851.690    21343851.6084   21343858.3714
       197.0004        197.0004
  -3039856.01148  -2333914.24546  24301330.114    24301329.2964   24301334.6554
       175.0004        174.0004
  -4151440.85847  -3221722.06945  23849752.991    23849752.7844   23849760.8994
       156.0004        157.0004
 -17224864.87649 -13405618.15847  20977848.221    20977848.4724   20977854.6744
       212.0004        212.0004
 -12989124.71248 -10108436.80446  21799014.183    21799013.3244   21799019.6754
       182.0004        182.0004
 -13718732.18248 -10672584.03346  22179525.109    22179526.4444   22179534.8454
       178.0004        179.0004
 21  1 31  0 21  0.0000000  0  9G17G07G04G08G27G30G09G21G01
  -2069890.24047  -1583848.55845  24194492.003    24194491.1884   24194497.3544
       136.0004        142.0004
 -15726009.11748 -12236395.56647  21920446.726    21920446.7684   21920450.4744
       194.0004        194.0004
 -12591098.99148  -9793009.41246  22029382.461    22029382.2994   22029388.9914
       184.0004        183.0004
 -17048047.34649 -13267831.88347  21358396.235    21358396.7524   21358403.1904
       196.0004        195.0004
  -2931448.11948  -2249440.52846  24321959.108    24321958.5524   24321963.7074
       173.0004        173.0004
  -4238074.55647  -3289228.83445  23833267.723    23833267.7584   23833275.2384
       154.0004        155.0004
 -17190659.72149 -13378964.79147  20984357.227    20984358.0214   20984363.8644
       212.0004        212.0004
 -13003457.99948 -10119605.56146  21796286.297    21796285.9864   21796291.4454
       182.0004        183.0004
 -13792028.35548 -10729697.91346  22165578.326    22165578.5834   22165585.6144
       177.0004        178.0004
 21  1 31  0 21 30.0000000  0  9G17G07G04G08G27G30G09G21G01
  -2166795.50747  -1659358.99745  24176051.866    24176051.5804   24176058.8934
       142.0004        148.0004
 -15799136.35848 -12293377.81247  21906529.883    21906530.3574   21906535.4994
       194.0004        194.0004
 -12502523.18248  -9723989.30046  22046237.321    22046237.8434   22046243.9144
       183.0004        183.0004
 -16971288.89049 -13208020.09047  21373003.100    21373003.5754   21373010.4604
       195.0004        195.0004
  -2823007.52948  -2164941.38846  24342594.884    24342593.9704   24342600.3654
       171.0004        170.0004
  -4324774.48947  -3356787.19945  23816768.596    23816768.3184   23816775.8084
       153.0004        156.0004
 -17155962.95249 -13351928.34147  20990959.788    20990960.0904   20990966.1924
       212.0004        212.0004
 -13017363.82148 -10130441.23846  21793639.704    21793639.0264   21793644.7324
       181.0004        181.0004
 -13865153.33648 -10786678.38946  22151661.830    22151662.7164   22151670.9664
       177.0004        176.0004
 21  1 31  0 22  0.0000000  0  9G17G07G04G08G27G30G09G21G01
  -2263474.62747  -1734693.25645  24157652.948    24157653.4214   24157660.9164
       144.0004        148.0004
 -15872158.31848 -12350278.02147  21892633.366    21892634.4824   21892639.3654
       194.0004        193.0004
 -12413707.68248  -9654782.41346  22063138.314    22063138.9654   22063145.1664
       184.0004        183.0004
 -16894210.66249 -13147959.12347  21387670.544    21387670.6594   21387678.0864
       195.0004        196.0004
  -2714536.02848  -2080418.09946  24363236.326    24363236.1314   24363240.5544
       169.0004        170.0004
  -4411538.20047  -3424395.21645  23800257.470    23800258.2584   23800265.8284
       152.0004        156.0004
 -17120775.65949 -13324509.66147  20997655.026    20997654.9914   20997662.9394
       211.0004        212.0004
 -13030839.58448 -10140941.79246  21791074.579    21791074.7234   21791079.9804
       180.0004        180.0004
 -13938103.09648 -10843522.32846  22137779.594    22137780.1324   22137789.6554
       177.0004        177.0004
 21  1 31  0 22 30.0000000  0  9G17G07G04G08G27G30G09G21G01
  -2359925.43747  -1809849.62345  24139298.716    24139299.3624   24139306.3854
       144.0004        149.0004
 -15945072.49848 -12407094.25947  21878759.315    21878759.6594   21878763.6334
       193.0004        194.0004
 -12324655.64048  -9585391.23146  22080083.460    22080084.7144   22080091.2194
       183.0004        182.0004
 -16816815.82849 -13087651.46147  21402398.227    21402398.7814   21402405.3794
       195.0004        195.0004
  -2606036.30648  -1995872.84146  24383883.528    24383882.7764   24383888.3524
       171.0004        173.0004
  -4498364.13247  -3492051.77745  23783736.060    23783736.0554   23783742.6534
       155.0004        158.0004
 -17085099.98849 -13296710.44147  21004444.029    21004444.0584   21004451.5954
       211.0004        212.0004
 -13043883.97248 -10151106.23646  21788592.259    21788592.6644   21788597.6324
       181.0004        181.0004
 -14010874.48048 -10900227.29446  22123932.420    22123932.8144   22123942.6644
       177.0004        179.0004
 21  1 31  0 23  0.0000000  0  9G17G07G04G08G27G30G09G21G01
  -2456146.82747  -1884827.23445  24120988.340    24120989.4284   24120996.4474
       147.0004        151.0004
 -16017877.37348 -12463825.31647  21864904.710    21864905.2294   21864909.3744
       193.0004        194.0004
 -12235371.00748  -9515818.81146  22097074.826    22097075.0704   22097081.6884
       184.0004        183.0004
 -16739108.86649 -13027100.57847  21417185.545    21417185.6394   21417193.0844
       195.0004        196.0004
  -2497512.05048  -1911308.52746  24404533.582    24404534.1344   24404540.1504
       171.0004        173.0004
  -4585251.63847  -3559756.33745  23767202.704    23767202.0664   23767209.3894
       157.0004        160.0004
 -17048938.88749 -13268532.96247  21011325.544    21011325.6474   21011332.7254
       211.0004        212.0004
 -13056496.57048 -10160934.22646  21786192.804    21786192.4264   21786197.0894
       180.0004        181.0004
 -14083465.13048 -10956791.42146  22110119.598    22110119.2894   22110127.5344
       178.0004        178.0004
 21  1 31  0 23 30.0000000  0  9G17G07G04G08G27G30G09G21G01
  -2552136.55047  -1959624.29545  24102721.869    24102722.6064   24102729.4104
       147.0004        151.0004
 -16090570.26549 -12520469.12447  21851072.717    21851073.1204   21851077.1994
       195.0004        196.0004
 -12145856.71748  -9446067.42046  22114109.198    22114109.4564   22114114.7744
       184.0004        183.0004
 -16661092.33449 -12966308.46447  21432031.730    21432032.0784   21432038.6994
       195.0004        195.0004
  -2388965.56748  -1826726.84946  24425189.343    24425189.7114   24425195.5404
       170.0004        170.0004
  -4672199.01447  -3627507.47745  23750656.050    23750655.8454   23750664.6864
       159.0004        162.0004
 -17012294.29549 -13239978.73647  21018298.755    21018298.8854   21018305.8054
       211.0004        211.0004
 -13068675.29848 -10170424.12346  21783876.198    21783875.3394   21783880.3584
       181.0004        182.0004
 -14155871.72148 -11013212.11446  22096340.414    22096341.2714   22096349.0604
       177.0004        178.0004
 21  1 31  0 24  0.0000000  0  9G17G07G04G08G27G30G09G21G01
  -2647892.75047  -2034239.36045  24084499.939    24084500.4714   24084507.8534
       149.0004        154.0004
 -16163149.43049 -12577024.33747  21837261.043    21837261.6364   21837265.3524
       195.0004        196.0004
 -12056115.98848  -9376139.59346  22131186.932    22131186.6174   22131192.4504
       184.0004        184.0004
 -16582769.30548 -12905277.52647  21446934.845    21446935.5514   21446943.3414
       194.0004        195.0004
  -2280399.66748  -1742130.03646  24445847.821    24445848.5474   24445855.7304
       169.0004        170.0004
  -4759204.78247  -3695304.12745  23734099.744    23734099.6394   23734107.1684
       160.0004        162.0004
 -16975168.45249 -13211049.51347  21025363.259    21025363.7364   21025370.6634
       210.0004        211.0004
 -13080418.72948 -10179574.82546  21781641.531    21781641.1364   21781646.3764
       182.0004        183.0004
 -14228091.12848 -11069486.94846  22082597.447    22082598.0014   22082607.0604
       178.0004        179.0004
 21  1 31  0 24 30.0000000  0  9G17G07G04G08G27G30G09G21G01
  -2743413.43347  -2108670.94045  24066323.213    24066323.8094   24066330.8604
       152.0004        156.0004
 -16235612.40649 -12633488.97147  21823471.662    21823471.6384   21823476.6064
       195.0004        194.0004
 -11966152.17048  -9306037.92546  22148305.902    22148306.2564   22148312.7264
       184.0004        184.0004
 -16504143.04149 -12844010.31648  21461897.517    21461898.1974   21461905.3564
       209.0004        213.0004
  -2171817.34648  -1657520.47646  24466511.000    24466511.5884   24466517.5604
       168.0004        170.0004
  -4846267.65547  -3763145.31045  23717531.341    23717532.0404   23717539.2254
       159.0004        160.0004
 -16937563.75849 -13181747.15247  21032518.451    21032519.1224   21032526.4744
       210.0004        210.0004
 -13091725.79648 -10188385.49646  21779489.398    21779489.0874   21779495.0224
       183.0004        183.0004
 -14300120.46048 -11125613.68646  22068891.924    22068892.0074   22068900.7914
       179.0004        180.0004
 21  1 31  0 25  0.0000000  0  9G17G07G04G08G27G30G09G21G01
  -2838695.95647  -2182916.93745  24048192.344    24048193.3064   24048198.3594
       154.0004        156.0004
 -16307956.23148 -12689860.77647  21809705.056    21809705.4784   21809709.1584
       194.0004        195.0004
 -11875967.96648  -9235764.52946  22165467.766    22165468.2014   22165473.6044
       183.0004        182.0004
 -16425216.23449 -12782508.90047  21476917.557    21476917.8464   21476924.3374
       214.0004        212.0004
  -2063220.75948  -1572899.73346  24487175.776    24487176.4144   24487183.1444
       169.0004        171.0004
  -4933385.62247  -3831029.40345  23700954.714    23700953.6514   23700961.4024
       157.0004        159.0004
 -16899481.98349 -13152073.04447  21039765.179    21039765.7514   21039772.8214
       209.0004        210.0004
 -13102594.68348 -10196854.72646  21777420.020    21777420.3814   21777426.5154
       182.0004        182.0004
 -14371956.08448 -11181589.48346  22055220.842    22055222.5594   22055230.9114
       179.0004        180.0004
 21  1 31  0 25 30.0000000  0  9G17G07G04G08G27G30G09G21G01
  -2933738.89347  -2256976.23345  24030106.079    24030106.2284   24030111.8794
       152.0004        154.0004
 -16380178.99549 -12746138.25047  21795961.795    21795962.0054   21795966.3064
       195.0004        195.0004
 -11785567.02148  -9165322.24246  22182669.301    22182670.2494   22182676.0424
       182.0004        181.0004
 -16345992.76849 -12720776.30748  21491993.696    21491993.6014   21492000.1284
       222.0004        226.0004
  -1954613.05348  -1488270.40046  24507841.765    24507842.9764   24507850.8614
       168.0004        169.0004
  -5020557.59247  -3898955.58145  23684366.168    23684365.8434   23684372.7794
       156.0004        159.0004
 -16860925.82649 -13122029.28347  21047102.944    21047103.2204   21047110.1864
       209.0004        209.0004
 -13113024.31648 -10204981.69246  21775435.545    21775435.4514   21775441.5884
       182.0004        182.0004
 -14443595.33448 -11237412.25346  22041588.980    22041589.5264   22041596.5374
       179.0004        179.0004
 21  1 31  0 26  0.0000000  0  9G17G07G04G08G27G30G09G21G01
  -3028539.02647  -2330846.33045  24012066.342    24012066.3034   24012071.6784
       149.0004        151.0004
 -16452277.05949 -12802318.53347  21782241.095    21782241.9874   21782246.2254
       195.0004        195.0004
 -11694951.13848  -9094712.46646  22199913.918    22199913.8904   22199919.8154
       181.0004        180.0004
 -16266473.72649 -12658813.40048  21507124.063    21507124.7664   21507131.6034
       225.0004        224.0004
  -1845995.72348  -1403633.50846  24528510.856    24528512.6854   24528518.8584
       167.0004        168.0004
  -5107780.65547  -3966921.60145  23667768.541    23667768.2044   23667774.4314
       157.0004        160.0004
 -16821896.22549 -13091616.60447  21054529.925    21054530.3614   21054537.2304
       210.0004        210.0004
 -13123011.93648 -10212764.22846  21773536.178    21773534.9814   21773540.5684
       182.0004        181.0004
 -14515033.77748 -11293078.53546  22027993.579    22027994.4744   22028003.4724
       178.0004        179.0004
 21  1 31  0 26 30.0000000  0  9G17G07G04G08G27G30G09G21G01
  -3123095.15547  -2404526.32645  23994072.594    23994073.6004   23994078.0324
       150.0004        153.0004
 -16524248.93649 -12858400.49947  21768546.301    21768546.2844   21768550.3174
       195.0004        195.0004
 -11604124.21248  -9023938.26746  22217197.910    22217197.6554   22217203.1644
       180.0004        180.0004
 -16186663.48749 -12596623.60848  21522311.875    21522312.4004   21522319.1534
       225.0004        224.0004
  -1737371.96848  -1318991.60246  24549180.845    24549182.2334   24549190.7994
       167.0004        167.0004
  -5195054.04547  -4034926.81745  23651160.017    23651159.9954   23651167.8384
       158.0004        161.0004
 -16782396.23849 -13060837.39947  21062046.583    21062046.8204   21062053.7154
       209.0004        210.0004
 -13132556.95948 -10220201.89446  21771719.537    21771718.8594   21771722.8714
       181.0004        182.0004
 -14586268.96448 -11348586.47546  22014438.393    22014438.6994   22014447.6494
       179.0004        179.0004
 21  1 31  0 27  0.0000000  0 10G17G14G07G04G08G27G30G09G21G01
  -3217404.20447  -2478013.73845  23976126.347    23976126.4364   23976132.2334
       152.0004        156.0004
   -939562.70054   -716654.67445  23614230.442
        74.0004        139.0004
 -16596090.92649 -12914381.25647  21754874.763    21754875.1774   21754879.0994
       195.0004        195.0004
 -11513088.47348  -8953001.33446  22234520.262    22234520.5524   22234526.7244
       180.0004        180.0004
 -16106564.19549 -12534208.56348  21537554.454    21537555.0834   21537561.9064
       225.0004        225.0004
  -1628743.46448  -1234346.05746  24569852.788    24569854.0634   24569862.1204
       167.0004        169.0004
  -5282375.14947  -4102969.20845  23634542.801    23634542.9234   23634550.6664
       160.0004        162.0004
 -16742427.13249 -13029692.63747  21069652.523    21069652.8654   21069659.8744
       210.0004        210.0004
 -13141657.02348 -10227292.82646  21769988.200    21769987.4874   21769992.1634
       182.0004        182.0004
 -14657296.81148 -11403932.82446  22000921.234    22000922.8044   22000930.9554
       179.0004        179.0004
 21  1 31  0 27 30.0000000  0  9G17G14G07G04G08G30G09G21G01
  -3311464.57947  -2551307.42445  23958227.467    23958227.2554   23958232.0844
       153.0004        156.0004
   -966918.90846   -737971.27345  23609024.444                    23609031.0084
       130.0004        144.0004
 -16667800.74149 -12970259.02647  21741228.984    21741229.4384   21741233.4214
       195.0004        196.0004
 -11421847.51148  -8881904.49046  22251883.934    22251883.4804   22251890.4994
       180.0004        181.0004
 -16026178.97049 -12471570.71848  21552852.254    21552852.2654   21552858.7794
       226.0004        225.0004
  -5369742.87647  -4171047.91945  23617917.565    23617917.0124   23617924.4494
       159.0004        159.0004
 -16701991.71249 -12998184.51447  21077346.927    21077347.2634   21077354.2874
       209.0004        209.0004
 -13150311.39448 -10234036.46946  21768340.905    21768339.9694   21768344.8044
       182.0004        182.0004
 -14728114.59348 -11459115.48246  21987445.980    21987447.2244   21987455.8014
       179.0004        179.0004
 21  1 31  0 28  0.0000000  0  9G17G14G07G04G08G30G09G21G01
  -3405274.88847  -2624406.19945  23940373.990    23940374.3154   23940381.9914
       154.0004        156.0004
   -994215.32047   -759241.15645  23603828.318    23603829.0254   23603833.7924
       137.0004        143.0004
 -16739377.41949 -13026033.05547  21727608.620    21727608.8474   21727612.8094
       196.0004        196.0004
 -11330405.12548  -8810650.70446  22269284.271    22269284.9404   22269291.7924
       180.0004        179.0004
 -15945511.99649 -12408713.32948  21568202.403    21568202.5364   21568208.8394
       226.0004        225.0004
  -5457156.27347  -4239162.21545  23601283.112    23601283.8444   23601290.9114
       158.0004        161.0004
 -16661092.94749 -12966315.34947  21085129.640    21085130.0294   21085137.0714
       209.0004        209.0004
 -13158518.90248 -10240431.91846  21766778.449    21766778.2704   21766782.8014
       182.0004        182.0004
 -14798719.81348 -11514132.51446  21974011.087    21974011.0074   21974019.0714
       179.0004        180.0004
 21  1 31  0 28 30.0000000  0  9G17G14G07G04G08G30G09G21G01
  -3498831.79547  -2697307.52245  23922571.855    23922572.1634   23922577.8004
       156.0004        158.0004
  -1021452.01047   -780464.48945  23598646.204    23598645.8854   23598646.7494
       137.0004        141.0004
 -16810816.86849 -13081700.13847  21714014.145    21714014.1574   21714018.7904
       196.0004        196.0004
 -11238763.18048  -8739241.40646  22286723.255    22286724.5484   22286729.1044
       179.0004        178.0004
 -15864564.82449 -12345637.59748  21583605.647    21583605.6934   21583612.4344
       225.0004        223.0004
  -5544612.33547  -4307309.77446  23584642.081    23584642.2474   23584649.2234
       161.0004        164.0004
 -16619731.87949 -12934085.94047  21093000.160    21093000.5494   21093008.0774
       209.0004        209.0004
 -13166277.59948 -10246477.62946  21765301.392    21765300.9544   21765307.0874
       182.0004        182.0004
 -14869108.05848 -11568980.47046  21960616.328    21960616.6884   21960624.4894
       179.0004        180.0004
 21  1 31  0 29  0.0000000  0  9G17G14G07G04G08G30G09G21G01
  -3592134.89047  -2770011.09945  23904816.203    23904816.8714   23904823.6794
       156.0004        158.0004
  -1048631.80747   -801643.48245  23593474.218    23593474.4704   23593476.6354
       138.0004        143.0004
 -16882117.96749 -13137259.43147  21700445.948    21700446.2774   21700450.2434
       196.0004        197.0004
 -11146926.26648  -8667680.18346  22304199.811    22304200.0174   22304205.0154
       177.0004        176.0004
 -15783342.11349 -12282347.16948  21599061.326    21599062.0004   21599068.5104
       224.0004        223.0004
  -5632110.92747  -4375490.48345  23567991.118    23567990.6704   23567997.9654
       161.0004        162.0004
 -16577912.30449 -12901499.26047  21100959.091    21100959.3254   21100966.0364
       209.0004        210.0004
 -13173587.43148 -10252173.58946  21763911.031    21763911.1404   21763916.0354
       183.0004        183.0004
 -14939277.56748 -11623657.97746  21947263.586    21947263.5064   21947271.9694
       180.0004        181.0004
 21  1 31  0 29 30.0000000  0  9G17G14G07G04G08G30G09G21G01
  -3685180.53347  -2842514.06645  23887110.833    23887110.9664   23887117.7104
       157.0004        160.0004
  -1075754.40347   -822777.92145  23588312.605    23588312.9214   23588317.4054
       139.0004        143.0004
 -16953276.55849 -13192707.69047  21686905.008    21686905.2544   21686909.1284
       196.0004        196.0004
 -11054895.72548  -8595968.08046  22321712.202    22321712.9014   22321718.5214
       177.0004        178.0004
 -15701845.36249 -12218843.20248  21614570.302    21614570.5484   21614576.9794
       224.0004        224.0004
  -5719648.58347  -4443701.62246  23551333.227    23551333.1634   23551340.2304
       162.0004        165.0004
 -16535634.76449 -12868555.72847  21109003.507    21109004.1804   21109011.2434
       209.0004        209.0004
 -13180445.04848 -10257517.16746  21762607.287    21762605.7374   21762610.7664
       183.0004        183.0004
 -15009223.40048 -11678161.21446  21933953.968    21933953.5514   21933962.4814
       180.0004        181.0004
 21  1 31  0 30  0.0000000  0  9G17G14G07G04G08G30G09G21G01
  -3777967.48747  -2914815.44045  23869454.509    23869454.1794   23869460.6204
       157.0004        159.0004
  -1102821.74247   -843869.28745  23583160.561    23583161.5964   23583170.5844
       141.0004        147.0004
 -17024290.89049 -13248043.52547  21673390.657    21673391.1474   21673395.1264
       196.0004        196.0004
 -10962675.30548  -8524108.02846  22339261.201    22339261.0554   22339267.8524
       178.0004        178.0004
 -15620077.67449 -12155128.11148  21630130.365    21630130.4074   21630137.0564
       225.0004        224.0004
  -5807224.18847  -4511942.34746  23534667.859    23534668.3204   23534675.4954
       164.0004        166.0004
 -16492902.28549 -12835257.69247  21117134.712    21117135.1774   21117142.7984
       209.0004        209.0004
 -13186849.89848 -10262507.93346  21761388.587    21761387.7394   21761392.4914
       184.0004        184.0004
 -15078942.96548 -11732488.11846  21920686.019    21920686.3584   21920693.9324
       180.0004        181.0004
 21  1 31  0 30 30.0000000  0  9G17G14G07G04G08G30G09G21G01
  -3870492.71547  -2986912.88645  23851845.528    23851846.0854   23851853.3274
       155.0004        157.0004
  -1129834.50547   -864918.19945  23578020.566    23578022.4594   23578030.3554
       148.0004        154.0004
 -17095157.41249 -13303264.19147  21659905.721    21659905.7574   21659909.6624
       196.0004        196.0004
 -10870267.45148  -8452101.91746  22356844.118    22356845.3614   22356852.0924
       178.0004        178.0004
 -15538041.96649 -12091204.18048  21645740.589    21645741.1124   21645748.0324
       225.0004        224.0004
  -5894835.37748  -4580210.77446  23517995.497    23517996.0354   23518003.7724
       165.0004        166.0004
 -16449716.55049 -12801606.47647  21125353.852    21125354.3284   21125360.5054
       209.0004        209.0004
 -13192800.26148 -10267144.56646  21760254.538    21760254.1194   21760260.7574
       184.0004        183.0004
 -15148432.40048 -11786635.71546  21907462.075    21907462.5704   21907470.9954
       180.0004        181.0004
 21  1 31  0 31  0.0000000  0  9G17G14G07G04G08G30G09G21G01
  -3962752.82747  -3058803.76545  23834289.691    23834289.7644   23834296.4984
       156.0004        159.0004
  -1156792.37147   -885924.32045  23572891.328    23572891.8834   23572900.3254
       154.0004        158.0004
 -17165872.13949 -13358366.57147  21646448.220    21646448.7644   21646453.5934
       196.0004        196.0004
 -10777673.48748  -8379950.79346  22374464.648    22374465.4464   22374472.6324
       176.0004        175.0004
 -15455739.36149 -12027072.27948  21661402.398    21661402.5124   21661409.6664
       224.0004        222.0004
  -5982478.76548  -4648504.27746  23501318.197    23501318.1454   23501325.6944
       165.0004        167.0004
 -16406078.21649 -12767602.57747  21133657.295    21133657.7844   21133664.5824
       208.0004        208.0004
 -13198293.11148 -10271424.69846  21759209.295    21759209.2064   21759214.9444
       183.0004        184.0004
 -15217686.78548 -11840600.15046  21894284.669    21894284.8874   21894293.0624
       181.0004        183.0004
 21  1 31  0 31 30.0000000  0  9G17G14G07G04G08G30G09G21G01
  -4054747.78847  -3130488.04645  23816783.741    23816784.5324   23816789.7794
       156.0004        158.0004
  -1183698.95347   -906890.46445  23567771.421    23567772.7384   23567778.6104
       155.0004        158.0004
 -17236435.11849 -13413350.68647  21633020.379    21633021.1254   21633025.8604
       196.0004        197.0004
 -10684898.83148  -8307658.87346  22392119.846    22392120.5924   22392126.8784
       175.0004        176.0004
 -15373175.10349 -11962736.47748  21677113.328    21677113.9384   21677121.2394
       223.0004        222.0004
  -6070154.81748  -4716823.26646  23484634.396    23484634.0344   23484641.1034
       166.0004        168.0004
 -16361991.92049 -12733249.62347  21142047.130    21142047.3294   21142054.2014
       209.0004        209.0004
 -13203329.59148 -10275349.21146  21758250.914    21758250.6884   21758255.5994
       183.0004        182.0004
 -15286705.19448 -11894380.69746  21881150.052    21881150.5224   21881159.1274
       182.0004        182.0004
 21  1 31  0 32  0.0000000  0  9G17G14G07G04G08G30G09G21G01
  -4146475.65447  -3201964.20845  23799327.303    23799327.7454   23799334.6034
       155.0004        157.0004
  -1210555.39547   -927817.52445  23562661.871    23562661.7404   23562665.7784
       155.0004        157.0004
 -17306843.18649 -13468214.10247  21619622.182    21619622.5364   21619627.5224
       196.0004        196.0004
 -10591946.43648  -8235228.43846  22409809.203    22409809.3294   22409815.7294
       177.0004        177.0004
 -15290352.21649 -11898199.16248  21692874.305    21692874.9234   21692881.6884
       223.0004        223.0004
  -6157861.58248  -4785166.19246  23467944.690    23467944.3204   23467951.7924
       165.0004        167.0004
 -16317459.93749 -12698549.36747  21150521.320    21150521.2214   21150528.6434
       209.0004        210.0004
 -13207908.05148 -10278916.82046  21757380.890    21757380.3324   21757384.7884
       183.0004        183.0004
 -15355484.23348 -11947974.73046  21868060.922    21868062.1404   21868070.3924
       181.0004        182.0004
 21  1 31  0 32 30.0000000  0  9G17G14G07G04G08G30G09G21G01
  -4237934.78247  -3273230.93945  23781922.869    23781924.0054   23781928.9964
       152.0004        152.0004
  -1237363.22947   -948706.70045  23557558.072    23557559.1514   23557564.3904
       153.0004        155.0004
 -17377093.91849 -13522954.94147  21606254.998    21606254.9534   21606258.4774
       196.0004        196.0004
 -10498819.42248  -8162661.95746  22427529.980    22427530.0144   22427536.5544
       176.0004        176.0004
 -15207273.70149 -11833462.66648  21708684.563    21708684.7504   21708691.1434
       224.0004        223.0004
  -6245597.40848  -4853531.76446  23451248.319    23451247.9714   23451254.9504
       165.0004        165.0004
 -16272484.76749 -12663503.78847  21159079.616    21159079.8254   21159087.1134
       209.0004        210.0004
 -13212027.50748 -10282126.77546  21756596.624    21756595.7624   21756599.9254
       183.0004        183.0004
 -15424020.78548 -12001379.81746  21855019.735    21855019.7374   21855028.0884
       182.0004        182.0004
 21  1 31  0 33  0.0000000  0  9G17G14G07G04G08G30G09G21G01
  -4329121.37047  -3344285.30845  23764572.618    23764572.4644   23764577.5734
       151.0004        155.0004
  -1264122.17947   -969557.80445  23552467.548    23552468.1714   23552472.9344
       155.0004        158.0004
 -17447183.62449 -13577570.29147  21592917.296    21592917.5214   21592921.8714
       197.0004        198.0004
 -10405519.42248  -8089960.65146  22445284.306    22445284.7594   22445291.1414
       176.0004        176.0004
 -15123940.91549 -11768528.01748  21724542.189    21724542.1984   21724548.4584
       224.0004        222.0004
  -6333359.02447  -4921917.42146  23434546.942    23434546.9084   23434554.2344
       163.0004        163.0004
 -16227067.31549 -12628113.57947  21167722.020    21167722.7244   21167729.4904
       209.0004        210.0004
 -13215685.24248 -10284976.94546  21755900.060    21755899.7704   21755904.4914
       183.0004        184.0004
 -15492310.15348 -12054592.30446  21842024.714    21842024.9954   21842033.1094
       182.0004        182.0004
 21  1 31  0 33 30.0000000  0  9G17G14G07G04G08G30G09G21G01
  -4420033.95147  -3415126.17845  23747272.821    23747272.4154   23747278.2704
       156.0004        160.0004
  -1290834.02647   -990372.18645  23547384.234    23547384.6884   23547390.0244
       157.0004        159.0004
 -17517109.79249 -13632058.19947  21579610.716    21579610.9374   21579615.3544
       198.0004        198.0004
 -10312049.86148  -8017127.22246  22463070.964    22463072.3364   22463077.7634
       176.0004        176.0004
 -15040357.74749 -11703398.25448  21740446.687    21740446.8254   21740454.0024
       222.0004        220.0004
  -6421144.96547  -4990322.03046  23417840.894    23417841.7114   23417849.6574
       162.0004        164.0004
 -16181210.38649 -12592380.90447  21176448.776    21176449.0704   21176456.0424
       209.0004        209.0004
 -13218880.60248 -10287466.82246  21755292.269    21755291.5854   21755296.4304
       184.0004        184.0004
 -15560349.50148 -12107609.94446  21829076.990    21829077.3504   21829085.8684
       182.0004        182.0004
 21  1 31  0 34  0.0000000  0  9G17G14G07G04G08G30G09G21G01
  -4510671.00347  -3485752.34545  23730023.303    23730024.2884   23730029.4774
       157.0004        158.0004
  -1317500.39347  -1011151.13245  23542310.500    23542310.4244   23542315.8634
       156.0004        157.0004
 -17586870.14149 -13686416.90247  21566335.889    21566336.4284   21566340.2124
       198.0004        198.0004
 -10218414.09848  -7944164.30346  22480889.830    22480888.8704   22480896.3784
       176.0004        175.0004
 -14956527.04849 -11638075.63648  21756399.391    21756399.5084   21756406.6744
       221.0004        221.0004
  -6508953.74747  -5058744.43946  23401132.739    23401132.7614   23401140.0084
       163.0004        165.0004
 -16134916.78349 -12556307.96347  21185257.896    21185258.3154   21185265.4124
       209.0004        209.0004
 -13221612.65548 -10289595.68946  21754771.773    21754771.7414   21754776.9454
       184.0004        185.0004
 -15628135.86948 -12160430.47246  21816177.032    21816177.7604   21816186.6904
       182.0004        183.0004
 21  1 31  0 34 30.0000000  0  9G17G14G07G04G08G30G09G21G01
  -4601029.88947  -3556161.72545  23712827.996    23712829.6084   23712836.2984
       157.0004        160.0004
  -1344122.42547  -1031895.54645  23537243.991    23537244.1524   23537248.5934
       155.0004        158.0004
 -17656461.69849 -13740644.09347  21553093.419    21553093.4944   21553097.1774
       198.0004        198.0004
 -10124615.02448  -7871074.12346  22498737.854    22498738.6124   22498745.0584
       175.0004        175.0004
 -14872451.72249 -11572562.39448  21772398.468    21772398.8204   21772405.7244
       222.0004        222.0004
  -6596783.29647  -5127183.02346  23384419.387    23384420.3654   23384426.5444
       164.0004        166.0004
 -16088188.78549 -12519896.54247  21194149.893    21194150.6314   21194157.0494
       209.0004        209.0004
 -13223879.54048 -10291362.07146  21754341.854    21754341.1124   21754346.9594
       186.0004        187.0004
 -15695665.88048 -12213051.24246  21803327.213    21803327.7424   21803335.7924
       183.0004        184.0004
 21  1 31  0 35  0.0000000  0  9G17G14G07G04G08G30G09G21G01
  -4691109.47047  -3626353.51446  23695689.364    23695689.2764   23695694.7504
       160.0004        163.0004
  -1370701.78247  -1052606.70645  23532185.408    23532185.7934   23532191.9934
       158.0004        161.0004
 -17725882.41149 -13794738.15247  21539882.245    21539882.9814   21539887.1634
       198.0004        198.0004
 -10030656.08248  -7797859.38046  22516618.155    22516618.8684   22516625.8804
       176.0004        177.0004
 -14788135.31849 -11506861.29848  21788444.086    21788444.3364   21788450.1174
       222.0004        221.0004
  -6684632.15847  -5195636.69645  23367701.788    23367701.4444   23367708.7244
       162.0004        161.0004
 -16041029.14949 -12483148.78047  21203124.620    21203124.6964   21203131.3144
       209.0004        208.0004
 -13225681.19148 -10292765.94447  21753998.438    21753997.3344   21754003.9384
       187.0004        188.0004
 -15762936.64548 -12265469.98346  21790525.823    21790526.5214   21790535.7404
       184.0004        184.0004
 21  1 31  0 35 30.0000000  0  9G17G14G07G04G08G30G09G21G01
  -4780907.52547  -3696325.92545  23678601.064    23678600.6284   23678605.1514
       159.0004        160.0004
  -1397239.22047  -1073285.19546  23527136.355    23527136.5634   23527141.6794
       163.0004        166.0004
 -17795129.23849 -13848696.70147  21526705.296    21526705.9184   21526710.0144
       198.0004        199.0004
  -9936539.78848  -7724522.01146  22534527.639    22534528.2644   22534535.4854
       176.0004        177.0004
 -14703579.93949 -11440973.97848  21804534.078    21804534.3634   21804540.4254
       221.0004        220.0004
  -6772497.96147  -5264103.54346  23350982.340    23350982.2444   23350989.7234
       162.0004        164.0004
 -15993439.91049 -12446066.24847  21212180.274    21212180.4584   21212187.2674
       208.0004        209.0004
 -13227015.89248 -10293805.94446  21753743.885    21753743.6884   21753750.7914
       187.0004        187.0004
 -15829944.45248 -12317683.83946  21777775.370    21777775.0364   21777783.9654
       184.0004        185.0004
 21  1 31  0 36  0.0000000  0  9G17G14G07G04G08G30G09G21G01
  -4870422.28947  -3766077.57245  23661565.513    23661566.0374   23661570.1104
       156.0004        157.0004
  -1423736.59948  -1093932.48846  23522093.610    23522094.4704   23522099.5044
       165.0004        167.0004
 -17864199.88249 -13902517.98247  21513562.356    21513562.5974   21513565.8824
       199.0004        199.0004
  -9842269.72548  -7651064.81646  22552467.422    22552467.9944   22552473.2314
       176.0004        176.0004
 -14618789.21749 -11374903.28348  21820668.716    21820668.9994   21820675.6284
       221.0004        219.0004
  -6860379.35447  -5332582.49846  23334259.089    23334259.8544   23334266.5764
       164.0004        168.0004
 -15945424.08249 -12408651.31647  21221317.742    21221317.5454   21221323.7224
       208.0004        208.0004
 -13227883.16948 -10294481.73047  21753579.650    21753579.0304   21753585.8894
       187.0004        188.0004
 -15896686.57148 -12369690.66746  21765074.337    21765074.7264   21765082.7524
       184.0004        183.0004
 21  1 31  0 36 30.0000000  0  9G17G14G07G04G08G30G09G21G01
  -4959650.99847  -3835606.33545  23644583.909    23644585.0214   23644590.7114
       155.0004        158.0004
  -1450194.45548  -1114548.96146  23517058.773    23517059.3004   23517064.6844
       166.0004        166.0004
 -17933091.41249 -13956199.69247  21500452.345    21500452.9444   21500456.3134
       199.0004        199.0004
  -9747848.15348  -7577489.56346  22570434.342    22570435.4344   22570441.7214
       176.0004        176.0004
 -14533765.49949 -11308651.04248  21836848.189    21836848.5694   21836855.2704
       220.0004        219.0004
  -6948273.64548  -5401071.53646  23317532.924    23317532.8734   23317540.5424
       165.0004        167.0004
 -15896983.38749 -12370905.32847  21230535.230    21230535.4464   21230542.4134
       208.0004        208.0004
 -13228281.21248 -10294791.85347  21753504.180    21753503.0594   21753510.1434
       188.0004        188.0004
 -15963159.04748 -12421487.37246  21752424.462    21752425.6484   21752434.1734
       184.0004        185.0004
 21  1 31  0 37  0.0000000  0  9G17G14G07G04G08G30G09G21G01
  -5048591.51147  -3904910.50845  23627659.938    23627660.5624   23627665.5934
       155.0004        158.0004
  -1476613.57747  -1135135.28746  23512031.345    23512032.0384   23512037.6954
       164.0004        165.0004
 -18001800.51049 -14009739.24447  21487377.226    21487377.8344   21487381.7644
       199.0004        199.0004
  -9653277.59248  -7503798.22846  22588430.657    22588431.4524   22588437.5854
       176.0004        177.0004
 -14448511.34649 -11242219.22948  21853071.429    21853071.9424   21853078.5814
       220.0004        219.0004
  -7036178.42348  -5469568.73046  23300804.079    23300805.0144   23300813.1534
       165.0004        167.0004
 -15848119.86449 -12332829.84747  21239833.310    21239833.7394   21239841.1674
       208.0004        208.0004
 -13228208.36848 -10294735.06547  21753516.612    21753516.6394   21753524.0504
       188.0004        188.0004
 -16029358.10248 -12473071.03946  21739828.395    21739828.6184   21739836.5344
       185.0004        186.0004
 21  1 31  0 37 30.0000000  0  9G17G14G07G04G08G30G09G21G01
  -5137242.77847  -3973989.28445  23610790.389    23610790.0294   23610794.9184
       156.0004        158.0004
  -1502996.10947  -1155693.07946  23507011.213    23507011.5834   23507017.2344
       163.0004        163.0004
 -18070325.35149 -14063135.21347  21474337.096    21474337.4854   21474341.1174
       199.0004        199.0004
  -9558562.03148  -7429993.89146  22606454.468    22606455.5184   22606461.3814
       176.0004        176.0004
 -14363030.38949 -11175610.68548  21869338.488    21869338.7674   21869345.0554
       220.0004        219.0004
  -7124092.65248  -5538073.29046  23284074.928    23284075.1844   23284082.9124
       165.0004        166.0004
 -15798836.91149 -12294427.54547  21249211.241    21249211.9324   21249219.3304
       207.0004        207.0004
 -13227664.48348 -10294311.23047  21753619.841    21753619.7204   21753627.3144
       188.0004        188.0004
 -16095281.45748 -12524439.86446  21727281.346    21727282.7024   21727291.1874
       184.0004        184.0004
 21  1 31  0 38  0.0000000  0  9G17G14G07G04G08G30G09G21G01
  -5225602.44547  -4042840.88145  23593975.474    23593976.2604   23593981.7944
       155.0004        156.0004
  -1529342.99847  -1176223.08746  23501998.226    23501998.3954   23502003.6944
       163.0004        165.0004
 -18138662.83149 -14116385.20147  21461332.760    21461333.4714   21461337.1724
       198.0004        199.0004
  -9463704.10748  -7356078.64446  22624506.315    22624506.8664   22624512.7394
       176.0004        175.0004
 -14277325.43349 -11108827.60448  21885647.915    21885647.8804   21885654.2404
       220.0004        219.0004
  -7212014.11447  -5606583.48546  23267344.849    23267344.3274   23267351.9664
       164.0004        166.0004
 -15749136.75949 -12255700.16747  21258669.404    21258669.6924   21258676.5794
       207.0004        207.0004
 -13226647.87748 -10293519.06046  21753813.807    21753813.4734   21753819.9414
       187.0004        187.0004
 -16160925.49848 -12575591.04546  21714791.159    21714791.3214   21714799.6934
       184.0004        185.0004
 21  1 31  0 38 30.0000000  0  9G17G14G07G04G08G30G09G21G01
  -5313669.53747  -4111464.46645  23577216.892    23577218.1774   23577222.0684
       154.0004        158.0004
  -1555656.33147  -1196726.94746  23496989.765    23496990.0334   23496996.6054
       164.0004        166.0004
 -18206811.12949 -14169487.75647  21448364.422    21448364.9684   21448369.2634
       198.0004        199.0004
  -9368707.67548  -7282055.44646  22642583.204    22642583.8794   22642589.8414
       174.0004        173.0004
 -14191400.26749 -11041872.92248  21901999.145    21901998.8344   21902005.0114
       220.0004        218.0004
  -7299941.60748  -5675098.39846  23250612.101    23250612.6424   23250620.5284
       168.0004        171.0004
 -15699022.78949 -12216650.31547  21268205.540    21268206.2364   21268213.2384
       207.0004        208.0004
 -13225158.56748 -10292358.54446  21754097.019    21754096.4904   21754103.1164
       186.0004        185.0004
 -16226287.84348 -12626522.73046  21702353.384    21702353.7544   21702361.7844
       185.0004        186.0004
 21  1 31  0 39  0.0000000  0  9G17G14G07G04G08G30G09G21G01
  -5401440.68747  -4179857.48945  23560515.641    23560516.0414   23560520.1344
       157.0004        160.0004
  -1581935.97147  -1217204.57146  23491989.274    23491989.9894   23491994.7994
       164.0004        165.0004
 -18274766.05549 -14222439.65247  21435432.882    21435433.5914   21435438.2494
       199.0004        199.0004
  -9273574.33648  -7207925.58446  22660686.813    22660687.4124   22660693.7434
       174.0004        174.0004
 -14105256.26049 -10974747.73048  21918390.588    21918391.3484   21918397.3114
       219.0004        218.0004
  -7387871.75848  -5743615.37446  23233879.024    23233880.0794   23233887.8124
       169.0004        170.0004
 -15648496.07349 -12177278.86547  21277820.245    21277821.1484   21277828.5814
       207.0004        208.0004
 -13223194.53548 -10290828.12746  21754471.462    21754471.2284   21754476.2594
       185.0004        185.0004
 -16291363.77548 -12677231.23846  21689969.905    21689970.0794   21689978.6794
       185.0004        186.0004
 21  1 31  0 39 30.0000000  0  9G17G14G07G04G08G30G09G21G01
  -5488915.36447  -4248019.45745  23543868.173    23543868.9594   23543875.1854
       158.0004        160.0004
  -1608184.46747  -1237657.90746  23486994.032    23486995.1274   23487000.2384
       164.0004        166.0004
 -18342526.13049 -14275239.70347  21422539.132    21422539.2544   21422543.3774
       199.0004        199.0004
  -9178308.36148  -7133692.36046  22678815.047    22678815.6964   22678821.1184
       174.0004        173.0004
 -14018897.52549 -10907455.21248  21934824.837    21934824.7934   21934830.9204
       219.0004        218.0004
  -7475803.91448  -5812133.90646  23217146.350    23217147.0464   23217154.1474
       166.0004        167.0004
 -15597560.53849 -12137588.83247  21287513.625    21287514.1234   21287520.8714
       207.0004        207.0004
 -13220755.90448 -10288927.87746  21754934.811    21754934.5004   21754939.9484
       185.0004        185.0004
 -16356151.47348 -12727715.13546  21677639.957    21677640.7954   21677649.1144
       185.0004        185.0004
 21  1 31  0 40  0.0000000  0  9G17G14G07G04G08G30G09G21G01
  -5576090.23647  -4315947.83545  23527281.509    23527281.9174   23527286.1254
       159.0004        161.0004
  -1634401.48948  -1258086.71446  23482006.933    23482006.6174   23482010.9294
       165.0004        167.0004
 -18410087.36949 -14327884.83547  21409681.913    21409682.7334   21409686.7604
       199.0004        199.0004
  -9082911.17048  -7059356.88846  22696968.300    22696968.6284   22696975.0904
       173.0004        171.0004
 -13932325.74249 -10839996.67148  21951298.576    21951298.9874   21951305.4384
       219.0004        218.0004
  -7563734.47048  -5880651.21946  23200414.909    23200415.0054   23200422.0334
       167.0004        170.0004
 -15546217.15349 -12097581.00347  21297283.250    21297283.7974   21297291.0294
       206.0004        206.0004
 -13217840.23048 -10286655.91346  21755489.522    21755489.8364   21755493.6244
       184.0004        183.0004
 -16420646.01948 -12777970.60246  21665367.302    21665368.2134   21665376.2144
       185.0004        186.0004
 21  1 31  0 40 30.0000000  0  9G17G14G07G04G08G30G09G21G01
  -5662964.76147  -4383642.18545  23510748.900    23510748.7484   23510753.8274
       158.0004        159.0004
  -1660589.57548  -1278492.97346  23477021.684    23477022.4284   23477028.3574
       165.0004        165.0004
 -18477448.50949 -14380374.01547  21396864.175    21396864.4904   21396868.7804
       199.0004        200.0004
  -8987387.13948  -6984922.58246  22715145.858    22715145.5454   22715152.7294
       170.0004        170.0004
 -13845545.16049 -10772375.43448  21967811.626    21967812.4604   21967819.3814
       218.0004        217.0004
  -7651662.74348  -5949166.72446  23183683.226    23183682.2754   23183689.6884
       170.0004        171.0004
 -15494469.88249 -12057258.45047  21307130.009    21307130.4094   21307138.1064
       205.0004        205.0004
 -13214447.63148 -10284012.31646  21756135.889    21756135.0794   21756138.9484
       183.0004        182.0004
 -16484845.60248 -12827996.23346  21653151.425    21653151.5584   21653159.6364
       186.0004        187.0004
 21  1 31  0 41  0.0000000  0  9G17G14G07G04G08G30G09G21G01
  -5749536.59647  -4451100.65445  23494273.389    23494274.1524   23494281.0654
       156.0004        158.0004
  -1686749.68447  -1298877.43046  23472042.780    23472043.3974   23472050.4944
       163.0004        164.0004
 -18544606.21149 -14432704.67847  21384084.060    21384085.0414   21384089.3594
       200.0004        200.0004
  -8891738.87448  -6910391.47246  22733347.253    22733348.1364   22733353.1734
       170.0004        170.0004
 -13758557.95149 -10704593.18748  21984365.631    21984365.5284   21984373.0434
       218.0004        217.0004
  -7739586.40148  -6017678.67946  23166952.586    23166951.7584   23166957.1184
       170.0004        172.0004
 -15442320.93949 -12016622.91847  21317054.549    21317054.8244   21317062.1654
       205.0004        206.0004
 -13210577.19248 -10280996.38046  21756872.145    21756871.7714   21756875.4864
       182.0004        183.0004
 -16548746.59848 -12877789.19446  21640990.961    21640991.4744   21641000.0204
       186.0004        187.0004
 21  1 31  0 41 30.0000000  0  9G17G14G07G04G08G30G09G21G01
  -5835802.73547  -4518320.93145  23477858.572    23477858.7214   23477864.5014
       158.0004        160.0004
  -1712881.81347  -1319240.12346  23467072.097    23467071.3914   23467075.9814
       162.0004        164.0004
 -18611556.87249 -14484874.02247  21371343.639    21371344.5044   21371348.4824
       200.0004        200.0004
  -8795968.22448  -6835765.00046  22751571.875    22751572.0874   22751579.4074
       170.0004        170.0004
 -13671366.24949 -10636651.61148  22000957.817    22000957.9094   22000964.3494
       218.0004        217.0004
  -7827502.27048  -6086184.54046  23150221.237    23150220.9804   23150228.8224
       171.0004        172.0004
 -15389771.79749 -11975675.55147  21327054.071    21327054.3044   21327061.2664
       206.0004        206.0004
 -13206226.90648 -10277606.53146  21757700.450    21757700.2534   21757703.2954
       182.0004        182.0004
 -16612344.66448 -12927346.11246  21628887.255    21628888.8584   21628897.2954
       186.0004        186.0004
 21  1 31  0 42  0.0000000  0  9G17G14G07G04G08G30G09G21G01
  -5921762.72547  -4585302.62345  23461500.275    23461501.1744   23461506.1084
       156.0004        158.0004
  -1738988.37247  -1339582.86546  23462104.155    23462104.1624   23462108.3614
       162.0004        164.0004
 -18678298.73249 -14536880.66047  21358644.487    21358644.3144   21358648.3324
       200.0004        201.0004
  -8700079.28648  -6761046.34746  22769819.165    22769819.4104   22769825.3864
       169.0004        170.0004
 -13583973.94849 -10568553.70848  22017587.327    22017588.1604   22017594.3484
       217.0004        217.0004
  -7915409.43148  -6154683.59846  23133492.470    23133492.7754   23133501.0554
       171.0004        171.0004
 -15336826.21049 -11934419.24347  21337128.943    21337129.6934   21337137.1774
       206.0004        206.0004
 -13201396.70248 -10273842.70646  21758620.044    21758619.3754   21758622.4334
       182.0004        183.0004
 -16675637.71148 -12976665.34646  21616845.045    21616845.2154   21616853.0404
       186.0004        187.0004
 21  1 31  0 42 30.0000000  0  9G17G14G07G04G08G30G09G21G01
  -6007413.53247  -4652043.39745  23445203.092    23445202.5614   23445207.5034
       157.0004        160.0004
  -1765069.64447  -1359905.88346  23457140.475    23457140.8414   23457145.5284
       163.0004        165.0004
 -18744828.10149 -14588721.72547  21345983.294    21345983.9204   21345988.6434
       201.0004        201.0004
  -8604074.08948  -6686237.10246  22788087.477    22788088.3044   22788094.8794
       170.0004        170.0004
 -13496383.30149 -10500301.25148  22034256.141    22034255.8474   22034262.2284
       217.0004        216.0004
  -8003304.79548  -6223173.46346  23116766.996    23116767.7894   23116774.6494
       171.0004        173.0004
 -15283485.86949 -11892855.34547  21347279.784    21347280.3534   21347287.4554
       206.0004        206.0004
 -13196084.97048 -10269703.68046  21759629.764    21759629.4794   21759632.9114
       182.0004        181.0004
 -16738621.54648 -13025743.64446  21604859.546    21604859.8044   21604867.8844
       186.0004        187.0004
 21  1 31  0 43  0.0000000  0  9G17G14G07G04G08G30G09G21G01
  -6092753.64747  -4718542.09545  23428961.361    23428962.2834   23428966.0144
       158.0004        160.0004
  -1791127.16647  -1380210.42546  23452180.994    23452181.5754   23452186.3514
       163.0004        164.0004
 -18811142.54249 -14640395.31247  21333364.196    21333365.3994   21333368.8994
       201.0004        202.0004
  -8507955.93448  -6611339.83446  22806377.804    22806377.9234   22806385.1364
       168.0004        168.0004
 -13408597.31249 -10431896.57848  22050959.961    22050961.0014   22050967.2644
       217.0004        216.0004
  -8091186.72348  -6291652.86746  23100043.446    23100044.0344   23100051.1424
       171.0004        171.0004
 -15229753.76649 -11850986.17447  21357504.804    21357504.8624   21357511.6964
       205.0004        205.0004
 -13190291.29648 -10265189.12946  21760731.973    21760732.1974   21760735.6794
       181.0004        182.0004
 -16801293.35948 -13074578.79747  21592933.341    21592933.2094   21592942.2104
       187.0004        188.0004
 21  1 31  0 43 30.0000000  0  9G17G14G07G04G08G30G09G21G01
  -6177781.19147  -4784797.26145  23412782.243    23412782.8324   23412786.2004
       158.0004        161.0004
  -1817161.74847  -1400497.12245  23447227.376    23447227.9154   23447231.2604
       162.0004        162.0004
 -18877239.08549 -14691899.10647  21320787.227    21320787.2914   21320790.9744
       202.0004        202.0004
  -8411727.37748  -6536356.57046  22824689.753    22824690.4744   22824698.2524
       167.0004        167.0004
 -13320618.55349 -10363341.69648  22067701.695    22067702.3634   22067709.3094
       216.0004        214.0004
  -8179052.68148  -6360119.85746  23083322.598    23083323.5134   23083329.6304
       169.0004        169.0004
 -15175632.13349 -11808813.47447  21367803.630    21367803.9874   21367810.7264
       205.0004        205.0004
 -13184014.46548 -10260298.07446  21761927.872    21761926.3974   21761930.3844
       182.0004        183.0004
 -16863649.46848 -13123167.95147  21581067.764    21581068.1874   21581075.7434
       188.0004        189.0004
 21  1 31  0 44  0.0000000  0  9G17G14G07G04G08G30G09G21G01
  -6262494.02847  -4850807.17846  23396661.169    23396660.7474   23396666.9104
       161.0004        163.0004
  -1843174.65547  -1420766.88245  23442276.977    23442277.9774   23442282.4314
       159.0004        160.0004
 -18943115.04249 -14743231.00847  21308250.409    21308250.9514   21308255.5494
       201.0004        201.0004
  -8315391.46548  -6461289.60346  22843022.450    22843023.0854   22843028.9564
       167.0004        169.0004
 -13232449.76649 -10294638.73748  22084479.738    22084480.3174   22084487.6464
       215.0004        215.0004
  -8266900.67548  -6428572.83046  23066605.985    23066606.2124   23066613.6844
       169.0004        172.0004
 -15121123.68649 -11766339.35347  21378176.310    21378176.6244   21378183.8634
       204.0004        205.0004
 -13177253.68348 -10255029.91246  21763213.100    21763212.9594   21763217.2264
       182.0004        183.0004
 -16925686.71648 -13171508.65146  21569261.943    21569262.7734   21569269.8054
       188.0004        187.0004
 21  1 31  0 44 30.0000000  0  9G17G14G07G04G08G30G09G21G01
  -6346891.64847  -4916571.48746  23380600.760    23380601.2624   23380606.5004
       163.0004        165.0004
  -1869167.94847  -1441021.33745  23437329.911    23437330.8494   23437336.0624
       158.0004        159.0004
 -19008768.51649 -14794389.57747  21295756.528    21295757.7254   21295762.6034
       201.0004        202.0004
  -8218951.97848  -6386141.96246  22861375.731    22861374.5104   22861381.7554
       168.0004        168.0004
 -13144094.71149 -10225790.64848  22101294.713    22101294.5064   22101301.2514
       216.0004        216.0004
  -8354729.44148  -6497010.80846  23049893.224    23049893.7124   23049901.3534
       172.0004        174.0004
 -15066231.99149 -11723566.61247  21388622.081    21388622.5034   21388629.4784
       204.0004        204.0004
 -13170009.15648 -10249384.81346  21764591.267    21764591.3364   21764596.6614
       182.0004        183.0004
 -16987402.84648 -13219599.13546  21557516.587    21557517.8484   21557525.6934
       187.0004        187.0004
 21  1 31  0 45  0.0000000  0  9G17G14G07G04G08G30G09G21G01
  -6430972.27847  -4982088.76646  23364602.195    23364601.8084   23364606.1044
       164.0004        166.0004
  -1895142.77047  -1461261.43645  23432387.265    23432388.1794   23432392.6224
       159.0004        161.0004
 -19074196.60149 -14845372.48247  21283306.832    21283306.9504   21283311.0724
       202.0004        201.0004
  -8122411.87048  -6310915.90346  22879745.728    22879745.3214   22879752.4454
       168.0004        169.0004
 -13055556.30649 -10156799.66848  22118141.903    22118142.5224   22118149.5684
       216.0004        215.0004
  -8442536.84948  -6565432.12646  23033183.480    23033184.5814   23033190.8984
       172.0004        174.0004
 -15010959.70149 -11680497.29547  21399140.575    21399140.5684   21399146.7724
       204.0004        204.0004
 -13162280.10348 -10243362.14746  21766062.803    21766062.2584   21766067.1144
       183.0004        183.0004
 -17048794.59548 -13267436.83047  21545835.294    21545835.7184   21545843.2084
       187.0004        188.0004
 21  1 31  0 45 30.0000000  0  9G17G14G07G04G08G30G09G21G01
  -6514733.51948  -5047357.19046  23348660.654    23348661.7674   23348666.5304
       165.0004        166.0004
  -1921099.93847  -1481487.77145  23427447.647    23427448.6644   23427453.9974
       158.0004        160.0004
 -19139396.36949 -14896177.48447  21270899.939    21270900.2084   21270904.1864
       201.0004        201.0004
  -8025773.64948  -6235613.40546  22898135.424    22898135.4754   22898141.6384
       169.0004        170.0004
 -12966836.88749 -10087667.65548  22135024.976    22135024.9934   22135032.0214
       215.0004        213.0004
  -8530320.33348  -6633834.85746  23016479.936    23016479.4704   23016486.9454
       172.0004        173.0004
 -14955309.11549 -11637133.21647  21409729.660    21409729.9044   21409736.8284
       204.0004        204.0004
 -13154065.57548 -10236961.19346  21767626.293    21767625.1794   21767630.5684
       183.0004        183.0004
 -17109858.35348 -13315018.98247  21534216.150    21534216.3614   21534223.2184
       187.0004        188.0004
 21  1 31  0 46  0.0000000  0  9G17G14G07G04G08G30G09G21G01
  -6598173.66848  -5112375.38346  23332783.114    23332784.2074   23332788.8064
       165.0004        166.0004
  -1947040.70247  -1501701.30645  23422511.779    23422512.3624   23422517.5434
       159.0004        162.0004
 -19204365.02749 -14946802.41147  21258536.571    21258537.0544   21258541.2734
       202.0004        202.0004
  -7929040.29448  -6160236.76946  22916542.040    22916542.8594   22916548.5654
       168.0004        169.0004
 -12877939.66949 -10018397.09347  22151940.619    22151940.9294   22151948.0094
       213.0004        212.0004
  -8618077.83748  -6702217.31046  22999780.176    22999779.8534   22999786.8024
       172.0004        174.0004
 -14899283.00149 -11593476.49147  21420391.200    21420391.3244   21420397.9794
       203.0004        204.0004
 -13145364.69048 -10230181.26046  21769281.355    21769281.4024   21769286.6854
       184.0004        185.0004
 -17170590.98248 -13362343.09047  21522658.938    21522659.3494   21522666.3464
       188.0004        189.0004
 21  1 31  0 46 30.0000000  0  9G17G14G07G04G08G30G09G21G01
  -6681290.62348  -5177141.74746  23316966.472    23316966.6054   23316973.0274
       165.0004        167.0004
  -1972965.67647  -1521902.54546  23417577.685    23417578.7884   23417584.3204
       161.0004        163.0004
 -19269099.16849 -14997244.60047  21246218.142    21246218.5364   21246222.5734
       202.0004        203.0004
  -7832214.19448  -6084787.86046  22934968.027    22934968.2644   22934975.4884
       167.0004        168.0004
 -12788867.14149  -9948989.93747  22168890.949    22168890.6464   22168897.5634
       212.0004        212.0004
  -8705806.61848  -6770577.39246  22983086.338    22983085.9614   22983091.8834
       172.0004        171.0004
 -14842883.48449 -11549528.82447  21431123.766    21431124.2414   21431130.9424
       204.0004        204.0004
 -13136176.38948 -10223021.54046  21771029.911    21771029.5344   21771034.2734
       185.0004        185.0004
 -17230988.80748 -13409406.29746  21511164.454    21511164.4614   21511173.3204
       187.0004        187.0004
 21  1 31  0 47  0.0000000  0  9G17G14G07G04G08G30G09G21G01
  -6764083.25048  -5241655.39546  23301211.608    23301212.4554   23301218.2014
       167.0004        169.0004
  -1998876.74347  -1542092.93946  23412648.054    23412648.0954   23412653.2554
       161.0004        163.0004
 -19333596.62449 -15047502.35647  21233945.206    21233945.3914   21233949.0214
       202.0004        202.0004
  -7735299.00848  -6009269.53146  22953410.048    22953410.9474   22953417.1194
       168.0004        169.0004
 -12699622.18949  -9879448.41247  22185873.601    22185873.7594   22185880.7484
       212.0004        212.0004
  -8793505.31148  -6838914.01246  22966397.192    22966397.5194   22966404.8134
       172.0004        174.0004
 -14786114.01449 -11505292.87547  21441925.949    21441926.7634   21441934.1944
       203.0004        203.0004
 -13126500.61748 -10215481.97146  21772871.153    21772870.3174   21772875.1984
       184.0004        184.0004
 -17291049.32048 -13456206.66747  21499734.502    21499735.1954   21499744.4694
       187.0004        188.0004
 21  1 31  0 47 30.0000000  0  9G17G14G07G04G08G30G09G21G01
  -6846549.37748  -5305914.62846  23285518.861    23285518.9034   23285525.4084
       168.0004        169.0004
  -2024774.57347  -1562273.04945  23407720.160    23407720.4584   23407724.9334
       161.0004        161.0004
 -19397854.61949 -15097573.52547  21221716.807    21221717.4064   21221720.8924
       202.0004        203.0004
  -7638297.15948  -5933683.67346  22971869.927    22971870.5694   22971875.2084
       168.0004        169.0004
 -12610207.55649  -9809774.67447  22202887.817    22202888.6264   22202896.2234
       212.0004        212.0004
  -8881171.20548  -6907225.08146  22949713.813    22949713.5984   22949721.6974
       171.0004        170.0004
 -14728976.86649 -11460770.42447  21452799.560    21452799.6604   21452807.1684
       203.0004        204.0004
 -13116336.53348 -10207561.89246  21774805.213    21774804.7514   21774810.2084
       185.0004        186.0004
 -17350768.92548 -13502741.40347  21488371.919    21488372.5574   21488380.6264
       190.0004        192.0004
 21  1 31  0 48  0.0000000  0  9G17G14G07G04G08G30G09G21G01
  -6928687.94448  -5369918.65846  23269888.053    23269888.7634   23269895.3344
       167.0004        167.0004
  -2050661.04547  -1582444.30245  23402793.680    23402793.8464   23402799.5714
       158.0004        160.0004
 -19461870.81749 -15147456.27647  21209534.709    21209535.0914   21209539.4404
       202.0004        202.0004
  -7541212.22548  -5858033.07546  22990344.560    22990343.9644   22990350.0894
       167.0004        168.0004
 -12520626.64649  -9739971.36747  22219935.678    22219935.9634   22219942.8104
       212.0004        212.0004
  -8968802.83248  -6975509.44146  22933038.284    22933037.9604   22933046.4144
       169.0004        170.0004
 -14671475.43449 -11415964.11047  21463740.934    21463741.3134   21463748.9994
       202.0004        202.0004
 -13105683.78948 -10199261.05046  21776831.930    21776831.9524   21776837.1204
       185.0004        185.0004
 -17410145.02648 -13549008.50147  21477075.168    21477074.9014   21477081.2944
       193.0004        194.0004
 21  1 31  0 48 30.0000000  0 10G17G14G07G04G28G08G30G09G21G01
  -7010497.58048  -5433666.32746  23254320.221    23254321.4314   23254325.8964
       165.0004        167.0004
  -2076537.48347  -1602607.72845  23397867.792    23397868.0364   23397873.6764
       156.0004        157.0004
 -19525642.37749 -15197148.39647  21197399.571    21197399.8234   21197403.9734
       202.0004        202.0004
  -7444047.32348  -5782320.16346  23008832.884    23008833.7744   23008840.5484
       167.0004        167.0004
  22651117.80654  17661799.016 3                                  24704455.295
        74.0004         74.000
 -12430882.54149  -9670040.89147  22237013.455    22237013.7314   22237020.7074
       212.0004        211.0004
  -9056398.14148  -7043765.49146  22916368.978    22916368.6854   22916377.3264
       169.0004        170.0004
 -14613612.65249 -11370876.23047  21474751.558    21474752.4914   21474759.9734
       201.0004        202.0004
 -13094542.34348 -10190579.40346  21778952.818    21778952.3264   21778957.6144
       186.0004        186.0004
 -17469174.75048 -13595005.68647  21465840.172    21465840.8214   21465847.5994
       193.0004        191.0004
 21  1 31  0 49  0.0000000  0  9G17G14G07G04G08G30G09G21G01
  -7091975.29648  -5497155.37846  23238816.040    23238817.0304   23238821.1464
       165.0004        166.0004
  -2102403.56147  -1622763.10145  23392947.210    23392947.4374   23392952.2374
       155.0004        157.0004
 -19589165.46049 -15246646.90747  21185311.935    21185312.2054   21185315.4954
       202.0004        203.0004
  -7346803.90548  -5706546.08246  23027339.008    23027339.1124   23027345.3454
       167.0004        168.0004
 -12340976.87449  -9599984.52647  22254120.795    22254121.3734   22254129.0374
       211.0004        210.0004
  -9143953.54348  -7111990.47946  22899707.766    22899708.6404   22899716.1104
       170.0004        171.0004
 -14555389.89449 -11325507.86247  21485831.886    21485832.1404   21485839.0004
       201.0004        201.0004
 -13082910.06648 -10181515.28146  21781166.676    21781166.0344   21781171.2844
       186.0004        186.0004
 -17527853.56448 -13640729.41447  21454671.950    21454672.5264   21454681.6134
       190.0004        188.0004
 21  1 31  0 49 30.0000000  0 10G17G14G07G04G28G08G30G09G21G01
  -7173119.36248  -5560384.45846  23223375.504    23223375.5824   23223378.9724
       165.0004        165.0004
  -2128260.59347  -1642911.44545  23388027.165    23388027.4794   23388032.3404
       155.0004        158.0004
 -19652437.26849 -15295949.61547  21173271.029    21173271.6474   21173275.7384
       203.0004        204.0004
  -7249484.99048  -5630713.15446  23045857.112    23045857.5134   23045863.8414
       167.0004        168.0004
   -878297.65854   -672608.874 3                                  23698996.088
        74.0004         57.000
 -12250912.21749  -9529804.27347  22271260.592    22271260.2504   22271267.6384
       211.0004        211.0004
  -9231466.94048  -7180182.71046  22883053.531    22883054.5024   22883063.9244
       170.0004        172.0004
 -14496810.02249 -11279861.20647  21496979.418    21496979.2264   21496986.8024
       202.0004        202.0004
 -13070786.63448 -10172068.42946  21783473.948    21783472.8084   21783478.1904
       186.0004        187.0004
 -17586178.39948 -13686177.30746  21443572.699    21443573.4464   21443582.5514
       187.0004        187.0004
 21  1 31  0 50  0.0000000  0 10G17G14G07G04G28G08G30G09G21G01
  -7253929.02147  -5623352.93845  23207997.075    23207997.4194   23208000.9614
       163.0004        162.0004
  -2154110.68947  -1663054.35345  23383107.692    23383109.0754   23383113.0824
       155.0004        157.0004
 -19715455.74749 -15345054.93247  21161278.773    21161279.3824   21161284.0464
       203.0004        203.0004
  -7152094.42048  -5554824.39546  23064391.254    23064391.3704   23064396.2004
       166.0004        167.0004
   -893370.51844   -684354.403 5                                  23696127.727
        74.0004        135.000
 -12160692.35749  -9459503.08547  22288429.380    22288429.1594   22288436.1954
       211.0004        211.0004
  -9318937.06948  -7248341.23346  22866410.332    22866410.4494   22866417.4524
       172.0004        173.0004
 -14437876.75749 -11233939.18847  21508193.350    21508193.9774   21508201.1874
       202.0004        202.0004
 -13058172.36748 -10162239.12246  21785873.949    21785873.1844   21785878.2654
       186.0004        187.0004
 -17644147.03948 -13731347.65147  21432542.700    21432543.8084   21432552.3404
       188.0004        189.0004
 21  1 31  0 50 30.0000000  0 10G17G14G07G04G28G08G30G09G21G01
  -7334403.24247  -5686060.08345  23192682.849    23192683.3774   23192685.8394
       160.0004        161.0004
  -2179955.62947  -1683193.26845  23378189.071    23378189.4084   23378195.1674
       154.0004        156.0004
 -19778219.16649 -15393961.49147  21149335.620    21149336.0674   21149339.9724
       203.0004        203.0004
  -7054635.74748  -5478882.57646  23082936.784    23082936.9534   23082942.7624
       166.0004        167.0004
   -908671.89246   -696277.43045  23693213.673                    23693218.8064
       116.0004        141.0004
 -12070320.90549  -9389083.76847  22305625.127    22305625.7094   22305632.8104
       210.0004        209.0004
  -9406362.30648  -7316464.76646  22849772.687    22849773.3774   22849781.3994
       171.0004        172.0004
 -14378593.57549 -11187744.49147  21519475.577    21519475.5024   21519482.4774
       202.0004        202.0004
 -13045067.38548 -10152027.42546  21788367.167    21788366.6754   21788372.1764
       186.0004        187.0004
 -17701757.04948 -13776238.55147  21421580.927    21421581.1354   21421588.8174
       190.0004        191.0004
 21  1 31  0 51  0.0000000  0 10G17G14G07G04G28G08G30G09G21G01
  -7414539.99547  -5748504.26245  23177433.460    23177433.3014   23177434.0904
       157.0004        158.0004
  -2205795.91947  -1703328.52745  23373271.864    23373272.1294   23373277.8564
       154.0004        158.0004
 -19840723.98849 -15442666.53947  21137441.560    21137441.8084   21137445.9784
       203.0004        203.0004
  -6957111.21848  -5402889.45446  23101493.788    23101494.3994   23101500.3204
       165.0004        164.0004
   -923701.26546   -707988.59745  23690354.253    23690352.8894   23690358.4344
       133.0004        141.0004
 -11979799.66349  -9318547.73147  22322850.473    22322851.0174   22322858.6354
       209.0004        208.0004
  -9493739.78548  -7384551.11646  22833147.460    22833146.9434   22833152.9464
       172.0004        173.0004
 -14318962.62049 -11141278.81647  21530822.597    21530823.0814   21530829.9074
       202.0004        203.0004
 -13031470.93048 -10141432.76146  21790954.498    21790954.4864   21790959.5844
       186.0004        187.0004
 -17759004.68248 -13820847.09347  21410687.257    21410687.9124   21410694.7754
       191.0004        193.0004
 21  1 31  0 51 30.0000000  0 10G17G14G07G04G28G08G30G09G21G01
  -7494339.57747  -5810685.70345  23162246.675    23162247.5564   23162250.7644
       157.0004        158.0004
  -2231634.37547  -1723462.34645  23368354.993    23368356.2354   23368360.8304
       155.0004        158.0004
 -19902969.24149 -15491169.32847  21125596.141    21125596.8094   21125600.8174
       203.0004        203.0004
  -6859525.41647  -5326848.58246  23120063.424    23120065.0184   23120071.6284
       163.0004        163.0004
   -938712.63147   -719685.76645  23687497.824    23687497.2534   23687502.0044
       136.0004        142.0004
 -11889133.35849  -9247898.68147  22340103.574    22340104.3924   22340111.7914
       208.0004        208.0004
  -9581068.97848  -7452599.82146  22816527.122    22816528.2624   22816535.3304
       171.0004        173.0004
 -14258988.38649 -11094545.65347  21542236.100    21542235.8874   21542242.3074
       203.0004        203.0004
 -13017383.94948 -10130455.88246  21793634.854    21793634.6344   21793640.2364
       186.0004        186.0004
 -17815888.50248 -13865172.14247  21399862.887    21399863.2724   21399870.5014
       193.0004        193.0004
 21  1 31  0 52  0.0000000  0 10G17G14G07G04G28G08G30G09G21G01
  -7573798.50547  -5872601.72545  23147127.650    23147127.1804   23147130.9264
       157.0004        160.0004
  -2257470.32047  -1743594.19645  23363438.893    23363439.2084   23363443.5124
       157.0004        159.0004
 -19964950.29249 -15539466.24547  21113801.984    21113802.3364   21113806.1374
       203.0004        204.0004
  -6761879.42147  -5250760.79246  23138646.093    23138646.4704   23138653.0484
       162.0004        163.0004
   -953705.82947   -731368.74745  23684643.867    23684644.9734   23684648.4104
       136.0004        141.0004
 -11798323.28449  -9177137.57947  22357384.948    22357384.9804   22357392.2744
       208.0004        208.0004
  -9668345.76648  -7520607.70346  22799920.944    22799920.5344   22799927.0744
       174.0004        177.0004
 -14198671.92449 -11047545.80547  21553713.376    21553713.6464   21553720.7234
       203.0004        203.0004
 -13002804.23248 -10119095.02746  21796409.382    21796409.4804   21796413.9484
       186.0004        186.0004
 -17872403.65148 -13909209.90147  21389108.479    21389108.5304   21389115.9804
       193.0004        193.0004
 21  1 31  0 52 30.0000000  0 10G17G14G07G04G28G08G30G09G21G01
  -7652915.21847  -5934251.03646  23132071.820    23132072.3974   23132077.6594
       160.0004        164.0004
  -2283305.11947  -1763725.17545  23358522.480    23358522.7454   23358527.6754
       158.0004        160.0004
 -20026664.42149 -15587555.17647  21102058.036    21102058.3194   21102062.7024
       203.0004        203.0004
  -6664176.28047  -5174628.47045  23157236.675    23157238.9264   23157245.4174
       161.0004        162.0004
   -968682.65647   -743038.96845  23681794.078    23681794.4734   23681798.5944
       138.0004        143.0004
 -11707372.07449  -9106266.50647  22374693.016    22374692.6534   22374700.0284
       208.0004        208.0004
  -9755568.14048  -7588573.17846  22783322.499    22783322.9344   22783329.2614
       177.0004        178.0004
 -14138016.27549 -11000281.66547  21565256.018    21565256.0914   21565262.4474
       203.0004        203.0004
 -12987731.70648 -10107350.17946  21799277.887    21799277.9424   21799282.9404
       186.0004        187.0004
 -17928547.26848 -13952958.16647  21378423.597    21378424.9514   21378432.0474
       192.0004        192.0004
 21  1 31  0 53  0.0000000  0 10G17G14G07G04G28G08G30G09G21G01
  -7731686.32248  -5995631.04746  23117083.068    23117083.1544   23117088.4284
       165.0004        169.0004
  -2309138.19847  -1783854.81545  23353606.425    23353606.8984   23353611.7654
       159.0004        161.0004
 -20088107.21449 -15635432.66447  21090365.080    21090365.7924   21090370.8194
       203.0004        203.0004
  -6566417.18947  -5098452.56546  23175841.756    23175841.5214   23175848.4204
       161.0004        164.0004
   -983643.01347   -754696.35445  23678948.168    23678947.3024   23678951.5374
       139.0004        145.0004
 -11616281.02449  -9035286.46247  22392026.427    22392026.2364   22392034.2674
       208.0004        207.0004
  -9842732.19248  -7656493.20746  22766736.272    22766735.5924   22766742.0994
       178.0004        179.0004
 -14077022.58649 -10952754.10547  21576862.654    21576862.8884   21576870.0574
       203.0004        204.0004
 -12972164.32448 -10095219.73346  21802240.576    21802239.7204   21802244.7854
       186.0004        186.0004
 -17984314.59748 -13996413.19147  21367811.398    21367811.6214   21367819.8604
       191.0004        190.0004
 21  1 31  0 53 30.0000000  0 10G17G14G07G04G28G08G30G09G21G01
  -7810111.00448  -6056741.10446  23102157.592    23102158.2034   23102165.1134
       169.0004        171.0004
  -2334970.95547  -1803984.21445  23348690.891    23348690.9924   23348695.9814
       159.0004        160.0004
 -20149276.36949 -15683096.94647  21078726.037    21078726.5904   21078730.1344
       203.0004        203.0004
  -6468605.35347  -5022235.57646  23194454.780    23194455.1884   23194461.9644
       162.0004        164.0004
   -998588.69247   -766342.30645  23676103.372    23676102.3034   23676108.3004
       140.0004        144.0004
 -11525052.88849  -8964199.60547  22409385.834    22409385.6744   22409394.5664
       207.0004        206.0004
  -9929835.93948  -7724366.22746  22750160.349    22750160.3844   22750166.4914
       177.0004        179.0004
 -14015694.08549 -10904965.64947  21588532.844    21588533.1574   21588540.4904
       204.0004        204.0004
 -12956102.12948 -10082703.71346  21805296.006    21805296.2814   21805301.2434
       185.0004        185.0004
 -18039702.92148 -14039572.90847  21357270.578    21357271.1884   21357279.9834
       190.0004        190.0004
 21  1 31  0 54  0.0000000  0 10G17G14G07G04G28G08G30G09G21G01
  -7888187.46248  -6117579.85346  23087300.250    23087300.9264   23087308.1834
       170.0004        172.0004
  -2360804.55547  -1824114.26945  23343773.885    23343775.2214   23343779.3824
       156.0004        158.0004
 -20210168.87249 -15730545.66347  21067138.421    21067138.8574   21067142.6534
       203.0004        204.0004
  -6370743.48647  -4945979.59246  23213077.287    23213077.5764   23213084.3304
       163.0004        164.0004
  -1013521.13547   -777977.94945  23673261.789    23673261.0924   23673266.0894
       141.0004        146.0004
 -11433690.54749  -8893008.19547  22426772.131    22426772.4784   22426779.6984
       206.0004        206.0004
 -10016876.93448  -7792190.38346  22733597.611    22733597.1194   22733603.6794
       179.0004        182.0004
 -13954033.45449 -10856918.41147  21600266.537    21600267.1534   21600273.8974
       204.0004        204.0004
 -12939544.65648 -10069801.76546  21808447.772    21808447.2894   21808452.3114
       185.0004        186.0004
 -18094709.08148 -14082434.83647  21346803.612    21346803.9704   21346812.8744
       189.0004        191.0004
 21  1 31  0 54 30.0000000  0 10G17G14G07G04G28G08G30G09G21G01
  -7965914.47848  -6178146.28346  23072510.579    23072511.1144   23072517.2704
       171.0004        173.0004
  -2386640.14447  -1844245.88046  23338859.280    23338859.6894   23338863.8534
       159.0004        163.0004
 -20270782.36149 -15777776.95447  21055603.744    21055603.9874   21055608.6674
       203.0004        204.0004
  -6272834.76447  -4869687.10646  23231710.187    23231709.1154   23231715.7364
       162.0004        163.0004
  -1028442.13547   -789604.70145  23670421.119    23670421.1854   23670426.5314
       142.0004        146.0004
 -11342197.27649  -8821714.72947  22444183.216    22444182.7004   22444190.6714
       207.0004        207.0004
 -10103853.29048  -7859964.15746  22717046.763    22717046.4184   22717053.4124
       181.0004        182.0004
 -13892043.87349 -10808614.84347  21612063.065    21612063.2044   21612069.7274
       203.0004        203.0004
 -12922491.95348 -10056513.92546  21811692.247    21811691.8974   21811697.4894
       185.0004        186.0004
 -18149330.32448 -14124996.81447  21336408.769    21336409.4064   21336418.5084
       189.0004        189.0004
 21  1 31  0 55  0.0000000  0 10G17G14G07G04G28G08G30G09G21G01
  -8043291.98348  -6238440.35146  23057785.850    23057786.5024   23057791.6224
       172.0004        174.0004
  -2412480.06747  -1864380.85646  23333940.859    23333941.4244   23333946.8084
       161.0004        163.0004
 -20331115.06149 -15824789.44947  21044123.674    21044123.8374   21044126.7274
       203.0004        204.0004
  -6174883.19047  -4793361.20145  23250347.958    23250348.0564   23250353.6084
       161.0004        161.0004
  -1043354.45847   -801224.64445  23667585.215    23667584.8534   23667589.1284
       145.0004        149.0004
 -11250576.45649  -8750321.88047  22461616.752    22461617.5914   22461625.7334
       207.0004        207.0004
 -10190763.69048  -7927686.53146  22700507.819    22700508.1164   22700514.5514
       181.0004        180.0004
 -13829729.33949 -10760058.05847  21623920.363    21623920.8594   21623927.9914
       202.0004        202.0004
 -12904945.03848 -10042840.99746  21815032.162    21815031.1694   21815036.6664
       185.0004        185.0004
 -18203564.74148 -14167257.37847  21326088.791    21326089.7564   21326097.5994
       190.0004        190.0004
 21  1 31  0 55 30.0000000  0 10G17G14G07G04G28G08G30G09G21G01
  -8120316.66448  -6298459.50446  23043128.614    23043128.5404   23043135.2814
       173.0004        174.0004
  -2438324.25447  -1884519.15046  23329023.248    23329024.0704   23329028.2754
       161.0004        163.0004
 -20391163.03949 -15871580.09347  21032696.703    21032697.1394   21032700.7154
       204.0004        205.0004
  -6076890.31347  -4717003.11045  23268995.230    23268995.6764   23269001.9374
       160.0004        162.0004
  -1058258.35847   -812838.03845  23664748.342    23664747.6504   23664753.2404
       148.0004        151.0004
 -11158830.20949  -8678831.30747  22479076.204    22479076.4544   22479084.2744
       206.0004        206.0004
 -10277604.71948  -7995354.86046  22683982.739    22683982.3164   22683988.6564
       178.0004        178.0004
 -13767091.47449 -10711249.33547  21635839.737    21635840.4614   21635847.5684
       201.0004        201.0004
 -12886902.15148 -10028781.60746  21818464.518    21818464.0374   21818469.0794
       185.0004        184.0004
 -18257408.06648 -14209213.19147  21315843.491    21315843.5184   21315851.7604
       190.0004        191.0004
 21  1 31  0 56  0.0000000  0 10G17G14G07G04G28G08G30G09G21G01
  -8196987.72348  -6358203.12046  23028537.285    23028538.2964   23028544.1164
       172.0004        172.0004
  -2464173.72447  -1904661.58245  23324104.770    23324105.1354   23324109.5354
       160.0004        161.0004
 -20450923.23949 -15918146.47947  21021324.280    21021324.7114   21021329.2734
       204.0004        204.0004
  -5978858.96447  -4640615.06846  23287650.316    23287650.2764   23287657.1214
       161.0004        163.0004
  -1073155.38547   -824446.08845  23661913.480    23661913.4024   23661917.6874
       149.0004        153.0004
 -11066961.02149  -8607244.93047  22496557.938    22496558.4744   22496566.0474
       205.0004        205.0004
 -10364373.94648  -8062967.25146  22667469.556    22667470.8724   22667475.8294
       177.0004        178.0004
 -13704133.24649 -10662190.97047  21647820.693    21647820.7834   21647828.0344
       201.0004        201.0004
 -12868363.16548 -10014335.64346  21821992.241    21821992.1184   21821997.3064
       184.0004        185.0004
 -18310857.37148 -14250861.98647  21305672.116    21305672.5954   21305680.9754
       192.0004        193.0004
 21  1 31  0 56 30.0000000  0 10G17G14G07G04G28G08G30G09G21G01
  -8273304.01148  -6417670.31046  23014015.774    23014015.9764   23014020.6094
       171.0004        171.0004
  -2490030.34347  -1924809.57345  23319183.885    23319184.1574   23319188.0404
       158.0004        158.0004
 -20510394.22649 -15964487.49947  21010007.572    21010007.9024   21010011.7564
       204.0004        204.0004
  -5880792.78947  -4564199.89146  23306310.417    23306311.6894   23306317.9244
       162.0004        164.0004
  -1088047.84847   -836050.57345  23659079.178    23659079.2074   23659084.4814
       149.0004        153.0004
 -10974972.09549  -8535565.24847  22514062.824    22514062.9824   22514070.5234
       204.0004        203.0004
 -10451069.80548  -8130522.47846  22650973.317    22650972.9504   22650979.1434
       179.0004        181.0004
 -13640858.26849 -10612885.79447  21659861.083    21659861.4864   21659868.6264
       200.0004        200.0004
 -12849328.58448  -9999503.49046  21825615.192    21825614.4264   21825619.8994
       185.0004        185.0004
 -18363910.40448 -14292201.99647  21295576.662    21295576.9544   21295584.9324
       192.0004        193.0004
 21  1 31  0 57  0.0000000  0 10G17G14G07G04G28G08G30G09G21G01
  -8349263.35048  -6476859.35446  22999561.244    22999561.4124   22999565.5034
       170.0004        171.0004
  -2515894.55947  -1944963.48845  23314262.471    23314262.4144   23314268.1044
       157.0004        159.0004
 -20569572.19349 -16010600.20847  20998746.039    20998746.6814   20998750.1484
       204.0004        204.0004
  -5782693.81747  -4487759.15746  23324978.104    23324978.7604   23324986.0484
       162.0004        163.0004
  -1102936.66347   -847652.24345  23656246.342    23656247.1584   23656250.4024
       150.0004        153.0004
 -10882865.33049  -8463793.74147  22531590.005    22531589.7924   22531598.3864
       203.0004        203.0004
 -10537689.31948  -8198018.17646  22634489.740    22634490.1754   22634496.6594
       181.0004        183.0004
 -13577268.70349 -10563335.49047  21671960.891    21671961.6954   21671969.1844
       200.0004        199.0004
 -12829797.50248  -9984284.46946  21829331.324    21829331.0914   21829336.6704
       185.0004        184.0004
 -18416563.43248 -14333230.31247  21285556.554    21285557.8484   21285566.3784
       193.0004        194.0004
 21  1 31  0 57 30.0000000  0 10G17G14G07G04G28G08G30G09G21G01
  -8424866.12048  -6535770.54346  22985173.622    22985174.3244   22985179.1504
       170.0004        172.0004
  -2541768.56947  -1965125.03745  23309338.376    23309339.3804   23309343.8924
       158.0004        160.0004
 -20628455.87249 -16056483.60247  20987541.190    20987541.6464   20987545.0284
       204.0004        204.0004
  -5684566.16847  -4411296.07945  23343651.835    23343652.9134   23343658.5214
       161.0004        162.0004
  -1117824.22947   -859252.92245  23653413.681    23653413.8074   23653416.8794
       151.0004        154.0004
 -10790645.41549  -8391934.08247  22549138.895    22549139.1094   22549147.4084
       203.0004        203.0004
 -10624231.36148  -8265453.53446  22618021.168    22618021.0114   22618028.0004
       181.0004        182.0004
 -13513368.76149 -10513543.32347  21684122.103    21684122.2964   21684128.8394
       199.0004        199.0004
 -12809771.20248  -9968679.55646  21833142.967    21833142.5864   21833147.3564
       185.0004        186.0004
 -18468814.78248 -14373945.64147  21275614.893    21275614.8584   21275623.0944
       194.0004        194.0004
 21  1 31  0 58  0.0000000  0 10G17G14G07G04G28G08G30G09G21G01
  -8500109.11848  -6594401.41746  22970855.327    22970856.2324   22970859.4384
       171.0004        171.0004
  -2567652.05947  -1985293.98345  23304413.006    23304413.4984   23304417.4784
       158.0004        160.0004
 -20687040.58849 -16102134.03947  20976392.669    20976393.2274   20976397.2744
       204.0004        205.0004
  -5586411.25447  -4334811.75345  23362331.301    23362331.6374   23362336.2854
       161.0004        162.0004
  -1132710.66647   -870852.70545  23650580.893    23650580.4104   23650584.9334
       151.0004        154.0004
 -10698313.19149  -8319986.89147  22566709.091    22566709.4254   22566717.3534
       203.0004        203.0004
 -10710692.20548  -8332825.60246  22601569.280    22601568.3314   22601575.4444
       181.0004        182.0004
 -13449159.95749 -10463510.51047  21696340.122    21696340.7754   21696347.9424
       199.0004        199.0004
 -12789248.17048  -9952687.56646  21837047.902    21837047.3624   21837052.6564
       185.0004        185.0004
 -18520660.04748 -14414344.53647  21265748.879    21265749.0834   21265756.5964
       194.0004        195.0004
 21  1 31  0 58 30.0000000  0 10G17G14G07G04G28G08G30G09G21G01
  -8574992.24948  -6652751.86346  22956605.889    22956606.4374   22956609.3014
       168.0004        168.0004
  -2593547.26547  -2005472.04845  23299483.906    23299484.5124   23299490.8984
       157.0004        159.0004
 -20745325.17249 -16147550.60047  20965301.571    20965302.0134   20965305.7194
       204.0004        204.0004
  -5488233.05247  -4258309.25745  23381013.762    23381014.1984   23381019.9454
       161.0004        162.0004
  -1147598.84147   -882453.86545  23647747.379    23647747.1544   23647752.5884
       152.0004        155.0004
 -10605872.49649  -8247955.19447  22584298.562    22584300.1014   22584308.4744
       203.0004        203.0004
 -10797070.53548  -8400133.39546  22585130.951    22585130.6284   22585137.6844
       181.0004        181.0004
 -13384646.35449 -10413240.16547  21708616.889    21708617.2054   21708624.2864
       199.0004        200.0004
 -12768229.20248  -9936309.14146  21841047.749    21841047.3024   21841052.7014
       185.0004        186.0004
 -18572097.48348 -14454425.64447  21255959.911    21255960.5844   21255968.2034
       194.0004        194.0004
 21  1 31  0 59  0.0000000  0 10G17G14G07G04G28G08G30G09G21G01
  -8649513.26748  -6710820.13446  22942425.990    22942426.0644   22942428.6474
       170.0004        172.0004
  -2619454.59847  -2025659.56245  23294556.306    23294555.7704   23294559.4374
       158.0004        160.0004
 -20803306.15649 -16192730.57947  20954267.808    20954268.3424   20954272.5744
       204.0004        204.0004
  -5390033.63347  -4181790.22845  23399700.870    23399701.2124   23399705.5194
       161.0004        162.0004
  -1162489.44647   -894056.91245  23644914.142    23644913.6944   23644917.2624
       151.0004        153.0004
 -10513325.47349  -8175840.63447  22601909.885    22601910.8854   22601919.7054
       202.0004        202.0004
 -10883363.38948  -8467374.56946  22568709.665    22568710.0094   22568716.9334
       181.0004        181.0004
 -13319830.20049 -10362734.06647  21720950.776    21720951.1604   21720958.9404
       199.0004        200.0004
 -12746713.60948  -9919543.72946  21845142.548    21845142.1404   21845146.1884
       185.0004        185.0004
 -18623123.47748 -14494186.14247  21246250.124    21246250.4584   21246258.1924
       194.0004        194.0004
 21  1 31  0 59 30.0000000  0 10G17G14G07G04G28G08G30G09G21G01
  -8723671.07448  -6768605.39046  22928313.836    22928313.6114   22928318.6504
       171.0004        174.0004
  -2645375.39347  -2045857.56245  23289622.912    23289623.8784   23289627.7024
       158.0004        160.0004
 -20860980.88549 -16237671.92147  20943293.217    20943293.2654   20943297.4974
       204.0004        205.0004
  -5291816.06047  -4105257.06245  23418390.549    23418390.3274   23418395.6944
       159.0004        160.0004
  -1177384.34147   -905663.27045  23642079.180    23642079.2584   23642083.7244
       151.0004        154.0004
 -10420675.15449  -8103645.59347  22619542.562    22619542.1164   22619550.4184
       201.0004        201.0004
 -10969568.64248  -8534547.47746  22552305.109    22552305.6414   22552313.3304
       179.0004        179.0004
 -13254714.70749 -10311994.71147  21733342.870    21733342.9024   21733349.8514
       199.0004        200.0004
 -12724702.06048  -9902391.85246  21849331.471    21849330.0654   21849335.2694
       185.0004        185.0004
 -18673735.38048 -14533623.96047  21236618.625    21236619.1454   21236627.6144
       194.0004        194.0004
 21  1 31  1  0  0.0000000  0 10G17G14G07G04G28G08G30G09G21G01
  -8797464.70248  -6826106.88446  22914269.299    22914271.2844   22914275.3194
       170.0004        170.0004
  -2671310.37847  -2066066.62545  23284687.124    23284687.1674   23284692.5854
       159.0004        162.0004
 -20918346.30449 -16282372.26047  20932376.678    20932377.0454   20932381.2014
       205.0004        205.0004
  -5193582.90147  -4028711.77245  23437082.411    23437083.4564   23437088.8494
       158.0004        159.0004
  -1192284.70047   -917273.88845  23639244.150    23639242.9234   23639248.5674
       152.0004        155.0004
 -10327923.92449  -8031371.91947  22637191.468    22637192.4334   22637200.3334
       201.0004        201.0004
 -11055683.67448  -8601650.09346  22535918.614    22535918.1134   22535925.5714
       179.0004        180.0004
 -13189302.63249 -10261024.26947  21745789.434    21745790.2284   21745797.2104
       199.0004        199.0004
 -12702193.57348  -9884852.76246  21853612.747    21853613.1514   21853618.7384
       184.0004        184.0004
 -18723930.04648 -14572736.66847  21227067.387    21227067.5844   21227076.0934
       194.0004        194.0004
 21  1 31  1  0 30.0000000  0 10G17G14G07G04G28G08G30G09G21G01
  -8870892.02048  -6883322.92546  22900298.322    22900298.4264   22900302.4614
       171.0004        172.0004
  -2697260.34347  -2086287.34446  23279749.335    23279749.6124   23279754.4724
       161.0004        163.0004
 -20975399.40649 -16326829.22147  20921520.176    20921520.7754   20921524.7204
       205.0004        206.0004
  -5095336.57647  -3952156.22045  23455780.013    23455779.6224   23455784.9384
       158.0004        160.0004
  -1207191.66547   -928889.68145  23636405.580    23636406.3974   23636411.2714
       149.0004        151.0004
 -10235073.40449  -7959020.86047  22654860.754    22654861.2124   22654869.3674
       201.0004        202.0004
 -11141705.74348  -8668680.26146  22519549.442    22519548.8734   22519556.0734
       178.0004        177.0004
 -13123596.49849 -10209824.67847  21758293.326    21758293.2704   21758300.2424
       199.0004        198.0004
 -12679188.10348  -9866926.40546  21857991.798    21857990.9964   21857996.5094
       184.0004        184.0004
 -18773704.23148 -14611521.71547  21217595.491    21217596.3314   21217603.9854
       194.0004        194.0004
 21  1 31  1  1  0.0000000  0 10G17G14G07G04G28G08G30G09G21G01
  -8943952.38548  -6940253.04846  22886394.641    22886395.3534   22886399.8284
       171.0004        172.0004
  -2723226.93147  -2106521.01646  23274807.677    23274808.6434   23274813.6714
       162.0004        163.0004
 -21032138.01649 -16371041.13047  20910723.103    20910723.3714   20910727.6824
       205.0004        206.0004
  -4997080.46047  -3875593.04045  23474476.812    23474476.4994   23474481.2754
       157.0004        157.0004
  -1222107.51547   -940512.40945  23633568.353    23633569.4514   23633573.3024
       148.0004        151.0004
 -10142127.26149  -7886595.29647  22672547.505    22672547.4924   22672555.9634
       201.0004        200.0004
 -11227633.02948  -8735636.59946  22503197.943    22503197.1794   22503203.9124
       178.0004        180.0004
 -13057599.87849 -10158398.75447  21770851.172    21770851.9034   21770859.2704
       198.0004        197.0004
 -12655686.27348  -9848613.27446  21862463.740    21862463.1924   21862468.4534
       185.0004        185.0004
 -18823055.71248 -14649977.39847  21208203.620    21208204.0794   21208211.9614
       193.0004        193.0004
 21  1 31  1  1 30.0000000  0 10G17G14G07G04G28G08G30G09G21G01
  -9016643.97748  -6996895.78646  22872562.062    22872562.2434   22872567.5564
       172.0004        174.0004
  -2749210.65647  -2126768.05145  23269862.721    23269862.9784   23269867.5254
       160.0004        161.0004
 -21088559.05049 -16415005.57047  20899986.358    20899987.0834   20899990.9634
       205.0004        206.0004
  -4898816.89447  -3799024.05645  23493175.934    23493175.7774   23493180.9444
       155.0004        156.0004
  -1237033.21447   -952142.79845  23630728.044    23630728.2324   23630732.3134
       149.0004        153.0004
 -10049088.43649  -7814097.51447  22690252.468    22690252.4324   22690261.1474
       200.0004        200.0004
 -11313462.70948  -8802516.86246  22486864.977    22486864.3404   22486871.2264
       179.0004        180.0004
 -12991315.29249 -10106748.42447  21783464.972    21783465.5244   21783472.7284
       197.0004        198.0004
 -12631687.84248  -9829913.18146  21867030.573    21867030.3444   21867035.4104
       184.0004        184.0004
 -18871981.13548 -14688101.08847  21198893.136    21198894.2434   21198902.1524
       192.0004        193.0004
 21  1 31  1  2  0.0000000  0 10G17G14G07G04G28G08G30G09G21G01
  -9088965.83048  -7053250.45646  22858799.681    22858801.1844   22858805.3374
       173.0004        173.0004
  -2775212.84647  -2147029.50645  23264915.460    23264916.1964   23264919.4574
       160.0004        161.0004
 -21144660.01649 -16458720.60647  20889310.963    20889311.0204   20889315.1874
       206.0004        206.0004
  -4800548.91747  -3722451.61645  23511875.160    23511875.2924   23511880.8164
       153.0004        154.0004
  -1251970.33847   -963782.10345  23627885.836    23627886.1564   23627890.2504
       151.0004        154.0004
  -9955959.26849  -7741529.34447  22707973.951    22707973.9754   22707982.8984
       199.0004        198.0004
 -11399192.67948  -8869319.41846  22470551.325    22470551.2084   22470557.8484
       180.0004        181.0004
 -12924746.07049 -10054876.30647  21796133.128    21796133.7104   21796139.9324
       198.0004        198.0004
 -12607193.10548  -9810826.34746  21871691.769    21871691.7494   21871695.8584
       184.0004        184.0004
 -18920477.96948 -14725890.80147  21189664.604    21189665.7054   21189673.4194
       193.0004        194.0004
 21  1 31  1  2 30.0000000  0 10G17G14G07G04G28G08G30G09G21G01
  -9160916.62848  -7109315.95846  22845107.855    22845108.2804   22845113.8564
       173.0004        174.0004
  -2801234.31547  -2167305.96146  23259963.454    23259964.1224   23259967.8104
       161.0004        164.0004
 -21200438.43949 -16502184.31147  20878696.374    20878696.8284   20878700.7074
       206.0004        206.0004
  -4702279.02147  -3645877.67045  23530575.047    23530574.3774   23530582.7354
       153.0004        156.0004
  -1266920.32147   -975431.42945  23625040.189    23625041.5204   23625043.7604
       150.0004        152.0004
  -9862742.73349  -7668893.08547  22725712.555    22725713.0784   22725721.7674
       199.0004        199.0004
 -11484820.21948  -8936042.15146  22454256.226    22454256.5224   22454263.8434
       179.0004        180.0004
 -12857894.91249 -10002784.47247  21808854.251    21808854.6854   21808861.2314
       197.0004        198.0004
 -12582202.15548  -9791352.85246  21876448.086    21876447.0734   21876451.8384
       185.0004        185.0004
 -18968543.13448 -14763344.15347  21180518.460    21180518.8264   21180527.0764
       194.0004        195.0004
 21  1 31  1  3  0.0000000  0 10G17G14G07G04G28G08G30G09G21G01
  -9232492.53548  -7165089.33646  22831488.185    22831486.8844   22831493.1104
       174.0004        176.0004
  -2827273.64547  -2187596.34946  23255009.356    23255009.5354   23255013.6094
       164.0004        166.0004
 -21255888.35649 -16545392.03447  20868143.727    20868144.6474   20868148.8674
       205.0004        206.0004
  -4604007.56247  -3569302.54545  23549276.614    23549276.0344   23549281.9844
       154.0004        156.0004
  -1281882.30247   -987090.08845  23622194.224    23622192.9404   23622198.5544
       150.0004        152.0004
  -9769438.50949  -7596188.49747  22743468.338    22743467.9944   22743477.1244
       199.0004        200.0004
 -11570340.51148  -9002681.32646  22437982.304    22437982.7124   22437989.8354
       179.0004        180.0004
 -12790762.37949  -9950473.40747  21821630.154    21821630.3074   21821636.1724
       198.0004        198.0004
 -12556712.18948  -9771490.51446  21881297.512    21881297.4244   21881303.1304
       185.0004        185.0004
 -19016171.45048 -14800457.09747  21171455.117    21171455.5904   21171463.9904
       194.0004        195.0004
 21  1 31  1  3 30.0000000  0 10G17G14G07G04G28G08G30G09G21G01
  -9303696.39248  -7220572.86146  22817937.712    22817938.6944   22817943.6294
       175.0004        176.0004
  -2853335.65547  -2207904.37146  23250047.975    23250049.5634   23250054.1444
       164.0004        166.0004
 -21311011.00349 -16588344.75047  20857654.860    20857655.3004   20857659.4714
       205.0004        206.0004
  -4505741.05947  -3492731.26945  23567974.836    23567976.1074   23567982.0194
       155.0004        157.0004
  -1296861.02447   -998761.79445  23619343.663    23619343.3544   23619348.4914
       150.0004        154.0004
  -9676052.96649  -7523420.54847  22761237.739    22761238.0514   22761247.4074
       199.0004        198.0004
 -11655754.90748  -9069237.99146  22421727.690    22421728.1704   22421735.0594
       180.0004        181.0004
 -12723355.23249  -9897948.35847  21834457.746    21834457.6024   21834464.1524
       198.0004        199.0004
 -12530727.28248  -9751242.51046  21886243.555    21886242.3144   21886247.1854
       185.0004        184.0004
 -19063363.84749 -14837230.38947  21162475.466    21162475.7644   21162483.6344
       195.0004        195.0004
 21  1 31  1  4  0.0000000  0 10G17G14G07G04G28G08G30G09G21G01
  -9374525.35548  -7275764.21446  22804460.065    22804459.8674   22804465.0354
       175.0004        175.0004
  -2879419.80448  -2228229.64746  23245085.321    23245085.7734   23245090.9974
       166.0004        166.0004
 -21365802.56349 -16631039.49447  20847229.091    20847229.3504   20847232.9864
       206.0004        206.0004
  -4407480.75047  -3416164.80245  23586672.832    23586674.4394   23586680.9314
       155.0004        157.0004
  -1311856.72047  -1010446.74345  23616488.850    23616489.1394   23616494.7064
       152.0004        156.0004
  -9582586.88249  -7450589.83347  22779023.608    22779024.1444   22779033.4844
       197.0004        196.0004
 -11741059.45948  -9135709.07246  22405495.443    22405495.4424   22405501.9924
       181.0004        182.0004
 -12655674.99549  -9845210.50147  21847335.320    21847335.6144   21847342.9564
       197.0004        196.0004
 -12504246.12748  -9730607.83046  21891282.417    21891281.5904   21891286.0894
       184.0004        184.0004
 -19110116.03949 -14873660.65447  21153578.661    21153578.7514   21153586.6704
       196.0004        196.0004
 21  1 31  1  4 30.0000000  0 10G17G14G07G04G28G08G30G09G21G01
  -9444978.55948  -7330662.79946  22791052.306    22791052.4234   22791057.1444
       174.0004        173.0004
  -2905526.95148  -2248572.87546  23240117.913    23240118.6114   23240123.2914
       166.0004        169.0004
 -21420259.85149 -16673473.73347  20836865.188    20836865.8154   20836870.2264
       206.0004        206.0004
  -4309229.19447  -3339605.18045  23605369.458    23605370.1674   23605376.6534
       153.0004        155.0004
  -1326870.84047  -1022146.03445  23613632.808    23613633.3254   23613636.7564
       153.0004        156.0004
  -9489043.46549  -7377698.86547  22796825.250    22796824.9694   22796834.7764
       196.0004        195.0004
 -11826251.59448  -9202092.54946  22389284.638    22389284.7674   22389290.8064
       181.0004        182.0004
 -12587724.47349  -9792262.04947  21860265.626    21860266.1324   21860273.8884
       196.0004        195.0004
 -12477268.79848  -9709586.51546  21896414.473    21896414.8524   21896420.3064
       184.0004        184.0004
 -19156425.15649 -14909745.66747  21144765.689    21144766.4544   21144774.1474
       196.0004        196.0004
 21  1 31  1  5  0.0000000  0 10G17G14G07G04G28G08G30G09G21G01
  -9515054.89848  -7385267.69546  22777717.634    22777718.2144   22777723.0834
       173.0004        173.0004
  -2931659.05248  -2268935.53146  23235145.335    23235145.0594   23235151.0914
       167.0004        168.0004
 -21474381.17149 -16715646.19247  20826566.751    20826567.1954   20826571.6354
       206.0004        207.0004
  -4210990.08047  -3263055.26945  23624065.137    23624065.4314   23624070.5794
       152.0004        155.0004
  -1341905.71247  -1033861.49245  23610772.464    23610771.6274   23610776.6904
       154.0004        156.0004
  -9395426.06649  -7304750.26547  22814640.376    22814640.4374   22814649.1884
       195.0004        195.0004
 -11911329.76748  -9268387.21946  22373095.258    22373094.6294   22373100.7184
       181.0004        182.0004
 -12519507.61149  -9739106.05447  21873247.603    21873247.4864   21873255.4654
       195.0004        196.0004
 -12449796.52648  -9688179.54446  21901642.738    21901642.8274   21901647.6774
       184.0004        185.0004
 -19202289.32649 -14945483.96747  21136037.674    21136038.6384   21136046.8724
       196.0004        196.0004
 21  1 31  1  5 30.0000000  0 10G17G14G07G04G28G08G30G09G21G01
  -9584753.89248  -7439578.58346  22764454.797    22764455.5494   22764460.3694
       173.0004        175.0004
  -2957817.15748  -2289318.45946  23230167.931    23230168.2214   23230171.7184
       168.0004        169.0004
 -21528163.66149 -16757554.62647  20816332.259    20816333.0834   20816337.0754
       206.0004        207.0004
  -4112766.16547  -3186517.16945  23642756.155    23642756.5864   23642762.4864
       153.0004        157.0004
  -1356962.70747  -1045594.17645  23607906.781    23607907.1594   23607911.5234
       155.0004        157.0004
  -9301736.93849  -7231745.75047  22832470.114    22832469.7984   22832477.0784
       196.0004        197.0004
 -11996291.57448  -9334591.22246  22356926.461    22356927.2644   22356933.7174
       183.0004        185.0004
 -12451027.46948  -9685744.90447  21886277.440    21886278.1184   21886286.5384
       194.0004        194.0004
 -12421829.50348  -9666387.05946  21906965.276    21906964.5014   21906969.9554
       184.0004        185.0004
 -19247705.92649 -14980873.51247  21127395.860    21127396.5734   21127404.2324
       197.0004        198.0004
 21  1 31  1  6  0.0000000  0 10G17G14G07G04G28G08G30G09G21G01
  -9654073.87148  -7493594.13946  22751263.687    22751263.9734   22751269.1844
       175.0004        175.0004
  -2984002.01148  -2309722.24446  23225184.682    23225184.9074   23225188.6794
       167.0004        167.0004
 -21581604.58749 -16799196.90747  20806163.057    20806163.2934   20806167.4514
       207.0004        207.0004
  -4014559.97947  -3109992.91745  23661444.246    23661444.3424   23661450.5034
       153.0004        156.0004
  -1372043.04447  -1057345.09145  23605036.540    23605036.7774   23605040.8704
       154.0004        157.0004
  -9207979.00849  -7158687.62447  22850310.782    22850310.9294   22850318.7714
       196.0004        197.0004
 -12081134.33848  -9400702.45846  22340781.431    22340781.5734   22340788.4084
       184.0004        185.0004
 -12382286.85848  -9632180.80247  21899358.192    21899358.3794   21899366.3574
       192.0004        192.0004
 -12393367.78448  -9644209.08946  21912381.176    21912380.7024   21912386.0884
       184.0004        184.0004
 -19292671.99049 -15015911.98847  21118838.778    21118839.2064   21118847.3284
       197.0004        197.0004
 21  1 31  1  6 30.0000000  0 10G17G14G07G04G28G08G30G09G21G01
  -9723012.84948  -7547312.81346  22738145.218    22738144.1934   22738149.2544
       174.0004        173.0004
  -3010213.49848  -2330146.75545  23220195.879    23220196.7024   23220201.0264
       165.0004        162.0004
 -21634700.31649 -16840570.18647  20796058.945    20796059.4144   20796063.6134
       206.0004        207.0004
  -3916373.09047  -3033483.67145  23680127.903    23680129.1664   23680135.1164
       154.0004        156.0004
  -1387147.03147  -1069114.41145  23602163.226    23602163.0514   23602166.9034
       155.0004        158.0004
  -9114152.96749  -7085576.42447  22868164.312    22868164.7004   22868173.5244
       196.0004        196.0004
 -12165854.50648  -9466718.15846  22324659.803    22324660.1684   22324666.0664
       185.0004        185.0004
 -12313287.72048  -9578415.25147  21912487.902    21912488.5664   21912497.1124
       191.0004        192.0004
 -12364410.38248  -9621644.87046  21917891.232    21917890.8594   21917895.8404
       183.0004        183.0004
 -19337183.76349 -15050596.45847  21110367.803    21110368.9264   21110377.4664
       197.0004        197.0004
 21  1 31  1  7  0.0000000  0 10G17G14G07G04G28G08G30G09G21G01
  -9791569.50848  -7600733.57246  22725098.137    22725098.7774   22725103.4684
       172.0004        172.0004
  -3036452.49047  -2350592.74146  23215202.935    23215203.2994   23215208.1594
       162.0004        164.0004
 -21687447.98649 -16881672.27847  20786021.572    20786022.1394   20786026.3294
       207.0004        207.0004
  -3818208.08747  -2956991.48945  23698807.745    23698809.4594   23698816.5314
       155.0004        158.0004
  -1402276.09947  -1080903.27445  23599284.017    23599283.9334   23599287.4274
       154.0004        156.0004
  -9020261.85948  -7012414.54447  22886030.404    22886030.8494   22886040.3514
       194.0004        193.0004
 -12250449.46648  -9532636.32746  22308562.230    22308561.7434   22308568.9104
       185.0004        186.0004
 -12244032.90748  -9524450.47547  21925668.076    21925668.6274   21925675.9364
       192.0004        194.0004
 -12334957.68248  -9598694.71646  21923496.658    21923495.8824   21923500.3984
       183.0004        183.0004
 -19381238.39349 -15084924.74047  21101985.309    21101986.0424   21101993.9434
       197.0004        198.0004
 21  1 31  1  7 30.0000000  0 10G17G14G07G04G28G08G30G09G21G01
  -9859742.54248  -7653855.42146  22712125.538    22712126.2454   22712130.4154
       171.0004        172.0004
  -3062719.57247  -2371060.57546  23210204.873    23210205.9234   23210210.4364
       164.0004        166.0004
 -21739844.46749 -16922500.69847  20776050.470    20776050.8464   20776055.6804
       207.0004        207.0004
  -3720067.35847  -2880518.19645  23717483.142    23717484.3664   23717491.7084
       156.0004        157.0004
  -1417431.49547  -1092712.63745  23596400.153    23596399.6394   23596404.4684
       153.0004        155.0004
  -8926307.83348  -6939203.61847  22903910.008    22903910.2234   22903918.8094
       193.0004        193.0004
 -12334916.39948  -9598454.69446  22292488.856    22292488.8274   22292495.4184
       185.0004        186.0004
 -12174525.14949  -9470288.56647  21938896.544    21938896.5844   21938902.9844
       195.0004        197.0004
 -12305009.83348  -9575358.71746  21929195.513    21929194.9004   21929200.6344
       184.0004        184.0004
 -19424832.90049 -15118894.46447  21093690.149    21093690.3074   21093698.4414
       198.0004        197.0004
 21  1 31  1  8  0.0000000  0 10G17G14G07G04G28G08G30G09G21G01
  -9927531.54448  -7706678.00046  22699226.577    22699226.5844   22699230.6214
       172.0004        173.0004
  -3089016.51348  -2391551.69046  23205200.915    23205200.6884   23205205.5664
       165.0004        166.0004
 -21791887.87549 -16963054.00647  20766146.832    20766147.6794   20766151.6914
       207.0004        207.0004
  -3621954.21247  -2804066.42945  23736153.764    23736154.3794   23736161.4554
       155.0004        156.0004
  -1432615.16547  -1104544.04645  23593510.463    23593510.7864   23593514.6864
       153.0004        155.0004
  -8832294.18048  -6865946.23247  22921800.388    22921800.0804   22921809.2764
       193.0004        193.0004
 -12419253.60348  -9664171.99246  22276440.026    22276439.5564   22276445.9614
       186.0004        186.0004
 -12104768.24649  -9415932.53847  21952170.538    21952171.0434   21952176.3684
       196.0004        197.0004
 -12274567.80448  -9551637.64646  21934987.950    21934987.7154   21934993.0284
       183.0004        183.0004
 -19467965.38249 -15152504.18647  21085481.181    21085482.2824   21085490.3804
       197.0004        197.0004
 21  1 31  1  8 30.0000000  0 10G17G14G07G04G28G08G30G09G21G01
  -9994935.67648  -7759200.67646  22686398.947    22686399.3144   22686403.8794
       172.0004        173.0004
  -3115344.48647  -2412066.97046  23200188.979    23200189.6094   23200195.3804
       164.0004        163.0004
 -21843575.93649 -17003330.41347  20756311.648    20756311.7094   20756316.0344
       207.0004        207.0004
  -3523871.68147  -2727638.52245  23754818.615    23754818.7934   23754825.6464
       155.0004        157.0004
  -1447828.64347  -1116398.69645  23590615.866    23590615.1454   23590619.9594
       154.0004        157.0004
  -8738223.75048  -6792644.60347  22939703.097    22939701.5854   22939709.5644
       193.0004        193.0004
 -12503458.79848  -9729786.44246  22260416.157    22260416.0804   22260422.8164
       186.0004        187.0004
 -12034765.45549  -9361384.89147  21965492.219    21965492.7864   21965498.3654
       197.0004        198.0004
 -12243632.07948  -9527531.87046  21940874.470    21940873.9574   21940879.0024
       183.0004        183.0004
 -19510633.52149 -15185752.06647  21077362.190    21077362.9264   21077370.2504
       197.0004        197.0004
 21  1 31  1  9  0.0000000  0 10G17G14G07G04G28G08G30G09G21G01
 -10061953.97048  -7811422.69446  22673645.572    22673645.9224   22673650.6374
       173.0004        175.0004
  -3141704.05347  -2432606.87546  23195174.473    23195174.6614   23195178.8534
       162.0004        163.0004
 -21894905.42049 -17043327.40747  20746543.814    20746544.2684   20746548.4204
       207.0004        207.0004
  -3425822.09347  -2651236.25245  23773476.429    23773477.4404   23773483.9304
       155.0004        157.0004
  -1463073.16847  -1128277.52345  23587714.705    23587713.6204   23587718.8534
       153.0004        155.0004
  -8644098.44348  -6719300.21047  22957614.959    22957614.0264   22957621.5474
       194.0004        194.0004
 -12587529.16448  -9795295.80247  22244417.142    22244417.6304   22244425.1694
       187.0004        188.0004
 -11964519.49049  -9306647.76147  21978859.358    21978859.6804   21978865.7044
       198.0004        198.0004
 -12212202.83948  -9503041.52946  21946855.528    21946855.1284   21946860.9424
       183.0004        183.0004
 -19552834.29549 -15218635.77147  21069331.012    21069331.9354   21069340.2704
       197.0004        196.0004
 21  1 31  1  9 30.0000000  0 10G17G14G07G04G28G08G30G09G21G01
 -10128585.26948  -7863343.18346  22660966.610    22660967.2034   22660970.9204
       173.0004        174.0004
  -3168096.55147  -2453172.49345  23190152.951    23190152.9834   23190156.7314
       161.0004        162.0004
 -21945874.06549 -17083043.24047  20736844.705    20736845.1204   20736849.3924
       207.0004        208.0004
  -3327808.41547  -2574861.98545  23792127.251    23792128.9124   23792135.5834
       154.0004        156.0004
  -1478350.96747  -1140182.30245  23584806.463    23584806.7404   23584811.2354
       152.0004        153.0004
  -8549921.34548  -6645915.48247  22975534.375    22975535.4174   22975543.1694
       193.0004        193.0004
 -12671462.50948  -9860698.40947  22228447.462    22228446.7664   22228452.8244
       189.0004        190.0004
 -11894033.67849  -9251723.75147  21992271.478    21992272.2404   21992278.2494
       197.0004        197.0004
 -12180281.16448  -9478167.48546  21952930.645    21952930.4304   21952934.7704
       183.0004        184.0004
 -19594565.47349 -15251153.56847  21061390.565    21061391.2034   21061398.3604
       196.0004        196.0004
 21  1 31  1 10  0.0000000  0 10G17G14G07G04G28G08G30G09G21G01
 -10194828.31948  -7914961.11946  22648361.820    22648361.6124   22648364.7854
       174.0004        175.0004
  -3194522.21047  -2473763.92646  23185123.511    23185123.7704   23185128.3784
       161.0004        163.0004
 -21996478.53749 -17122475.29347  20727214.898    20727215.3554   20727219.6954
       207.0004        208.0004
  -3229832.64247  -2498517.25445  23810772.376    23810772.7444   23810779.6574
       155.0004        157.0004
  -1493661.90247  -1152112.89645  23581893.053    23581892.7284   23581897.6434
       149.0004        151.0004
  -8455694.72348  -6572492.14147  22993465.706    22993464.8414   22993474.1794
       192.0004        193.0004
 -12755255.62448  -9925991.74247  22212500.671    22212500.7934   22212507.6374
       190.0004        190.0004
 -11823310.43549  -9196614.71447  22005728.807    22005729.4464   22005737.0404
       196.0004        196.0004
 -12147866.27148  -9452909.09946  21959099.056    21959098.1594   21959103.8234
       183.0004        183.0004
 -19635823.76049 -15283302.86247  21053539.548    21053539.8324   21053547.2534
       196.0004        196.0004
 21  1 31  1 10 30.0000000  0 10G17G14G07G04G28G08G30G09G21G01
 -10260682.59448  -7966276.12546  22635829.104    22635830.7074   22635833.5534
       173.0004        174.0004
  -3220982.53147  -2494382.36546  23180087.753    23180088.2874   23180093.8644
       163.0004        165.0004
 -22046716.65849 -17161621.88847  20717655.037    20717655.3824   20717659.4434
       207.0004        208.0004
  -3131897.99547  -2422204.55145  23829409.739    23829410.2924   23829416.1464
       155.0004        158.0004
  -1509008.38247  -1164071.18045  23578973.339    23578972.9054   23578976.8064
       147.0004        150.0004
  -8361421.25748  -6499032.33547  23011405.885    23011404.8044   23011413.5254
       192.0004        193.0004
 -12838906.51848  -9991174.24747  22196581.788    22196582.1294   22196589.3664
       190.0004        190.0004
 -11752353.33348  -9141323.47847  22019230.718    22019231.4044   22019238.9464
       194.0004        193.0004
 -12114959.45048  -9427267.42346  21965359.662    21965359.8924   21965365.5874
       183.0004        183.0004
 -19676607.21249 -15315082.16947  21045777.910    21045778.6654   21045786.7044
       196.0004        196.0004
 21  1 31  1 11  0.0000000  0 10G17G14G07G04G28G08G30G09G21G01
 -10326146.23748  -8017286.73246  22623371.644    22623372.1124   22623376.7724
       174.0004        176.0004
  -3247477.79748  -2515028.01246  23175047.572    23175047.8024   23175051.5934
       166.0004        169.0004
 -22096585.44049 -17200480.68447  20708165.380    20708165.9464   20708169.7494
       208.0004        208.0004
  -3034006.41347  -2345925.42745  23848038.518    23848038.2264   23848043.8944
       155.0004        158.0004
  -1524390.91047  -1176057.55545  23576044.915    23576044.6834   23576050.9674
       147.0004        150.0004
  -8267102.59648  -6425537.27347  23029352.702    23029353.6524   23029361.9364
       193.0004        194.0004
 -12922412.18448 -10056243.60647  22180692.465    22180692.1394   22180697.9344
       189.0004        188.0004
 -11681164.80448  -9085851.89947  22032778.383    22032778.9074   22032786.2014
       193.0004        192.0004
 -12081560.72848  -9401242.42446  21971716.487    21971715.6304   21971720.9724
       183.0004        183.0004
 -19716912.64249 -15346488.98547  21038107.825    21038108.8364   21038116.3814
       195.0004        196.0004
 21  1 31  1 11 30.0000000  0 10G17G14G07G04G28G08G30G09G21G01
 -10391219.08448  -8067992.85546  22610988.182    22610989.3804   22610993.4774
       174.0004        173.0004
  -3274009.15048  -2535701.73446  23170000.049    23169999.8654   23170002.3574
       169.0004        171.0004
 -22146082.21249 -17239049.59847  20698746.650    20698746.9534   20698750.7284
       208.0004        208.0004
  -2936160.77647  -2269682.09845  23866656.699    23866656.7954   23866663.8094
       154.0004        156.0004
  -1539811.25047  -1188073.41645  23573110.518    23573110.6134   23573114.2034
       146.0004        148.0004
  -8172741.73948  -6352009.32547  23047310.077    23047310.0224   23047318.1234
       193.0004        194.0004
 -13005770.20548 -10121197.92247  22164829.892    22164830.0164   22164835.7544
       188.0004        189.0004
 -11609748.10548  -9030202.51747  22046368.530    22046368.9484   22046376.4844
       193.0004        193.0004
 -12047670.71448  -9374834.60246  21978165.160    21978164.7394   21978170.4364
       183.0004        184.0004
 -19756737.72249 -15377521.50347  21030529.341    21030530.1244   21030538.2104
       195.0004        195.0004
 21  1 31  1 12  0.0000000  0 10G17G14G07G04G28G08G30G09G21G01
 -10455900.01948  -8118393.55546  22598681.029    22598681.8924   22598685.1114
       175.0004        177.0004
  -3300577.71748  -2556404.49046  23164942.939    23164942.3044   23164946.7334
       170.0004        170.0004
 -22195204.65349 -17277326.82447  20689398.621    20689399.2834   20689403.2384
       208.0004        209.0004
  -2838364.01047  -2193476.85645  23885269.297    23885268.0304   23885273.8834
       153.0004        155.0004
  -1555271.04547  -1200119.99045  23570169.954    23570169.7324   23570172.4744
       144.0004        147.0004
  -8078341.07048  -6278450.37647  23065274.874    23065274.2344   23065281.7524
       194.0004        194.0004
 -13088978.32548 -10186035.39746  22148995.408    22148994.8164   22149002.0704
       188.0004        187.0004
 -11538106.52148  -8974377.91447  22060001.279    22060002.2184   22060008.7654
       192.0004        192.0004
 -12013290.02648  -9348044.44246  21984707.180    21984706.4614   21984711.8384
       183.0004        182.0004
 -19796080.21449 -15408177.96747  21023042.594    21023043.3514   21023051.5594
       195.0004        195.0004
 21  1 31  1 12 30.0000000  0 10G17G14G07G04G28G08G30G09G21G01
 -10520188.24548  -8168488.26346  22586448.709    22586447.9634   22586451.8934
       177.0004        178.0004
  -3327184.12548  -2577136.76746  23159876.504    23159876.9944   23159883.7024
       166.0004        165.0004
 -22243950.19949 -17315310.36547  20680123.014    20680123.2104   20680127.2324
       208.0004        209.0004
  -2740618.48747  -2117311.52845  23903867.518    23903867.6954   23903874.6424
       151.0004        154.0004
  -1570771.42547  -1212198.17445  23567220.818    23567220.3734   23567224.4884
       144.0004        149.0004
  -7983903.09848  -6204862.34747  23083244.739    23083244.7814   23083252.9914
       193.0004        193.0004
 -13172033.78648 -10250753.93446  22133190.514    22133190.0944   22133196.9974
       187.0004        187.0004
 -11466242.94048  -8918380.31847  22073677.792    22073677.6214   22073684.3494
       193.0004        193.0004
 -11978419.18648  -9320872.35546  21991343.202    21991342.6164   21991347.5614
       182.0004        183.0004
 -19834937.45149 -15438456.31347  21015648.225    21015648.8694   21015657.4674
       195.0004        196.0004
 21  1 31  1 13  0.0000000  0 10G17G14G07G04G28G08G30G09G21G01
 -10584081.85548  -8218275.46946  22574287.613    22574288.6474   22574293.3014
       177.0004        178.0004
  -3353828.44447  -2597898.59346  23154805.025    23154807.5274   23154813.4654
       163.0004        163.0004
 -22292315.01449 -17352997.24247  20670919.134    20670919.8294   20670923.7864
       209.0004        209.0004
  -2642925.88747  -2041187.45945  23922458.201    23922459.2304   23922463.8704
       150.0004        152.0004
  -1586312.85847  -1224308.36945  23564261.692    23564262.3004   23564266.4184
       148.0004        153.0004
  -7889429.47648  -6131246.55847  23101221.253    23101221.9754   23101231.0744
       192.0004        193.0004
 -13254933.13448 -10315350.83647  22117415.395    22117415.1694   22117421.7124
       187.0004        188.0004
 -11394159.53448  -8862211.43247  22087393.851    22087394.4754   22087401.5584
       193.0004        193.0004
 -11943057.83048  -9293318.04446  21998072.731    21998072.4344   21998076.9164
       183.0004        183.0004
 -19873306.08449 -15468353.93347  21008347.272    21008347.8564   21008356.4464
       196.0004        196.0004
 21  1 31  1 13 30.0000000  0 10G17G14G07G04G28G08G30G09G21G01
 -10647579.30648  -8267753.99946  22562205.278    22562205.7274   22562210.5904
       178.0004        179.0004
  -3380510.76147  -2618690.01546  23149731.902    23149732.0954   23149736.0974
       163.0004        166.0004
 -22340295.72649 -17390384.82047  20661789.332    20661789.5694   20661793.2444
       209.0004        209.0004
  -2545287.98547  -1965106.02045  23941036.310    23941038.3394   23941045.5324
       149.0004        152.0004
  -1601895.80047  -1236450.93845  23561296.185    23561296.6334   23561300.9474
       150.0004        153.0004
  -7794921.53148  -6057604.01947  23119205.767    23119206.3214   23119215.0074
       192.0004        191.0004
 -13337673.01948 -10379823.47247  22101669.864    22101669.6624   22101677.4064
       187.0004        189.0004
 -11321858.49048  -8805872.94447  22101152.961    22101153.2584   22101160.1844
       193.0004        194.0004
 -11907205.89748  -9265381.46046  22004893.842    22004894.2564   22004899.4864
       183.0004        182.0004
 -19911182.78349 -15497868.22547  21001139.348    21001139.8254   21001148.4674
       196.0004        196.0004
 21  1 31  1 14  0.0000000  0 10G17G14G07G04G28G08G30G09G21G01
 -10710681.27248  -8316924.34146  22550197.660    22550197.9104   22550202.6574
       178.0004        179.0004
  -3407233.40648  -2639512.81846  23144648.270    23144647.5364   23144652.0384
       166.0004        168.0004
 -22387891.34049 -17427472.31047  20652731.617    20652732.3084   20652735.9104
       209.0004        209.0004
  -2447708.85647  -1889070.37245  23959606.109    23959606.4784   23959614.9404
       149.0004        151.0004
  -1617523.23447  -1248628.14245  23558323.400    23558322.5574   23558326.6254
       149.0004        151.0004
  -7700383.39548  -5983937.92747  23137195.136    23137195.6414   23137206.0254
       192.0004        192.0004
 -13420252.33648 -10444170.98947  22085956.133    22085955.7964   22085962.7934
       188.0004        189.0004
 -11249344.41048  -8749368.46547  22114950.613    22114951.2064   22114958.7284
       192.0004        193.0004
 -11870865.30648  -9237064.10546  22011810.276    22011809.7164   22011814.5174
       183.0004        183.0004
 -19948566.65149 -15526998.49747  20994025.459    20994026.5154   20994034.9874
       196.0004        196.0004
 21  1 31  1 14 30.0000000  0 10G17G14G07G04G28G08G30G09G21G01
 -10773387.23948  -8365786.11546  22538263.910    22538265.0624   22538270.4174
       178.0004        179.0004
  -3433997.53848  -2660367.94946  23139552.929    23139553.7404   23139557.7134
       165.0004        166.0004
 -22435099.47349 -17464257.87647  20643748.755    20643749.2034   20643752.8944
       209.0004        210.0004
  -2350191.38347  -1813082.77945  23978163.750    23978163.0844   23978170.6184
       148.0004        150.0004
  -1633196.51047  -1260841.06445  23555341.949    23555341.7294   23555343.9304
       148.0004        151.0004
  -7605817.70748  -5910250.36847  23155189.939    23155190.9874   23155200.7194
       192.0004        193.0004
 -13502668.81448 -10508391.61646  22070272.574    22070272.2154   22070279.7434
       188.0004        187.0004
 -11176620.52948  -8692700.50547  22128790.514    22128790.8664   22128797.6764
       192.0004        193.0004
 -11834037.03348  -9208366.73646  22018819.742    22018818.2824   22018822.8814
       183.0004        184.0004
 -19985455.60049 -15555743.11547  20987006.379    20987007.0744   20987014.6204
       196.0004        197.0004
 21  1 31  1 15  0.0000000  0 10G17G14G07G04G28G08G30G09G21G01
 -10835695.86748  -8414338.26346  22526408.383    22526408.7584   22526412.0514
       179.0004        179.0004
  -3460803.78247  -2681255.96546  23134451.142    23134451.7234   23134457.1614
       164.0004        166.0004
 -22481917.49649 -17500739.45347  20634838.730    20634839.5014   20634843.7564
       209.0004        210.0004
  -2252737.98647  -1737145.12445  23996709.587    23996708.7774   23996714.0394
       148.0004        151.0004
  -1648917.08647  -1273090.85245  23552349.112    23552348.3424   23552353.5604
       147.0004        150.0004
  -7511226.69648  -5836543.10147  23173192.117    23173192.5334   23173200.3364
       192.0004        192.0004
 -13584919.81548 -10572483.28246  22054619.747    22054620.0214   22054627.7374
       187.0004        187.0004
 -11103689.86348  -8635871.41947  22142668.972    22142668.9844   22142676.1414
       192.0004        192.0004
 -11796721.63648  -9179289.79946  22025919.456    22025918.7954   22025924.1324
       183.0004        183.0004
 -20021847.02749 -15584100.06947  20980082.012    20980082.2054   20980089.7324
       197.0004        197.0004
 21  1 31  1 15 30.0000000  0 10G17G14G07G04G28G08G30G09G21G01
 -10897606.78148  -8462580.50946  22514626.769    22514627.1514   22514631.4334
       179.0004        180.0004
  -3487653.28748  -2702177.64746  23129341.385    23129342.6214   23129347.6444
       165.0004        167.0004
 -22528342.91349 -17536915.11247  20626004.975    20626005.4434   20626009.2534
       209.0004        210.0004
  -2155351.53047  -1661259.61445  24015239.406    24015241.0464   24015246.4164
       147.0004        149.0004
  -1664686.38647  -1285378.61545  23549348.268    23549348.5884   23549351.8324
       148.0004        151.0004
  -7416613.08348  -5762818.21547  23191195.979    23191196.6964   23191204.4204
       191.0004        191.0004
 -13667002.85848 -10636444.10147  22039001.672    22039001.1824   22039007.4694
       187.0004        188.0004
 -11030555.61248  -8578883.70947  22156585.704    22156586.2864   22156592.9804
       191.0004        192.0004
 -11758920.06048  -9149834.03146  22033112.804    22033112.5334   22033116.7904
       183.0004        183.0004
 -20057738.83649 -15612067.70747  20973251.401    20973251.7284   20973259.5764
       197.0004        197.0004
 21  1 31  1 16  0.0000000  0 10G17G14G07G04G28G08G30G09G21G01
 -10959117.79548  -8510511.12346  22502921.134    22502921.4894   22502926.3064
       180.0004        181.0004
  -3514545.33348  -2723132.46846  23124224.575    23124224.9834   23124229.8094
       165.0004        164.0004
 -22574372.08049 -17572781.98447  20617245.754    20617245.9584   20617250.2364
       209.0004        210.0004
  -2058032.89247  -1585426.92945  24033758.161    24033760.7724   24033766.0874
       145.0004        148.0004
  -1680504.28447  -1297704.22045  23546338.607    23546338.0974   23546342.7954
       148.0004        152.0004
  -7321977.87348  -5689076.49947  23209204.760    23209204.7264   23209213.6534
       190.0004        191.0004
 -13748913.89648 -10700270.87446  22023413.616    22023413.0804   22023419.8524
       187.0004        187.0004
 -10957219.39848  -8521738.58647  22170540.843    22170541.7674   22170548.6384
       192.0004        193.0004
 -11720631.45148  -9119998.72646  22040398.104    22040398.0874   22040402.7744
       182.0004        182.0004
 -20093127.11949 -15639642.97147  20966515.789    20966517.4684   20966525.4634
       197.0004        198.0004
 21  1 31  1 16 30.0000000  0 10G17G14G07G04G28G08G30G09G21G01
 -11020229.06748  -8558130.28546  22491291.976    22491292.7594   22491296.9384
       180.0004        181.0004
  -3541481.77947  -2744121.88145  23119098.251    23119098.6564   23119104.7814
       162.0004        162.0004
 -22620002.88549 -17608338.46847  20608562.721    20608563.0434   20608566.9354
       210.0004        210.0004
  -1960785.63147  -1509649.90745  24052267.191    24052266.0054   24052272.0234
       144.0004        149.0004
  -1696373.06147  -1310069.50345  23543318.518    23543318.5454   23543323.4284
       149.0004        153.0004
  -7227324.02348  -5615320.26747  23227218.551    23227217.3034   23227225.5444
       190.0004        190.0004
 -13830651.31448 -10763962.36246  22007859.063    22007858.7624   22007866.2414
       187.0004        187.0004
 -10883685.15048  -8464439.18747  22184534.810    22184534.8884   22184541.5634
       192.0004        192.0004
 -11681857.58048  -9089785.31646  22047776.500    22047776.6834   22047781.3774
       182.0004        183.0004
 -20128010.53549 -15666824.84547  20959878.512    20959879.2474   20959887.1094
       197.0004        198.0004
 21  1 31  1 17  0.0000000  0 10G17G14G07G04G28G08G30G09G21G01
 -11080940.52548  -8605437.88146  22479739.309    22479739.9134   22479744.5684
       181.0004        182.0004
  -3568463.86247  -2765146.86845  23113964.489    23113964.6454   23113969.4204
       161.0004        162.0004
 -22665233.35349 -17643582.98447  20599954.933    20599955.6554   20599959.7644
       210.0004        210.0004
  -1863612.73247  -1433930.83445  24070758.653    24070756.0804   24070763.1814
       143.0004        147.0004
  -1712294.40347  -1322475.71245  23540287.981    23540288.5194   23540292.8934
       151.0004        154.0004
  -7132654.76648  -5541552.01947  23245233.097    23245232.5894   23245239.7514
       189.0004        189.0004
 -13912213.00248 -10827516.92447  21992338.883    21992338.8004   21992345.6994
       187.0004        189.0004
 -10809956.45548  -8406988.25647  22198564.574    22198564.4794   22198571.9474
       191.0004        190.0004
 -11642599.64548  -9059194.70046  22055247.412    22055246.8784   22055252.2434
       182.0004        182.0004
 -20162387.24549 -15693611.87647  20953337.398    20953337.9034   20953345.5904
       198.0004        198.0004
 21  1 31  1 17 30.0000000  0 10G17G14G07G04G28G08G30G09G21G01
 -11141251.15748  -8652433.15746  22468261.669    22468262.3294   22468268.2844
       181.0004        181.0004
  -3595492.46647  -2786208.11646  23108819.747    23108820.1694   23108826.2314
       161.0004        163.0004
 -22710061.21849 -17678513.79747  20591424.936    20591425.3814   20591429.2964
       209.0004        210.0004
  -1766516.83947  -1358271.77145  24089233.058    24089233.7354   24089238.4194
       143.0004        146.0004
  -1728269.66447  -1334923.96745  23537249.256    23537249.4654   23537253.1054
       151.0004        154.0004
  -7037972.50948  -5467773.64347  23263248.770    23263249.1354   23263257.1874
       189.0004        189.0004
 -13993596.36748 -10890932.52047  21976851.925    21976852.2374   21976858.6184
       188.0004        189.0004
 -10736036.40348  -8349388.21147  22212630.397    22212631.3884   22212637.7784
       190.0004        191.0004
 -11602858.59248  -9028227.63346  22062810.468    22062810.0264   22062814.1574
       182.0004        182.0004
 -20196255.00649 -15720002.33747  20946893.138    20946893.4324   20946901.2514
       198.0004        199.0004
 21  1 31  1 18  0.0000000  0 10G17G14G07G04G28G08G30G09G21G01
 -11201158.56748  -8699114.21946  22456862.776    22456863.1364   22456867.6204
       182.0004        183.0004
  -3622566.39247  -2807304.66246  23103668.331    23103668.6164   23103673.6374
       163.0004        166.0004
 -22754481.82149 -17713127.25847  20582972.021    20582972.1804   20582976.3514
       209.0004        210.0004
  -1669498.42447  -1282673.06945  24107695.332    24107695.3914   24107700.6864
       144.0004        148.0004
  -1744298.08447  -1347413.64745  23534199.831    23534198.6644   23534202.6944
       151.0004        153.0004
  -6943277.78448  -5393985.56447  23281267.104    23281267.9374   23281277.4864
       188.0004        188.0004
 -14074796.87548 -10954205.64447  21961400.583    21961400.5584   21961406.4384
       189.0004        190.0004
 -10661926.11248  -8291639.91647  22226733.154    22226733.3454   22226740.1654
       190.0004        189.0004
 -11562633.09748  -8996883.08946  22070464.502    22070464.1964   22070469.0294
       181.0004        181.0004
 -20229609.58149 -15745992.90947  20940545.484    20940546.0374   20940553.5604
       198.0004        199.0004
 21  1 31  1 18 30.0000000  0 10G17G14G07G04G28G08G30G09G21G01
 -11260663.11348  -8745481.37646  22445539.510    22445539.5044   22445543.7664
       181.0004        181.0004
  -3649687.27048  -2828437.81246  23098508.783    23098509.0864   23098513.3704
       166.0004        169.0004
 -22798493.53549 -17747422.09747  20574596.368    20574596.8554   20574601.3954
       209.0004        210.0004
  -1572560.81647  -1207137.35445  24126142.685    24126143.1484   24126148.7924
       146.0004        150.0004
  -1760381.76047  -1359946.35645  23531137.853    23531137.7114   23531141.1164
       148.0004        151.0004
  -6848573.39948  -5320189.94246  23299289.445    23299289.7824   23299299.2894
       187.0004        187.0004
 -14155812.70648 -11017334.86347  21945983.354    21945983.5154   21945990.0774
       190.0004        191.0004
 -10587629.36648  -8233746.37047  22240872.208    22240872.4104   22240879.2144
       189.0004        191.0004
 -11521924.72748  -8965162.26446  22078211.423    22078211.4424   22078214.7344
       181.0004        181.0004
 -20262449.50849 -15771582.45347  20934296.687    20934296.9064   20934304.4504
       199.0004        199.0004
 21  1 31  1 19  0.0000000  0 10G17G14G07G04G28G08G30G09G21G01
 -11319764.35548  -8791534.27046  22434292.764    22434292.6094   22434298.2554
       181.0004        182.0004
  -3676856.45648  -2849608.58946  23093338.803    23093338.5784   23093342.7814
       166.0004        166.0004
 -22842094.19049 -17781396.63647  20566300.022    20566300.6354   20566304.3224
       209.0004        210.0004
  -1475707.04747  -1131666.95645  24144573.280    24144573.4664   24144579.4374
       147.0004        151.0004
  -1776522.54547  -1372523.60745  23528066.304    23528066.0234   23528070.4184
       148.0004        150.0004
  -6753862.35448  -5246389.13246  23317310.510    23317312.5164   23317322.2724
       187.0004        187.0004
 -14236641.80548 -11080318.57047  21930603.142    21930602.7344   21930609.5534
       191.0004        192.0004
 -10513149.80848  -8175710.34447  22255044.621    22255045.2734   22255052.2224
       190.0004        189.0004
 -11480734.87248  -8933066.25646  22086049.850    22086048.9134   22086053.9944
       181.0004        181.0004
 -20294773.11749 -15796769.66147  20928145.450    20928145.6474   20928153.1924
       199.0004        199.0004
 21  1 31  1 19 30.0000000  0 10G17G14G07G04G28G08G30G09G21G01
 -11378460.27448  -8837271.32246  22423122.859    22423122.9594   22423127.8674
       182.0004        183.0004
  -3704073.30748  -2870816.48346  23088158.270    23088159.1994   23088163.9014
       165.0004        165.0004
 -22885280.11449 -17815048.00347  20558081.513    20558082.0484   20558086.2524
       209.0004        210.0004
  -1378938.15547  -1056262.68445  24162988.744    24162987.9994   24162993.8524
       146.0004        149.0004
  -1792720.47747  -1385145.33545  23524983.999    23524984.2674   23524987.5624
       147.0004        150.0004
  -6659145.47048  -5172583.78446  23335334.191    23335336.1654   23335345.5624
       185.0004        184.0004
 -14317280.11048 -11143153.60847  21915257.298    21915257.2294   21915263.9604
       191.0004        192.0004
 -10438489.04648  -8117533.13447  22269251.941    22269252.3584   22269259.1354
       188.0004        188.0004
 -11439063.13648  -8900594.76446  22093979.141    22093979.2564   22093983.1204
       181.0004        181.0004
 -20326576.75249 -15821551.70547  20922093.187    20922093.5354   20922101.6874
       199.0004        199.0004
 21  1 31  1 20  0.0000000  0 10G17G14G07G04G28G08G30G09G21G01
 -11436751.86748  -8882693.31946  22412031.048    22412031.1344   22412035.8094
       183.0004        184.0004
  -3731340.15148  -2892063.38246  23082970.505    23082970.5064   23082975.3444
       166.0004        167.0004
 -22928050.53949 -17848375.61947  20549943.310    20549943.5504   20549947.0604
       210.0004        210.0004
  -1282258.31547   -980927.82545  24181385.266    24181384.4074   24181391.9584
       145.0004        148.0004
  -1808978.28747  -1397813.73545  23521889.188    23521890.1284   23521895.1434
       147.0004        150.0004
  -6564426.60748  -5098776.88046  23353362.435    23353362.1044   23353370.7744
       185.0004        186.0004
 -14397726.67348 -11205839.24047  21899948.356    21899949.2144   21899955.4244
       191.0004        193.0004
 -10363651.86548  -8059218.44646  22283492.400    22283492.9704   22283500.2394
       187.0004        187.0004
 -11396912.00848  -8867749.70746  22102000.976    22102000.2174   22102004.5554
       180.0004        181.0004
 -20357859.93549 -15845928.20347  20916140.653    20916141.0104   20916148.3644
       199.0004        200.0004
 21  1 31  1 20 30.0000000  0 10G17G14G07G04G28G08G30G09G21G01
 -11494638.63548  -8927799.87646  22401015.034    22401014.9684   22401020.1104
       184.0004        184.0004
  -3758657.89848  -2913349.94246  23077771.564    23077771.9484   23077776.8214
       167.0004        168.0004
 -22970402.90449 -17881377.45747  20541883.153    20541883.7514   20541887.8694
       210.0004        210.0004
  -1185669.97147   -905664.26945  24199765.371    24199765.4184   24199771.2544
       145.0004        149.0004
  -1825297.24447  -1410529.78945  23518784.975    23518785.9434   23518788.1434
       147.0004        151.0004
  -6469708.23048  -5024970.38046  23371388.988    23371387.4854   23371394.9534
       186.0004        186.0004
 -14477978.90948 -11268373.43447  21884677.370    21884677.3194   21884684.3534
       193.0004        194.0004
 -10288641.30148  -8000768.65546  22297766.948    22297767.2804   22297774.4924
       186.0004        186.0004
 -11354282.51448  -8834531.90446  22110112.799    22110112.5854   22110115.4234
       180.0004        180.0004
 -20388620.56649 -15869897.50847  20910286.728    20910287.1824   20910295.0814
       200.0004        200.0004
 21  1 31  1 21  0.0000000  0 10G17G14G07G04G28G08G30G09G21G01
 -11552119.98548  -8972590.52946  22390076.854    22390077.7554   22390081.4894
       183.0004        183.0004
  -3786027.51748  -2934676.86846  23072562.878    23072563.5624   23072569.0234
       165.0004        166.0004
 -23012334.83649 -17914051.68647  20533903.881    20533904.3014   20533908.8874
       210.0004        210.0004
  -1089175.83947   -830474.08945  24218126.585    24218128.2114   24218134.2144
       147.0004        151.0004
  -1841678.81047  -1423294.64645  23515667.280    23515667.8734   23515672.2744
       147.0004        151.0004
  -6374992.95248  -4951166.29646  23389412.176    23389412.3984   23389417.8784
       187.0004        187.0004
 -14558034.43848 -11330754.34947  21869443.205    21869442.9104   21869450.4434
       194.0004        195.0004
 -10213460.57548  -7942186.27346  22312073.211    22312073.1014   22312081.0544
       185.0004        186.0004
 -11311175.51548  -8800942.01146  22118315.533    22118314.8064   22118319.1354
       180.0004        181.0004
 -20418856.66849 -15893458.10147  20904533.169    20904533.6754   20904541.0724
       200.0004        200.0004
 21  1 31  1 21 30.0000000  0 10G17G14G07G04G28G08G30G09G21G01
 -11609194.94348  -9017064.49546  22379216.006    22379216.4564   22379220.1764
       183.0004        183.0004
  -3813448.72748  -2956044.03946  23067345.656    23067345.4504   23067350.5934
       166.0004        167.0004
 -23053842.90949 -17946395.64347  20526004.957    20526005.8304   20526009.7794
       210.0004        211.0004
   -992777.42247   -755358.48645  24236470.780    24236471.4524   24236477.6744
       149.0004        152.0004
  -1858123.09047  -1436108.36045  23512539.176    23512538.9294   23512543.5654
       150.0004        154.0004
  -6280282.08548  -4877365.62446  23407433.685    23407433.8394   23407440.3104
       186.0004        186.0004
 -14637889.64248 -11392979.17147  21854247.170    21854247.4664   21854254.2424
       194.0004        194.0004
 -10138111.83548  -7883472.97646  22326411.479    22326411.7744   22326419.2354
       186.0004        186.0004
 -11267591.25548  -8766980.24446  22126609.401    22126609.3774   22126613.3594
       180.0004        180.0004
 -20448565.20549 -15916607.60047  20898879.607    20898879.9374   20898888.0184
       200.0004        200.0004
 21  1 31  1 22  0.0000000  0 10G17G14G07G04G28G08G30G09G21G01
 -11665861.58948  -9061220.27646  22368432.150    22368432.6644   22368436.2004
       182.0004        182.0004
  -3840921.70148  -2977451.52546  23062116.720    23062116.7684   23062122.5504
       165.0004        165.0004
 -23094924.19549 -17978407.03247  20518188.266    20518188.3594   20518192.1564
       210.0004        211.0004
   -896476.54947   -680318.89845  24254795.286    24254796.4364   24254803.1224
       149.0004        151.0004
  -1874630.84447  -1448971.55445  23509395.437    23509394.7944   23509399.8794
       148.0004        148.0004
  -6185576.90248  -4803569.39546  23425457.017    23425456.2264   23425463.7974
       186.0004        187.0004
 -14717541.32248 -11455045.41347  21839090.907    21839090.6524   21839096.4614
       194.0004        194.0004
 -10062597.56648  -7824630.68646  22340781.418    22340781.9274   22340788.5184
       185.0004        185.0004
 -11223530.16848  -8732646.90146  22134994.083    22134992.8654   22134997.3004
       180.0004        180.0004
 -20477743.47949 -15939343.90147  20893327.160    20893327.8234   20893335.7164
       200.0004        200.0004
 21  1 31  1 22 30.0000000  0 10G17G14G07G04G28G08G30G09G21G01
 -11722119.75548  -9105057.78046  22357726.321    22357727.2714   22357730.2874
       181.0004        181.0004
  -3868447.22847  -2998899.96646  23056878.945    23056879.7314   23056884.8334
       164.0004        166.0004
 -23135576.58649 -18010084.23347  20510451.867    20510452.4304   20510456.3974
       210.0004        211.0004
   -800275.66847   -605357.23645  24273102.959    24273103.0674   24273110.0244
       147.0004        150.0004
  -1891203.37647  -1461885.19845  23506242.614    23506242.9214   23506247.4374
       147.0004        151.0004
  -6090880.02348  -4729779.64946  23443475.209    23443475.8974   23443482.7654
       184.0004        184.0004
 -14796986.82648 -11516951.00147  21823971.058    21823972.1784   21823978.8074
       194.0004        195.0004
  -9986920.78248  -7765661.76846  22355182.748    22355183.1624   22355189.2444
       185.0004        185.0004
 -11178993.17048  -8697942.72846  22143469.093    22143468.3254   22143472.4504
       179.0004        179.0004
 -20506389.46149 -15961665.45047  20887875.609    20887876.2074   20887884.3044
       200.0004        199.0004
 21  1 31  1 23  0.0000000  0 10G17G14G07G04G28G08G30G09G21G01
 -11777969.52248  -9148577.04546  22347099.687    22347099.8324   22347103.2404
       181.0004        182.0004
  -3896026.01948  -3020389.91646  23051630.742    23051631.4384   23051636.7674
       166.0004        168.0004
 -23175797.30649 -18041425.04647  20502798.219    20502798.6384   20502802.7164
       210.0004        211.0004
   -704177.24747   -530475.41445  24291388.505    24291389.9934   24291397.5584
       146.0004        149.0004
  -1907842.07847  -1474850.39945  23503077.824    23503077.8734   23503082.2744
       149.0004        152.0004
  -5996193.69748  -4655998.08446  23461492.841    23461493.3914   23461501.3474
       184.0004        184.0004
 -14876223.55848 -11578693.88947  21808892.928    21808893.6404   21808900.1754
       194.0004        195.0004
  -9911084.57148  -7706568.61146  22369614.236    22369614.4894   22369621.2564
       185.0004        185.0004
 -11133981.20248  -8662868.46346  22152033.782    22152033.9944   22152037.5534
       179.0004        180.0004
 -20534501.13549 -15983570.62947  20882526.518    20882527.2194   20882534.8794
       199.0004        200.0004
 21  1 31  1 23 30.0000000  0 10G17G14G07G04G28G08G30G09G21G01
 -11833410.25048  -9191777.58146  22336548.542    22336549.3094   22336553.7274
       181.0004        181.0004
  -3923658.87848  -3041922.01246  23046370.850    23046372.3014   23046379.0884
       167.0004        168.0004
 -23215584.13249 -18072427.78647  20495227.337    20495227.4954   20495231.5634
       210.0004        211.0004
   -608183.74747   -455675.35645  24309655.369    24309656.5624   24309663.1634
       145.0004        148.0004
  -1924548.24247  -1487868.17345  23499898.392    23499897.5644   23499902.9704
       149.0004        152.0004
  -5901520.11148  -4582226.47446  23479507.341    23479507.8504   23479517.4684
       182.0004        182.0004
 -14955248.98548 -11640272.15147  21793856.131    21793855.7884   21793862.2734
       194.0004        195.0004
  -9835092.10948  -7647353.70746  22384074.525    22384074.9564   22384081.8174
       185.0004        185.0004
 -11088495.42448  -8627424.99346  22160690.601    22160689.6064   22160693.4764
       179.0004        180.0004
 -20562076.52249 -16005057.94147  20877279.675    20877279.6614   20877286.9134
       199.0004        199.0004
 21  1 31  1 24  0.0000000  0 10G17G14G07G04G28G08G30G09G21G01
 -11888440.77248  -9234658.50046  22326076.030    22326077.1014   22326082.3094
       180.0004        181.0004
  -3951345.95248  -3063496.35846  23041103.905    23041104.9594   23041109.1744
       167.0004        167.0004
 -23254934.27849 -18103090.24147  20487738.875    20487739.3154   20487743.3904
       210.0004        211.0004
   -512297.01647   -380958.50145  24327903.435    24327904.4344   24327911.3604
       145.0004        148.0004
  -1941322.20147  -1500938.78245  23496705.645    23496706.1134   23496709.0524
       148.0004        151.0004
  -5806860.97748  -4508466.11446  23497521.278    23497522.0424   23497530.1704
       184.0004        185.0004
 -15034059.90049 -11701683.24147  21778858.956    21778858.4434   21778865.3494
       195.0004        195.0004
  -9758945.83248  -7588018.95246  22398564.770    22398565.0274   22398572.1124
       184.0004        184.0004
 -11042536.47148  -8591612.80346  22169435.823    22169435.5114   22169440.0354
       179.0004        179.0004
 -20589113.11949 -16026125.41047  20872133.823    20872134.1434   20872142.3114
       198.0004        199.0004
 21  1 31  1 24 30.0000000  0 10G17G14G07G04G28G08G30G09G21G01
 -11943060.82248  -9277219.54946  22315683.705    22315684.1724   22315687.8354
       182.0004        184.0004
  -3979088.58348  -3085113.96246  23035824.333    23035824.7594   23035831.1284
       167.0004        169.0004
 -23293845.86549 -18133410.95947  20480334.075    20480334.6904   20480338.7464
       211.0004        212.0004
   -416520.07847   -306327.17045  24346128.454    24346129.6694   24346136.7524
       145.0004        149.0004
  -1958166.05447  -1514063.84545  23493499.632    23493499.9224   23493505.1314
       150.0004        156.0004
  -5712219.26048  -4434719.31846  23515531.550    23515531.7114   23515539.8354
       184.0004        185.0004
 -15112654.24448 -11762925.58147  21763902.083    21763902.4444   21763909.4294
       194.0004        195.0004
  -9682649.41948  -7528567.20046  22413082.898    22413083.3684   22413090.2654
       184.0004        183.0004
 -10996106.01348  -8555433.21646  22178270.440    22178270.2244   22178275.1414
       179.0004        179.0004
 -20615609.53249 -16046771.95547  20867091.531    20867092.5254   20867099.9364
       199.0004        199.0004
 21  1 31  1 25  0.0000000  0 10G17G14G07G04G28G08G30G09G21G01
 -11997272.49948  -9319462.39946  22305366.939    22305367.1754   22305371.2414
       183.0004        183.0004
  -4006889.06448  -3106776.65746  23030533.132    23030534.4174   23030540.8614
       167.0004        168.0004
 -23332318.04049 -18163389.28647  20473013.321    20473013.7984   20473018.0354
       211.0004        212.0004
   -320856.95247   -231784.54045  24364333.105    24364334.3364   24364341.6704
       145.0004        148.0004
  -1975082.31147  -1527245.36045  23490282.607    23490283.6974   23490286.5554
       154.0004        158.0004
  -5617598.73948  -4360989.07646  23533538.329    23533538.3384   23533546.3764
       186.0004        187.0004
 -15191031.01749 -11823998.39747  21748988.547    21748988.2974   21748994.4624
       195.0004        196.0004
  -9606207.50648  -7469002.09146  22427630.573    22427630.7974   22427637.0594
       184.0004        185.0004
 -10949206.67248  -8518888.26246  22187195.052    22187195.1454   22187199.6104
       179.0004        179.0004
 -20641565.47949 -16066997.35847  20862152.108    20862152.7684   20862160.9194
       199.0004        198.0004
 21  1 31  1 25 30.0000000  0 11G17G14G07G04G28G08G19G30G09G21G01
 -12051072.56748  -9361384.48446  22295128.567    22295129.1774   22295132.7414
       182.0004        182.0004
  -4034746.00048  -3128483.37546  23025234.074    23025234.7334   23025237.8714
       167.0004        168.0004
 -23370346.52549 -18193021.88647  20465776.778    20465777.2714   20465781.0694
       211.0004        211.0004
   -225308.02447   -157330.90545  24382515.411    24382515.6344   24382522.8054
       143.0004        146.0004
  -1992070.19147  -1540482.63145  23487050.557    23487049.7044   23487053.5274
       156.0004        158.0004
  -5522999.78148  -4287275.60946  23551540.018    23551540.3214   23551547.6234
       185.0004        186.0004
  -1814123.93355  -1400278.94145  24489015.660                    24489017.9354
        81.0004        151.0004
 -15269185.50949 -11884898.00047  21734115.778    21734115.5654   21734122.5264
       195.0004        195.0004
  -9529621.16048  -7409324.40946  22442204.391    22442204.5834   22442211.0714
       184.0004        184.0004
 -10901837.35948  -8481977.08946  22196210.003    22196210.2014   22196214.7124
       179.0004        179.0004
 -20666976.94149 -16086798.48047  20857317.100    20857317.3914   20857325.1124
       199.0004        199.0004
 21  1 31  1 26  0.0000000  0 11G17G14G07G04G28G08G19G30G09G21G01
 -12104462.90148  -9402987.32446  22284968.150    22284969.0184   22284974.3804
       182.0004        183.0004
  -4062661.84948  -3150235.97546  23019921.439    23019922.4144   23019927.8554
       168.0004        170.0004
 -23407930.62749 -18222308.19647  20458624.648    20458625.0234   20458629.1714
       211.0004        212.0004
   -129877.29047    -82969.38645  24400673.206    24400675.1934   24400683.0094
       139.0004        142.0004
  -2009132.78047  -1553778.12545  23483802.166    23483801.9574   23483806.2194
       156.0004        158.0004
  -5428425.62848  -4213581.48346  23569537.845    23569537.0934   23569544.2354
       186.0004        186.0004
  -1901158.87147  -1468098.27245  24472452.756    24472451.0414   24472456.5614
       144.0004        153.0004
 -15347116.81249 -11945623.68347  21719285.880    21719285.8254   21719292.6744
       196.0004        196.0004
  -9452895.08548  -7349537.85846  22456803.670    22456804.3514   22456811.7554
       184.0004        184.0004
 -10854001.35548  -8444702.28246  22205313.577    22205312.4264   22205317.8384
       179.0004        180.0004
 -20691843.80349 -16106175.23747  20852584.392    20852585.0284   20852593.5904
       198.0004        199.0004
 21  1 31  1 26 30.0000000  0 11G17G14G07G04G28G08G19G30G09G21G01
 -12157442.21148  -9444269.88346  22274887.806    22274887.7814   22274892.4344
       183.0004        183.0004
  -4090636.61748  -3172034.47446  23014597.873    23014598.4704   23014602.7614
       168.0004        167.0004
 -23445067.20649 -18251245.78847  20451558.052    20451558.6504   20451562.4544
       211.0004        212.0004
    -34566.49147     -8701.33745  24418813.263    24418814.1214   24418819.2804
       137.0004        142.0004
  -2026270.39347  -1567132.07845  23480542.128    23480541.9314   23480544.8394
       155.0004        158.0004
  -5333878.62448  -4139908.51346  23587530.497    23587529.6534   23587535.5724
       186.0004        186.0004
  -1987956.80047  -1535732.96345  24455935.143    24455935.0434   24455939.3324
       148.0004        152.0004
 -15424821.64549 -12006172.90147  21704499.153    21704499.2124   21704506.1284
       196.0004        197.0004
  -9376031.70848  -7289644.32746  22471432.015    22471432.5554   22471437.9034
       184.0004        186.0004
 -10805698.83148  -8407063.93846  22214504.674    22214504.1034   22214508.5184
       179.0004        179.0004
 -20716163.50949 -16125125.65347  20847957.205    20847957.6974   20847965.5994
       199.0004        199.0004
 21  1 31  1 27  0.0000000  0 11G17G14G07G04G28G08G19G30G09G21G01
 -12210010.11148  -9485231.86446  22264884.362    22264884.3234   22264889.8194
       185.0004        187.0004
  -4118670.80548  -3193879.27946  23009263.980    23009264.5634   23009267.5634
       166.0004        167.0004
 -23481754.19549 -18279833.06647  20444576.510    20444576.9884   20444580.7254
       211.0004        212.0004
     60622.11847     65471.45745  24436927.011    24436928.3784   24436934.2454
       136.0004        141.0004
  -2043484.03447  -1580545.28745  23477267.808    23477267.0424   23477268.9474
       155.0004        157.0004
  -5239360.33148  -4066257.90546  23605513.378    23605513.2134   23605522.2734
       183.0004        183.0004
  -2074516.26247  -1603181.84645  24439463.324    24439462.3544   24439466.0754
       148.0004        152.0004
 -15502297.18949 -12066543.45347  21689756.340    21689755.5594   21689762.9944
       196.0004        197.0004
  -9299033.94648  -7229646.07046  22486082.895    22486083.4414   22486090.5744
       184.0004        183.0004
 -10756930.89248  -8369062.95146  22223783.974    22223784.8544   22223789.0814
       179.0004        179.0004
 -20739934.11849 -16143648.20247  20843433.756    20843434.0284   20843442.1074
       199.0004        199.0004
 21  1 31  1 27 30.0000000  0 11G17G14G07G04G28G08G19G30G09G21G01
 -12262164.92448  -9525871.96246  22254958.847    22254959.0014   22254964.4514
       185.0004        185.0004
  -4146763.76848  -3215769.89046  23003917.398    23003917.7334   23003923.1814
       165.0004        166.0004
 -23517988.11249 -18308067.28247  20437681.285    20437681.9204   20437685.8214
       211.0004        212.0004
    155687.53247    139548.30345  24455016.771    24455017.7484   24455026.5194
       136.0004        141.0004
  -2060773.75347  -1594017.77345  23473976.303    23473975.6914   23473980.0584
       153.0004        155.0004
  -5144871.80848  -3992630.49446  23623492.927    23623493.8274   23623502.9814
       182.0004        182.0004
  -2160834.52547  -1670442.73345  24423036.886    24423035.9924   24423041.5264
       149.0004        152.0004
 -15579539.49649 -12126732.26547  21675057.209    21675056.8934   21675064.7444
       197.0004        197.0004
  -9221903.52948  -7169544.45946  22500758.967    22500760.1714   22500767.1624
       181.0004        180.0004
 -10707697.59648  -8330699.33846  22233152.890    22233151.8974   22233157.6104
       178.0004        179.0004
 -20763152.51249 -16161740.44747  20839015.029    20839015.7194   20839023.3574
       199.0004        199.0004
 21  1 31  1 28  0.0000000  0 11G17G14G07G04G28G08G19G30G09G21G01
 -12313905.62448  -9566189.38846  22245113.746    22245113.4714   22245118.9234
       186.0004        186.0004
  -4174915.23248  -3237706.10946  22998560.380    22998560.9374   22998565.8854
       167.0004        169.0004
 -23553765.40149 -18335945.70147  20430873.401    20430873.8124   20430877.8574
       211.0004        212.0004
    250628.32147    213528.04145  24473082.638    24473083.3264   24473093.3254
       137.0004        142.0004
  -2078139.65347  -1607549.65045  23470666.638    23470667.0814   23470675.6164
       150.0004        150.0004
  -5050414.11948  -3919027.12146  23641466.808    23641468.6124   23641477.0174
       182.0004        182.0004
  -2246909.14447  -1737513.80245  24406658.233    24406657.5444   24406661.7264
       149.0004        151.0004
 -15656545.01049 -12186736.56847  21660402.721    21660403.1264   21660410.0424
       196.0004        196.0004
  -9144642.55748  -7109341.10846  22515462.592    22515463.1454   22515470.1034
       181.0004        183.0004
 -10657999.04348  -8291973.19846  22242610.355    22242610.7304   22242615.4404
       178.0004        179.0004
 -20785815.93249 -16179400.25047  20834701.876    20834702.8204   20834710.3484
       198.0004        198.0004
 21  1 31  1 28 30.0000000  0 11G17G14G07G04G28G08G19G30G09G21G01
 -12365231.65148  -9606183.66346  22235345.099    22235346.3474   22235351.1744
       185.0004        185.0004
  -4203125.74448  -3259688.29146  22993191.757    22993192.7054   22993197.8164
       167.0004        168.0004
 -23589083.76649 -18363466.49347  20424152.068    20424152.6994   20424156.9064
       211.0004        212.0004
    345442.31047    287408.96845  24491125.838    24491126.5184   24491134.7734
       138.0004        143.0004
  -2095582.73747  -1621141.69345  23467348.035    23467349.0084   23467355.7854
       147.0004        151.0004
  -4955988.84048  -3845448.97146  23659437.215    23659437.3884   23659446.1814
       180.0004        180.0004
  -2332738.70047  -1804393.95745  24390326.034    24390324.9644   24390327.8444
       148.0004        151.0004
 -15733310.97549 -12246554.18247  21645795.677    21645795.1654   21645803.0814
       195.0004        196.0004
  -9067253.91148  -7049038.25546  22530189.482    22530189.5734   22530196.9924
       181.0004        183.0004
 -10607836.55148  -8252885.52846  22252156.113    22252156.1344   22252160.9824
       179.0004        178.0004
 -20807922.54449 -16196626.15947  20830495.893    20830496.5824   20830504.1214
       198.0004        199.0004
 21  1 31  1 29  0.0000000  0 11G17G14G07G04G28G08G19G30G09G21G01
 -12416143.68348  -9645855.36446  22225658.065    22225657.9984   22225662.7044
       185.0004        186.0004
  -4231396.98148  -3281717.81146  22987811.803    22987811.8124   22987817.7554
       167.0004        168.0004
 -23623942.21349 -18390628.92847  20417519.600    20417519.7734   20417523.2374
       211.0004        212.0004
    440125.94047    361188.27545  24509144.323    24509144.9184   24509152.4104
       138.0004        143.0004
  -2113105.22947  -1634795.56145  23464019.314    23464017.9034   23464021.3544
       151.0004        156.0004
  -4861599.78248  -3771899.07046  23677399.981    23677399.8594   23677407.4814
       180.0004        182.0004
  -2418323.07247  -1871083.03345  24374039.540    24374038.9664   24374041.8814
       146.0004        149.0004
 -15809835.80949 -12306183.90947  21631232.645    21631233.0184   21631239.9254
       195.0004        196.0004
  -8989741.80548  -6988639.22446  22544940.529    22544940.1404   22544947.3284
       183.0004        184.0004
 -10557212.45148  -8213438.17046  22261789.327    22261788.7284   22261794.6764
       178.0004        179.0004
 -20829471.67749 -16213417.68847  20826394.969    20826395.5064   20826403.5564
       198.0004        198.0004
 21  1 31  1 29 30.0000000  0 11G17G14G07G04G28G08G19G30G09G21G01
 -12466643.62848  -9685205.93046  22216048.647    22216048.8444   22216053.7024
       185.0004        187.0004
  -4259731.31848  -3303796.51746  22982421.672    22982422.0854   22982425.1294
       169.0004        171.0004
 -23658339.98349 -18417432.38547  20410973.338    20410973.5854   20410977.5084
       211.0004        212.0004
    534675.31547    434862.96045  24527136.150    24527137.9114   24527145.0924
       139.0004        144.0004
  -2130710.09047  -1648513.62345  23460669.046    23460668.6444   23460671.2064
       154.0004        158.0004
  -4767251.03348  -3698380.58046  23695355.205    23695353.6564   23695361.7894
       180.0004        180.0004
  -2503662.49047  -1937581.19945  24357800.355    24357799.1864   24357803.1354
       150.0004        154.0004
 -15886118.57649 -12365625.03847  21616717.460    21616717.0234   21616723.6574
       196.0004        197.0004
  -8912110.93248  -6928147.63646  22559712.450    22559711.8774   22559718.3354
       182.0004        182.0004
 -10506129.59048  -8173633.34046  22271510.207    22271509.4744   22271515.2334
       178.0004        179.0004
 -20850463.36349 -16229774.82947  20822399.562    20822400.5564   20822409.1244
       198.0004        198.0004
 21  1 31  1 30  0.0000000  0 11G17G14G07G04G28G08G19G30G09G21G01
 -12516729.72948  -9724234.03347  22206516.870    22206517.5074   22206522.1734
       187.0004        188.0004
  -4288128.18748  -3325923.94646  22977017.208    22977017.2004   22977022.3094
       170.0004        172.0004
 -23692273.77149 -18443874.29748  20404516.519    20404516.8744   20404520.7004
       212.0004        213.0004
    629089.35547    508432.16345  24545103.435    24545103.0874   24545111.6104
       140.0004        144.0004
  -2148396.96447  -1662295.59045  23457300.813    23457301.3504   23457305.7534
       153.0004        155.0004
  -4672943.07648  -3624893.87546  23713299.398    23713299.3584   23713307.7524
       179.0004        179.0004
  -2588754.16947  -2003886.35545  24341606.967    24341606.4454   24341610.1044
       152.0004        155.0004
 -15962155.41649 -12424874.52147  21602247.446    21602247.7794   21602254.5614
       196.0004        196.0004
  -8834363.15048  -6867564.94746  22574506.140    22574506.9304   22574514.0824
       182.0004        182.0004
 -10454588.23848  -8133471.24246  22281318.498    22281317.6584   22281323.7654
       178.0004        177.0004
 -20870894.71049 -16245695.34747  20818512.677    20818513.1204   20818520.7514
       198.0004        198.0004
 21  1 31  1 30 30.0000000  0 11G17G14G07G04G28G08G19G30G09G21G01
 -12566400.70548  -9762938.67446  22197064.481    22197065.0804   22197070.4164
       187.0004        187.0004
  -4316587.07348  -3348099.69546  22971601.233    22971602.3294   22971605.8284
       171.0004        169.0004
 -23725740.33249 -18469952.14548  20398147.418    20398147.9554   20398152.0904
       212.0004        213.0004
    723366.76047    581894.91045  24563042.661    24563044.0324   24563050.5794
       138.0004        143.0004
  -2166166.08447  -1676141.65445  23453916.954    23453917.7624   23453922.6284
       150.0004        151.0004
  -4578676.75448  -3551439.61046  23731235.081    23731236.7044   23731246.1844
       178.0004        179.0004
  -2673596.25747  -2069997.00945  24325462.106    24325461.7504   24325465.8344
       153.0004        156.0004
 -16037942.65049 -12483929.50547  21587825.626    21587825.9014   21587832.3664
       196.0004        197.0004
  -8756500.33748  -6806892.66446  22589323.901    22589324.3354   22589331.7174
       181.0004        182.0004
 -10402588.58748  -8092952.02746  22291213.495    22291212.9054   22291218.2904
       177.0004        178.0004
 -20890762.95649 -16261177.09047  20814731.616    20814732.2104   20814739.8694
       198.0004        198.0004
 21  1 31  1 31  0.0000000  0 12G17G14G07G04G28G08G19G30G22G09G21G01
 -12615656.23348  -9801319.58346  22187692.041    22187691.9954   22187697.4884
       186.0004        185.0004
  -4345108.22848  -3370323.95346  22966174.420    22966174.5394   22966179.2064
       169.0004        170.0004
 -23758737.24349 -18495664.02348  20391869.066    20391869.2224   20391872.9244
       212.0004        213.0004
    817505.60647    655249.64445  24580957.619    24580958.2164   24580964.3094
       139.0004        143.0004
  -2184018.18247  -1690052.37945  23450521.460    23450521.8034   23450525.0524
       149.0004        152.0004
  -4484453.67348  -3478019.05746  23749166.991    23749166.7984   23749176.0734
       177.0004        177.0004
  -2758186.80447  -2135911.63645  24309366.036    24309364.9234   24309369.1274
       153.0004        156.0004
 -16113477.22449 -12542787.60547  21573452.419    21573452.1794   21573458.3354
       196.0004        197.0004
   2654787.73754
        74.0004
  -8678525.26148  -6746132.85546  22604162.111    22604162.6324   22604169.7334
       181.0004        183.0004
 -10350131.68748  -8052076.50946  22301195.361    22301194.8564   22301200.5574
       177.0004        178.0004
 -20910066.20149 -16276218.56347  20811058.382    20811058.7034   20811066.9144
       198.0004        199.0004
 21  1 31  1 31 30.0000000  0 12G17G14G07G04G28G08G19G30G22G09G21G01
 -12664496.58948  -9839377.00246  22178398.470    22178399.0594   22178403.0714
       185.0004        186.0004
  -4373693.02148  -3392597.79746  22960734.545    22960735.1704   22960739.8104
       170.0004        171.0004
 -23791263.02149 -18521008.79348  20385679.490    20385679.6134   20385683.2804
       212.0004        213.0004
    911502.82247    728494.03845  24598844.879    24598845.9994   24598851.7104
       138.0004        142.0004
  -2201955.03747  -1704029.13145  23447110.721    23447110.6554   23447113.0224
       151.0004        156.0004
  -4390277.29648  -3404634.88446  23767086.988    23767088.2144   23767097.1674
       178.0004        179.0004
  -2842525.43747  -2201630.02845  24293316.007    24293315.0194   24293319.9004
       154.0004        156.0004
 -16188757.30249 -12601447.40747  21559126.338    21559126.4574   21559133.6054
       196.0004        196.0004
   2654787.73744
        74.0004
  -8600441.71448  -6685288.52446  22619021.198    22619020.9114   22619028.8054
       182.0004        183.0004
 -10297219.51748  -8010846.24346  22311264.977    22311264.1314   22311269.4054
       177.0004        177.0004
 -20928803.53449 -16290819.07847  20807491.655    20807492.9504   20807501.3694
       198.0004        199.0004
 21  1 31  1 32  0.0000000  0 12G17G14G07G04G28G08G19G30G22G09G21G01
 -12712922.61548  -9877111.52846  22169181.980    22169183.1844   22169187.4474
       185.0004        185.0004
  -4402342.48448  -3414922.03846  22955283.191    22955283.0654   22955287.0164
       170.0004        169.0004
 -23823315.86749 -18545985.03248  20379579.346    20379579.7784   20379584.1474
       212.0004        213.0004
   1005355.79847    801626.00545  24616704.661    24616705.2524   24616711.9464
       136.0004        140.0004
  -2219978.06847  -1718073.04545  23443679.495    23443679.1694   23443684.5144
       153.0004        157.0004
  -4296149.84548  -3331288.84346  23785000.001    23785000.1824   23785008.4774
       177.0004        177.0004
  -2926611.16947  -2267151.31445  24277314.248    24277313.9774   24277318.5814
       153.0004        154.0004
 -16263780.66549 -12659907.16747  21544851.001    21544850.6964   21544857.4094
       197.0004        198.0004
   2654787.73744
        74.0004
  -8522253.12948  -6624362.35846  22633899.459    22633900.0084   22633907.6404
       182.0004        182.0004
 -10243853.97948  -7969262.69846  22321419.540    22321419.9574   22321424.3184
       176.0004        177.0004
 -20946973.87049 -16304977.76147  20804034.819    20804035.6914   20804043.5944
       199.0004        199.0004
 21  1 31  1 32 30.0000000  0 11G17G14G07G04G28G08G19G30G09G21G01
 -12760933.33848  -9914522.46446  22160046.694    22160046.0804   22160051.3164
       184.0004        184.0004
  -4431056.52348  -3437296.63346  22949818.149    22949819.3544   22949823.0844
       169.0004        170.0004
 -23854893.27449 -18570590.80548  20373570.761    20373571.0254   20373575.2414
       212.0004        213.0004
   1099062.81847    874644.25745  24634536.715    24634537.7334   24634544.5974
       136.0004        141.0004
  -2238087.99447  -1732184.66545  23440233.174    23440234.5834   23440238.0064
       155.0004        157.0004
  -4202073.07548  -3257982.25646  23802902.618    23802903.0544   23802912.2964
       177.0004        178.0004
  -3010441.83747  -2332473.86945  24261362.705    24261362.2694   24261365.0944
       149.0004        151.0004
 -16338544.00749 -12718164.31447  21530623.415    21530623.8184   21530630.4254
       198.0004        199.0004
  -8443961.86748  -6563356.19346  22648798.058    22648797.8814   22648804.8184
       181.0004        182.0004
 -10190036.01448  -7927326.61946  22331661.075    22331660.8214   22331665.5554
       176.0004        176.0004
 -20964575.03949 -16318692.94947  20800685.809    20800686.0204   20800693.9094
       199.0004        198.0004
 21  1 31  1 33  0.0000000  0 11G17G14G07G04G28G08G19G30G09G21G01
 -12808529.42348  -9951610.31746  22150988.443    22150989.8764   22150994.0354
       184.0004        185.0004
  -4459836.32148  -3459722.41846  22944341.539    22944341.9664   22944346.8174
       169.0004        170.0004
 -23885993.52749 -18594824.78148  20367652.276    20367652.9604   20367656.5444
       212.0004        213.0004
   1192621.14347    947546.64045  24652340.663    24652341.3394   24652348.3284
       138.0004        144.0004
  -2256286.37147  -1746365.19445  23436771.210    23436771.6124   23436774.1384
       155.0004        156.0004
  -4108049.19048  -3184716.91446  23820797.191    23820796.4384   23820804.0794
       177.0004        178.0004
  -3094017.13047  -2397597.43245  24245458.813    24245457.5814   24245462.6564
       148.0004        150.0004
 -16413045.25149 -12776217.24047  21516446.282    21516446.4334   21516453.3274
       199.0004        199.0004
  -8365571.55448  -6502272.83846  22663715.337    22663715.6524   22663722.9834
       182.0004        184.0004
 -10135768.10348  -7885039.92446  22341987.664    22341987.5094   22341992.9784
       176.0004        176.0004
 -20981606.04149 -16331963.85347  20797444.375    20797445.5554   20797452.8924
       198.0004        198.0004
 21  1 31  1 33 30.0000000  0 11G17G14G07G04G28G08G19G30G09G21G01
 -12855710.37548  -9988374.66947  22142011.043    22142011.7334   22142015.8514
       186.0004        188.0004
  -4488682.37748  -3482199.86146  22938853.129    22938852.9814   22938857.9054
       171.0004        174.0004
 -23916614.62549 -18618685.38548  20361825.137    20361825.7894   20361829.8904
       212.0004        213.0004
   1286028.45247   1020331.31945  24670116.256    24670116.9844   24670123.1214
       140.0004        145.0004
  -2274574.24347  -1760615.47845  23433291.211    23433290.3974   23433294.5974
       154.0004        156.0004
  -4014080.48748  -3111494.57146  23838678.960    23838678.1454   23838685.4294
       176.0004        176.0004
  -3177335.58047  -2462520.85345  24229602.742    24229602.2564   24229606.8694
       146.0004        149.0004
 -16487281.80949 -12834063.90547  21502320.195    21502319.5344   21502326.6024
       199.0004        200.0004
  -8287085.19548  -6441114.63846  22678650.943    22678651.0564   22678657.9914
       182.0004        182.0004
 -10081050.48148  -7842402.80546  22352399.336    22352399.1344   22352405.0394
       175.0004        175.0004
 -20998065.42349 -16344789.33747  20794313.112    20794313.2794   20794321.0014
       198.0004        198.0004
 21  1 31  1 34  0.0000000  0 11G17G14G07G04G28G08G19G30G09G21G01
 -12902475.92748 -10024815.35147  22133112.678    22133112.7094   22133116.6534
       188.0004        189.0004
  -4517594.97148  -3504729.15046  22933350.960    22933351.7384   22933356.6944
       171.0004        173.0004
 -23946754.31649 -18642170.86448  20356089.813    20356090.4054   20356094.5944
       212.0004        213.0004
   1379282.92747   1092996.90145  24687860.599    24687861.6384   24687868.3844
       142.0004        147.0004
  -2292952.40947  -1774936.11945  23429792.692    23429793.5594   23429797.6454
       155.0004        158.0004
  -3920168.38248  -3038316.32946  23856550.049    23856549.1454   23856556.6754
       176.0004        177.0004
  -3260395.33647  -2527242.70545  24213798.465    24213797.6384   24213801.2864
       148.0004        152.0004
 -16561250.61649 -12891701.94147  21488244.115    21488243.8114   21488250.8454
       200.0004        200.0004
  -8208505.43348  -6379883.65546  22693604.299    22693604.0764   22693611.0434
       181.0004        181.0004
 -10025884.74548  -7799416.52246  22362897.732    22362897.5354   22362902.3974
       175.0004        176.0004
 -21013951.40849 -16357168.01047  20791290.208    20791290.5494   20791298.2684
       199.0004        199.0004
 21  1 31  1 34 30.0000000  0 11G17G14G07G04G28G08G19G30G09G21G01
 -12948825.90148 -10060932.19147  22124291.933    22124292.4384   22124296.7894
       188.0004        190.0004
  -4546574.22148  -3527310.37846  22927835.479    22927836.1954   22927840.8154
       171.0004        170.0004
 -23976409.67649 -18665278.93348  20350446.789    20350447.0024   20350450.9284
       212.0004        213.0004
   1472382.62647   1165541.87345  24705578.343    24705577.9414   24705586.0404
       138.0004        141.0004
  -2311421.46447  -1789327.59745  23426278.941    23426278.9974   23426281.6894
       155.0004        157.0004
  -3826314.60348  -2965183.53746  23874406.807    23874407.6234   23874415.7924
       175.0004        175.0004
  -3343195.37647  -2591762.19545  24198041.988    24198041.7514   24198044.5454
       150.0004        153.0004
 -16634948.72449 -12949129.03247  21474219.342    21474219.7254   21474226.2864
       200.0004        200.0004
  -8129834.91448  -6318581.96846  22708574.290    22708574.7164   22708581.3294
       180.0004        180.0004
  -9970272.46548  -7756082.26546  22373480.188    22373480.0154   22373485.4414
       175.0004        175.0004
 -21029262.15149 -16369098.44547  20788375.953    20788376.5064   20788384.4874
       199.0004        199.0004
 21  1 31  1 35  0.0000000  0 11G17G14G07G04G28G08G19G30G09G21G01
 -12994759.00848 -10096724.22047  22115550.774    22115551.8944   22115555.6944
       188.0004        189.0004
  -4575619.55148  -3549943.10246  22922309.020    22922310.1514   22922313.6674
       170.0004        171.0004
 -24005577.80049 -18688007.35448  20344896.432    20344896.8734   20344900.7894
       212.0004        214.0004
   1565326.58247   1237965.47045  24723264.446    24723265.0164   24723272.3784
       137.0004        142.0004
  -2329981.28147  -1803789.79645  23422747.397    23422747.0254   23422750.7824
       156.0004        158.0004
  -3732519.87648  -2892096.77346  23892255.853    23892256.2344   23892263.7884
       176.0004        177.0004
  -3425733.27147  -2656077.41245  24182334.980    24182334.2414   24182337.7794
       152.0004        155.0004
 -16708372.32949 -13006342.25147  21460248.315    21460247.8214   21460254.3024
       200.0004        201.0004
  -8051075.55548  -6257211.03746  22723561.286    22723561.6184   22723568.9204
       179.0004        179.0004
  -9914213.62348  -7712400.05746  22384148.172    22384148.8484   22384152.5944
       175.0004        175.0004
 -21043995.17149 -16380578.70947  20785572.228    20785572.8734   20785580.9914
       199.0004        200.0004
 21  1 31  1 35 30.0000000  0 10G17G14G07G28G08G19G30G09G21G01
 -13040275.50548 -10132191.62047  22106890.070    22106889.8974   22106894.2024
       189.0004        188.0004
  -4604731.60148  -3572627.81546  22916768.716    22916769.3804   22916773.5884
       170.0004        170.0004
 -24034256.94749 -18710354.74148  20339438.527    20339439.0964   20339443.4324
       213.0004        214.0004
  -2348633.13047  -1818323.68845  23419197.319    23419196.5454   23419200.3284
       155.0004        158.0004
  -3638786.40048  -2819057.69646  23910094.260    23910093.9434   23910102.3544
       179.0004        181.0004
  -3508007.98647  -2720187.52345  24166678.684    24166677.8404   24166682.0734
       155.0004        158.0004
 -16781518.95149 -13063339.61347  21446327.878    21446328.0504   21446335.3814
       200.0004        201.0004
  -7972230.43448  -6195773.29546  22738565.162    22738565.7964   22738572.7364
       178.0004        179.0004
  -9857710.02548  -7668371.26346  22394901.356    22394900.3374   22394905.1344
       175.0004        175.0004
 -21058149.17349 -16391607.78747  20782878.378    20782879.5264   20782887.2244
       199.0004        199.0004
 21  1 31  1 36  0.0000000  0 10G17G14G07G28G08G19G30G09G21G01
 -13085373.73048 -10167333.07047  22098307.701    22098308.3764   22098311.8284
       189.0004        188.0004
  -4633909.51948  -3595363.83446  22911216.395    22911217.0944   22911222.1644
       169.0004        171.0004
 -24062443.44049 -18732318.25148  20334074.924    20334075.7384   20334079.3594
       213.0004        214.0004
  -2367376.59247  -1832928.94745  23415629.872    23415630.8814   23415635.8654
       155.0004        158.0004
  -3545115.20248  -2746067.18146  23927918.974    23927918.6894   23927926.9204
       178.0004        178.0004
  -3590016.55747  -2784090.24745  24151071.466    24151071.6144   24151076.2594
       155.0004        157.0004
 -16854384.53249 -13120117.98347  21432462.241    21432462.0294   21432469.3584
       201.0004        201.0004
  -7893301.18248  -6134269.97046  22753585.327    22753585.6844   22753592.5804
       178.0004        178.0004
  -9800761.72248  -7623995.95246  22405736.682    22405736.5354   22405741.5464
       174.0004        175.0004
 -21071721.47949 -16402183.60247  20780295.203    20780296.1054   20780304.4974
       199.0004        199.0004
 21  1 31  1 36 30.0000000  0 10G17G14G07G28G08G19G30G09G21G01
 -13130057.00748 -10202151.19347  22089804.984    22089805.4124   22089809.6684
       189.0004        190.0004
  -4663156.71648  -3618153.84946  22905650.495    22905651.5674   22905656.4764
       169.0004        171.0004
 -24090138.50249 -18753898.83048  20328805.300    20328805.5604   20328809.5224
       213.0004        214.0004
  -2386215.41847  -1847608.54345  23412046.213    23412045.9914   23412047.9384
       156.0004        158.0004
  -3451510.65848  -2673128.56946  23945731.501    23945731.7494   23945739.1264
       178.0004        179.0004
  -3671760.65347  -2847786.91645  24135516.740    24135516.0964   24135522.1834
       154.0004        156.0004
 -16926969.33749 -13176677.57347  21418649.198    21418649.4904   21418656.4114
       201.0004        200.0004
  -7814293.69248  -6072705.72046  22768620.708    22768620.8944   22768626.1234
       177.0004        178.0004
  -9743373.35248  -7579277.75446  22416658.386    22416658.3264   22416661.3734
       174.0004        175.0004
 -21084713.58149 -16412307.30947  20777823.590    20777824.6894   20777832.7514
       199.0004        199.0004
 21  1 31  1 37  0.0000000  0 10G17G14G07G28G08G19G30G09G21G01
 -13174325.15448 -10236645.85047  22081380.931    22081380.7154   22081385.5104
       190.0004        190.0004
  -4692473.31448  -3640997.94146  22900072.050    22900073.0694   22900078.0034
       170.0004        171.0004
 -24117339.82749 -18775094.67348  20323628.525    20323628.9364   20323633.0074
       213.0004        214.0004
  -2405150.27547  -1862362.96345  23408443.781    23408442.9534   23408447.3034
       157.0004        159.0004
  -3357974.36748  -2600243.17546  23963530.248    23963531.0404   23963538.5104
       179.0004        179.0004
  -3753239.08047  -2911276.57945  24120012.025    24120010.8534   24120017.1764
       153.0004        155.0004
 -16999270.42849 -13233016.08747  21404891.148    21404891.1624   21404898.4024
       200.0004        200.0004
  -7735210.64148  -6011082.57046  22783668.320    22783669.1714   22783675.8464
       178.0004        178.0004
  -9685546.06148  -7534217.51046  22427662.309    22427661.7524   22427666.0064
       174.0004        173.0004
 -21097124.00449 -16421977.76147  20775462.708    20775462.8864   20775470.4904
       199.0004        199.0004
 21  1 31  1 37 30.0000000  0 10G17G14G07G28G08G19G30G09G21G01
 -13218177.69348 -10270816.65547  22073035.231    22073035.9154   22073040.6644
       189.0004        189.0004
  -4721859.47548  -3663896.24446  22894479.292    22894481.1994   22894484.9314
       169.0004        168.0004
 -24144045.06349 -18795903.95748  20318547.016    20318547.7834   20318551.2944
       213.0004        215.0004
  -2424182.20447  -1877193.01545  23404819.741    23404820.1344   23404823.4004
       156.0004        156.0004
  -3264508.47148  -2527412.61446  23981315.153    23981316.2494   23981323.9054
       177.0004        176.0004
  -3834449.99547  -2974557.76545  24104559.671    24104558.5384   24104561.8864
       155.0004        158.0004
 -17071284.81549 -13289131.18947  21391186.829    21391186.5424   21391194.4574
       200.0004        200.0004
  -7656054.64548  -5949402.58446  22798731.479    22798731.5104   22798739.3094
       177.0004        178.0004
  -9627281.00148  -7488816.15746  22438749.878    22438749.7284   22438752.8664
       173.0004        175.0004
 -21108951.00549 -16431193.59947  20773212.437    20773212.5964   20773219.6784
       199.0004        199.0004
 21  1 31  1 38  0.0000000  0 10G17G14G07G28G08G19G30G09G21G01
 -13261614.26048 -10304663.29647  22064770.429    22064770.7014   22064775.0264
       190.0004        190.0004
  -4751315.36448  -3686848.85346  22888874.335    22888874.8454   22888880.1784
       168.0004        169.0004
 -24170251.48749 -18816324.54748  20313560.546    20313560.7284   20313564.5274
       214.0004        215.0004
  -2443311.63047  -1892099.06845  23401180.850    23401180.9034   23401184.6984
       155.0004        157.0004
  -3171114.25248  -2454637.92346  23999090.084    23999089.4144   23999096.7484
       175.0004        176.0004
  -3915392.35847  -3037629.73245  24089156.061    24089154.9014   24089159.4594
       155.0004        157.0004
 -17143009.50249 -13345020.55247  21377538.457    21377538.3254   21377545.4454
       200.0004        201.0004
  -7576828.34248  -5887667.80546  22813807.250    22813808.0284   22813816.2344
       177.0004        177.0004
  -9568579.35848  -7443074.60046  22449921.315    22449920.5954   22449924.6054
       173.0004        174.0004
 -21120193.07249 -16439953.63247  20771072.190    20771072.6994   20771080.8284
       199.0004        200.0004
 21  1 31  1 38 30.0000000  0 10G17G14G07G28G08G19G30G09G21G01
 -13304634.77448 -10338185.76047  22056583.517    22056584.0474   22056588.7734
       190.0004        190.0004
  -4780841.02948  -3709855.86446  22883256.092    22883256.6694   22883261.3214
       169.0004        170.0004
 -24195957.43249 -18836355.16348  20308667.992    20308668.6354   20308672.8994
       214.0004        215.0004
  -2462539.13747  -1907081.51645  23397521.268    23397521.9854   23397525.3184
       154.0004        157.0004
  -3077792.74348  -2381919.86346  24016847.671    24016847.3234   24016854.4764
       175.0004        175.0004
  -3996064.80347  -3100491.31545  24073804.017    24073803.6674   24073807.6114
       154.0004        157.0004
 -17214441.50049 -13400681.85647  21363945.606    21363945.3324   21363952.2644
       200.0004        200.0004
  -7497534.28148  -5825880.23046  22828897.816    22828897.5964   22828904.5904
       176.0004        177.0004
  -9509442.51348  -7396993.95046  22461174.203    22461173.0274   22461177.5344
       172.0004        173.0004
 -21130848.58949 -16448256.62847  20769044.677    20769045.5574   20769053.6464
       200.0004        200.0004
 21  1 31  1 39  0.0000000  0 10G17G14G07G28G08G19G30G09G21G01
 -13347239.85848 -10371384.51947  22048475.632    22048476.1354   22048481.4514
       190.0004        191.0004
  -4810437.76648  -3732918.27046  22877623.933    22877624.2554   22877629.3584
       170.0004        171.0004
 -24221161.61449 -18855994.79648  20303872.407    20303872.8424   20303876.6234
       214.0004        215.0004
  -2481866.34747  -1922141.67445  23393844.747    23393844.6404   23393848.0764
       156.0004        160.0004
  -2984547.48248  -2309261.21346  24034589.925    24034590.5994   24034598.7404
       172.0004        173.0004
  -4076466.33447  -3163141.82345  24058504.362    24058503.4944   24058507.8284
       156.0004        159.0004
 -17285578.99549 -13456113.67047  21350408.384    21350408.4644   21350415.5414
       200.0004        200.0004
  -7418176.34848  -5764042.88546  22843998.510    22843998.5704   22844005.6934
       175.0004        175.0004
  -9449872.87348  -7350576.03246  22472509.288    22472509.1144   22472512.8834
       172.0004        173.0004
 -21140917.24149 -16456102.32047  20767129.979    20767129.8504   20767137.1124
       200.0004        201.0004
 21  1 31  1 39 30.0000000  0 10G17G14G07G28G08G19G30G09G21G01
 -13389428.84548 -10404259.05047  22040448.591    22040448.7014   22040452.1814
       191.0004        191.0004
  -4840104.37548  -3756035.09546  22871979.113    22871979.6384   22871984.1214
       169.0004        171.0004
 -24245860.52349 -18875240.70348  20299172.376    20299172.6644   20299176.5774
       214.0004        215.0004
  -2501292.79847  -1937279.15945  23390147.413    23390146.9124   23390152.0104
       156.0004        157.0004
  -2891378.21048  -2236661.79746  24052319.970    24052320.1394   24052328.8344
       176.0004        178.0004
  -4156594.65047  -3225579.43845  24043256.810    24043255.9944   24043260.8964
       157.0004        159.0004
 -17356417.70949 -13511312.66047  21336927.827    21336928.2744   21336935.7344
       200.0004        201.0004
  -7338755.81148  -5702156.75046  22859110.620    22859111.7224   22859118.5854
       175.0004        176.0004
  -9389870.58148  -7303820.99846  22483928.127    22483927.9084   22483931.7854
       172.0004        173.0004
 -21150396.19249 -16463488.50247  20765324.602    20765325.5044   20765333.5724
       200.0004        200.0004
 21  1 31  1 40  0.0000000  0 10G17G14G07G28G08G19G30G09G21G01
 -13431201.90348 -10436809.46547  22032499.004    22032499.4504   22032503.0744
       191.0004        190.0004
  -4869841.82248  -3779207.12146  22866319.833    22866320.7654   22866325.2684
       169.0004        168.0004
 -24270052.78049 -18894091.80848  20294568.651    20294569.0374   20294573.0604
       214.0004        216.0004
  -2520820.01947  -1952495.15745  23386430.444    23386429.7344   23386435.7654
       154.0004        156.0004
  -2798287.55948  -2164123.65946  24070032.625    24070033.1454   24070043.4164
       174.0004        175.0004
  -4236448.95747  -3287803.56245  24028060.735    24028060.6634   24028063.0754
       155.0004        157.0004
 -17426955.54949 -13566277.20047  21323505.213    21323505.0344   21323512.4584
       201.0004        202.0004
  -7259276.12148  -5640224.53146  22874236.687    22874236.1574   22874243.8984
       174.0004        176.0004
  -9329437.86648  -7256730.55446  22495427.241    22495426.4324   22495429.9254
       172.0004        173.0004
 -21159284.91249 -16470414.76447  20763633.537    20763634.3164   20763641.8894
       200.0004        200.0004
 21  1 31  1 40 30.0000000  0 10G17G14G07G28G08G19G30G09G21G01
 -13472558.68048 -10469035.52247  22024628.322    22024629.0064   22024633.4614
       190.0004        190.0004
  -4899650.06348  -3802434.29546  22860647.211    22860648.3414   22860652.4994
       168.0004        170.0004
 -24293736.17149 -18912546.40148  20290061.516    20290062.2334   20290066.1174
       214.0004        215.0004
  -2540448.32647  -1967789.93245  23382697.017    23382696.6734   23382699.9494
       155.0004        159.0004
  -2705276.94148  -2091647.86246  24087732.956    24087733.7314   24087742.1944
       173.0004        173.0004
  -4316027.72547  -3349812.96245  24012917.499    24012916.9054   24012919.6384
       156.0004        159.0004
 -17497189.42349 -13621004.90047  21310140.260    21310140.3474   21310146.9414
       201.0004        202.0004
  -7179739.81748  -5578248.19446  22889371.090    22889371.7304   22889379.7054
       176.0004        179.0004
  -9268575.81448  -7209305.56546  22507009.374    22507008.8454   22507012.6424
       172.0004        172.0004
 -21167581.77549 -16476879.84847  20762055.247    20762055.2814   20762062.8434
       200.0004        200.0004
 21  1 31  1 41  0.0000000  0 10G17G14G07G28G08G19G30G09G21G01
 -13513500.52548 -10500938.25047  22016838.156    22016838.5974   22016841.9314
       190.0004        189.0004
  -4929530.24548  -3825717.56346  22854962.836    22854962.5764   22854967.1844
       170.0004        172.0004
 -24316909.66549 -18930603.66848  20285651.856    20285652.0674   20285656.2294
       214.0004        215.0004
  -2560179.61147  -1983164.96845  23378941.289    23378940.7764   23378945.8314
       156.0004        158.0004
  -2612349.17548  -2019236.59946  24105416.600    24105417.2444   24105426.9824
       174.0004        175.0004
  -4395330.95247  -3411607.64545  23997826.741    23997825.7404   23997828.0294
       154.0004        155.0004
 -17567117.39549 -13675494.22947  21296833.371    21296833.2404   21296840.3604
       201.0004        201.0004
  -7100150.61548  -5516230.65846  22904516.542    22904516.9574   22904524.4114
       176.0004        176.0004
  -9207287.14348  -7161548.15646  22518672.321    22518671.3704   22518674.9164
       171.0004        171.0004
 -21175286.57349 -16482883.57447  20760588.459    20760589.2554   20760596.6064
       199.0004        199.0004
 21  1 31  1 41 30.0000000  0 10G17G14G07G28G08G19G30G09G21G01
 -13554027.54448 -10532517.73147  22009125.749    22009126.7414   22009130.3724
       189.0004        189.0004
  -4959482.87148  -3849057.22246  22849260.766    22849262.1954   22849266.9084
       170.0004        170.0004
 -24339571.46549 -18948262.22248  20281339.882    20281340.4264   20281344.1134
       214.0004        215.0004
  -2580014.73547  -1998620.88345  23375165.159    23375166.2234   23375170.6584
       156.0004        158.0004
  -2519505.50448  -1946890.91946  24123088.520    24123086.9394   24123093.1964
       175.0004        176.0004
  -4474357.57747  -3473186.81245  23982787.125    23982786.1844   23982789.0294
       152.0004        153.0004
 -17636737.10849 -13729743.35047  21283584.769    21283584.9814   21283592.6214
       201.0004        202.0004
  -7020511.44448  -5454174.18046  22919672.414    22919672.5384   22919678.7874
       175.0004        175.0004
  -9145573.44948  -7113459.56246  22530414.803    22530415.3704   22530418.5634
       171.0004        173.0004
 -21182398.22149 -16488425.10647  20759235.962    20759236.2954   20759243.3234
       200.0004        200.0004
 21  1 31  1 42  0.0000000  0 10G17G14G07G28G08G19G30G09G21G01
 -13594139.74548 -10563773.96947  22001492.589    22001492.2704   22001497.4124
       189.0004        189.0004
  -4989507.95348  -3872453.40046  22843549.042    22843548.6214   22843552.7344
       170.0004        169.0004
 -24361719.49949 -18965520.43248  20277125.199    20277125.4654   20277129.3234
       214.0004        216.0004
  -2599954.14647  -2014158.06745  23371372.194    23371372.3874   23371375.8244
       156.0004        158.0004
  -2426747.91348  -1874612.30746  24140737.248    24140738.0754   24140746.0134
       177.0004        178.0004
  -4553105.81347  -3534549.06145  23967802.424    23967801.9484   23967805.9024
       154.0004        157.0004
 -17706045.46649 -13783749.84847  21270396.965    21270396.4424   21270403.1514
       202.0004        203.0004
  -6940824.96148  -5392080.80346  22934834.738    22934835.4134   22934842.7294
       173.0004        173.0004
  -9083436.18748  -7065040.91346  22542241.075    22542239.5634   22542244.0754
       172.0004        173.0004
 -21188915.43849 -16493503.44247  20757995.215    20757995.8654   20758003.2604
       199.0004        199.0004
 21  1 31  1 42 30.0000000  0 10G17G14G07G28G08G19G30G09G21G01
 -13633836.98148 -10594706.87847  21993938.760    21993939.3534   21993943.2554
       189.0004        191.0004
  -5019605.84748  -3895906.30246  22837820.640    22837821.4944   22837826.0964
       168.0004        170.0004
 -24383351.88049 -18982376.85148  20273008.276    20273009.0984   20273013.1324
       215.0004        216.0004
  -2619998.82047  -2029777.29845  23367558.536    23367558.4184   23367562.0904
       154.0004        157.0004
  -2334078.09548  -1802402.08046  24158371.828    24158371.5164   24158379.5124
       175.0004        176.0004
  -4631575.23547  -3595693.99845  23952869.761    23952869.2574   23952873.4784
       156.0004        159.0004
 -17775039.79649 -13837511.67147  21257267.808    21257267.5694   21257274.3884
       202.0004        203.0004
  -6861093.94748  -5329952.74846  22950008.243    22950008.4524   22950014.9784
       173.0004        175.0004
  -9020876.97148  -7016293.45646  22554144.083    22554143.8844   22554148.5374
       172.0004        172.0004
 -21194837.16349 -16498117.75447  20756867.800    20756868.3854   20756876.2434
       199.0004        199.0004
 21  1 31  1 43  0.0000000  0 10G17G14G07G28G08G19G30G09G21G01
 -13673119.24048 -10625316.41747  21986463.039    21986463.5454   21986467.8644
       189.0004        189.0004
  -5049776.17048  -3919415.63246  22832079.844    22832080.1984   22832084.3684
       169.0004        171.0004
 -24404466.17449 -18998829.56248  20268990.546    20268991.0004   20268994.8564
       215.0004        216.0004
  -2640148.98747  -2045478.70745  23363723.992    23363723.0704   23363726.6624
       155.0004        158.0004
  -2241497.38148  -1730261.28546  24175987.401    24175988.0934   24175998.0334
       176.0004        177.0004
  -4709763.44347  -3656619.86245  23937992.333    23937992.0514   23937994.2954
       157.0004        160.0004
 -17843716.80949 -13891026.21547  21244198.347    21244198.3574   21244205.5134
       202.0004        202.0004
  -6781320.69048  -5267791.77646  22965188.690    22965189.0574   22965195.5344
       175.0004        176.0004
  -8957896.72248  -6967217.95446  22566129.348    22566129.2524   22566133.8564
       173.0004        174.0004
 -21200161.75649 -16502266.78047  20755854.361    20755855.1994   20755863.0074
       199.0004        199.0004
 21  1 31  1 43 30.0000000  0 10G17G14G07G28G08G19G30G09G21G01
 -13711987.48648 -10655603.35447  21979067.149    21979067.5334   21979071.0994
       189.0004        189.0004
  -5080019.80848  -3942982.11946  22826325.192    22826325.4174   22826328.7634
       170.0004        169.0004
 -24425061.31449 -19014877.73248  20265071.124    20265071.6884   20265075.7404
       214.0004        215.0004
  -2660405.98047  -2061263.36845  23359869.879    23359868.5884   23359872.8904
       155.0004        158.0004
  -2149007.86848  -1658191.54746  24193589.726    24193589.3014   24193597.1054
       174.0004        174.0004
  -4787669.92647  -3717326.17845  23923166.927    23923165.5764   23923169.6304
       156.0004        158.0004
 -17912074.34349 -13944291.83047  21231190.175    21231190.4054   21231197.5084
       202.0004        202.0004
  -6701508.56548  -5205600.51846  22980375.909    22980376.3504   22980383.5734
       175.0004        174.0004
  -8894497.86548  -6917816.24346  22578194.124    22578193.9374   22578198.5754
       173.0004        175.0004
 -21204888.79449 -16505950.18247  20754955.701    20754955.8414   20754963.2494
       199.0004        199.0004
 21  1 31  1 44  0.0000000  0 10G17G14G07G28G08G19G30G09G21G01
 -13750441.82048 -10685567.73547  21971749.553    21971749.7274   21971753.4874
       188.0004        188.0004
  -5110337.09548  -3966605.94146  22820555.454    22820555.5804   22820561.3994
       169.0004        169.0004
 -24445135.42549 -19030519.90548  20261251.262    20261251.8044   20261255.7404
       214.0004        216.0004
  -2680770.46347  -2077131.76745  23355993.095    23355992.8294   23355996.8214
       155.0004        157.0004
  -2056611.34448  -1586194.27746  24211170.501    24211171.0834   24211180.6754
       172.0004        174.0004
  -4865293.83847  -3777812.31845  23908395.449    23908394.1144   23908398.4134
       157.0004        160.0004
 -17980109.80549 -13997306.46447  21218243.117    21218243.2124   21218250.4994
       202.0004        203.0004
  -6621660.41448  -5143381.18146  22995570.148    22995570.9474   22995578.2044
       175.0004        176.0004
  -8830682.46548  -6868089.95246  22590337.080    22590337.2364   22590342.4054
       174.0004        175.0004
 -21209017.30349 -16509167.18547  20754170.213    20754170.5764   20754177.9754
       199.0004        199.0004
 21  1 31  1 44 30.0000000  0 10G17G14G07G28G08G19G30G09G21G01
 -13788481.61648 -10715209.11347  21964510.774    21964511.2744   21964514.8994
       188.0004        189.0004
  -5140727.29748  -3990286.61646  22814772.539    22814773.1624   22814777.2774
       169.0004        170.0004
 -24464685.97049 -19045754.09448  20257531.084    20257531.5844   20257535.6544
       215.0004        216.0004
  -2701242.23847  -2093083.78345  23352097.627    23352097.7744   23352101.2224
       153.0004        155.0004
  -1964308.42348  -1514269.95446  24228735.129    24228736.5134   24228745.6514
       176.0004        178.0004
  -4942633.20647  -3838076.71246  23893678.686    23893678.4954   23893681.5674
       160.0004        164.0004
 -18047819.49249 -14050067.25347  21205359.421    21205358.7194   21205366.0784
       203.0004        204.0004
  -6541778.12048  -5081135.21846  23010771.515    23010772.0474   23010779.3484
       174.0004        175.0004
  -8766450.96648  -6818039.42946  22602561.139    22602560.2514   22602565.3734
       175.0004        175.0004
 -21212545.40649 -16511916.34347  20753498.945    20753499.4054   20753506.8234
       199.0004        200.0004
 21  1 31  1 45  0.0000000  0 10G17G14G07G28G08G19G30G09G21G01
 -13826108.01248 -10744528.36747  21957350.624    21957350.7824   21957354.7834
       189.0004        190.0004
  -5171191.77648  -4014025.17446  22808974.458    22808975.9554   22808980.5384
       170.0004        170.0004
 -24483712.13649 -19060579.68348  20253910.923    20253911.2014   20253914.8694
       215.0004        216.0004
  -2721823.26547  -2109120.94245  23348181.947    23348181.7404   23348185.4474
       152.0004        156.0004
  -1872101.83048  -1442420.71446  24246284.877    24246283.9114   24246291.0624
       176.0004        176.0004
  -5019687.89447  -3898119.32746  23879014.985    23879013.8804   23879018.3994
       160.0004        163.0004
 -18115201.86549 -14102572.99647  21192536.330    21192536.6324   21192543.1514
       203.0004        204.0004
  -6461865.56748  -5018865.70746  23025980.367    23025979.3464   23025985.3154
       173.0004        173.0004
  -8701806.24848  -6767666.91546  22614862.042    22614861.6784   22614866.9094
       175.0004        176.0004
 -21215473.30149 -16514197.80347  20752940.593    20752941.5634   20752949.4344
       199.0004        200.0004
 21  1 31  1 45 30.0000000  0 10G17G14G07G28G08G19G30G09G21G01
 -13863321.89548 -10773526.19247  21950268.175    21950269.1454   21950273.5874
       189.0004        190.0004
  -5201730.98748  -4037821.93446  22803163.825    22803163.9034   22803169.5914
       169.0004        170.0004
 -24502212.27749 -19074995.38348  20250390.010    20250390.4214   20250394.4344
       215.0004        216.0004
  -2742514.68847  -2125244.12945  23344243.608    23344243.9724   23344248.5084
       154.0004        158.0004
  -1779993.85248  -1370648.28146  24263812.225    24263811.7834   24263818.6534
       176.0004        178.0004
  -5096457.28847  -3957939.58246  23864407.486    23864406.9614   23864409.9864
       162.0004        164.0004
 -18182254.46649 -14154821.77247  21179777.018    21179776.8464   21179783.9234
       203.0004        204.0004
  -6381925.80748  -4956574.97646  23041190.177    23041191.2424   23041197.5274
       172.0004        173.0004
  -8636750.23148  -6716973.91446  22627241.907    22627240.9334   22627246.1514
       175.0004        175.0004
 -21217800.31749 -16516011.04647  20752498.111    20752499.2004   20752506.7354
       200.0004        200.0004
 21  1 31  1 46  0.0000000  0 10G17G14G07G28G08G19G30G09G21G01
 -13900122.68648 -10802202.12247  21943265.753    21943266.3254   21943270.7844
       190.0004        191.0004
  -5232344.23048  -4061676.38446  22797338.222    22797339.0204   22797343.5584
       170.0004        171.0004
 -24520184.04549 -19088999.36048  20246969.906    20246970.3534   20246974.8474
       215.0004        216.0004
  -2763316.36947  -2141453.20645  23340284.131    23340284.9364   23340290.2434
       154.0004        157.0004
  -1687984.75748  -1298952.90746  24281319.534    24281319.8104   24281327.5864
       175.0004        175.0004
  -5172939.20547  -4017535.84845  23849851.598    23849851.1544   23849856.0394
       161.0004        162.0004
 -18248973.67849 -14206810.76247  21167080.200    21167080.6784   21167087.8914
       204.0004        205.0004
  -6301960.74248  -4894264.53946  23056407.533    23056407.9834   23056414.6394
       172.0004        174.0004
  -8571284.16648  -6665961.39046  22639698.707    22639698.5154   22639704.1924
       175.0004        176.0004
 -21219524.69849 -16517354.69747  20752170.262    20752170.6194   20752178.4934
       200.0004        200.0004
 21  1 31  1 46 30.0000000  0 10G17G14G07G28G08G19G30G09G21G01
 -13936510.23648 -10830556.04847  21936341.720    21936341.9324   21936346.4764
       191.0004        191.0004
  -5263031.36648  -4085588.42546  22791498.344    22791499.1114   22791503.4164
       169.0004        169.0004
 -24537625.36949 -19102590.00348  20243651.327    20243651.6404   20243655.8724
       215.0004        216.0004
  -2784228.64747  -2157748.48345  23336305.432    23336306.0424   23336311.5604
       155.0004        158.0004
  -1596076.29048  -1227335.94646  24298807.461    24298808.7814   24298816.8104
       174.0004        175.0004
  -5249132.23747  -4076907.00245  23835352.725    23835352.6644   23835357.0394
       159.0004        161.0004
 -18315356.52949 -14258537.65447  21154449.039    21154448.7404   21154455.6814
       205.0004        206.0004
  -6221972.72748  -4831936.23346  23071628.516    23071628.9974   23071636.5484
       173.0004        174.0004
  -8505409.09648  -6614630.18346  22652234.712    22652234.1024   22652240.3034
       175.0004        176.0004
 -21220645.25249 -16518227.84347  20751956.838    20751957.5424   20751965.0334
       199.0004        200.0004
 21  1 31  1 47  0.0000000  0 11G17G14G07G28G08G19G30G22G09G21G01
 -13972484.89848 -10858588.25147  21929495.685    21929496.0544   21929500.4564
       191.0004        191.0004
  -5293792.63548  -4109558.26246  22785644.622    22785645.0854   22785649.5504
       168.0004        168.0004
 -24554534.43849 -19115765.91248  20240433.271    20240433.5114   20240438.0554
       215.0004        216.0004
  -2805252.06047  -2174130.33345  23332304.157    23332304.4984   23332308.3074
       153.0004        154.0004
  -1504269.86448  -1155798.47746  24316278.349    24316278.5524   24316287.6074
       173.0004        173.0004
  -5325035.92447  -4136052.70846  23820909.577    23820908.5854   23820913.8394
       161.0004        163.0004
 -18381400.33649 -14310000.37247  21141881.053    21141880.8394   21141887.7524
       205.0004        205.0004
   2654787.73754   2109698.477 4                                  24793250.251
        74.0004        110.000
  -6141964.66948  -4769592.30446  23086852.992    23086853.6074   23086860.8424
       172.0004        172.0004
  -8439126.84848  -6562981.67046  22664847.271    22664847.4044   22664853.1434
       175.0004        176.0004
 -21221161.25149 -16518629.92747  20751858.481    20751859.3974   20751866.9374
       200.0004        200.0004
 21  1 31  1 47 30.0000000  0 10G17G14G07G28G08G19G30G09G21G01
 -14008047.59548 -10886299.43047  21922728.004    21922728.9484   21922732.6824
       190.0004        190.0004
  -5324628.90748  -4133586.52846  22779777.062    22779777.8194   22779781.1614
       168.0004        169.0004
 -24570910.56049 -19128526.53848  20237317.087    20237317.6214   20237322.0164
       215.0004        216.0004
  -2826388.22047  -2190600.06445  23328281.430    23328281.2094   23328287.3904
       153.0004        155.0004
  -1412567.49348  -1084342.11846  24333728.579    24333728.2594   24333738.0344
       170.0004        170.0004
  -5400649.56147  -4194972.41645  23806520.365    23806519.5874   23806523.9754
       161.0004        162.0004
 -18447103.16149 -14361197.38347  21129378.280    21129378.4014   21129384.7964
       205.0004        206.0004
  -6061939.93948  -4707235.38946  23102081.533    23102081.8504   23102089.5304
       171.0004        172.0004
  -8372439.83548  -6511017.77546  22677537.269    22677537.4804   22677543.9544
       175.0004        176.0004
 -21221072.55449 -16518560.80247  20751876.211    20751876.4374   20751884.2704
       200.0004        200.0004
 21  1 31  1 48  0.0000000  0 10G17G14G07G28G08G19G30G09G21G01
 -14043198.98148 -10913690.10947  21916039.159    21916039.5134   21916043.2484
       190.0004        190.0004
  -5355540.38048  -4157673.36946  22773894.942    22773895.3814   22773899.5244
       169.0004        170.0004
 -24586751.95849 -19140870.47948  20234302.742    20234303.1294   20234307.1284
       215.0004        216.0004
  -2847637.80747  -2207158.16445  23324241.347    23324240.1904   23324243.4124
       154.0004        157.0004
  -1320971.01248  -1012968.25146  24351159.740    24351159.4054   24351167.6684
       171.0004        173.0004
  -5475972.18947  -4253665.34645  23792186.611    23792186.2264   23792190.5114
       161.0004        162.0004
 -18512462.32049 -14412126.59147  21116940.289    21116940.5324   21116947.6914
       206.0004        206.0004
  -5981901.40948  -4644867.69146  23117313.654    23117313.5704   23117320.5724
       171.0004        173.0004
  -8305350.13348  -6458740.08446  22690303.741    22690303.4814   22690310.6884
       174.0004        175.0004
 -21220378.49049 -16518019.96847  20752008.113    20752008.4784   20752016.0954
       200.0004        200.0004
 21  1 31  1 48 30.0000000  0 10G17G14G07G28G08G19G30G09G21G01
 -14077940.28548 -10940761.23947  21909428.484    21909428.5714   21909432.8254
       190.0004        191.0004
  -5386527.89048  -4181819.48746  22767997.874    22767997.8104   22768002.8874
       169.0004        170.0004
 -24602057.85049 -19152797.13448  20231389.823    20231390.2484   20231394.7404
       215.0004        216.0004
  -2869002.25147  -2223805.77645  23320173.176    23320172.0584   23320177.1154
       153.0004        155.0004
  -1229482.99848   -941678.94546  24368569.838    24368570.1724   24368577.7724
       171.0004        172.0004
  -5551003.52347  -4312131.31645  23777908.102    23777908.1844   23777911.9154
       160.0004        161.0004
 -18577475.87249 -14462786.49547  21104568.958    21104568.8034   21104575.8054
       206.0004        207.0004
  -5901852.42948  -4582491.87746  23132545.909    23132546.0664   23132552.5144
       183.0004        187.0004
  -8237860.27648  -6406150.58846  22703148.315    22703147.3974   22703153.0044
       174.0004        175.0004
 -21219079.00749 -16517007.37847  20752255.553    20752255.5284   20752263.1394
       200.0004        200.0004
 21  1 31  1 49  0.0000000  0 10G17G14G07G28G08G19G30G09G21G01
 -14112270.86148 -10967512.31047  21902895.110    21902895.3374   21902899.6484
       190.0004        189.0004
  -5417590.65548  -4206024.21346  22762084.940    22762086.1934   22762091.3874
       167.0004        168.0004
 -24616825.81249 -19164304.63848  20228579.243    20228579.8964   20228584.4594
       215.0004        216.0004
  -2890481.07747  -2240542.52245  23316087.467    23316086.9274   23316089.6944
       152.0004        155.0004
  -1138103.81048   -870474.40146  24385958.838    24385958.4694   24385965.3544
       171.0004        171.0004
  -5625741.56447  -4370368.73146  23763686.825    23763685.6624   23763690.6364
       161.0004        163.0004
 -18642140.17849 -14513174.26847  21092263.840    21092263.7614   21092270.5974
       207.0004        207.0004
  -5821794.79948  -4520109.29046  23147780.284    23147780.7694   23147787.1394
       187.0004        187.0004
  -8169971.43648  -6353250.19946  22716066.566    22716066.6844   22716071.7644
       174.0004        174.0004
 -21217172.44549 -16515521.73847  20752617.659    20752618.1234   20752625.7364
       199.0004        199.0004
 21  1 31  1 49 30.0000000  0 11G17G14G07G28G08G19G30G22G09G21G01
 -14146191.35548 -10993943.85347  21896440.547    21896440.8684   21896445.5764
       190.0004        190.0004
  -5448729.23348  -4230288.04546  22756161.723    22756162.3934   22756166.1994
       169.0004        170.0004
 -24631055.08549 -19175392.40348  20225872.200    20225872.5314   20225876.7704
       215.0004        216.0004
  -2912075.50147  -2257369.33245  23311976.557    23311976.8344   23311981.1644
       153.0004        156.0004
  -1046835.31348   -799356.11046  24403323.262    24403324.5764   24403333.6334
       169.0004        170.0004
  -5700185.73047  -4428377.14746  23749520.892    23749519.8684   23749523.0144
       162.0004        165.0004
 -18706453.05249 -14563288.20547  21080025.186    21080025.3874   21080032.2464
       206.0004        207.0004
   2654787.73754   2109698.477 3                                  24793250.251
        74.0004         74.000
  -5741731.73949  -4457722.50247  23163015.260    23163015.9704   23163021.8684
       195.0004        200.0004
  -8101685.43848  -6300040.34646  22729060.748    22729059.6414   22729065.7654
       173.0004        173.0004
 -21214658.61249 -16513562.91247  20753095.618    20753096.9694   20753104.2174
       199.0004        200.0004
 21  1 31  1 50  0.0000000  0 11G17G14G07G28G08G19G30G22G09G21G01
 -14179701.83948 -11020055.91347  21890063.233    21890064.5314   21890068.3904
       190.0004        191.0004
  -5479943.01048  -4254610.45746  22750221.315    22750221.5054   22750227.8664
       169.0004        171.0004
 -24644742.47549 -19186057.90748  20223267.138    20223267.7974   20223271.9514
       215.0004        216.0004
  -2933785.05647  -2274285.86045  23307845.295    23307845.9054   23307850.2254
       154.0004        157.0004
   -955678.76648   -728325.05446  24420672.737    24420672.9204   24420679.6724
       170.0004        171.0004
  -5774334.52847  -4486155.45446  23735409.834    23735409.2444   23735413.2734
       162.0004        163.0004
 -18770411.08749 -14613125.63347  21067854.489    21067854.4804   21067861.1824
       206.0004        206.0004
   2654787.73744   2109698.477 4                                  24793250.251
        74.0004        111.000
  -5661665.16949  -4395332.99647  23178252.042    23178252.2964   23178259.0714
       200.0004        202.0004
  -8033003.72448  -6246522.13546  22742130.576    22742130.2374   22742135.6334
       172.0004        173.0004
 -21211536.11249 -16511129.78347  20753690.860    20753691.1574   20753698.4204
       200.0004        200.0004
 21  1 31  1 50 30.0000000  0 10G17G14G07G28G08G19G30G09G21G01
 -14212803.26648 -11045849.22147  21883765.160    21883765.1764   21883769.6254
       191.0004        191.0004
  -5511232.54148  -4278991.89846  22744267.442    22744268.0474   22744273.1544
       170.0004        172.0004
 -24657887.21249 -19196300.56648  20220766.333    20220766.4474   20220770.7234
       215.0004        216.0004
  -2955611.27647  -2291293.30845  23303694.081    23303693.8364   23303696.7484
       156.0004        159.0004
   -864635.76548   -657382.46046  24437997.071    24437997.5124   24438006.4824
       171.0004        172.0004
  -5848187.51347  -4543703.18446  23721356.751    23721356.5604   23721359.5834
       163.0004        165.0004
 -18834012.09049 -14662684.86547  21055752.482    21055751.9774   21055758.2654
       207.0004        207.0004
  -5581598.33249  -4332943.24547  23193488.362    23193488.1984   23193496.1054
       203.0004        203.0004
  -7963928.42948  -6192697.21346  22755275.255    22755274.5504   22755279.9404
       173.0004        173.0004
 -21207804.82849 -16508222.29047  20754400.224    20754400.8744   20754408.5554
       199.0004        199.0004
 21  1 31  1 51  0.0000000  0 10G17G14G07G28G08G19G30G09G21G01
 -14245496.39048 -11071324.38147  21877543.063    21877543.7554   21877547.1934
       190.0004        190.0004
  -5542598.34348  -4303432.77246  22738298.994    22738299.1354   22738303.2664
       170.0004        171.0004
 -24670488.41049 -19206119.69148  20218367.624    20218368.4404   20218372.8994
       215.0004        217.0004
  -2977555.43247  -2308392.64045  23299515.214    23299515.8704   23299521.6284
       154.0004        154.0004
   -773708.32548   -586529.92046  24455300.939    24455300.7504   24455308.6934
       170.0004        171.0004
  -5921744.08147  -4601019.98346  23707358.916    23707358.3594   23707361.9784
       162.0004        163.0004
 -18897253.83949 -14711964.14647  21043716.808    21043717.2124   21043724.2614
       207.0004        207.0004
  -5501534.29049  -4270555.68947  23208722.131    23208722.8734   23208730.8504
       201.0004        200.0004
  -7894461.63248  -6138567.23646  22768494.916    22768493.9814   22768499.1984
       172.0004        172.0004
 -21203464.58849 -16504840.27347  20755226.304    20755226.7374   20755234.5064
       199.0004        199.0004
 21  1 31  1 51 30.0000000  0 10G17G14G07G28G08G19G30G09G21G01
 -14277780.61148 -11096480.90647  21871400.260    21871400.4094   21871404.3024
       190.0004        191.0004
  -5574039.43748  -4327932.31746  22732315.121    22732316.2864   22732321.2314
       170.0004        171.0004
 -24682543.58649 -19215513.33448  20216074.371    20216074.4324   20216078.7954
       215.0004        216.0004
  -2999616.64247  -2325583.18945  23295318.133    23295318.7724   23295322.4894
       154.0004        158.0004
   -682896.96848   -515767.85546  24472581.359    24472581.4874   24472590.6964
       172.0004        174.0004
  -5995002.07047  -4658104.11946  23693419.551    23693418.7714   23693421.4114
       162.0004        164.0004
 -18960132.58949 -14760960.56847  21031751.815    21031751.9254   21031758.3554
       207.0004        207.0004
  -5421474.63849  -4208171.55047  23223958.288    23223958.3584   23223965.3134
       199.0004        198.0004
  -7824604.74848  -6084133.30046  22781788.037    22781787.6174   22781792.6274
       171.0004        172.0004
 -21198513.71849 -16500982.44547  20756168.260    20756169.1184   20756176.3774
       199.0004        199.0004
 21  1 31  1 52  0.0000000  0 11G17G14G07G28G08G19G30G22G09G21G01
 -14309657.74448 -11121320.21847  21865333.735    21865334.2464   21865338.6254
       190.0004        191.0004
  -5605556.98948  -4352491.44346  22726317.656    22726318.2654   22726323.5184
       171.0004        171.0004
 -24694052.23049 -19224481.12048  20213884.024    20213884.4124   20213888.8634
       215.0004        216.0004
  -3021796.65647  -2342866.29445  23291097.280    23291096.9844   23291102.7984
       155.0004        158.0004
   -592204.14548   -445098.13846  24489836.503    24489838.2884   24489847.5104
       169.0004        167.0004
  -6067961.94247  -4714955.94046  23679535.032    23679535.3134   23679538.7444
       161.0004        163.0004
 -19022646.86249 -14809673.00147  21019856.160    21019856.0304   21019862.1074
       207.0004        207.0004
   2654787.73754   2109698.477 4                                  24793250.251
        74.0004        110.000
  -5341423.26149  -4145793.85347  23239191.228    23239191.8554   23239198.3134
       198.0004        199.0004
  -7754360.86648  -6029397.81146  22795153.280    22795153.0804   22795158.7424
       170.0004        170.0004
 -21192952.89549 -16496649.33247  20757226.713    20757227.5794   20757234.9764
       200.0004        200.0004
 21  1 31  1 52 30.0000000  0 10G17G14G07G28G08G19G30G09G21G01
 -14341127.28048 -11145841.92447  21859345.009    21859345.5964   21859349.7624
       190.0004        191.0004
  -5637149.97348  -4377109.35746  22720306.599    22720306.1474   22720311.3484
       170.0004        170.0004
 -24705012.02549 -19233021.22148  20211798.239    20211798.6414   20211803.3824
       215.0004        216.0004
  -3044095.26147  -2360241.81245  23286856.132    23286855.6604   23286859.0004
       155.0004        157.0004
   -501630.39348   -374521.18246  24507076.843    24507076.4234   24507083.1804
       169.0004        170.0004
  -6140621.43447  -4771573.72346  23665708.680    23665707.9514   23665710.5884
       162.0004        163.0004
 -19084792.92449 -14858098.50047  21008029.693    21008029.8874   21008036.3244
       208.0004        208.0004
  -5261381.67049  -4083423.79947  23254422.898    23254423.0774   23254430.5164
       198.0004        198.0004
  -7683730.14648  -5974360.88046  22808595.216    22808594.5634   22808599.9094
       169.0004        170.0004
 -21186780.52449 -16491839.67447  20758401.610    20758402.1074   20758409.6114
       200.0004        200.0004
 21  1 31  1 53  0.0000000  0 11G17G14G07G28G08G19G30G22G09G21G01
 -14372191.44248 -11170047.75547  21853433.591    21853434.5974   21853438.2884
       191.0004        191.0004
  -5668820.19848  -4401787.44046  22714278.408    22714279.1484   22714285.3014
       168.0004        167.0004
 -24715423.11349 -19241133.77048  20209817.041    20209817.6904   20209821.7854
       215.0004        216.0004
  -3066514.37347  -2377711.24945  23282588.580    23282588.4184   23282592.0964
       154.0004        155.0004
   -411178.94948   -304039.54646  24524285.619    24524287.4954   24524295.3574
       166.0004        165.0004
  -6212981.47347  -4827958.15246  23651939.264    23651937.8184   23651942.0114
       163.0004        165.0004
 -19146569.88349 -14906236.39747  20996273.767    20996273.9894   20996280.8124
       208.0004        208.0004
   2654787.73754
        74.0004
  -5181354.28049  -4021064.82847  23269651.353    23269651.3964   23269659.2964
       198.0004        198.0004
  -7612716.46048  -5919025.53046  22822109.834    22822108.5804   22822112.5174
       169.0004        170.0004
 -21179997.88249 -16486554.49347  20759692.239    20759692.7754   20759700.1014
       200.0004        200.0004
 21  1 31  1 53 30.0000000  0 11G17G14G07G28G08G19G30G22G09G21G01
 -14402849.61948 -11193937.24247  21847600.419    21847600.3094   21847604.3174
       191.0004        191.0004
  -5700566.86948  -4426525.09246  22708237.181    22708238.0604   22708243.5784
       167.0004        169.0004
 -24725283.38449 -19248817.10048  20207940.633    20207941.3704   20207945.5124
       215.0004        216.0004
  -3089054.15247  -2395274.69345  23278299.305    23278299.4654   23278303.2164
       155.0004        157.0004
   -320850.13547   -233653.49246  24541475.264    24541476.4274   24541484.0934
       163.0004        164.0004
  -6285040.60647  -4884108.09746  23638225.713    23638225.8474   23638229.9574
       162.0004        163.0004
 -19207974.33749 -14954084.01647  20984588.667    20984588.7714   20984595.8954
       208.0004        208.0004
   2654787.73744   2109698.477 3                                  24793250.251
        74.0004         74.000
  -5101342.94349  -3958718.33247  23284877.900    23284878.4994   23284884.6494
       199.0004        201.0004
  -7541321.39348  -5863393.00146  22835694.715    22835693.0994   22835698.5014
       168.0004        169.0004
 -21172603.68949 -16480792.78047  20761098.539    20761099.3674   20761106.7674
       199.0004        199.0004
 21  1 31  1 54  0.0000000  0 11G17G14G07G28G08G19G30G22G09G21G01
 -14433102.58948 -11217510.98047  21841843.014    21841843.7354   21841848.0454
       191.0004        192.0004
  -5732389.44048  -4451321.89946  22702182.107    22702183.0634   22702187.8454
       170.0004        172.0004
 -24734590.96049 -19256069.76448  20206169.497    20206170.2184   20206174.5104
       215.0004        217.0004
  -3111714.36747  -2412932.00345  23273987.286    23273987.9914   23273990.8144
       155.0004        158.0004
   -230645.12547   -163363.89646  24558641.292    24558641.6734   24558650.8574
       164.0004        165.0004
  -6356797.27347  -4940022.40146  23624571.111    23624570.2854   23624574.5364
       162.0004        163.0004
 -19269003.08549 -15001638.89047  20972976.041    20972975.8464   20972982.2984
       208.0004        208.0004
   2654787.73746   2109698.477 3                                  24793250.251
       107.0004         74.000
  -5021349.78349  -3896385.96947  23300100.615    23300100.5044   23300106.8754
       201.0004        201.0004
  -7469545.70148  -5807463.89546  22849351.395    22849352.5064   22849356.7204
       167.0004        168.0004
 -21164596.99949 -16474553.78747  20762622.528    20762623.6794   20762630.9054
       199.0004        200.0004
 21  1 31  1 54 30.0000000  0 10G17G14G07G28G08G19G30G09G21G01
 -14462950.87948 -11240769.37047  21836163.219    21836163.5284   21836168.0784
       191.0004        191.0004
  -5764288.27148  -4476178.12046  22696112.820    22696113.2494   22696118.0914
       171.0004        173.0004
 -24743344.70949 -19262890.87348  20204503.898    20204504.6264   20204508.8244
       216.0004        217.0004
  -3134495.77047  -2430683.74345  23269652.181    23269651.9214   23269656.2414
       155.0004        158.0004
   -140565.79948    -93172.26146  24575783.173    24575783.4054   24575792.3854
       165.0004        167.0004
  -6428250.94347  -4995700.55446  23610974.278    23610973.9074   23610976.6484
       162.0004        163.0004
 -19329653.86749 -15048899.25247  20961434.321    20961434.2514   20961440.6524
       208.0004        208.0004
  -4941377.72049  -3834070.09747  23315317.211    23315317.7634   23315325.1904
       199.0004        199.0004
  -7397392.01248  -5751240.22346  22863083.352    22863082.2374   22863086.7344
       166.0004        167.0004
 -21155977.83949 -16467837.54247  20764262.691    20764263.1204   20764271.1704
       199.0004        199.0004
 21  1 31  1 55  0.0000000  0 10G17G14G07G28G08G19G30G09G21G01
 -14492395.01048 -11263712.83747  21830560.056    21830560.2604   21830565.0844
       191.0004        193.0004
  -5796263.21348  -4501093.65546  22690027.369    22690028.2734   22690033.2204
       170.0004        169.0004
 -24751543.07749 -19269279.21748  20202943.891    20202944.2984   20202948.4704
       216.0004        217.0004
  -3157398.76247  -2448530.23345  23265293.226    23265293.7014   23265297.8184
       156.0004        159.0004
    -50613.15947    -23079.32545  24592902.119    24592901.0694   24592909.1774
       162.0004        162.0004
  -6499400.47047  -5051141.73946  23597434.252    23597433.6764   23597438.5134
       161.0004        163.0004
 -19389923.96149 -15095862.95847  20949965.291    20949965.1574   20949971.7504
       208.0004        208.0004
  -4861429.24649  -3771772.59047  23330531.513    23330531.9454   23330538.5164
       199.0004        199.0004
  -7324862.17148  -5694723.45946  22876885.079    22876884.6914   22876888.6454
       166.0004        167.0004
 -21146745.62249 -16460643.60447  20766019.752    20766020.2184   20766027.5134
       199.0004        200.0004
 21  1 31  1 55 30.0000000  0 10G17G14G07G28G08G19G30G09G21G01
 -14521436.39948 -11286342.47347  21825033.457    21825033.9494   21825038.7274
       192.0004        193.0004
  -5828314.97548  -4526069.06846  22683928.434    22683928.7024   22683933.7144
       168.0004        169.0004
 -24759186.05149 -19275234.78448  20201489.441    20201490.0674   20201493.9004
       215.0004        217.0004
  -3180424.84347  -2466472.63045  23260911.869    23260911.9324   23260915.8924
       156.0004        158.0004
     39211.01847     46913.52946  24609994.297    24609994.7664   24610002.8874
       163.0004        165.0004
  -6570246.01147  -5106346.05546  23583952.128    23583952.1914   23583956.6664
       162.0004        164.0004
 -19449811.47849 -15142528.55347  20938569.178    20938569.0574   20938575.6464
       208.0004        209.0004
  -4781507.71549  -3709496.06847  23345739.828    23345740.1594   23345747.3804
       198.0004        198.0004
  -7251959.02648  -5637915.80446  22890757.542    22890757.2924   22890761.6324
       165.0004        166.0004
 -21136900.84349 -16452972.33347  20767892.792    20767893.1094   20767901.3344
       199.0004        199.0004
 21  1 31  1 56  0.0000000  0 10G17G14G07G28G08G19G30G09G21G01
 -14550074.71648 -11308658.04347  21819583.915    21819584.1184   21819588.5104
       193.0004        193.0004
  -5860442.51548  -4551103.49746  22677814.052    22677814.6084   22677819.2344
       168.0004        169.0004
 -24766270.94849 -19280755.49348  20200141.472    20200141.7034   20200146.2514
       216.0004        217.0004
  -3203573.35847  -2484510.42345  23256506.727    23256506.4114   23256510.1524
       157.0004        160.0004
    128905.92247    116805.64745  24627059.265    24627060.5764   24627071.7704
       160.0004        162.0004
  -6640785.82647  -5161312.13446  23570530.050    23570529.3834   23570533.8714
       163.0004        165.0004
 -19509312.79749 -15188893.22747  20927246.442    20927246.3934   20927252.9144
       208.0004        209.0004
  -4701614.69249  -3647241.77247  23360942.749    23360943.1514   23360950.2804
       198.0004        198.0004
  -7178683.28048  -5580817.82146  22904702.275    22904702.4394   22904705.2054
       165.0004        166.0004
 -21126442.15649 -16444822.70347  20769883.167    20769884.0214   20769890.9944
       199.0004        199.0004
 21  1 31  1 56 30.0000000  0 10G17G14G07G28G08G19G30G09G21G01
 -14578311.02948 -11330660.37347  21814210.040    21814210.8604   21814215.2974
       193.0004        192.0004
  -5892646.11048  -4576197.20446  22671685.674    22671687.0054   22671691.8244
       169.0004        172.0004
 -24772796.61049 -19285840.43148  20198899.528    20198900.1174   20198904.1744
       216.0004        217.0004
  -3226845.26447  -2502644.36845  23252078.368    23252078.5604   23252083.4264
       158.0004        161.0004
    218469.74747    186595.59346  24644103.558    24644104.4604   24644113.7804
       164.0004        166.0004
  -6711019.16347  -5216039.40546  23557165.035    23557164.5394   23557168.5004
       163.0004        165.0004
 -19568425.67949 -15234955.22347  20915997.036    20915997.2274   20916004.2404
       208.0004        208.0004
  -4621753.12149  -3585011.99147  23376140.746    23376140.7564   23376147.5784
       198.0004        199.0004
  -7105037.60648  -5523431.58846  22918716.601    22918716.3684   22918719.7324
       165.0004        167.0004
 -21115369.66949 -16436194.78947  20771989.489    20771990.2784   20771998.2244
       199.0004        199.0004
 21  1 31  1 57  0.0000000  0 10G17G14G07G28G08G19G30G09G21G01
 -14606146.57948 -11352350.39647  21808913.745    21808913.9274   21808918.4384
       192.0004        192.0004
  -5924926.29948  -4601350.60446  22665544.578    22665544.9814   22665549.3094
       172.0004        174.0004
 -24778762.81749 -19290489.42948  20197764.746    20197765.0494   20197768.6684
       216.0004        217.0004
  -3250241.82947  -2520875.44045  23247627.244    23247627.0444   23247630.5804
       159.0004        161.0004
    307901.13857    256282.38246  24661119.859    24661122.5785   24661132.7214
       162.0004        163.0004
  -6780946.10847  -5270527.93146  23543858.045    23543858.2954   23543862.1334
       162.0004        164.0004
 -19627148.12349 -15280712.96447  20904823.238    20904822.8434   20904829.8574
       208.0004        208.0004
  -4541926.22849  -3522809.21947  23391332.229    23391332.1204   23391337.8034
       199.0004        199.0004
  -7031024.61148  -5465759.11746  22932800.648    22932799.7814   22932803.9134
       165.0004        166.0004
 -21103683.75949 -16427088.86447  20774214.012    20774214.2094   20774221.8784
       198.0004        199.0004
 21  1 31  1 57 30.0000000  0 10G17G14G07G28G08G19G30G09G21G01
 -14633582.05848 -11373728.67547  21803692.611    21803692.9554   21803697.8454
       192.0004        193.0004
  -5957283.01448  -4626563.61646  22659386.646    22659387.9174   22659392.3884
       175.0004        177.0004
 -24784168.24549 -19294701.44548  20196734.950    20196735.6994   20196740.5304
       215.0004        217.0004
  -3273763.02247  -2539203.63345  23243150.103    23243150.1424   23243153.7744
       159.0004        161.0004
    397198.27248    325864.54846  24678118.974    24678118.5984   24678124.7024
       166.0004        169.0004
  -6850565.64347  -5324776.89545  23530610.382    23530610.1824   23530613.0464
       161.0004        162.0004
 -19685477.65349 -15326164.55047  20893723.542    20893723.4534   20893729.9974
       209.0004        209.0004
  -4462136.51349  -3460635.41047  23406514.101    23406515.0724   23406520.3624
       198.0004        197.0004
  -6956645.86848  -5407801.65046  22946955.054    22946955.1464   22946958.5314
       165.0004        167.0004
 -21091384.17049 -16417504.76147  20776554.121    20776554.8384   20776562.7274
       198.0004        199.0004
 21  1 31  1 58  0.0000000  0 10G17G14G07G28G08G19G30G09G21G01
 -14660619.20048 -11394796.56447  21798547.934    21798548.5714   21798552.9474
       193.0004        194.0004
  -5989717.21148  -4651837.01346  22653215.390    22653215.5284   22653220.1934
       176.0004        176.0004
 -24789012.88249 -19298476.49548  20195813.452    20195813.8974   20195818.5934
       215.0004        217.0004
  -3297410.39447  -2557630.16945  23238650.701    23238651.1564   23238653.7024
       159.0004        160.0004
    486358.71948    395340.19546  24695084.188    24695084.1604   24695091.8084
       167.0004        168.0004
  -6919878.04247  -5378786.57045  23517420.113    23517420.3104   23517423.5984
       160.0004        161.0004
 -19743412.68749 -15371308.73647  20882698.250    20882698.3284   20882705.0884
       208.0004        208.0004
  -4382387.65549  -3398493.44847  23421689.869    23421690.8914   23421697.0494
       197.0004        197.0004
  -6881904.59248  -5349561.69846  22961177.522    22961177.8494   22961182.3194
       165.0004        167.0004
 -21078471.79649 -16407443.16547  20779012.141    20779012.5074   20779019.6324
       199.0004        200.0004
 21  1 31  1 58 30.0000000  0 11G17G14G07G28G08G19G30G22G09G21G01
 -14687257.15348 -11415553.40747  21793479.092    21793479.5204   21793484.1234
       194.0004        195.0004
  -6022227.36448  -4677169.60346  22647028.366    22647029.3014   22647033.7574
       176.0004        175.0004
 -24793294.03649 -19301812.46748  20194999.332    20194999.4654   20195003.3684
       215.0004        216.0004
  -3321183.14847  -2576154.36545  23234126.537    23234126.9804   23234131.7504
       158.0004        161.0004
    575382.96248    464709.72046  24712022.639    24712023.8544   24712032.3834
       165.0004        166.0004
  -6988880.97047  -5432555.07446  23504289.764    23504289.3414   23504293.4224
       161.0004        164.0004
 -19800949.22149 -15416142.40547  20871749.457    20871749.4334   20871756.5664
       208.0004        209.0004
   2654787.73754   2109698.47745                                  24793250.2514
        74.0004        140.0004
  -4302680.65449  -3336384.09047  23436857.093    23436858.0474   23436865.4064
       196.0004        196.0004
  -6806801.65148  -5291039.92046  22975469.137    22975467.9274   22975473.7564
       166.0004        168.0004
 -21064945.06649 -16396902.84647  20781585.429    20781586.3244   20781593.5054
       199.0004        199.0004
 21  1 31  1 59  0.0000000  0 11G17G14G07G28G08G19G30G22G09G21G01
 -14713497.31148 -11436000.28147  21788486.019    21788486.6574   21788489.7374
       194.0004        193.0004
  -6054813.70248  -4702561.55146  22640827.252    22640827.8494   22640832.3584
       175.0004        175.0004
 -24797010.78849 -19304708.64948  20194291.500    20194292.1564   20194296.2564
       215.0004        217.0004
  -3345082.00047  -2594776.85446  23229580.236    23229578.9014   23229583.4514
       160.0004        163.0004
    664268.89247    533971.48445  24728937.677    24728937.2964   24728946.1774
       162.0004        162.0004
  -7057574.22247  -5486082.28446  23491217.827    23491217.7854   23491220.1124
       162.0004        164.0004
 -19858085.02549 -15460663.81147  20860877.190    20860877.0884   20860884.1904
       209.0004        209.0004
   2654787.73744   2109698.47745                                  24793250.2514
        74.0004        143.0004
  -4223018.44749  -3274309.65747  23452016.830    23452017.3514   23452024.4934
       197.0004        197.0004
  -6731339.24548  -5232238.06146  22989829.249    22989829.5074   22989833.9444
       166.0004        168.0004
 -21050804.20149 -16385883.98347  20784276.613    20784276.9444   20784284.8324
       199.0004        199.0004
 21  1 31  1 59 30.0000000  0 10G17G14G07G28G08G19G30G09G21G01
 -14739340.20648 -11456137.59447  21783567.289    21783567.9364   21783572.0984
       192.0004        192.0004
  -6087475.91548  -4728012.60146  22634611.286    22634611.8224   22634617.1834
       174.0004        174.0004
 -24800161.85749 -19307164.02648  20193692.415    20193692.6384   20193697.0584
       216.0004        217.0004
  -3369107.14547  -2613497.74446  23225006.393    23225007.2134   23225011.8744
       160.0004        163.0004
    753015.70347    603124.74046  24745827.474    24745827.3904   24745833.7674
       162.0004        163.0004
  -7125956.99347  -5539367.54346  23478205.209    23478204.7994   23478208.4374
       162.0004        164.0004
 -19914817.40949 -15504870.85747  20850080.652    20850080.8904   20850088.0454
       208.0004        208.0004
  -4143403.41649  -3212271.95747  23467168.065    23467168.0444   23467175.2014
       198.0004        200.0004
  -6655519.32848  -5173157.59046  23004257.748    23004256.7954   23004262.0904
       167.0004        168.0004
 -21036048.93449 -16374386.36147  20787084.390    20787084.9244   20787092.3644
       198.0004        198.0004
 21  1 31  2  0  0.0000000  0  9G17G14G07G28G19G30G09G21G01
 -14764785.58148 -11475965.15047  21778725.533    21778725.7994   21778730.1574
       192.0004        193.0004
  -6120212.56848  -4753521.68746  22628382.382    22628383.0544   22628386.4964
       174.0004        175.0004
 -24802745.14249 -19309176.98648  20193200.273    20193201.0424   20193205.0134
       215.0004        216.0004
  -3393257.84647  -2632316.45145  23220410.786    23220410.8504   23220416.8104
       160.0004        162.0004
  -7194027.52147  -5592409.50546  23465251.460    23465249.9244   23465254.8164
       162.0004        164.0004
 -19971142.57549 -15548760.60647  20839362.971    20839362.8534   20839369.2484
       208.0004        208.0004
  -4063836.83849  -3150272.03047  23482308.514    23482308.9754   23482315.9444
       199.0004        198.0004
  -6579342.99848  -5113799.41446  23018753.574    23018752.6474   23018758.2194
       167.0004        169.0004
 -21020677.92449 -16362408.93947  20790009.466    20790009.6604   20790017.5664
       198.0004        199.0004
 21  1 31  2  0 30.0000000  0  9G17G14G07G28G19G30G09G21G01
 -14789835.61748 -11495484.64647  21773958.300    21773959.2964   21773963.2634
       193.0004        193.0004
  -6153025.58348  -4779090.26846  22622138.159    22622138.9394   22622142.8704
       176.0004        177.0004
 -24804761.61949 -19310748.26748  20192817.255    20192817.6014   20192821.5104
       215.0004        216.0004
  -3417536.28447  -2651234.71745  23215791.405    23215792.1004   23215794.7634
       159.0004        161.0004
  -7261786.76647  -5645208.91246  23452358.034    23452357.1954   23452360.3744
       163.0004        167.0004
 -20027060.00649 -15592332.62947  20828721.637    20828721.7124   20828729.0444
       208.0004        208.0004
  -3984323.20749  -3088313.34147  23497438.189    23497439.3214   23497446.5714
       196.0004        193.0004
  -6502813.74048  -5054166.22646  23033315.893    23033314.9244   23033320.6574
       167.0004        168.0004
 -21004693.19249 -16349953.29447  20793051.372    20793051.8944   20793059.5784
       199.0004        199.0004
 21  1 31  2  1  0.0000000  0  9G17G14G07G28G19G30G09G21G01
 -14814491.42548 -11514696.94447  21769267.494    21769267.4894   21769271.6374
       194.0004        194.0004
  -6185914.29348  -4804717.81446  22615878.995    22615880.3084   22615885.3684
       177.0004        178.0004
 -24806209.69749 -19311876.64248  20192541.256    20192541.7004   20192545.9184
       215.0004        217.0004
  -3441942.54347  -2670252.59345  23211147.159    23211147.2834   23211150.1064
       159.0004        160.0004
  -7329233.56147  -5697764.83646  23439522.082    23439521.5824   23439525.5994
       163.0004        165.0004
 -20082566.70449 -15635584.59047  20818158.985    20818159.1574   20818166.2774
       208.0004        208.0004
  -3904864.44248  -3026397.40447  23512559.477    23512559.7844   23512566.3084
       192.0004        191.0004
  -6425933.34248  -4994259.42146  23047946.089    23047945.0324   23047951.1424
       167.0004        168.0004
 -20988094.25949 -16337019.04847  20796210.190    20796210.8314   20796217.6294
       199.0004        199.0004
 21  1 31  2  1 30.0000000  0  9G17G14G07G28G19G30G09G21G01
 -14838754.01548 -11533602.85347  21764650.098    21764650.4074   21764654.7074
       194.0004        195.0004
  -6218879.17848  -4830404.74246  22609606.539    22609606.5894   22609611.9024
       177.0004        178.0004
 -24807088.66249 -19312561.55548  20192373.579    20192374.2114   20192378.6564
       215.0004        216.0004
  -3466477.46047  -2689370.69845  23206477.359    23206477.8164   23206482.8614
       159.0004        162.0004
  -7396367.96247  -5750077.33646  23426747.617    23426745.9944   23426750.3074
       163.0004        164.0004
 -20137660.82849 -15678515.07947  20807675.207    20807675.1564   20807682.4334
       208.0004        208.0004
  -3825463.85648  -2964526.83347  23527669.357    23527669.8264   23527676.5284
       192.0004        193.0004
  -6348704.91048  -4934081.42546  23062642.956    23062642.1954   23062646.3454
       167.0004        167.0004
 -20970881.81749 -16323606.74447  20799484.759    20799485.4524   20799493.5744
       198.0004        198.0004
 21  1 31  2  2  0.0000000  0  9G17G14G07G28G19G30G09G21G01
 -14862624.10448 -11552202.92247  21760107.366    21760108.3314   21760112.3144
       194.0004        195.0004
  -6251919.77148  -4856150.64846  22603318.278    22603318.9184   22603323.8744
       176.0004        175.0004
 -24807397.45249 -19312802.18048  20192315.283    20192315.7154   20192320.0674
       215.0004        216.0004
  -3491141.22847  -2708589.21145  23201784.360    23201784.6184   23201789.0314
       158.0004        161.0004
  -7463188.87147  -5802145.57746  23414031.310    23414031.1434   23414035.3204
       163.0004        165.0004
 -20192339.57549 -15721121.89847  20797269.994    20797270.1054   20797277.4154
       208.0004        209.0004
  -3746123.52648  -2902703.19947  23542766.762    23542767.2864   23542775.0054
       192.0004        193.0004
  -6271130.20248  -4873633.59746  23077404.749    23077404.0284   23077408.1714
       167.0004        168.0004
 -20953055.56649 -16309716.15647  20802877.493    20802878.2184   20802885.5614
       199.0004        199.0004
 21  1 31  2  2 30.0000000  0  9G17G14G07G28G19G30G09G21G01
 -14886102.27648 -11570497.60047  21755639.670    21755640.4224   21755643.9914
       194.0004        195.0004
  -6285035.48948  -4881955.11046  22597018.008    22597017.6584   22597022.3904
       174.0004        174.0004
 -24807134.72849 -19312597.47148  20192365.574    20192365.9054   20192369.7154
       215.0004        217.0004
  -3515933.76947  -2727908.06945  23197066.983    23197066.0634   23197070.1184
       158.0004        160.0004
  -7529695.31147  -5853968.77646  23401375.694    23401375.3354   23401378.7414
       162.0004        164.0004
 -20246600.08349 -15763402.80947  20786944.620    20786944.6284   20786952.3394
       208.0004        209.0004
  -3666845.53048  -2840928.14447  23557853.106    23557853.6344   23557860.8014
       193.0004        193.0004
  -6193210.86948  -4812917.23046  23092231.346    23092230.3314   23092235.8414
       165.0004        167.0004
 -20934615.30049 -16295347.10347  20806386.748    20806387.1574   20806395.0234
       198.0004        199.0004
 21  1 31  2  3  0.0000000  0  9G17G14G07G28G19G30G09G21G01
 -14909189.21248 -11588487.40947  21751247.075    21751247.0904   21751251.2524
       194.0004        195.0004
  -6318225.84948  -4907817.73546  22590702.759    22590703.5444   22590705.7914
       175.0004        176.0004
 -24806299.63749 -19311946.76348  20192523.822    20192524.5074   20192528.5004
       215.0004        216.0004
  -3540855.18847  -2747327.36145  23192324.550    23192324.5604   23192328.6424
       157.0004        160.0004
  -7595886.60847  -5905546.39246  23388781.313    23388779.8004   23388784.0474
       164.0004        166.0004
 -20300439.59049 -15805355.68547  20776699.580    20776699.9124   20776706.3164
       208.0004        209.0004
  -3587632.11948  -2779203.41447  23572927.212    23572927.0274   23572934.7754
       192.0004        192.0004
  -6114948.57348  -4751933.64246  23107123.765    23107122.7854   23107129.0934
       165.0004        165.0004
 -20915560.81249 -16280499.44347  20810012.188    20810013.0134   20810020.6194
       198.0004        199.0004
 21  1 31  2  3 30.0000000  0  9G17G14G07G28G19G30G09G21G01
 -14931886.75448 -11606173.78347  21746926.971    21746927.2474   21746932.1564
       194.0004        195.0004
  -6351491.90348  -4933739.33146  22584371.178    22584372.2274   22584375.3474
       176.0004        176.0004
 -24804892.30949 -19310850.14748  20192792.080    20192792.4454   20192796.7654
       215.0004        217.0004
  -3565906.99047  -2766848.24846  23187558.045    23187558.3694   23187561.6124
       160.0004        163.0004
  -7661762.81047  -5956878.49346  23376243.644    23376243.8024   23376248.1074
       163.0004        164.0004
 -20353856.91149 -15846979.57447  20766534.394    20766534.3024   20766541.1764
       208.0004        209.0004
  -3508486.95248  -2717531.85247  23587987.911    23587988.1894   23587994.7434
       192.0004        193.0004
  -6036346.26847  -4690685.10146  23122081.528    23122081.4714   23122086.0984
       164.0004        166.0004
 -20895893.52949 -16265174.27647  20813754.303    20813755.6554   20813763.0084
       198.0004        198.0004
 21  1 31  2  4  0.0000000  0  9G17G14G07G28G19G30G09G21G01
 -14954194.76049 -11623556.64547  21742682.076    21742682.6034   21742686.7644
       195.0004        195.0004
  -6384832.60948  -4959719.11046  22578025.832    22578027.4494   22578032.3804
       175.0004        176.0004
 -24802910.90449 -19309306.20348  20193169.156    20193169.6004   20193173.7884
       215.0004        216.0004
  -3591089.13447  -2786470.70245  23182764.692    23182765.5334   23182769.6184
       160.0004        161.0004
  -7727322.83847  -6007964.21745  23363768.572    23363767.3504   23363771.2674
       161.0004        161.0004
 -20406848.82049 -15888271.96847  20756450.186    20756450.4194   20756457.3884
       208.0004        208.0004
  -3429411.77548  -2655914.84847  23603035.249    23603035.8294   23603042.3354
       193.0004        193.0004
  -5957406.05548  -4629173.25246  23137104.662    23137103.4394   23137106.8484
       165.0004        165.0004
 -20875612.90949 -16249371.18047  20817614.420    20817614.7584   20817622.7044
       198.0004        198.0004
 21  1 31  2  4 30.0000000  0  9G17G14G07G28G19G30G09G21G01
 -14976115.27749 -11640637.55347  21738510.995    21738511.2944   21738515.7944
       196.0004        196.0004
  -6418247.96548  -4985757.03646  22571667.373    22571667.8854   22571673.0364
       175.0004        176.0004
 -24800354.75249 -19307314.40248  20193655.251    20193655.6114   20193659.9474
       215.0004        216.0004
  -3616401.57247  -2806194.64846  23177947.894    23177948.7824   23177952.9804
       160.0004        163.0004
  -7792566.39847  -6058803.32246  23351354.638    23351353.3024   23351356.6464
       161.0004        163.0004
 -20459413.07049 -15929231.11747  20746446.895    20746447.4564   20746454.7874
       208.0004        208.0004
  -3350409.18548  -2594354.36847  23618068.702    23618068.9754   23618077.0604
       191.0004        190.0004
  -5878130.11547  -4567399.77846  23152190.299    23152189.7034   23152192.0944
       163.0004        165.0004
 -20854719.30749 -16233090.44747  20821589.741    20821590.6904   20821598.4844
       198.0004        198.0004
 21  1 31  2  5  0.0000000  0  9G17G14G07G28G19G30G09G21G01
 -14997649.50149 -11657417.45847  21734412.940    21734413.4304   21734417.6384
       195.0004        195.0004
  -6451738.23548  -5011853.34946  22565295.600    22565295.8244   22565299.9134
       177.0004        177.0004
 -24797223.94549 -19304874.82048  20194251.363    20194251.7334   20194255.6754
       215.0004        216.0004
  -3641845.41247  -2826021.04145  23173105.969    23173106.5324   23173111.1474
       160.0004        161.0004
  -7857493.78547  -6109396.07946  23338997.432    23338996.9834   23339000.6184
       161.0004        163.0004
 -20511547.78149 -15969855.57147  20736526.873    20736526.6504   20736533.6144
       208.0004        209.0004
  -3271482.04748  -2532852.71447  23633090.002    23633089.4484   23633096.2234
       190.0004        191.0004
  -5798521.45247  -4505367.05646  23167337.933    23167338.0584   23167341.3194
       162.0004        163.0004
 -20833213.54949 -16216332.70547  20825683.414    20825683.3914   20825690.0044
       198.0004        197.0004
 21  1 31  2  5 30.0000000  0  9G17G14G07G28G19G30G09G21G01
 -15018797.45349 -11673896.36747  21730388.420    21730388.8044   21730393.4964
       195.0004        195.0004
  -6485302.61548  -5038007.40246  22558907.668    22558908.0924   22558912.8054
       177.0004        177.0004
 -24793516.62049 -19301986.00248  20194957.101    20194957.2934   20194961.5884
       215.0004        216.0004
  -3667420.23547  -2845949.47645  23168239.276    23168239.8854   23168243.5314
       159.0004        161.0004
  -7922103.31747  -6159741.16346  23326703.722    23326703.0434   23326706.5014
       162.0004        164.0004
 -20563249.88249 -16010142.92647  20726688.248    20726688.3154   20726695.0224
       209.0004        210.0004
  -3192632.34348  -2471411.40347  23648093.378    23648093.3104   23648099.7734
       190.0004        189.0004
  -5718581.15047  -4443075.92246  23182551.112    23182550.8404   23182553.5474
       161.0004        163.0004
 -20811095.30149 -16199097.69747  20829890.752    20829891.9004   20829899.3664
       197.0004        197.0004
 21  1 31  2  6  0.0000000  0  9G17G14G07G28G19G30G09G21G01
 -15039560.00849 -11690074.98247  21726438.529    21726438.4494   21726442.9824
       195.0004        196.0004
  -6518940.56948  -5064218.80246  22552506.968    22552507.5234   22552511.6694
       177.0004        178.0004
 -24789232.21949 -19298647.52048  20195771.832    20195772.5314   20195776.5104
       215.0004        216.0004
  -3693126.08147  -2865979.98845  23163347.463    23163346.5764   23163352.2454
       158.0004        160.0004
  -7986394.44447  -6209838.10646  23314468.490    23314468.4464   23314472.4574
       162.0004        164.0004
 -20614516.87349 -16050091.23947  20716932.927    20716932.9254   20716939.8904
       210.0004        210.0004
  -3113862.23048  -2410032.11347  23663082.623    23663082.8864   23663090.0494
       190.0004        191.0004
  -5638311.28747  -4380527.96946  23197825.870    23197825.1464   23197828.7784
       163.0004        165.0004
 -20788364.70149 -16181385.54147  20834216.969    20834217.2154   20834225.4914
       198.0004        198.0004
 21  1 31  2  6 30.0000000  0  9G17G14G07G28G19G30G09G21G01
 -15059938.87849 -11705954.60547  21722560.321    21722560.6584   21722564.9284
       196.0004        196.0004
  -6552652.27148  -5090487.65846  22546092.146    22546092.7034   22546096.4114
       179.0004        179.0004
 -24784370.28349 -19294859.00248  20196697.213    20196697.7434   20196701.9484
       215.0004        216.0004
  -3718963.75647  -2886113.23545  23158431.285    23158430.5444   23158435.6334
       159.0004        161.0004
  -8050366.94047  -6259686.79846  23302294.136    23302293.9634   23302298.9004
       162.0004        163.0004
 -20665346.75749 -16089698.93447  20707259.700    20707259.9524   20707267.1874
       210.0004        210.0004
  -3035174.51248  -2348716.99147  23678056.840    23678056.5794   23678063.6274
       191.0004        191.0004
  -5557714.65947  -4317725.39546  23213162.742    23213162.6034   23213166.8224
       163.0004        164.0004
 -20765022.48549 -16163196.78847  20838658.936    20838659.3994   20838667.2664
       198.0004        198.0004
 21  1 31  2  7  0.0000000  0 10G17G14G07G28G19G30G22G09G21G01
 -15079935.88249 -11721536.66347  21718754.752    21718755.6564   21718759.3354
       196.0004        197.0004
  -6586438.27748  -5116814.38346  22539661.636    22539662.4014   22539667.6404
       178.0004        178.0004
 -24778931.39349 -19290620.91448  20197731.982    20197732.4964   20197736.7534
       215.0004        217.0004
  -3744934.48847  -2906350.18345  23153489.557    23153490.0794   23153492.6774
       159.0004        161.0004
  -8114021.50547  -6309287.75346  23290183.501    23290182.3614   23290186.5874
       162.0004        164.0004
 -20715737.99849 -16128964.83547  20697670.858    20697671.0244   20697677.8734
       210.0004        211.0004
  -1037728.70556   -799426.43045  24786886.791    24786886.7855   24786891.3044
       134.0004        139.0004
  -2956572.39248  -2287468.59247  23693014.395    23693014.3824   23693021.5644
       190.0004        189.0004
  -5476794.05747  -4254670.36646  23228560.586    23228560.8264   23228565.6964
       162.0004        163.0004
 -20741069.89149 -16144532.42447  20843217.580    20843217.6154   20843224.9004
       198.0004        197.0004
 21  1 31  2  7 30.0000000  0 10G17G14G07G28G19G30G22G09G21G01
 -15099551.66449 -11736821.67947  21715021.891    21715022.2874   21715026.0774
       196.0004        195.0004
  -6620298.29048  -5143198.82546  22533219.572    22533219.9764   22533223.4484
       178.0004        178.0004
 -24772914.26249 -19285932.23748  20198877.348    20198877.4714   20198882.2594
       215.0004        217.0004
  -3771038.27047  -2926690.79745  23148522.123    23148522.4904   23148526.3154
       159.0004        161.0004
  -8177357.18347  -6358640.20746  23278130.344    23278129.8144   23278132.7424
       162.0004        163.0004
 -20765688.25849 -16167887.12347  20688165.918    20688165.6794   20688172.8014
       211.0004        211.0004
  -1060228.60246   -816958.84045  24782605.050    24782605.5824   24782607.6614
       134.0004        140.0004
  -2878058.38748  -2226288.86247  23707954.388    23707954.6154   23707961.2994
       188.0004        188.0004
  -5395551.92147  -4191364.82646  23244019.654    23244020.1224   23244025.1604
       162.0004        164.0004
 -20716507.36349 -16125392.77947  20847891.088    20847891.8544   20847898.8754
       197.0004        197.0004
 21  1 31  2  8  0.0000000  0 10G17G14G07G28G19G30G22G09G21G01
 -15118785.56949 -11751809.13947  21711361.292    21711361.8274   21711366.1914
       195.0004        194.0004
  -6654229.82548  -5169638.99546  22526761.905    22526763.1924   22526767.7354
       178.0004        178.0004
 -24766315.99649 -19280790.73648  20200133.104    20200133.3274   20200137.6594
       215.0004        216.0004
  -3797273.04347  -2947133.47845  23143529.736    23143529.7194   23143533.6904
       160.0004        161.0004
  -8240371.43347  -6407742.19646  23266138.637    23266137.7734   23266141.7624
       161.0004        163.0004
 -20815192.98449 -16206462.23247  20678745.235    20678745.2994   20678752.3634
       211.0004        211.0004
  -1082632.48646   -834416.40645  24778339.527    24778340.6374   24778341.9824
       133.0004        139.0004
  -2799632.53948  -2165177.78147  23722876.573    23722877.3804   23722886.2204
       187.0004        188.0004
  -5313988.26447  -4127808.72146  23259541.391    23259541.2084   23259547.9424
       163.0004        165.0004
 -20691333.07349 -16105776.44147  20852681.169    20852682.1184   20852689.6254
       197.0004        198.0004
 21  1 31  2  8 30.0000000  0 10G17G14G07G28G19G30G22G09G21G01
 -15137639.59349 -11766500.59047  21707773.936    21707774.5064   21707778.8674
       195.0004        195.0004
  -6688233.45348  -5196135.30046  22520291.455    22520292.2264   22520297.1524
       178.0004        178.0004
 -24759137.08249 -19275196.78448  20201499.412    20201499.8534   20201503.6444
       215.0004        216.0004
  -3823639.93647  -2967679.11545  23138512.449    23138512.0674   23138515.9994
       160.0004        161.0004
  -8303064.73447  -6456594.12046  23254209.513    23254208.3584   23254211.9814
       162.0004        164.0004
 -20864250.75249 -16244689.06147  20669410.196    20669410.2034   20669416.6894
       211.0004        212.0004
  -1104938.73346   -851797.86345  24774096.481    24774095.5304   24774098.2154
       134.0004        142.0004
  -2721298.23548  -2104138.08847  23737784.650    23737784.9794   23737792.0334
       188.0004        189.0004
  -5232106.01147  -4064004.38646  23275124.568    23275124.0154   23275129.4454
       164.0004        166.0004
 -20665548.43149 -16085684.50847  20857588.085    20857588.7004   20857595.9854
       197.0004        197.0004
 21  1 31  2  9  0.0000000  0 10G17G14G07G28G19G30G22G09G21G01
 -15156115.22449 -11780897.17647  21704258.298    21704258.4344   21704262.5364
       195.0004        195.0004
  -6722309.35948  -5222687.95046  22513806.844    22513807.3294   22513811.8354
       178.0004        178.0004
 -24751377.74049 -19269150.54848  20202975.814    20202976.0134   20202980.0774
       215.0004        216.0004
  -3850139.91147  -2988328.41645  23133469.065    23133467.9384   23133474.0084
       159.0004        160.0004
  -8365437.22047  -6505196.05346  23242338.995    23242338.6224   23242342.6124
       163.0004        165.0004
 -20912859.79549 -16282566.24447  20660160.493    20660160.6754   20660166.8664
       212.0004        212.0004
  -1127145.53447   -869101.86445  24769871.183    24769870.6084   24769873.3664
       136.0004        142.0004
  -2643058.29648  -2043171.91147  23752673.539    23752673.6814   23752680.8044
       188.0004        188.0004
  -5149908.37547  -3999954.29246  23290763.804    23290764.2224   23290770.4774
       163.0004        163.0004
 -20639154.47949 -16065117.78347  20862610.764    20862611.3194   20862618.3254
       197.0004        197.0004
 21  1 31  2  9 30.0000000  0 10G17G14G07G28G19G30G22G09G21G01
 -15174213.21448 -11794999.49247  21700813.778    21700814.7814   21700818.7254
       194.0004        195.0004
  -6756457.06348  -5249296.56346  22507308.702    22507309.5424   22507314.4514
       179.0004        179.0004
 -24743036.86049 -19262651.15848  20204562.449    20204562.9634   20204567.3524
       215.0004        216.0004
  -3876773.05047  -3009081.48845  23128401.235    23128401.2354   23128405.5054
       159.0004        161.0004
  -8427488.29248  -6553547.52146  23230533.097    23230531.7604   23230534.4624
       166.0004        167.0004
 -20961017.65349 -16320091.84347  20650996.130    20650995.8614   20651002.8824
       212.0004        212.0004
  -1149250.36647   -886326.42245  24765661.674    24765662.3514   24765666.5634
       135.0004        140.0004
  -2564915.04248  -1982281.04247  23767544.283    23767544.5694   23767550.7534
       188.0004        189.0004
  -5067397.40747  -3935660.04545  23306464.945    23306466.2114   23306472.2764
       161.0004        162.0004
 -20612151.56649 -16044076.53547  20867749.603    20867749.8984   20867756.8224
       197.0004        197.0004
 21  1 31  2 10  0.0000000  0 10G17G14G07G28G19G30G22G09G21G01
 -15191935.25148 -11808808.84947  21697441.610    21697442.3854   21697445.9854
       194.0004        195.0004
  -6790676.72048  -5275961.24046  22500797.259    22500798.0574   22500802.7174
       179.0004        179.0004
 -24734114.66449 -19255698.80648  20206260.927    20206261.2384   20206265.1594
       215.0004        216.0004
  -3903539.99547  -3029938.85545  23123308.015    23123308.6034   23123312.7584
       160.0004        162.0004
  -8489218.09947  -6601648.65546  23218783.287    23218782.7454   23218787.5224
       163.0004        163.0004
 -21008722.56649 -16357264.50947  20641917.502    20641917.9154   20641924.6344
       212.0004        212.0004
  -1171251.32447   -903470.05045  24761477.769    24761476.9034   24761480.6884
       135.0004        140.0004
  -2486871.21648  -1921467.66446  23782393.555    23782394.4054   23782402.7424
       187.0004        187.0004
  -4984575.50747  -3871123.50446  23322228.979    23322227.2434   23322232.5354
       162.0004        164.0004
 -20584540.84649 -16022561.68347  20873002.945    20873003.7794   20873011.3324
       197.0004        197.0004
 21  1 31  2 10 30.0000000  0 10G17G14G07G28G19G30G22G09G21G01
 -15209282.84648 -11822326.45647  21694140.503    21694140.6964   21694144.7394
       194.0004        194.0004
  -6824967.85548  -5302681.60946  22494271.238    22494272.4904   22494277.0124
       178.0004        177.0004
 -24724610.47549 -19248292.94948  20208069.252    20208069.8854   20208073.7314
       215.0004        216.0004
  -3930440.75647  -3050900.48446  23118188.640    23118189.3664   23118193.4704
       161.0004        163.0004
  -8550626.09647  -6649499.03546  23207099.356    23207098.5984   23207102.1214
       164.0004        167.0004
 -21055972.12449 -16394082.34947  20632926.446    20632926.6174   20632933.6794
       212.0004        212.0004
  -1193146.16347   -920530.94045  24757313.628    24757311.5654   24757313.9464
       136.0004        143.0004
  -2408928.97448  -1860733.46447  23797227.368    23797227.4074   23797233.7574
       189.0004        190.0004
  -4901445.00247  -3806346.49345  23338047.339    23338046.5944   23338050.7814
       161.0004        162.0004
 -20556322.70949 -16000573.51047  20878373.152    20878373.3034   20878380.9974
       197.0004        197.0004
 21  1 31  2 11  0.0000000  0 10G17G14G07G28G19G30G22G09G21G01
 -15226258.04448 -11835553.87647  21690910.503    21690910.9484   21690914.2664
       194.0004        195.0004
  -6859331.64248  -5329458.58746  22487733.036    22487733.2864   22487736.8874
       178.0004        177.0004
 -24714525.33549 -19240434.40048  20209988.857    20209988.9964   20209992.8964
       215.0004        216.0004
  -3957477.34447  -3071967.97145  23113044.076    23113043.8244   23113047.7244
       160.0004        161.0004
  -8611713.30548  -6697099.43146  23195475.427    23195474.2404   23195477.4794
       166.0004        167.0004
 -21102765.61849 -16430544.81147  20624022.171    20624021.9344   20624028.5644
       212.0004        212.0004
  -1214934.06747   -937508.52245  24753165.887    24753164.8544   24753167.9104
       138.0004        144.0004
  -2331092.28448  -1800081.48947  23812039.942    23812039.9394   23812045.4654
       190.0004        191.0004
  -4818009.40247  -3741331.74745  23353923.654    23353922.6414   23353928.1444
       160.0004        162.0004
 -20527499.33849 -15978113.73247  20883857.855    20883858.7054   20883866.0584
       197.0004        197.0004
 21  1 31  2 11 30.0000000  0 10G17G14G07G28G19G30G22G09G21G01
 -15242860.65249 -11848490.96847  21687750.759    21687751.6744   21687754.8394
       195.0004        195.0004
  -6893765.57548  -5356290.22246  22481178.661    22481179.5024   22481184.7104
       176.0004        176.0004
 -24703856.55949 -19232121.08248  20212018.412    20212019.0494   20212022.9114
       215.0004        216.0004
  -3984647.42147  -3093139.45945  23107872.064    23107872.6654   23107876.9644
       157.0004        158.0004
  -8672477.26248  -6744447.96546  23183911.803    23183910.9074   23183914.1944
       165.0004        165.0004
 -21149098.70049 -16466648.52447  20615204.993    20615204.9404   20615211.8584
       212.0004        212.0004
  -1236610.32847   -954399.13745  24749040.664    24749039.4784   24749042.7734
       141.0004        146.0004
  -2253361.33748  -1739511.93547  23826830.639    23826830.9364   23826837.5524
       191.0004        191.0004
  -4734269.02847  -3676079.52345  23369858.687    23369858.5884   23369863.6804
       159.0004        161.0004
 -20498069.26949 -15955181.21347  20889459.088    20889459.2644   20889466.6944
       197.0004        197.0004
 21  1 31  2 12  0.0000000  0 10G17G14G07G28G19G30G22G09G21G01
 -15259091.45349 -11861138.34747  21684662.997    21684662.9354   21684666.5074
       196.0004        196.0004
  -6928269.26248  -5383176.21946  22474614.755    22474615.7144   22474619.8154
       177.0004        178.0004
 -24692603.99649 -19223352.85648  20214160.269    20214160.6254   20214164.4604
       215.0004        216.0004
  -4011951.16447  -3114415.09645  23102678.287    23102677.9004   23102681.4924
       157.0004        160.0004
  -8732917.75548  -6791544.43346  23172410.889    23172409.6954   23172413.3204
       165.0004        166.0004
 -21194969.18949 -16502391.76748  20606476.473    20606476.2034   20606483.4114
       212.0004        213.0004
  -1258172.64547   -971200.94345  24744935.501    24744936.2334   24744941.0054
       140.0004        144.0004
  -2175738.47948  -1679026.59047  23841599.491    23841600.5934   23841609.7374
       191.0004        192.0004
  -4650226.70347  -3610591.99845  23385850.179    23385850.8404   23385855.1604
       158.0004        159.0004
 -20468033.24149 -15931776.50147  20895173.648    20895174.2774   20895182.2094
       197.0004        197.0004
