     2.11           OBSERVATION DATA    G (GPS)             RINEX VERSION / TYPE
teqc  2018Jun8                          20210202 03:10:35UTCPGM / RUN BY / DATE
Linux2.6.32-573.12.1.el6.x86_64|x86_64|gcc|Win64-MinGW64|=+ COMMENT
BIT 2 OF LLI FLAGS DATA COLLECTED UNDER A/S CONDITION       COMMENT
-Unknown-                                                   MARKER NAME
CRNO                                                        MARKER NUMBER
-Unknown-           -Unknown-                               OBSERVER / AGENCY
-Unknown-           ASHTECH             -Unknown-           REC # / TYPE / VERS
-Unknown-           -Unknown-                               ANT # / TYPE
   408078.5278 -6158374.5118  1605165.1600                  APPROX POSITION XYZ
        0.0000        0.0000        0.0000                  ANTENNA: DELTA H/E/N
     1     1                                                WAVELENGTH FACT L1/2
     7    L1    L2    C1    P1    P2    S1    S2            # / TYPES OF OBSERV
    30.0000                                                 INTERVAL
Forced Modulo Decimation to 30 seconds                      COMMENT
 SNR is mapped to RINEX snr flag value [1-9]                COMMENT
  L1: 1 -> 1;  90 -> 5; 210 -> 9                            COMMENT
  L2: 1 -> 1; 150 -> 5; 250 -> 9                            COMMENT
pseudorange smoothing corrections not applied               COMMENT
  2021     2     5     0     0   30.0000000     GPS         TIME OF FIRST OBS
                                                            END OF HEADER
 21  2  5  0  0 30.0000000  0 10G22G08G16G04G09G07G03G01G21G27
  -1680202.94147  -1294582.31145  24513663.889    24513663.4644   24513672.6214
       143.0004        147.0004
 -23434491.14649 -18244231.35048  20160817.393    20160817.9174   20160825.4894
       212.0004        213.0004
  -4378725.33947  -3391282.32945  23718928.337    23718928.8044   23718933.5474
       136.0004        140.0004
 -22540777.77649 -17543157.02648  20235548.509    20235548.8554   20235554.5184
       216.0004        215.0004
 -15894654.89749 -12366988.58047  21419055.401    21419056.2604   21419063.3984
       201.0004        201.0004
  -2676981.33047  -2073549.95345  24299173.636    24299173.8324   24299180.2904
       157.0004        159.0004
  -2975010.51948  -1967327.19546  23803999.206    23804000.2564   23804009.7854
       168.0004        173.0004
  -2412775.79647  -1866517.53545  24543388.136    24543388.4614   24543399.5854
       135.0004        141.0004
  -8742166.18447  -6796790.43845  23090879.476    23090878.4134   23090884.6394
       151.0004        154.0004
 -19128726.37649 -14894250.83048  21325960.700    21325960.9474   21325967.4374
       213.0004        215.0004
 21  2  5  0  1  0.0000000  0 10G22G08G16G04G09G07G03G01G21G27
  -1628968.69347  -1254659.68745  24523413.321    24523413.8864   24523420.9164
       142.0004        145.0004
 -23444450.14849 -18251991.58548  20158922.766    20158922.7224   20158930.9344
       213.0004        214.0004
  -4295079.86247  -3326104.04245  23734846.150    23734845.5474   23734852.1404
       137.0004        143.0004
 -22530586.09249 -17535215.46248  20237487.598    20237488.0494   20237493.8824
       216.0004        214.0004
 -15953372.54749 -12412742.59847  21407882.147    21407882.5204   21407889.6234
       201.0004        201.0004
  -2740068.76547  -2122708.91445  24287168.561    24287169.5874   24287174.3594
       156.0004        158.0004
  -2912471.60748  -1918595.64346  23815898.915    23815899.8884   23815910.3144
       170.0004        171.0004
  -2472952.20547  -1913407.83645  24531935.691    24531936.5544   24531947.7314
       135.0004        141.0004
  -8794092.23747  -6837252.23245  23080996.851    23080996.1014   23081002.5304
       152.0004        154.0004
 -19067861.37949 -14846823.54848  21337543.606    21337542.9764   21337549.7814
       217.0004        215.0004
 21  2  5  0  1 30.0000000  0 10G22G08G16G04G09G07G03G01G21G27
  -1577951.43847  -1214906.18345  24533123.687    24533121.8474   24533129.3994
       141.0004        145.0004
 -23453800.26849 -18259277.37548  20157143.051    20157143.2364   20157151.3584
       213.0004        213.0004
  -4211538.85647  -3261007.15145  23750742.845    23750744.4414   23750748.9484
       136.0004        141.0004
 -22519820.25049 -17526826.49448  20239536.082    20239536.8904   20239542.5224
       215.0004        214.0004
 -16011629.79649 -12458137.85247  21396796.601    21396796.7834   21396803.3584
       201.0004        201.0004
  -2803318.17747  -2171994.12545  24275133.761    24275133.3744   24275139.7284
       158.0004        161.0004
  -2850036.69248  -1869945.12446  23827782.411    23827782.7954   23827791.5834
       180.0004        187.0004
  -2533398.67746  -1960508.59645  24520431.303    24520431.9544   24520444.6494
       134.0004        139.0004
  -8846015.14947  -6877711.58345  23071115.317    23071115.3114   23071122.1874
       152.0004        156.0004
 -19006482.29149 -14798995.66648  21349222.345    21349222.7474   21349229.8224
       224.0004        228.0004
 21  2  5  0  2  0.0000000  0 10G22G08G16G04G09G07G03G01G21G27
  -1527152.20947  -1175322.53645  24542788.649    24542789.0404   24542796.3674
       140.0004        144.0004
 -23462540.48149 -18266087.90348  20155479.943    20155479.9764   20155487.9444
       213.0004        213.0004
  -4128103.48747  -3195992.58345  23766621.835    23766621.6454   23766625.8324
       136.0004        141.0004
 -22508480.06349 -17517989.98148  20241694.294    20241694.7764   20241700.8604
       216.0004        214.0004
 -16069424.23249 -12503172.46747  21385798.569    21385798.4684   21385805.8704
       201.0004        201.0004
  -2866728.69847  -2221404.86545  24263065.911    24263066.1704   24263070.4164
       157.0004        158.0004
  -2787707.78948  -1821377.22046  23839641.829    23839642.8504   23839652.7204
       185.0004        187.0004
  -2594113.38846  -2007818.40445  24508877.148    24508878.2924   24508892.6724
       133.0004        139.0004
  -8897933.15447  -6918167.09945  23061235.779    23061236.6954   23061242.6554
       152.0004        155.0004
 -18944591.06449 -14750768.73048  21361000.433    21361000.6604   21361007.1504
       228.0004        229.0004
 21  2  5  0  2 30.0000000  0 10G22G08G16G04G09G07G03G01G21G27
  -1476572.82047  -1135910.19845  24552414.163    24552413.4784   24552420.8594
       139.0004        144.0004
 -23470671.00149 -18272423.36448  20153932.936    20153932.9974   20153940.4974
       212.0004        213.0004
  -4044775.58947  -3131061.74945  23782479.722    23782479.4154   23782484.0354
       139.0004        144.0004
 -22496566.29149 -17508706.53148  20243961.256    20243961.7134   20243967.6944
       215.0004        214.0004
 -16126754.39149 -12547845.30647  21374888.542    21374888.8174   21374896.6204
       201.0004        201.0004
  -2930300.26747  -2270941.12045  24250968.121    24250968.8614   24250973.5984
       155.0004        157.0004
  -2725487.95948  -1772894.30746  23851481.949    23851482.9974   23851491.9404
       186.0004        186.0004
  -2655095.29746  -2055336.44145  24497273.866    24497273.5594   24497285.3864
       134.0004        140.0004
  -8949843.65947  -6958616.79045  23051358.836    23051358.4954   23051365.0234
       153.0004        156.0004
 -18882190.58449 -14702144.98048  21372874.629    21372875.0124   21372881.4594
       228.0004        228.0004
 21  2  5  0  3  0.0000000  0 10G22G08G16G04G09G07G03G01G21G27
  -1426214.42047  -1096670.07545  24561996.044    24561995.6214   24562002.6534
       138.0004        143.0004
 -23478191.50649 -18278283.47648  20152501.694    20152501.9994   20152509.4874
       212.0004        213.0004
  -3961556.39747  -3066215.60545  23798314.205    23798313.2774   23798318.5844
       141.0004        145.0004
 -22484078.66449 -17498975.91748  20246338.145    20246338.5784   20246344.0664
       215.0004        214.0004
 -16183617.80449 -12592154.44847  21364067.586    21364067.8244   21364075.7194
       201.0004        201.0004
  -2994032.06547  -2320602.18645  24238841.500    24238841.5784   24238845.8194
       155.0004        157.0004
  -2663379.08548  -1724497.82046  23863301.044    23863301.8074   23863311.8964
       185.0004        186.0004
  -2716342.42747  -2103061.18145  24485617.905    24485618.0674   24485629.2744
       135.0004        142.0004
  -9001743.43147  -6999058.10445  23041480.986    23041481.4894   23041488.5764
       153.0004        155.0004
 -18819282.73549 -14653125.87448  21384845.772    21384845.8974   21384852.4044
       228.0004        227.0004
 21  2  5  0  3 30.0000000  0 10G22G08G16G04G09G07G03G01G21G27
  -1376078.04047  -1057602.95045  24571535.443    24571534.1934   24571543.8644
       135.0004        140.0004
 -23485101.24549 -18283667.67548  20151187.319    20151187.2744   20151194.6024
       213.0004        214.0004
  -3878446.71247  -3001454.81945  23814130.627    23814130.3614   23814133.0504
       139.0004        143.0004
 -22471017.02249 -17488798.02048  20248823.096    20248823.6144   20248829.5144
       215.0004        214.0004
 -16240012.01249 -12636097.98547  21353336.408    21353336.8604   21353344.3204
       202.0004        203.0004
  -3057923.37147  -2370387.58345  24226681.795    24226682.7884   24226688.7254
       155.0004        158.0004
  -2601383.09448  -1676189.34946  23875097.896    23875098.6094   23875109.0934
       185.0004        185.0004
  -2777852.82246  -2150991.03045  24473910.727    24473912.8484   24473924.4184
       134.0004        140.0004
  -9053629.72547  -7039488.94645  23031608.877    23031607.7194   23031613.3044
       152.0004        154.0004
 -18755869.43749 -14603712.91248  21396912.789    21396912.8874   21396919.8634
       228.0004        228.0004
 21  2  5  0  4  0.0000000  0 10G22G08G16G04G09G07G03G01G21G27
  -1326165.69747  -1018710.43645  24581036.596    24581035.6364   24581042.9504
       135.0004        141.0004
 -23491400.33749 -18288576.04148  20149988.343    20149988.7574   20149996.2364
       213.0004        214.0004
  -3795448.59047  -2936780.95745  23829924.484    23829924.4394   23829928.2514
       141.0004        147.0004
 -22457382.16249 -17478173.45148  20251417.569    20251418.1864   20251424.3834
       215.0004        214.0004
 -16295935.59649 -12679674.79247  21342694.891    21342694.9564   21342702.6804
       203.0004        203.0004
  -3121974.07347  -2420297.17845  24214495.241    24214495.1144   24214500.2464
       155.0004        157.0004
  -2539502.91748  -1627971.10246  23886874.692    23886875.0194   23886884.1444
       184.0004        184.0004
  -2839625.34247  -2199125.15645  24462157.457    24462158.9624   24462171.4994
       137.0004        144.0004
  -9105500.42147  -7079907.63445  23021737.317    23021736.8634   23021741.9894
       151.0004        154.0004
 -18691953.66349 -14553908.40348  21409075.576    21409075.7924   21409082.7564
       228.0004        227.0004
 21  2  5  0  4 30.0000000  0 10G22G08G16G04G09G07G03G01G21G27
  -1276479.08447   -979993.75745  24590492.105    24590490.4864   24590498.5314
       137.0004        142.0004
 -23497089.47049 -18293009.11048  20148905.598    20148905.6864   20148913.2294
       213.0004        214.0004
  -3712563.60847  -2872195.22845  23845695.549    23845696.2194   23845701.5334
       142.0004        146.0004
 -22443174.67349 -17467102.67348  20254121.179    20254121.7104   20254127.9224
       215.0004        214.0004
 -16351386.82549 -12722883.52647  21332142.551    21332143.1994   21332150.6744
       203.0004        204.0004
  -3186184.37447  -2470331.13945  24202276.503    24202277.0714   24202280.8594
       155.0004        158.0004
  -2477741.24448  -1579845.15846  23898627.096    23898627.9774   23898636.8444
       183.0004        183.0004
  -2901658.66947  -2247462.53545  24450351.545    24450352.8004   24450362.8284
       135.0004        140.0004
  -9157353.68447  -7120312.72545  23011870.604    23011871.8734   23011877.3574
       150.0004        152.0004
 -18627538.06149 -14503714.41948  21421333.098    21421333.4814   21421340.4834
       227.0004        227.0004
 21  2  5  0  5  0.0000000  0 10G22G08G16G04G09G07G03G01G21G27
  -1227019.01947   -941453.60445  24599904.561    24599902.3114   24599910.7784
       138.0004        143.0004
 -23502167.67949 -18296966.14148  20147938.769    20147939.4074   20147947.2504
       213.0004        214.0004
  -3629792.89747  -2807698.58545  23861446.045    23861445.9924   23861451.3614
       141.0004        144.0004
 -22428394.39149 -17455585.57748  20256934.022    20256934.6624   20256940.1274
       215.0004        214.0004
 -16406363.33549 -12765722.35747  21321681.526    21321681.2524   21321688.6044
       203.0004        203.0004
  -3250552.76747  -2520488.25245  24190026.197    24190026.6134   24190032.3294
       153.0004        154.0004
  -2416099.89948  -1531812.99246  23910356.375    23910357.7224   23910366.9954
       182.0004        183.0004
  -2963950.77946  -2296001.59745  24438497.076    24438499.0854   24438512.3554
       134.0004        141.0004
  -9209186.44047  -7160701.81545  23002008.222    23002008.3894   23002012.9134
       150.0004        153.0004
 -18562624.53549 -14453132.44448  21433685.672    21433686.2394   21433692.8104
       227.0004        227.0004
 21  2  5  0  5 30.0000000  0 10G22G08G16G04G09G07G03G01G21G27
  -1177786.39947   -903090.67745  24609271.681    24609270.7044   24609278.5124
       138.0004        143.0004
 -23506634.32049 -18300446.62848  20147089.472    20147089.4684   20147096.7824
       213.0004        213.0004
  -3547136.90747  -2743291.30245  23877176.430    23877176.0784   23877180.4574
       139.0004        144.0004
 -22413041.09249 -17443621.96648  20259855.704    20259856.3584   20259862.2724
       215.0004        214.0004
 -16460862.50649 -12808189.22347  21311310.103    21311310.5624   21311317.6614
       203.0004        203.0004
  -3315078.44447  -2570767.93845  24177747.026    24177748.2604   24177753.4504
       152.0004        155.0004
  -2354580.62048  -1483875.97246  23922064.266    23922064.4914   23922074.3764
       182.0004        183.0004
  -3026499.35447  -2344740.47945  24426595.418    24426598.4604   24426609.0234
       137.0004        143.0004
  -9260995.21147  -7201072.22745  22992147.170    22992147.2414   22992154.2044
       150.0004        154.0004
 -18497214.95649 -14402163.93648  21446132.794    21446133.1454   21446139.9714
       227.0004        226.0004
 21  2  5  0  6  0.0000000  0 10G22G08G16G04G09G07G03G01G21G27
  -1128783.14647   -864906.51045  24618597.053    24618596.6354   24618604.9664
       139.0004        143.0004
 -23510489.77849 -18303450.87948  20146355.061    20146355.4914   20146363.4044
       213.0004        213.0004
  -3464597.49547  -2678974.88945  23892882.790    23892883.6184   23892888.4324
       139.0004        144.0004
 -22397115.63849 -17431212.53348  20262886.295    20262886.9104   20262892.8054
       215.0004        214.0004
 -16514882.97849 -12850283.09347  21301030.862    21301031.1304   21301038.0984
       203.0004        204.0004
  -3379761.10747  -2621169.96345  24165439.365    24165439.7144   24165444.2364
       153.0004        156.0004
  -2293186.30648  -1436036.35646  23933746.902    23933747.5354   23933757.3184
       180.0004        180.0004
  -3089303.24647  -2393678.31345  24414644.716    24414645.2814   24414656.5534
       138.0004        143.0004
  -9312778.29447  -7241422.67045  22982294.554    22982294.1084   22982299.6864
       149.0004        151.0004
 -18431312.28449 -14350811.19348  21458673.355    21458673.8994   21458681.4594
       226.0004        226.0004
 21  2  5  0  6 30.0000000  0 10G22G08G16G04G09G07G03G01G21G27
  -1080010.44547   -826901.98545  24627877.119    24627877.5844   24627885.9184
       138.0004        143.0004
 -23513734.23449 -18305979.00848  20145738.217    20145738.3554   20145746.0384
       213.0004        214.0004
  -3382175.97847  -2614750.33345  23908568.567    23908566.5944   23908572.3304
       140.0004        144.0004
 -22380618.18549 -17418357.37048  20266025.110    20266025.7044   20266032.1904
       215.0004        213.0004
 -16568422.58249 -12892002.25647  21290841.879    21290842.7414   21290849.7454
       204.0004        204.0004
  -3444600.00147  -2671693.75045  24153100.781    24153101.2994   24153106.0274
       153.0004        155.0004
  -2231918.96948  -1388295.63846  23945404.286    23945406.0704   23945416.1384
       179.0004        180.0004
  -3152360.70047  -2442813.74145  24402642.551    24402644.5454   24402656.4064
       135.0004        139.0004
  -9364532.87347  -7281750.86145  22972446.202    22972445.6634   22972450.7784
       149.0004        153.0004
 -18364918.70949 -14299075.93548  21471308.436    21471308.3094   21471315.2844
       226.0004        226.0004
 21  2  5  0  7  0.0000000  0 10G22G08G16G04G09G07G03G01G21G27
  -1031469.54047   -789078.08045  24637115.887    24637116.0364   24637123.0644
       137.0004        142.0004
 -23516367.48849 -18308030.88148  20145237.452    20145237.4374   20145244.6784
       213.0004        214.0004
  -3299873.43547  -2550618.46745  23924229.304    23924228.6854   23924232.4174
       138.0004        142.0004
 -22363549.02749 -17405056.73448  20269273.372    20269274.1874   20269280.2594
       214.0004        213.0004
 -16621479.28149 -12933345.12847  21280746.938    21280746.7304   21280753.1264
       204.0004        204.0004
  -3509594.72747  -2722338.94145  24140732.508    24140732.7834   24140737.8734
       153.0004        155.0004
  -2170780.84448  -1340655.60546  23957040.647    23957040.9324   23957050.6444
       182.0004        184.0004
  -3215669.74546  -2492145.22545  24390595.165    24390596.5854   24390610.7424
       134.0004        140.0004
  -9416256.59647  -7322054.99445  22962604.179    22962602.7424   22962608.7984
       149.0004        153.0004
 -18298036.61949 -14246960.01448  21484036.083    21484035.8474   21484042.2404
       225.0004        225.0004
 21  2  5  0  7 30.0000000  0 10G22G08G16G04G09G07G03G01G21G27
   -983162.04147   -751436.02945  24646306.431    24646306.6084   24646314.7154
       136.0004        142.0004
 -23518389.47949 -18309606.43948  20144852.032    20144852.2684   20144860.1834
       213.0004        214.0004
  -3217691.60247  -2486580.67245  23939867.429    23939867.4324   23939871.8484
       139.0004        144.0004
 -22345909.04349 -17391311.30048  20272630.787    20272630.9404   20272636.9824
       214.0004        213.0004
 -16674051.75449 -12974310.67747  21270741.868    21270741.8204   21270748.8724
       203.0004        203.0004
  -3574745.05447  -2773105.36945  24128334.025    24128334.8474   24128339.5714
       152.0004        154.0004
  -2109774.57948  -1293118.31146  23968649.174    23968649.6924   23968660.3824
       183.0004        184.0004
  -3279229.17047  -2541671.81145  24378499.970    24378502.3504   24378515.5884
       136.0004        142.0004
  -9467946.87247  -7362333.05845  22952766.614    22952765.6754   22952772.3884
       149.0004        152.0004
 -18230668.90349 -14194465.67548  21496855.523    21496855.2794   21496862.2474
       225.0004        225.0004
 21  2  5  0  8  0.0000000  0 10G22G08G16G04G09G07G03G01G21G27
   -935088.06547   -713975.99345  24655456.507    24655455.7224   24655464.8544
       137.0004        142.0004
 -23519800.01649 -18310705.54248  20144583.191    20144583.8014   20144591.8704
       213.0004        214.0004
  -3135630.38647  -2422636.87245  23955481.461    23955483.3354   23955486.6694
       138.0004        143.0004
 -22327697.50849 -17377120.49248  20276095.791    20276096.2424   20276102.4834
       214.0004        213.0004
 -16726136.70249 -13014896.33347  21260830.755    21260830.8824   21260837.7464
       203.0004        203.0004
  -3640049.38547  -2823991.82545  24115908.575    24115908.6484   24115912.7884
       154.0004        158.0004
  -2048901.27848  -1245684.61146  23980231.500    23980232.5164   23980243.1724
       180.0004        180.0004
  -3343036.04547  -2591391.24445  24366359.578    24366360.9524   24366372.4954
       137.0004        142.0004
  -9519600.27847  -7402582.39345  22942935.540    22942937.1904   22942943.4274
       149.0004        153.0004
 -18162816.84449 -14141593.93248  21509766.498    21509766.9324   21509773.9124
       225.0004        225.0004
 21  2  5  0  8 30.0000000  0 10G22G08G16G04G09G07G03G01G21G27
   -887250.21347   -676699.94645  24664559.966    24664558.7314   24664566.7384
       138.0004        143.0004
 -23520599.28549 -18311328.33548  20144431.372    20144431.7524   20144439.4394
       213.0004        214.0004
  -3053692.45947  -2358789.14445  23971075.119    23971074.7514   23971079.6414
       139.0004        144.0004
 -22308915.81049 -17362485.40948  20279670.208    20279670.7334   20279676.5644
       214.0004        213.0004
 -16777733.26149 -13055101.42647  21251011.234    21251011.5614   21251018.6594
       202.0004        203.0004
  -3705507.31947  -2874997.96645  24103450.328    24103451.1714   24103458.0234
       156.0004        159.0004
  -1988164.13248  -1198357.04146  23991790.933    23991791.4324   23991799.3934
       179.0004        179.0004
  -3407089.61547  -2641302.89445  24354168.103    24354170.5544   24354182.3324
       135.0004        140.0004
  -9571214.95247  -7442801.57045  22933115.375    22933114.4104   22933121.0674
       150.0004        152.0004
 -18094483.90249 -14088347.48448  21522770.303    21522770.1924   21522777.3894
       225.0004        225.0004
 21  2  5  0  9  0.0000000  0 10G22G08G16G04G09G07G03G01G21G27
   -839648.47747   -639607.90245  24673619.406    24673617.2704   24673626.0064
       139.0004        144.0004
 -23520787.13849 -18311474.70548  20144396.176    20144396.3084   20144403.6694
       213.0004        213.0004
  -2971877.91047  -2295037.53245  23986643.514    23986644.8864   23986649.1564
       140.0004        145.0004
 -22289563.87949 -17347405.99748  20283353.312    20283353.4454   20283359.1324
       214.0004        213.0004
 -16828839.03949 -13094924.10447  21241285.591    21241285.7154   21241293.7804
       202.0004        202.0004
  -3771118.30047  -2926123.34045  24090965.676    24090966.0544   24090972.4414
       155.0004        157.0004
  -1927564.81348  -1151136.86046  24003322.334    24003323.3024   24003332.8984
       178.0004        179.0004
  -3471387.45446  -2691404.89945  24341932.808    24341934.7044   24341947.5414
       134.0004        139.0004
  -9622787.94947  -7482988.27745  22923300.943    22923299.6314   22923305.6884
       149.0004        151.0004
 -18025671.96649 -14034727.78948  21535863.981    21535864.1634   21535871.8694
       224.0004        223.0004
 21  2  5  0  9 30.0000000  0 10G22G08G16G04G09G07G03G01G21G27
   -792285.10847   -602701.55645  24682633.021    24682631.2534   24682639.6844
       139.0004        144.0004
 -23520363.83049 -18311144.82848  20144476.769    20144476.8564   20144484.4674
       213.0004        214.0004
  -2890188.54747  -2231383.48345  24002191.240    24002189.5814   24002193.9284
       141.0004        146.0004
 -22269642.66249 -17331882.96948  20287143.368    20287144.1164   20287150.1504
       214.0004        213.0004
 -16879452.58849 -13134363.21347  21231653.316    21231653.9704   21231662.3634
       202.0004        202.0004
  -3836881.99247  -2977367.73545  24078451.805    24078452.1024   24078456.4774
       154.0004        157.0004
  -1867105.90948  -1104026.11446  24014827.696    24014827.8414   24014838.9734
       178.0004        179.0004
  -3535928.32246  -2741696.23845  24329652.706    24329652.8244   24329664.8834
       133.0004        139.0004
  -9674316.76447  -7523140.53045  22913496.023    22913495.7484   22913501.5724
       150.0004        155.0004
 -17956383.99549 -13980737.16248  21549049.224    21549049.4024   21549056.8244
       223.0004        223.0004
 21  2  5  0 10  0.0000000  0 10G22G08G16G04G09G07G03G01G21G27
   -745161.77247   -565982.28445  24691600.128    24691598.6164   24691606.7954
       141.0004        146.0004
 -23519330.60549 -18310339.70148  20144673.362    20144673.5024   20144681.0894
       214.0004        214.0004
  -2808626.18247  -2167828.38245  24017709.894    24017708.9834   24017715.5644
       140.0004        143.0004
 -22249153.29449 -17315917.23748  20291042.968    20291043.3564   20291048.6804
       214.0004        213.0004
 -16929572.70349 -13173417.83447  21222116.248    21222117.5754   21222125.0424
       202.0004        203.0004
  -3902798.22847  -3028731.00045  24065908.349    24065907.9474   24065913.9164
       154.0004        156.0004
  -1806790.15048  -1057026.92946  24026305.529    24026305.9684   24026315.1054
       178.0004        179.0004
  -3600710.92046  -2792176.01845  24317323.871    24317324.5384   24317336.0404
       132.0004        139.0004
  -9725799.04347  -7563256.54145  22903696.316    22903697.5314   22903704.6574
       152.0004        155.0004
 -17886623.11649 -13926378.02448  21562323.917    21562324.4114   21562331.6754
       223.0004        223.0004
 21  2  5  0 10 30.0000000  0 10G22G08G16G04G09G07G03G01G21G27
   -698278.42547   -529450.00245  24700520.555    24700520.0894   24700528.8494
       140.0004        144.0004
 -23517686.67649 -18309058.69248  20144985.773    20144985.9284   20144993.5044
       213.0004        214.0004
  -2727190.98447  -2104372.41645  24033206.481    24033205.8324   24033210.9754
       139.0004        143.0004
 -22228095.14449 -17299508.28947  20295049.575    20295050.2314   20295056.0274
       214.0004        212.0004
 -16979196.33249 -13212085.57347  21212675.278    21212675.3394   21212682.1644
       204.0004        206.0004
  -3968864.93847  -3080211.50345  24053335.613    24053336.5814   24053340.7324
       154.0004        155.0004
  -1746618.66748  -1010140.13746  24037756.348    24037756.4724   24037765.5814
       178.0004        179.0004
  -3665732.25746  -2842841.78745  24304949.549    24304951.3414   24304965.2654
       131.0004        138.0004
  -9777231.60947  -7603333.81645  22893910.562    22893910.0294   22893917.4044
       152.0004        154.0004
 -17816390.69049 -13871651.45248  21575688.819    21575689.1704   21575696.6974
       223.0004        222.0004
 21  2  5  0 11  0.0000000  0 10G22G08G16G04G09G07G03G01G21G27
   -651637.63847   -493106.72245  24709395.060    24709395.0834   24709403.5584
       140.0004        144.0004
 -23515432.51549 -18307302.17848  20145414.423    20145414.8554   20145422.5874
       213.0004        213.0004
  -2645884.97947  -2041017.05445  24048679.888    24048678.5544   24048683.4264
       139.0004        145.0004
 -22206469.79549 -17282657.36648  20299165.268    20299165.3724   20299171.4054
       214.0004        213.0004
 -17028322.65449 -13250365.80647  21203327.058    21203327.3264   21203333.3134
       206.0004        207.0004
  -4035082.65347  -3131809.66845  24040735.238    24040735.6344   24040740.8534
       154.0004        157.0004
  -1686594.52548   -963368.14446  24049177.390    24049178.1884   24049188.1534
       178.0004        179.0004
  -3730991.46947  -2893692.88045  24292534.498    24292534.8054   24292546.0814
       136.0004        144.0004
  -9828612.97147  -7643371.18645  22884134.409    22884133.9294   22884138.9704
       152.0004        155.0004
 -17745690.22249 -13816560.15748  21589143.197    21589142.9664   21589150.4984
       222.0004        223.0004
 21  2  5  0 11 30.0000000  0 10G22G08G16G04G09G07G03G01G21G27
   -605239.98747   -456952.92045  24718225.855    24718225.3274   24718234.3154
       139.0004        142.0004
 -23512568.63349 -18305070.56348  20145959.572    20145959.8504   20145967.7754
       213.0004        213.0004
  -2564708.92047  -1977763.00045  24064124.791    24064126.2344   24064130.4204
       138.0004        143.0004
 -22184277.68349 -17265364.81548  20303388.064    20303388.5094   20303394.6344
       214.0004        213.0004
 -17076949.76449 -13288257.06547  21194073.900    21194074.0084   21194080.2674
       207.0004        208.0004
  -4101450.42347  -3183524.77645  24028105.736    24028106.7264   24028111.0774
       155.0004        157.0004
  -1626719.77348   -916712.55046  24060571.211    24060572.3864   24060582.3184
       178.0004        178.0004
  -3796486.54447  -2944727.77845  24280069.774    24280070.8114   24280081.2464
       138.0004        142.0004
  -9879940.14047  -7683366.33045  22874365.778    22874365.0984   22874371.3454
       151.0004        153.0004
 -17674524.14249 -13761106.06448  21602685.601    21602685.4614   21602692.9444
       222.0004        222.0004
 21  2  5  0 12  0.0000000  0 10G22G08G16G04G09G07G03G01G21G27
   -559086.37347   -420989.28245  24727008.711    24727008.1354   24727017.0634
       140.0004        145.0004
 -23509094.84849 -18302363.70548  20146620.401    20146620.8094   20146628.8064
       213.0004        214.0004
  -2483663.96947  -1914611.09945  24079546.328    24079548.8714   24079550.5864
       137.0004        143.0004
 -22161519.27949 -17247631.00147  20307718.861    20307719.2304   20307725.4374
       214.0004        212.0004
 -17125075.64549 -13325757.75447  21184915.478    21184915.7424   21184922.3204
       207.0004        207.0004
  -4167967.00147  -3235355.85145  24015447.787    24015448.2374   24015453.0384
       153.0004        155.0004
  -1566996.32748   -870174.87146  24071934.928    24071936.1034   24071948.0474
       177.0004        179.0004
  -3862215.46047  -2995944.89745  24267561.656    24267565.2364   24267574.5844
       137.0004        142.0004
  -9931209.55247  -7723316.46945  22864609.376    22864609.3704   22864615.9164
       151.0004        154.0004
 -17602894.78349 -13705290.97848  21616315.799    21616316.3114   21616323.5284
       222.0004        222.0004
 21  2  5  0 12 30.0000000  0 10G22G08G16G04G09G07G03G01G21G27
   -513177.44047   -385216.30145  24735745.310    24735745.7754   24735752.2534
       138.0004        143.0004
 -23505010.89449 -18299181.38348  20147397.648    20147397.9614   20147405.7694
       213.0004        214.0004
  -2402750.37747  -1851561.52645  24094942.989    24094943.0264   24094949.8424
       136.0004        141.0004
 -22138194.44449 -17229455.80447  20312157.401    20312157.5904   20312163.9174
       213.0004        212.0004
 -17172697.77249 -13362865.90647  21175853.159    21175853.4814   21175859.3674
       206.0004        205.0004
  -4234631.29147  -3287302.00445  24002760.906    24002761.6224   24002766.9804
       153.0004        157.0004
  -1507425.49948   -823756.14046  24083272.441    24083273.2894   24083284.2084
       181.0004        184.0004
  -3928175.47747  -3047342.09845  24255009.927    24255010.2914   24255020.9374
       137.0004        142.0004
  -9982418.46047  -7763219.47345  22854864.360    22854864.4664   22854870.6054
       152.0004        156.0004
 -17530803.94549 -13649116.29648  21630033.536    21630034.3844   21630042.0904
       222.0004        221.0004
 21  2  5  0 13  0.0000000  0 10G22G08G16G04G09G07G03G01G21G27
   -467514.82047   -349635.25545  24744435.178    24744433.4344   24744442.3994
       138.0004        142.0004
 -23500317.40249 -18295524.10848  20148290.994    20148291.1064   20148298.9324
       213.0004        213.0004
  -2321969.61647  -1788615.52445  24110318.134    24110318.6124   24110322.2694
       136.0004        142.0004
 -22114304.19949 -17210840.03648  20316703.726    20316704.3034   20316710.0664
       213.0004        213.0004
 -17219814.82149 -13399580.48947  21166885.925    21166886.3464   21166893.7584
       205.0004        204.0004
  -4301443.03347  -3339363.05845  23990047.940    23990048.3534   23990053.4664
       155.0004        158.0004
  -1448009.80048   -777458.28046  24094580.209    24094580.5304   24094589.7934
       184.0004        185.0004
  -3994365.13246  -3098918.21245  24242414.764    24242413.4364   24242424.3044
       134.0004        138.0004
 -10033564.42947  -7803073.42845  22845132.488    22845132.0754   22845139.9904
       153.0004        157.0004
 -17458254.59849 -13592584.34548  21643839.751    21643840.0234   21643847.7154
       221.0004        221.0004
 21  2  5  0 13 30.0000000  0 10G22G08G16G04G09G07G03G01G21G27
   -422100.45947   -314247.61045  24753076.537    24753076.0254   24753084.9534
       138.0004        144.0004
 -23495015.78649 -18291392.96748  20149299.916    20149300.4914   20149307.7344
       213.0004        214.0004
  -2241324.12647  -1725774.87145  24125665.676    24125665.5034   24125668.7974
       138.0004        144.0004
 -22089850.21649 -17191784.98547  20321356.910    20321357.3914   20321363.5704
       214.0004        212.0004
 -17266426.00349 -13435900.86847  21158015.006    21158015.0894   21158023.9434
       203.0004        203.0004
  -4368401.96847  -3391538.79745  23977304.552    23977305.7184   23977311.4124
       155.0004        158.0004
  -1388752.33248   -731283.71046  24105855.234    24105856.4254   24105866.9744
       182.0004        182.0004
  -4060783.46346  -3150672.55445  24229776.282    24229776.6214   24229786.4104
       134.0004        140.0004
 -10084645.77047  -7842877.02245  22835412.615    22835412.4804   22835417.1984
       154.0004        158.0004
 -17385250.32849 -13535697.88348  21657732.108    21657732.2174   21657739.7074
       221.0004        221.0004
 21  2  5  0 14  0.0000000  0 10G22G08G16G04G09G07G03G01G21G27
   -376934.60547   -279053.60545  24761672.860    24761671.6704   24761681.4334
       141.0004        147.0004
 -23489105.08649 -18286787.21248  20150424.974    20150425.2084   20150432.4954
       213.0004        214.0004
  -2160813.48547  -1663039.27545  24140984.697    24140984.5454   24140987.5694
       139.0004        144.0004
 -22064832.31549 -17172290.51847  20326117.590    20326117.9924   20326124.5674
       213.0004        212.0004
 -17312528.63349 -13471824.98247  21149240.922    21149241.6734   21149250.3844
       202.0004        202.0004
  -4435506.79047  -3443828.24545  23964537.374    23964536.8974   23964541.8394
       155.0004        158.0004
  -1329654.12948   -685233.25946  24117101.383    24117102.5574   24117112.0874
       181.0004        180.0004
  -4127427.68447  -3202602.86945  24217091.944    24217092.8214   24217105.1114
       136.0004        141.0004
 -10135659.16747  -7882627.66145  22825703.793    22825704.0614   22825709.8204
       153.0004        154.0004
 -17311792.82349 -13478458.25648  21671710.925    21671710.7454   21671718.4114
       221.0004        221.0004
 21  2  5  0 14 30.0000000  0 10G22G08G16G04G09G07G03G01G21G27
   -332019.10747   -244054.69745  24770218.791    24770216.7774   24770226.8294
       140.0004        144.0004
 -23482586.53649 -18281707.80748  20151665.407    20151665.5134   20151672.9324
       214.0004        214.0004
  -2080439.62147  -1600410.28345  24156278.537    24156278.2414   24156284.8754
       137.0004        141.0004
 -22039251.85649 -17152357.69147  20330985.309    20330985.9014   20330991.8784
       213.0004        212.0004
 -17358121.69749 -13507352.03347  21140565.507    21140566.0214   21140574.9024
       202.0004        204.0004
  -4502757.10947  -3496231.04345  23951739.188    23951739.7364   23951744.9644
       156.0004        159.0004
  -1270718.00248   -639309.07446  24128316.298    24128317.4574   24128326.3354
       178.0004        177.0004
  -4194296.35047  -3254708.08745  24204368.596    24204368.8554   24204380.2174
       135.0004        141.0004
 -10186602.23547  -7922323.53345  22816011.789    22816010.4634   22816014.8184
       152.0004        155.0004
 -17237885.30949 -13420867.98148  21685774.064    21685774.6204   21685782.0494
       220.0004        220.0004
 21  2  5  0 15  0.0000000  0  9G08G16G04G09G07G03G01G21G27
 -23475459.25449 -18276154.07248  20153021.442    20153021.6804   20153029.1104
       214.0004        214.0004
  -2000202.03147  -1537887.52845  24171548.012    24171546.6554   24171551.5334
       137.0004        142.0004
 -22013108.27149 -17131986.07447  20335960.418    20335960.8464   20335967.2034
       213.0004        212.0004
 -17403202.21449 -13542479.69447  21131988.512    21131988.6824   21131996.0554
       203.0004        205.0004
  -4570150.65447  -3548745.45745  23938915.388    23938915.3554   23938920.1124
       158.0004        160.0004
  -1211944.63948   -593511.71546  24139501.036    24139501.4914   24139512.0244
       177.0004        177.0004
  -4261386.21247  -3306985.67045  24191600.623    24191600.5764   24191612.2214
       136.0004        142.0004
 -10237470.63147  -7961961.20245  22806330.514    22806330.4834   22806335.8634
       155.0004        158.0004
 -17163529.11049 -13362928.08648  21699924.552    21699924.8234   21699931.6884
       220.0004        221.0004
 21  2  5  0 15 30.0000000  0  9G08G16G04G09G07G03G01G21G27
 -23467723.21649 -18270125.98648  20154493.468    20154493.9204   20154501.2124
       214.0004        214.0004
  -1920101.42346  -1475471.48445  24186789.564    24186790.6774   24186794.0824
       133.0004        138.0004
 -21986401.80149 -17111175.83747  20341042.585    20341043.0384   20341049.0044
       213.0004        211.0004
 -17447767.89849 -13577206.20047  21123508.300    21123508.6224   21123515.3684
       205.0004        206.0004
  -4637685.94447  -3601370.32545  23926063.127    23926064.0434   23926069.3534
       160.0004        162.0004
  -1153335.44348   -547842.30946  24150654.068    24150655.1854   24150664.4804
       177.0004        178.0004
  -4328694.76847  -3359433.70945  24178793.334    24178793.4024   24178804.6514
       136.0004        142.0004
 -10288260.81247  -8001537.92545  22796665.016    22796664.6994   22796670.9564
       156.0004        158.0004
 -17088726.30249 -13304640.17848  21714159.720    21714159.6404   21714166.0834
       220.0004        220.0004
 21  2  5  0 16  0.0000000  0  9G08G16G04G09G07G03G01G21G27
 -23459382.15249 -18263626.44048  20156081.035    20156081.1404   20156088.6844
       214.0004        214.0004
  -1840141.75446  -1413165.23945  24202005.407    24202005.1344   24202010.1424
       134.0004        141.0004
 -21959136.49549 -17089930.13747  20346231.014    20346231.4634   20346237.4944
       212.0004        211.0004
 -17491820.37649 -13611532.80347  21115125.423    21115125.8504   21115132.5444
       206.0004        206.0004
  -4705365.61847  -3654107.68945  23913183.952    23913184.6784   23913189.5834
       160.0004        162.0004
  -1094895.85448   -502305.04746  24161775.107    24161775.6664   24161785.9074
       177.0004        178.0004
  -4396223.18847  -3412053.02645  24165941.338    24165942.5944   24165954.0884
       137.0004        142.0004
 -10338974.24647  -8041054.84845  22787015.335    22787014.3214   22787019.2044
       156.0004        158.0004
 -17013482.63749 -13246008.74448  21728476.695    21728477.3534   21728484.3094
       220.0004        219.0004
 21  2  5  0 16 30.0000000  0  9G08G16G04G09G07G03G01G21G27
 -23450434.61549 -18256654.31648  20157783.436    20157783.5004   20157791.3814
       213.0004        214.0004
  -1760322.59847  -1350968.53245  24217196.482    24217196.8904   24217201.0854
       138.0004        145.0004
 -21931311.62049 -17068248.41347  20351526.074    20351526.5354   20351532.4544
       212.0004        211.0004
 -17535356.44949 -13645457.01147  21106841.255    21106841.5064   21106847.9784
       207.0004        207.0004
  -4773187.27447  -3706955.69445  23900279.381    23900278.7424   23900283.5844
       159.0004        161.0004
  -1036626.19048   -456900.18946  24172863.173    24172863.9004   24172873.5404
       177.0004        178.0004
  -4463968.00147  -3464840.96645  24153051.387    24153052.4834   24153062.4594
       141.0004        147.0004
 -10389606.54147  -8080508.53945  22777379.282    22777379.6964   22777384.3584
       156.0004        159.0004
 -16937799.41249 -13187034.79048  21742878.974    21742879.5874   21742886.3304
       219.0004        219.0004
 21  2  5  0 17  0.0000000  0  9G08G16G04G09G07G03G01G21G27
 -23440882.82549 -18249211.36048  20159600.939    20159601.2324   20159608.9604
       213.0004        214.0004
  -1680646.03047  -1288882.91145  24232358.688    24232357.2594   24232361.8044
       139.0004        144.0004
 -21902929.30949 -17046132.33447  20356927.126    20356927.5204   20356933.2434
       212.0004        211.0004
 -17578375.76049 -13678978.55647  21098654.476    21098654.8014   21098661.4374
       207.0004        208.0004
  -4841150.94847  -3759914.39045  23887345.228    23887345.5744   23887350.7044
       160.0004        162.0004
   -978529.74848   -411630.34146  24183918.296    24183919.0094   24183929.9134
       178.0004        179.0004
  -4531928.34847  -3517796.89545  24140117.820    24140118.5734   24140130.1364
       144.0004        148.0004
 -10440156.04847  -8119897.71345  22767759.616    22767759.5884   22767764.9824
       157.0004        159.0004
 -16861680.43149 -13127721.30848  21757364.761    21757364.7674   21757371.5164
       219.0004        219.0004
 21  2  5  0 17 30.0000000  0  9G08G16G04G09G07G03G01G21G27
 -23430725.74449 -18241296.74948  20161533.958    20161534.3964   20161541.8194
       213.0004        214.0004
  -1601111.68547  -1226908.11945  24247492.510    24247491.7344   24247497.3664
       139.0004        145.0004
 -21873989.05249 -17023581.49547  20362434.395    20362434.7994   20362440.4284
       212.0004        211.0004
 -17620875.35649 -13712095.12647  21090566.688    21090567.2364   21090574.2734
       207.0004        208.0004
  -4909254.30947  -3812981.89246  23874385.193    23874386.1884   23874390.1744
       161.0004        163.0004
   -920607.03548   -366495.85146  24194941.226    24194942.0614   24194952.3104
       179.0004        181.0004
  -4600100.83547  -3570918.11445  24127144.735    24127145.9264   24127156.5594
       144.0004        149.0004
 -10490618.10647  -8159218.75145  22758158.098    22758157.3984   22758163.2754
       156.0004        159.0004
 -16785127.01149 -13068069.29748  21771931.332    21771931.8994   21771939.2734
       219.0004        219.0004
 21  2  5  0 18  0.0000000  0  9G08G16G04G09G07G03G01G21G27
 -23419964.17049 -18232911.09448  20163581.401    20163581.8974   20163589.1874
       213.0004        213.0004
  -1521720.77847  -1165045.06745  24262596.683    24262597.7844   24262605.0584
       137.0004        143.0004
 -21844491.99949 -17000596.78547  20368047.559    20368047.9884   20368053.5284
       212.0004        211.0004
 -17662853.92949 -13744805.68847  21082578.869    21082578.7994   21082586.2334
       208.0004        208.0004
  -4977496.97047  -3866157.96346  23861401.214    23861399.8754   23861404.4884
       161.0004        163.0004
   -862860.32248   -321498.48646  24205929.279    24205930.6344   24205941.2324
       180.0004        181.0004
  -4668483.58147  -3624203.22945  24114132.345    24114132.7184   24114144.1804
       146.0004        150.0004
 -10540991.06847  -8198470.36345  22748572.525    22748572.0764   22748577.8364
       157.0004        158.0004
 -16708142.10349 -13008081.05848  21786580.710    21786581.7604   21786589.4384
       219.0004        219.0004
 21  2  5  0 18 30.0000000  0  9G08G16G04G09G07G03G01G21G27
 -23408599.05449 -18224055.14348  20165744.114    20165744.6084   20165752.0304
       213.0004        213.0004
  -1442474.39747  -1103294.65945  24277680.872    24277681.4704   24277683.7604
       136.0004        143.0004
 -21814438.97049 -16977178.83747  20373765.773    20373766.5044   20373772.7564
       212.0004        210.0004
 -17704309.75049 -13777108.91747  21074689.386    21074689.9774   21074697.3294
       207.0004        208.0004
  -5045878.02747  -3919441.88146  23848386.700    23848386.9624   23848391.6934
       161.0004        163.0004
   -805291.42048   -276639.70646  24216885.792    24216886.4854   24216895.5624
       181.0004        182.0004
  -4737074.47647  -3677650.51445  24101079.275    24101080.0204   24101089.8924
       145.0004        149.0004
 -10591271.48547  -8237649.84745  22739003.645    22739003.7594   22739008.8074
       157.0004        159.0004
 -16630728.23549 -12947758.56048  21801313.117    21801313.5214   21801320.2004
       219.0004        218.0004
 21  2  5  0 19  0.0000000  0  9G08G16G04G09G07G03G01G21G27
 -23396631.30749 -18214729.60848  20168022.201    20168022.1084   20168029.7204
       213.0004        214.0004
  -1363373.48547  -1041657.58745  24292733.764    24292733.8484   24292734.1344
       136.0004        142.0004
 -21783831.46149 -16953328.83047  20379590.671    20379591.1354   20379597.2064
       212.0004        210.0004
 -17745241.93949 -13809004.12647  21066900.997    21066901.2554   21066908.0954
       208.0004        208.0004
  -5114396.93547  -3972833.18845  23835346.504    23835347.1864   23835352.7994
       161.0004        162.0004
   -747902.97548   -231921.50246  24227807.012    24227807.3624   24227816.4964
       182.0004        182.0004
  -4805871.96247  -3731258.75545  24087987.319    24087987.7054   24088000.5304
       145.0004        149.0004
 -10641457.54747  -8276755.78845  22729453.583    22729453.2464   22729457.6774
       156.0004        159.0004
 -16552888.77449 -12887104.42248  21816125.553    21816125.7434   21816132.1654
       218.0004        217.0004
 21  2  5  0 19 30.0000000  0  9G08G16G04G09G07G03G01G21G27
 -23384061.25849 -18204934.75148  20170413.480    20170413.8504   20170421.5664
       213.0004        213.0004
  -1284418.77447   -980134.43645  24307757.535    24307758.5834   24307758.3364
       135.0004        141.0004
 -21752670.31049 -16929047.41747  20385520.187    20385520.6964   20385526.4794
       211.0004        210.0004
 -17785648.74249 -13840489.94347  21059211.638    21059212.0304   21059218.3714
       208.0004        209.0004
  -5183052.55047  -4026331.02446  23822282.875    23822283.0204   23822289.2064
       162.0004        165.0004
   -690696.57148   -187345.17846  24238690.245    24238691.9864   24238702.6904
       179.0004        179.0004
  -4874873.74147  -3785026.21645  24074858.533    24074859.8184   24074867.9754
       148.0004        152.0004
 -10691546.09047  -8315785.77045  22719921.292    22719921.4814   22719927.1674
       157.0004        159.0004
 -16474626.14249 -12826120.55548  21831018.645    21831018.5104   21831025.7384
       218.0004        217.0004
 21  2  5  0 20  0.0000000  0  9G08G16G04G09G07G03G01G21G27
 -23370889.21349 -18194670.80248  20172919.889    20172920.4274   20172927.9364
       213.0004        213.0004
  -1205611.33747   -918726.01845  24322755.144    24322755.1014   24322757.2414
       137.0004        141.0004
 -21720956.21349 -16904335.14047  20391555.806    20391556.1374   20391561.6664
       211.0004        210.0004
 -17825528.38549 -13871564.98347  21051623.416    21051623.5984   21051630.1004
       209.0004        209.0004
  -5251843.59647  -4079934.39746  23809194.479    23809193.8904   23809198.0604
       164.0004        166.0004
   -633673.92648   -142912.06946  24249541.457    24249542.6904   24249553.5924
       175.0004        174.0004
  -4944077.47547  -3838951.06045  24061689.090    24061689.7004   24061698.3254
       147.0004        150.0004
 -10741534.18347  -8354737.45445  22710410.297    22710409.7844   22710415.3724
       157.0004        159.0004
 -16395942.84549 -12764808.88648  21845991.935    21845992.0784   21845998.5104
       219.0004        219.0004
 21  2  5  0 20 30.0000000  0  9G08G16G04G09G07G03G01G21G27
 -23357117.04249 -18183939.22948  20175540.770    20175541.1464   20175548.7494
       212.0004        213.0004
  -1126952.86347   -857433.74845  24337722.156    24337722.2504   24337727.0864
       136.0004        139.0004
 -21688691.39049 -16879193.72947  20397695.028    20397695.5534   20397701.7544
       211.0004        210.0004
 -17864880.58749 -13902229.03247  21044134.946    21044135.0374   21044141.5864
       209.0004        209.0004
  -5320770.35147  -4133643.53146  23796077.101    23796077.6694   23796081.5164
       164.0004        164.0004
   -576838.15648    -98624.57846  24260357.995    24260358.7764   24260369.3854
       174.0004        174.0004
  -5013482.14047  -3893032.48345  24048481.627    24048481.9824   24048491.4374
       145.0004        149.0004
 -10791420.06547  -8393609.52245  22700916.100    22700915.8744   22700922.4634
       157.0004        160.0004
 -16316842.77149 -12703172.48148  21861044.547    21861044.3374   21861050.3334
       219.0004        218.0004
 21  2  5  0 21  0.0000000  0  9G08G16G04G09G07G03G01G21G27
 -23342744.69949 -18172739.98648  20178276.116    20178276.4914   20178283.5464
       212.0004        213.0004
  -1048443.21146   -796257.39345  24352661.326    24352660.1304   24352664.6434
       131.0004        138.0004
 -21655875.84349 -16853623.17347  20403939.994    20403940.4144   20403945.9464
       211.0004        210.0004
 -17903702.86449 -13932480.14947  21036746.560    21036746.9694   21036753.7754
       209.0004        209.0004
  -5389830.58047  -4187456.65646  23782933.848    23782934.7064   23782939.3514
       162.0004        163.0004
   -520190.05448    -54483.27846  24271139.323    24271139.9634   24271149.6534
       176.0004        179.0004
  -5083084.59247  -3947268.04045  24035235.745    24035235.3254   24035245.1374
       143.0004        146.0004
 -10841200.02947  -8432399.02445  22691443.493    22691443.0984   22691447.8024
       157.0004        158.0004
 -16237327.61049 -12641212.61848  21876175.005    21876175.3224   21876181.7654
       218.0004        217.0004
 21  2  5  0 21 30.0000000  0  9G08G16G04G09G07G03G01G21G27
 -23327773.02749 -18161073.73548  20181125.255    20181125.2444   20181132.8094
       213.0004        213.0004
   -970083.27446   -735197.65845  24367572.042    24367570.8984   24367579.3194
       130.0004        138.0004
 -21622510.80549 -16827624.44747  20410289.082    20410289.7244   20410295.4044
       211.0004        210.0004
 -17941993.96749 -13962317.37047  21029459.662    21029460.0584   21029467.0114
       208.0004        209.0004
  -5459023.03247  -4241372.83246  23769768.557    23769768.0244   23769772.2644
       163.0004        164.0004
   -463731.71648    -10489.84546  24281882.394    24281883.3584   24281893.2124
       178.0004        179.0004
  -5152882.83647  -4001656.12645  24021953.710    24021954.8394   24021964.5124
       144.0004        149.0004
 -10890871.76247  -8471104.18445  22681991.234    22681990.5424   22681997.0614
       157.0004        160.0004
 -16157400.29149 -12578931.58248  21891384.823    21891385.1794   21891391.5584
       218.0004        218.0004
 21  2  5  0 22  0.0000000  0  9G08G16G04G09G07G03G01G21G27
 -23312203.05149 -18148941.26648  20184087.477    20184087.9524   20184095.7334
       213.0004        213.0004
   -891874.07046   -674255.43045  24382456.131    24382457.1894   24382461.3324
       129.0004        138.0004
 -21588597.39249 -16801198.41047  20416742.270    20416742.5674   20416749.2994
       211.0004        209.0004
 -17979752.47449 -13991739.57547  21022274.371    21022274.9304   21022282.0794
       208.0004        209.0004
  -5528347.51247  -4295391.87646  23756575.888    23756575.9714   23756581.6374
       163.0004        166.0004
   -407464.94548     33354.26346  24292588.461    24292589.7294   24292600.1544
       176.0004        177.0004
  -5222874.70647  -4056195.09345  24008636.299    24008635.9344   24008645.3824
       146.0004        149.0004
 -10940431.96947  -8509722.43645  22672559.089    22672559.7344   22672566.3574
       157.0004        159.0004
 -16077063.60949 -12516331.57948  21906672.827    21906672.7224   21906678.7754
       218.0004        218.0004
 21  2  5  0 22 30.0000000  0  9G08G16G04G09G07G03G01G21G27
 -23296035.04449 -18136342.79748  20187164.377    20187164.6934   20187172.3484
       213.0004        213.0004
   -813816.12046   -613431.06345  24397309.860    24397308.1804   24397310.4484
       125.0004        134.0004
 -21554136.66549 -16774345.89847  20423300.564    20423300.4714   20423305.7594
       211.0004        209.0004
 -18016976.93449 -14020745.63747  21015190.814    21015191.1594   21015198.2894
       208.0004        209.0004
  -5597802.40947  -4349512.55246  23743359.279    23743359.4864   23743363.5424
       164.0004        165.0004
   -351391.57748     77047.67246  24303259.666    24303260.2524   24303272.2304
       176.0004        177.0004
  -5293057.96047  -4110883.22245  23995279.791    23995280.1404   23995290.4644
       147.0004        151.0004
 -10989877.89447  -8548251.65645  22663150.576    22663149.2554   22663158.0344
       157.0004        158.0004
 -15996320.21649 -12453414.63448  21922037.615    21922037.5774   21922043.8374
       218.0004        217.0004
 21  2  5  0 23  0.0000000  0  9G08G16G04G09G07G03G01G21G27
 -23279270.43149 -18123279.45648  20190354.142    20190354.7234   20190362.4944
       212.0004        213.0004
   -735910.67446   -552725.49945  24412135.348    24412137.3434   24412136.3554
       126.0004        135.0004
 -21519130.05849 -16747068.03547  20429961.727    20429962.1854   20429967.6514
       210.0004        209.0004
 -18053666.28449 -14049334.73447  21008209.883    21008210.1344   21008216.9684
       209.0004        210.0004
  -5667387.18047  -4403734.46546  23730115.988    23730116.2594   23730122.5544
       163.0004        164.0004
   -295513.72148    120588.75746  24313894.199    24313893.9114   24313904.4564
       177.0004        177.0004
  -5363430.67947  -4165718.97545  23981888.379    23981887.6814   23981898.8684
       147.0004        150.0004
 -11039207.54547  -8586690.27245  22653762.316    22653763.5044   22653768.1984
       155.0004        156.0004
 -15915173.20449 -12390183.20248  21937479.631    21937479.2034   21937485.9704
       217.0004        217.0004
 21  2  5  0 23 30.0000000  0  9G08G16G04G09G07G03G01G21G27
 -23261909.64649 -18109751.55048  20193657.966    20193658.2134   20193666.3674
       212.0004        213.0004
   -658157.99646   -492139.02745  24426929.984    24426929.7764   24426936.6024
       130.0004        139.0004
 -21483578.37549 -16719365.42147  20436726.736    20436726.8824   20436733.3274
       210.0004        208.0004
 -18089818.79249 -14077505.50247  21001330.424    21001330.7844   21001337.5634
       211.0004        212.0004
  -5737100.68047  -4458056.62846  23716850.169    23716850.9364   23716856.3204
       161.0004        163.0004
   -239832.83148    163976.38846  24324488.500    24324490.0634   24324499.8514
       176.0004        176.0004
  -5433990.26747  -4220700.35345  23968461.506    23968461.2394   23968471.9014
       144.0004        147.0004
 -11088417.24647  -8625035.40745  22644400.366    22644399.4774   22644404.8404
       156.0004        160.0004
 -15833624.99149 -12326639.13048  21952995.895    21952997.0384   21953004.0594
       217.0004        216.0004
 21  2  5  0 24  0.0000000  0  9G08G16G04G09G07G03G01G21G27
 -23243954.23449 -18095760.30948  20197074.935    20197075.3864   20197083.0044
       213.0004        213.0004
   -580559.63946   -431672.77745  24441697.561    24441697.2184   24441700.7344
       131.0004        138.0004
 -21447483.53149 -16691239.57247  20443595.362    20443596.1024   20443601.7164
       210.0004        209.0004
 -18125433.90049 -14105257.51947  20994552.908    20994553.0734   20994560.0404
       211.0004        211.0004
  -5806941.97147  -4512478.37946  23703561.190    23703561.3634   23703566.6144
       163.0004        166.0004
   -184351.47948    207208.49146  24335046.994    24335047.6044   24335057.4764
       174.0004        174.0004
  -5504735.20347  -4275826.18645  23954998.610    23955000.5834   23955007.8694
       145.0004        149.0004
 -11137504.80047  -8663285.36645  22635059.106    22635057.9474   22635064.3784
       157.0004        160.0004
 -15751679.09749 -12262785.19448  21968590.645    21968590.3924   21968597.7724
       216.0004        215.0004
 21  2  5  0 24 30.0000000  0  9G08G16G04G09G07G03G01G21G27
 -23225405.43949 -18081306.68748  20200605.498    20200605.3884   20200612.6574
       212.0004        213.0004
   -503116.48546   -371327.45845  24456433.530    24456431.9654   24456438.6004
       128.0004        135.0004
 -21410846.85949 -16662691.51747  20450567.393    20450567.7074   20450573.5444
       210.0004        208.0004
 -18160510.41149 -14132589.86147  20987877.440    20987878.4054   20987885.0884
       210.0004        211.0004
  -5876910.24748  -4566999.10546  23690246.723    23690247.6144   23690251.8674
       166.0004        169.0004
   -129071.61848    250283.61346  24345567.121    24345567.9084   24345578.0334
       174.0004        175.0004
  -5575663.36847  -4331094.76945  23941500.923    23941501.4664   23941509.6894
       146.0004        149.0004
 -11186468.11347  -8701438.52845  22625740.006    22625739.9134   22625745.4074
       157.0004        157.0004
 -15669338.42949 -12198623.63948  21984258.650    21984259.2124   21984266.4974
       215.0004        214.0004
 21  2  5  0 25  0.0000000  0  9G08G16G04G09G07G03G01G21G27
 -23206263.68049 -18066391.02248  20204247.071    20204247.6674   20204254.9854
       212.0004        213.0004
   -425828.42846   -311103.00845  24471142.455    24471142.7734   24471146.7584
       126.0004        133.0004
 -21373668.90749 -16633721.69047  20457642.367    20457642.7004   20457648.3694
       210.0004        209.0004
 -18195046.35149 -14159500.96947  20981305.937    20981306.1794   20981312.8294
       210.0004        211.0004
  -5947003.60548  -4621617.30846  23676908.992    23676909.3104   23676912.6664
       167.0004        167.0004
    -73994.29048    293200.90546  24356047.872    24356048.2194   24356057.4084
       172.0004        172.0004
  -5646771.86347  -4386503.85045  23927969.325    23927969.4004   23927979.5384
       145.0004        148.0004
 -11235303.51247  -8739492.00745  22616447.315    22616445.8704   22616453.6134
       156.0004        157.0004
 -15586605.05849 -12134156.07848  22000003.537    22000003.4374   22000010.1424
       215.0004        215.0004
 21  2  5  0 25 30.0000000  0  9G08G16G04G09G07G03G01G21G27
 -23186530.82849 -18051014.74748  20208002.196    20208002.5474   20208010.1704
       212.0004        213.0004
   -348697.57646   -251001.03344  24485816.499    24485816.1714   24485822.2584
       124.0004        131.0004
 -21335951.97749 -16604331.86947  20464819.542    20464819.9864   20464825.7354
       210.0004        209.0004
 -18229041.52449 -14185990.68447  20974836.966    20974837.0144   20974844.2974
       211.0004        211.0004
  -6017222.15047  -4676333.03545  23663544.630    23663545.5644   23663549.9384
       163.0004        161.0004
    -19122.35548    335958.10746  24366488.677    24366489.6324   24366499.5004
       171.0004        172.0004
  -5718059.41047  -4442052.43045  23914404.797    23914403.7664   23914413.0434
       144.0004        147.0004
 -11284009.03747  -8777444.28845  22607177.761    22607178.2964   22607183.5854
       155.0004        157.0004
 -15503482.93349 -12069385.56948  22015820.713    22015821.3634   22015827.7844
       215.0004        215.0004
 21  2  5  0 26  0.0000000  0  9G08G16G04G09G07G03G01G21G27
 -23166206.11749 -18035177.29647  20211869.617    20211870.0634   20211877.7474
       212.0004        212.0004
   -271722.80046   -191020.68944  24500464.695    24500464.9884   24500470.1354
       123.0004        131.0004
 -21297695.79649 -16574521.86347  20472099.250    20472099.5834   20472105.8894
       210.0004        208.0004
 -18262493.14149 -14212056.87047  20968471.098    20968471.5364   20968478.2994
       211.0004        211.0004
  -6087563.43647  -4731144.39746  23650159.863    23650160.4954   23650164.6244
       161.0004        163.0004
     35543.94148    378555.09046  24376891.748    24376893.0024   24376903.3234
       173.0004        174.0004
  -5789522.16747  -4497737.53645  23900805.084    23900805.3384   23900815.7234
       144.0004        147.0004
 -11332580.81847  -8815292.36945  22597935.699    22597936.0384   22597941.4634
       156.0004        159.0004
 -15419973.28449 -12004313.12148  22031712.130    22031712.4394   22031719.3564
       215.0004        214.0004
 21  2  5  0 26 30.0000000  0  9G08G16G04G09G07G03G01G21G27
 -23145292.17549 -18018880.71447  20215849.509    20215850.1114   20215857.3554
       212.0004        212.0004
   -194906.52046   -131163.86745  24515084.270    24515087.1704   24515090.0754
       127.0004        135.0004
 -21258903.05049 -16544293.76447  20479481.205    20479481.7994   20479487.7234
       210.0004        209.0004
 -18295401.33049 -14237699.61447  20962208.909    20962209.2444   20962216.3754
       211.0004        212.0004
  -6158027.33947  -4786051.33246  23636751.512    23636751.5744   23636756.3124
       162.0004        164.0004
     90001.55548    420989.50146  24387253.562    24387254.8134   24387266.9714
       174.0004        176.0004
  -5861159.20247  -4553558.47445  23887171.972    23887172.2304   23887183.1224
       143.0004        146.0004
 -11381016.79247  -8853034.65245  22588719.048    22588719.1544   22588724.5104
       157.0004        160.0004
 -15336080.23949 -11938941.92148  22047676.071    22047676.3694   22047684.0324
       214.0004        214.0004
 21  2  5  0 27  0.0000000  0  9G08G16G04G09G07G03G01G21G27
 -23123789.71249 -18002125.53547  20219941.266    20219941.6054   20219949.3244
       211.0004        212.0004
   -118248.76846    -71430.50945  24529671.679    24529673.8514   24529674.9464
       126.0004        134.0004
 -21219574.73049 -16513648.32047  20486964.704    20486965.6444   20486971.7204
       209.0004        208.0004
 -18327764.57249 -14262917.70647  20956049.769    20956050.5914   20956057.8704
       211.0004        211.0004
  -6228612.43647  -4841052.64846  23623318.935    23623319.8214   23623324.8154
       162.0004        165.0004
    144249.07348    463260.16146  24397578.646    24397578.8894   24397591.0084
       175.0004        177.0004
  -5932967.89147  -4609513.14945  23873507.705    23873508.6314   23873516.6924
       142.0004        147.0004
 -11429314.19147  -8890668.90345  22579527.759    22579527.4454   22579533.6144
       158.0004        159.0004
 -15251806.37249 -11873273.96648  22063713.044    22063713.2904   22063720.9614
       214.0004        213.0004
 21  2  5  0 27 30.0000000  0  9G08G16G04G09G07G03G01G21G27
 -23101700.16149 -17984912.88547  20224144.650    20224145.2044   20224152.6834
       211.0004        212.0004
    -41750.61746    -11821.56945  24544228.019    24544227.1624   24544233.3054
       128.0004        136.0004
 -21179712.74049 -16482587.03447  20494551.144    20494551.3254   20494557.1264
       209.0004        208.0004
 -18359582.28749 -14287710.72347  20949995.985    20949996.4054   20950002.6164
       211.0004        212.0004
  -6299317.96147  -4896147.82946  23609865.261    23609865.4374   23609869.4204
       163.0004        165.0004
    198284.23748    505365.34046  24407861.404    24407861.8444   24407872.2584
       175.0004        175.0004
  -6004946.45747  -4665600.17145  23859809.109    23859810.0854   23859819.2474
       142.0004        145.0004
 -11477470.75847  -8928193.43845  22570365.379    22570364.6134   22570369.6974
       158.0004        159.0004
 -15167155.02949 -11807311.88147  22079822.198    22079821.9274   22079828.7344
       212.0004        211.0004
 21  2  5  0 28  0.0000000  0  9G08G16G04G09G07G03G01G21G27
 -23079025.12249 -17967244.01547  20228459.392    20228459.6914   20228467.7394
       211.0004        211.0004
     34586.94046     47662.22945  24558758.273    24558757.1934   24558758.5834
       130.0004        137.0004
 -21139318.70349 -16451111.16347  20502237.348    20502237.9034   20502244.1224
       209.0004        208.0004
 -18390853.56249 -14312077.93647  20944045.110    20944045.4754   20944052.1714
       211.0004        212.0004
  -6370143.25447  -4951336.33846  23596387.657    23596387.3264   23596392.1144
       163.0004        165.0004
    252105.06048    547303.49346  24418103.454    24418102.9534   24418113.8374
       170.0004        170.0004
  -6077092.85947  -4721818.00245  23846079.397    23846080.5434   23846091.7684
       140.0004        144.0004
 -11525483.93747  -8965606.25945  22561227.772    22561227.0604   22561232.4884
       157.0004        159.0004
 -15082129.36449 -11741058.10747  22096000.950    22096001.3404   22096008.9484
       212.0004        212.0004
 21  2  5  0 28 30.0000000  0  9G08G16G04G09G07G03G01G21G27
 -23055765.09049 -17949119.30047  20232885.916    20232885.9864   20232893.4974
       211.0004        211.0004
    110763.41346    107020.51245  24573250.485    24573250.5024   24573259.5994
       127.0004        134.0004
 -21098393.63349 -16419221.50247  20510025.125    20510025.7744   20510031.6214
       209.0004        207.0004
 -18421576.90649 -14336018.19547  20938198.727    20938198.9354   20938205.6044
       211.0004        212.0004
  -6441086.55547  -5006616.79946  23582887.850    23582887.5334   23582892.1074
       164.0004        167.0004
    305710.20948    589073.60346  24428303.344    24428303.8304   24428313.3244
       167.0004        167.0004
  -6149404.32147  -4778164.43945  23832319.156    23832320.3704   23832331.6804
       140.0004        145.0004
 -11573350.43747  -9002904.78545  22552120.914    22552120.1024   22552124.2794
       158.0004        161.0004
 -14996731.78849 -11674514.54147  22112252.458    22112251.9224   22112259.1744
       211.0004        211.0004
 21  2  5  0 29  0.0000000  0  9G08G16G04G09G07G03G01G21G27
 -23031921.93849 -17930540.20147  20237423.188    20237423.2764   20237431.0384
       211.0004        211.0004
    186778.30946    166252.89045  24587718.912    24587717.2864   24587722.8124
       128.0004        135.0004
 -21056939.27649 -16386919.40647  20517913.441    20517913.9404   20517919.8274
       208.0004        207.0004
 -18451751.54849 -14359530.88547  20932456.714    20932456.7564   20932463.6264
       211.0004        211.0004
  -6512146.53448  -5061988.15746  23569363.579    23569364.7344   23569370.1144
       165.0004        166.0004
    359097.62148    630674.08946  24438463.770    24438464.5194   24438473.3874
       171.0004        174.0004
  -6221878.79347  -4834637.91645  23818526.777    23818529.0484   23818539.5364
       143.0004        147.0004
 -11621067.69547  -9040086.99945  22543039.256    22543038.3564   22543043.2654
       159.0004        162.0004
 -14910965.52149 -11607683.67347  22128572.498    22128572.6934   22128580.3654
       211.0004        212.0004
 21  2  5  0 29 30.0000000  0  9G08G16G04G09G07G03G01G21G27
 -23007495.28749 -17911506.44147  20242071.223    20242071.3824   20242079.2984
       211.0004        211.0004
    262631.57846    225359.32145  24602151.470    24602150.4184   24602154.4874
       128.0004        135.0004
 -21014956.12249 -16354205.26947  20525902.996    20525903.2904   20525908.9504
       208.0004        207.0004
 -18481375.43149 -14382614.42347  20926819.069    20926819.3364   20926826.5264
       211.0004        211.0004
  -6583321.92148  -5117449.44346  23555819.053    23555820.5064   23555825.8414
       165.0004        167.0004
    412266.64148    672104.38046  24448580.839    24448581.8414   24448592.2394
       174.0004        176.0004
  -6294512.98247  -4891235.83145  23804705.654    23804707.3114   23804718.2014
       145.0004        149.0004
 -11668632.05447  -9077150.09245  22533985.903    22533987.3514   22533993.3874
       160.0004        161.0004
 -14824832.44449 -11540566.98547  22144963.736    22144963.5104   22144970.8074
       212.0004        212.0004
 21  2  5  0 30  0.0000000  0  9G08G16G04G09G07G03G01G21G27
 -22982487.39849 -17892019.76447  20246830.264    20246830.3584   20246838.0224
       211.0004        211.0004
    338322.23346    284339.03745  24616556.729    24616555.6824   24616556.7914
       128.0004        135.0004
 -20972445.97049 -16321080.48647  20533992.163    20533992.6594   20533998.5074
       208.0004        206.0004
 -18510447.90049 -14405268.29147  20921286.413    20921287.0244   20921293.7034
       210.0004        210.0004
  -6654611.26648  -5172999.56946  23542255.413    23542254.9134   23542259.1174
       167.0004        168.0004
    465215.20348    713362.86346  24458656.667    24458657.1434   24458667.6494
       171.0004        171.0004
  -6367304.90147  -4947956.68545  23790854.613    23790856.0054   23790865.1704
       144.0004        147.0004
 -11716041.17847  -9114092.23346  22524966.326    22524965.1244   22524970.7444
       160.0004        163.0004
 -14738335.80149 -11473166.99847  22161423.769    22161423.4184   22161431.0444
       212.0004        212.0004
 21  2  5  0 30 30.0000000  0  9G08G16G04G09G07G03G01G21G27
 -22956900.34349 -17872081.78647  20251699.020    20251699.1504   20251706.8994
       210.0004        211.0004
    413848.37946    343190.56945  24630924.719    24630926.9364   24630930.6074
       127.0004        136.0004
 -20929411.91549 -16287547.45847  20542181.041    20542181.4454   20542187.8414
       208.0004        206.0004
 -18538969.49949 -14427492.89847  20915859.509    20915859.1954   20915866.2064
       210.0004        210.0004
  -6726015.02648  -5228638.82446  23528665.184    23528666.5314   23528671.6124
       167.0004        168.0004
    517940.10448    754447.07246  24468690.234    24468690.4304   24468701.4934
       170.0004        171.0004
  -6440253.67047  -5004799.74845  23776972.696    23776973.5504   23776983.8694
       144.0004        149.0004
 -11763293.90347  -9150912.49046  22515974.492    22515974.6754   22515979.1964
       162.0004        164.0004
 -14651480.04249 -11405487.17347  22177950.521    22177950.9174   22177959.1194
       212.0004        211.0004
 21  2  5  0 31  0.0000000  0  9G08G16G04G09G07G03G01G21G27
 -22930733.81449 -17851692.27347  20256677.928    20256678.5404   20256686.0804
       210.0004        211.0004
    489211.54246    401915.04545  24645267.401    24645265.5464   24645273.6434
       127.0004        134.0004
 -20885853.34249 -16253605.71847  20550470.379    20550470.7104   20550476.9204
       208.0004        207.0004
 -18566937.08249 -14449285.81547  20910536.632    20910537.0094   20910544.3274
       210.0004        210.0004
  -6797529.89848  -5284364.65246  23515056.317    23515057.6674   23515061.7484
       166.0004        168.0004
    570441.82348    795357.40246  24478680.085    24478680.6674   24478693.3694
       170.0004        171.0004
  -6513354.70747  -5061761.44445  23763060.232    23763061.8594   23763072.2654
       144.0004        148.0004
 -11810384.81147  -9187606.65446  22507013.378    22507012.7214   22507018.7344
       163.0004        164.0004
 -14564265.90849 -11337528.10447  22194547.131    22194547.6024   22194555.3124
       211.0004        211.0004
 21  2  5  0 31 30.0000000  0  9G08G16G04G09G07G03G01G21G27
 -22903989.90749 -17830852.84947  20261767.616    20261767.9654   20261775.3754
       211.0004        211.0004
    564410.27946    460511.51845  24659580.397    24659580.4284   24659582.3454
       127.0004        135.0004
 -20841772.59649 -16219257.09247  20558858.446    20558859.0164   20558865.3594
       208.0004        206.0004
 -18594350.55049 -14470646.95247  20905320.128    20905320.6254   20905327.8664
       210.0004        211.0004
  -6869155.16548  -5340176.49446  23501427.551    23501428.0834   23501433.1614
       166.0004        168.0004
    622717.91548    836091.87446  24488628.936    24488629.6424   24488639.3824
       170.0004        170.0004
  -6586606.53247  -5118840.66945  23749121.104    23749122.9544   23749134.7304
       144.0004        149.0004
 -11857311.91247  -9224173.20246  22498083.694    22498082.6454   22498088.2894
       163.0004        164.0004
 -14476697.14549 -11269292.70947  22211212.574    22211211.9714   22211218.8664
       211.0004        211.0004
 21  2  5  0 32  0.0000000  0  9G08G16G04G09G07G03G01G21G27
 -22876670.71949 -17809565.15147  20266966.404    20266966.5154   20266974.3664
       211.0004        211.0004
    639443.24046    518978.77445  24673854.338    24673855.9254   24673861.7804
       131.0004        138.0004
 -20797172.10449 -16184503.46347  20567344.934    20567345.8234   20567352.1644
       207.0004        205.0004
 -18621209.74049 -14491576.18347  20900209.221    20900209.6714   20900216.7924
       211.0004        212.0004
  -6940890.48148  -5396074.10846  23487778.099    23487778.8274   23487782.9524
       169.0004        172.0004
    674765.95048    876648.63946  24498532.695    24498534.0144   24498543.8254
       168.0004        169.0004
  -6660007.46947  -5176036.07045  23735154.114    23735155.1804   23735166.3094
       144.0004        148.0004
 -11904074.19247  -9260611.28246  22489183.401    22489183.5874   22489188.6514
       163.0004        164.0004
 -14388777.47849 -11200783.86847  22227942.090    22227942.5444   22227949.1604
       211.0004        210.0004
 21  2  5  0 32 30.0000000  0  9G08G16G04G09G07G03G01G21G27
 -22848777.76949 -17787830.36747  20272273.873    20272274.4524   20272282.1554
       211.0004        211.0004
    714309.31846    577315.95845  24688103.174    24688102.8424   24688107.9264
       133.0004        139.0004
 -20752053.70049 -16149346.27547  20575931.378    20575932.0844   20575938.1184
       207.0004        206.0004
 -18647514.08049 -14512073.05547  20895203.909    20895204.2844   20895210.8664
       211.0004        212.0004
  -7012734.99748  -5452056.83146  23474107.294    23474106.8454   23474110.6054
       171.0004        172.0004
    726583.92048    917026.14446  24508392.405    24508394.1924   24508405.5154
       167.0004        168.0004
  -6733555.37047  -5233346.00745  23721159.016    23721158.9994   23721170.6424
       146.0004        149.0004
 -11950668.54947  -9296918.52246  22480318.258    22480316.5484   22480323.5784
       163.0004        165.0004
 -14300510.13149 -11132004.11147  22244740.046    22244739.7204   22244745.8124
       211.0004        211.0004
 21  2  5  0 33  0.0000000  0  9G08G16G04G09G07G03G01G21G27
 -22820311.87549 -17765649.13547  20277690.996    20277691.3454   20277699.0414
       211.0004        211.0004
    789008.43246    635523.06445  24702313.909    24702315.1634   24702322.8804
       132.0004        138.0004
 -20706418.66849 -16113786.52147  20584615.417    20584615.7804   20584621.7074
       207.0004        205.0004
 -18673262.28949 -14532136.58847  20890304.018    20890304.2924   20890311.0464
       211.0004        211.0004
  -7084686.83348  -5508123.17346  23460413.182    23460413.4144   23460418.7344
       169.0004        169.0004
    778170.54448    957223.41746  24518208.899    24518209.9934   24518223.7484
       167.0004        169.0004
  -6807247.50647  -5290768.35345  23707133.305    23707135.6174   23707146.6824
       147.0004        151.0004
 -11997091.74647  -9333092.38346  22471483.043    22471482.7974   22471489.9364
       163.0004        164.0004
 -14211897.64949 -11062955.41347  22261602.894    22261602.2694   22261608.6684
       211.0004        211.0004
 21  2  5  0 33 30.0000000  0  8G08G04G09G07G03G01G21G27
 -22791272.54949 -17743021.06847  20283217.111    20283217.1354   20283225.1994
       211.0004        212.0004
 -20660266.46249 -16077823.77047  20593397.913    20593398.6384   20593404.8864
       207.0004        205.0004
 -18698451.32649 -14551764.39947  20885511.048    20885511.5464   20885518.0954
       211.0004        211.0004
  -7156742.63148  -5564270.49946  23446699.980    23446701.1254   23446706.7254
       168.0004        169.0004
    829526.55348    997240.94346  24527984.695    24527984.8034   24527995.5804
       168.0004        170.0004
  -6881079.18347  -5348299.39045  23693087.358    23693086.5674   23693097.1014
       149.0004        152.0004
 -12043338.66547  -9369128.90246  22462682.083    22462682.4754   22462687.7754
       162.0004        164.0004
 -14122940.75249 -10993638.35047  22278529.455    22278529.8924   22278536.2694
       211.0004        211.0004
 21  2  5  0 34  0.0000000  0  8G08G04G09G07G03G01G21G27
 -22761663.59249 -17719949.13847  20288851.250    20288851.8804   20288859.5684
       211.0004        212.0004
 -20613600.68149 -16041460.82647  20602277.992    20602278.7434   20602285.0444
       206.0004        205.0004
 -18723082.34949 -14570957.39447  20880823.719    20880823.9984   20880830.9154
       211.0004        212.0004
  -7228903.16248  -5620499.43146  23432969.652    23432970.6574   23432975.4464
       168.0004        171.0004
    880648.36548   1037075.93446  24537713.647    24537712.7864   24537723.1624
       169.0004        170.0004
  -6955049.84347  -5405938.74845  23679010.530    23679010.3244   23679020.3184
       149.0004        151.0004
 -12089408.77047  -9405027.63646  22453914.754    22453915.6294   22453920.5534
       162.0004        165.0004
 -14033644.35849 -10924056.74247  22295522.179    22295522.7684   22295528.9964
       211.0004        210.0004
 21  2  5  0 34 30.0000000  0  8G08G04G09G07G03G01G21G27
 -22731486.54649 -17696434.53447  20294594.956    20294594.9454   20294601.7624
       212.0004        212.0004
 -20566423.84149 -16004699.66047  20611255.502    20611256.1124   20611261.8604
       206.0004        204.0004
 -18747155.32649 -14589715.54447  20876242.839    20876242.8784   20876249.9214
       211.0004        211.0004
  -7301167.76748  -5676809.47746  23419219.652    23419220.2924   23419223.4224
       171.0004        173.0004
    931533.60048   1076726.61646  24547395.614    24547395.7924   24547407.4904
       170.0004        172.0004
  -7029157.88447  -5463685.16645  23664906.912    23664908.5594   23664917.3514
       147.0004        150.0004
 -12135299.95147  -9440786.95646  22445183.523    22445182.5954   22445188.9954
       163.0004        164.0004
 -13944012.18449 -10854213.47047  22312579.121    22312578.8134   22312585.2514
       211.0004        211.0004
 21  2  5  0 35  0.0000000  0  8G08G04G09G07G03G01G21G27
 -22700743.39949 -17672478.82347  20300444.599    20300444.6004   20300452.0504
       211.0004        212.0004
 -20518737.85949 -15967541.75647  20620329.843    20620330.2674   20620336.2414
       205.0004        204.0004
 -18770669.69249 -14608038.42547  20871767.959    20871768.4014   20871775.0964
       211.0004        211.0004
  -7373535.16448  -5733199.64446  23405448.556    23405448.6564   23405452.2384
       173.0004        174.0004
    982180.43948   1116191.54346  24557030.948    24557032.6934   24557045.3374
       171.0004        172.0004
  -7103401.00247  -5521536.83945  23650779.223    23650779.9964   23650788.9494
       148.0004        151.0004
 -12181009.73447  -9476404.90846  22436484.458    22436484.3474   22436491.0604
       163.0004        165.0004
 -13854047.37149 -10784111.01647  22329697.807    22329698.4504   22329704.8154
       211.0004        211.0004
 21  2  5  0 35 30.0000000  0  8G08G04G09G07G03G01G21G27
 -22669434.33249 -17648082.13247  20306401.879    20306402.1914   20306409.4924
       211.0004        211.0004
 -20470543.13849 -15929987.43647  20629501.368    20629501.6724   20629507.5734
       205.0004        204.0004
 -18793623.44549 -14625924.44947  20867399.498    20867399.9614   20867407.3394
       210.0004        211.0004
  -7446002.85648  -5789667.92846  23391656.870    23391657.5324   23391662.5224
       172.0004        173.0004
   1032588.71748   1155470.55846  24566625.092    24566626.0244   24566636.2534
       170.0004        171.0004
  -7177775.42547  -5579490.79645  23636627.722    23636626.6844   23636635.9224
       149.0004        152.0004
 -12226533.88247  -9511878.22646  22427822.278    22427822.3834   22427826.9684
       163.0004        164.0004
 -13763751.62349 -10713750.69147  22346880.701    22346880.5694   22346887.5294
       211.0004        210.0004
 21  2  5  0 36  0.0000000  0  8G08G04G09G07G03G01G21G27
 -22637561.33149 -17623246.01647  20312468.047    20312467.6644   20312474.9394
       211.0004        211.0004
 -20421842.03049 -15892038.52947  20638768.958    20638769.1434   20638775.1814
       205.0004        204.0004
 -18816016.36649 -14643373.47247  20863138.871    20863139.1624   20863146.0404
       211.0004        211.0004
  -7518570.03348  -5846213.75946  23377848.920    23377848.2564   23377853.0964
       172.0004        172.0004
   1082756.24548   1194561.99246  24576171.463    24576172.4734   24576182.4184
       168.0004        168.0004
  -7252279.11647  -5637545.48945  23622448.789    23622448.9374   23622458.5844
       150.0004        154.0004
 -12271870.05547  -9547205.07146  22419195.633    22419194.2064   22419199.1344
       164.0004        166.0004
 -13673128.41749 -10643135.20947  22364125.675    22364126.2614   22364132.2154
       210.0004        209.0004
 21  2  5  0 36 30.0000000  0  8G08G04G09G07G03G01G21G27
 -22605126.04349 -17597971.74447  20318639.584    20318640.0874   20318647.4314
       211.0004        212.0004
 -20372636.06849 -15853696.22347  20648132.484    20648132.8844   20648138.6854
       205.0004        204.0004
 -18837847.55749 -14660384.77047  20858984.563    20858984.8704   20858991.7644
       211.0004        212.0004
  -7591235.03248  -5902835.78646  23364020.617    23364021.3004   23364025.7444
       172.0004        172.0004
   1132681.79248   1233464.84346  24585673.107    24585673.2234   24585684.1574
       168.0004        170.0004
  -7326909.45047  -5695698.84745  23608247.387    23608247.6204   23608255.6104
       150.0004        153.0004
 -12317015.83848  -9582383.55546  22410604.522    22410604.1374   22410610.4444
       165.0004        168.0004
 -13582180.52249 -10572266.69747  22381432.086    22381433.2764   22381439.2234
       209.0004        209.0004
 21  2  5  0 37  0.0000000  0  8G08G04G09G07G03G01G21G27
 -22572130.10649 -17572260.61047  20324918.764    20324919.2694   20324926.6014
       211.0004        212.0004
 -20322927.49749 -15814962.26947  20657591.384    20657591.9664   20657598.2024
       205.0004        204.0004
 -18859116.77449 -14676958.17147  20854936.942    20854937.5054   20854944.3644
       211.0004        212.0004
  -7663996.90148  -5959533.30046  23350173.814    23350173.9404   23350179.0974
       170.0004        171.0004
   1182363.25448   1272177.50746  24595127.029    24595128.1384   24595138.6964
       171.0004        172.0004
  -7401664.29247  -5753949.22445  23594023.399    23594022.9784   23594032.3244
       153.0004        156.0004
 -12361968.22748  -9617411.34546  22402051.230    22402050.5224   22402054.8384
       166.0004        166.0004
 -13490911.30849 -10501147.81647  22398800.620    22398800.8614   22398807.2694
       209.0004        208.0004
 21  2  5  0 37 30.0000000  0  8G08G04G09G07G03G01G21G27
 -22538576.21949 -17546114.70547  20331303.922    20331304.6934   20331310.9744
       211.0004        211.0004
 -20272718.65149 -15775838.49247  20667145.899    20667146.4844   20667152.3304
       205.0004        204.0004
 -18879823.95449 -14693093.61947  20850996.656    20850997.1324   20851003.5214
       211.0004        212.0004
  -7736854.55748  -6016305.45646  23336310.996    23336310.1964   23336314.5104
       171.0004        172.0004
   1231798.60348   1310698.40746  24604534.293    24604534.8584   24604545.9244
       169.0004        169.0004
  -7476541.67747  -5812295.08145  23579772.024    23579773.5814   23579782.6364
       154.0004        156.0004
 -12406725.51248  -9652287.09346  22393533.840    22393533.3104   22393537.3114
       166.0004        167.0004
 -13399324.28849 -10429781.28847  22416227.731    22416228.4884   22416236.3854
       208.0004        208.0004
 21  2  5  0 38  0.0000000  0  8G08G04G09G07G03G01G21G27
 -22504464.24649 -17519533.93247  20337794.837    20337795.5324   20337802.2564
       211.0004        211.0004
 -20222010.01449 -15736325.27647  20676795.484    20676795.9044   20676801.5874
       205.0004        203.0004
 -18899967.07849 -14708789.54947  20847163.068    20847163.7974   20847170.4954
       211.0004        212.0004
  -7809805.62948  -6073150.42746  23322427.009    23322428.7654   23322433.2284
       172.0004        175.0004
   1280987.86048   1349027.53246  24613894.064    24613895.4814   24613905.7874
       168.0004        168.0004
  -7551537.59947  -5870733.33945  23565501.116    23565501.8984   23565511.3744
       154.0004        157.0004
 -12451283.62148  -9687007.65746  22385054.040    22385053.3134   22385059.1924
       166.0004        167.0004
 -13307421.06649 -10358168.39147  22433716.133    22433717.1554   22433724.3044
       208.0004        208.0004
 21  2  5  0 38 30.0000000  0  8G08G04G09G07G03G01G21G27
 -22469796.15749 -17492519.83747  20344392.033    20344392.4184   20344399.9494
       211.0004        211.0004
 -20170803.94649 -15696424.45947  20686539.154    20686539.9614   20686546.1684
       204.0004        202.0004
 -18919546.06349 -14724045.89147  20843438.022    20843438.0984   20843445.0724
       212.0004        212.0004
  -7882849.02248  -6130067.30646  23308527.737    23308528.5574   23308533.0814
       173.0004        173.0004
   1329928.87348   1387163.21246  24623209.149    24623209.5554   24623219.7264
       168.0004        170.0004
  -7626650.16047  -5929262.47845  23551207.388    23551207.5064   23551217.0534
       152.0004        154.0004
 -12495639.94748  -9721570.98246  22376613.520    22376612.2904   22376618.7924
       166.0004        168.0004
 -13215205.11249 -10286311.80347  22451265.496    22451265.9104   22451272.0724
       208.0004        208.0004
 21  2  5  0 39  0.0000000  0  8G08G04G09G07G03G01G21G27
 -22434574.27149 -17465074.18847  20351095.053    20351094.8744   20351102.1974
       211.0004        211.0004
 -20119102.52949 -15656137.64247  20696377.931    20696378.4694   20696384.5274
       204.0004        202.0004
 -18938560.55049 -14738862.36147  20839819.517    20839819.6354   20839826.6724
       212.0004        212.0004
  -7955983.30148  -6187055.01146  23294611.130    23294611.2884   23294615.9124
       171.0004        172.0004
   1378620.04348   1425104.23246  24632472.706    24632473.9524   24632486.2404
       169.0004        171.0004
  -7701876.87647  -5987880.54645  23536891.815    23536892.4894   23536902.5504
       150.0004        153.0004
 -12539791.86548  -9755975.03246  22368211.591    22368210.5604   22368214.9814
       165.0004        165.0004
 -13122679.61349 -10214213.98247  22468872.846    22468872.9654   22468879.1984
       208.0004        208.0004
 21  2  5  0 39 30.0000000  0  8G08G04G09G07G03G01G21G27
 -22398800.02749 -17437198.14147  20357901.389    20357902.2764   20357909.9624
       210.0004        211.0004
 -20066907.66649 -15615466.32747  20706309.738    20706310.7174   20706316.4864
       203.0004        202.0004
 -18957009.96149 -14753238.51147  20836308.450    20836308.7594   20836315.8794
       212.0004        212.0004
  -8029207.60248  -6244112.87646  23280676.251    23280677.4044   23280682.0394
       170.0004        171.0004
   1427059.89648   1462849.42846  24641690.236    24641691.5224   24641703.4544
       167.0004        167.0004
  -7777215.13247  -6046585.55345  23522556.579    23522556.5874   23522565.8854
       152.0004        156.0004
 -12583737.04048  -9790217.99046  22359848.810    22359847.5814   22359852.1874
       165.0004        166.0004
 -13029847.49049 -10141877.25347  22486537.484    22486537.8264   22486544.8844
       207.0004        207.0004
 21  2  5  0 40  0.0000000  0  8G08G04G09G07G03G01G21G27
 -22362476.12549 -17408893.79147  20364814.633    20364814.7734   20364822.0074
       210.0004        211.0004
 -20014221.93349 -15574412.51047  20716336.207    20716336.6484   20716342.5684
       203.0004        201.0004
 -18974894.46649 -14767174.48647  20832904.685    20832905.4394   20832912.6794
       212.0004        212.0004
  -8102520.33248  -6301239.61946  23266726.217    23266726.9254   23266731.8374
       172.0004        174.0004
   1475246.39148   1500397.15146  24650862.396    24650863.3764   24650873.7614
       168.0004        169.0004
  -7852663.02847  -6105375.99745  23508199.195    23508199.8004   23508209.4134
       155.0004        159.0004
 -12627472.92748  -9824297.84946  22351527.080    22351525.7914   22351529.0324
       165.0004        165.0004
 -12936712.47149 -10069304.49047  22504260.577    22504261.5094   22504268.0054
       207.0004        208.0004
 21  2  5  0 40 30.0000000  0  8G08G04G09G07G03G01G21G27
 -22325603.76449 -17380162.05847  20371831.057    20371831.3424   20371838.7964
       210.0004        211.0004
 -19961046.87149 -15532977.40147  20726455.169    20726455.7194   20726461.3164
       203.0004        202.0004
 -18992213.25249 -14780669.62748  20829609.748    20829609.7944   20829617.0824
       212.0004        213.0004
  -8175920.21848  -6358434.29646  23252759.151    23252759.3514   23252763.7154
       172.0004        171.0004
   1523178.46048   1537746.64046  24659982.758    24659983.6874   24659995.1254
       167.0004        169.0004
  -7928217.58647  -6164249.56445  23493820.594    23493822.0524   23493831.3774
       156.0004        158.0004
 -12670996.67448  -9858212.41646  22343243.138    22343243.7334   22343249.0964
       165.0004        167.0004
 -12843277.16349  -9996497.76147  22522041.201    22522041.7904   22522048.5224
       207.0004        207.0004
 21  2  5  0 41  0.0000000  0  8G08G04G09G07G03G01G21G27
 -22288184.62249 -17351004.27947  20378951.393    20378951.5714   20378959.3134
       210.0004        211.0004
 -19907384.58649 -15491162.64147  20736666.795    20736666.9274   20736673.0254
       203.0004        202.0004
 -19008965.92149 -14793723.65848  20826421.487    20826421.9174   20826429.1854
       212.0004        213.0004
  -8249405.95548  -6415695.89446  23238774.341    23238774.7604   23238779.5234
       169.0004        169.0004
   1570854.34748   1574896.50846  24669054.882    24669055.9694   24669068.2574
       167.0004        168.0004
  -8003876.36147  -6223204.33145  23479422.747    23479422.9374   23479433.7854
       155.0004        157.0004
 -12714305.71548  -9891959.69946  22335001.783    22335001.4864   22335006.6474
       166.0004        168.0004
 -12749544.64749  -9923459.42947  22539878.052    22539877.6934   22539885.0334
       206.0004        206.0004
 21  2  5  0 41 30.0000000  0  8G08G04G09G07G03G01G21G27
 -22250220.22749 -17321421.61547  20386175.993    20386176.2654   20386183.6544
       210.0004        211.0004
 -19853236.54249 -15448969.35847  20746970.190    20746970.9374   20746977.0834
       203.0004        201.0004
 -19025151.53949 -14806335.81047  20823341.823    20823341.7914   20823348.9894
       212.0004        212.0004
  -8322975.19148  -6473022.51346  23224775.329    23224774.8844   23224779.8254
       170.0004        173.0004
   1618273.36847   1611846.23946  24678077.809    24678078.6734   24678089.7744
       164.0004        164.0004
  -8079636.10747  -6282237.77145  23465006.719    23465007.2754   23465016.8314
       154.0004        157.0004
 -12757396.65348  -9925537.02146  22326802.879    22326801.7414   22326807.6784
       167.0004        168.0004
 -12655517.37549  -9850191.42447  22557770.140    22557770.4524   22557777.5894
       206.0004        205.0004
 21  2  5  0 42  0.0000000  0  8G08G04G09G07G03G01G21G27
 -22211712.68349 -17291415.73847  20393504.245    20393503.9204   20393511.4334
       210.0004        211.0004
 -19798604.99849 -15406399.34547  20757367.016    20757367.5584   20757373.3154
       203.0004        202.0004
 -19040769.97649 -14818506.02947  20820369.367    20820369.6974   20820376.3124
       211.0004        211.0004
  -8396626.80348  -6530413.36046  23210759.425    23210759.5014   23210764.5424
       171.0004        170.0004
   1665433.86447   1648594.51846  24687053.354    24687053.3574   24687064.5024
       163.0004        166.0004
  -8155494.52047  -6341348.12045  23450569.593    23450571.2864   23450580.6234
       154.0004        157.0004
 -12800266.88348  -9958942.36146  22318643.524    22318642.3204   22318649.1824
       166.0004        167.0004
 -12561198.63849  -9776696.30847  22575719.097    22575718.8524   22575726.3934
       205.0004        205.0004
 21  2  5  0 42 30.0000000  0  8G08G04G09G07G03G01G21G27
 -22172663.29849 -17260987.63147  20400934.475    20400934.6514   20400942.3734
       210.0004        210.0004
 -19743491.62249 -15363453.85947  20767854.372    20767855.0534   20767861.4874
       203.0004        201.0004
 -19055820.51749 -14830233.71447  20817505.473    20817505.6534   20817512.6664
       211.0004        212.0004
  -8470359.03348  -6587866.99546  23196727.321    23196728.4744   23196733.5404
       169.0004        171.0004
   1712334.67248   1685140.43446  24695977.982    24695978.5944   24695991.3524
       166.0004        169.0004
  -8231448.58647  -6400532.98145  23436117.897    23436117.6904   23436127.7664
       154.0004        156.0004
 -12842913.66048  -9992173.58346  22310527.997    22310527.2804   22310533.2404
       165.0004        166.0004
 -12466591.09049  -9702976.13147  22593721.124    22593721.9694   22593729.3044
       204.0004        204.0004
 21  2  5  0 43  0.0000000  0  8G08G04G09G07G03G01G21G27
 -22133074.06749 -17230138.86347  20408467.752    20408468.0534   20408475.5774
       210.0004        210.0004
 -19687898.62949 -15320134.65647  20778433.263    20778433.9384   20778440.0694
       202.0004        201.0004
 -19070302.97449 -14841518.74348  20814749.645    20814749.9694   20814756.9254
       212.0004        213.0004
  -8544170.20048  -6645382.14746  23182683.576    23182683.4574   23182687.9384
       171.0004        174.0004
   1758974.31848   1721482.85346  24704853.967    24704854.6254   24704867.0264
       169.0004        171.0004
  -8307495.81147  -6459790.43345  23421645.110    23421646.8424   23421656.4934
       155.0004        157.0004
 -12885334.24948 -10025228.57046  22302457.326    22302456.5964   22302460.8754
       166.0004        167.0004
 -12371697.87249  -9629033.36247  22611778.622    22611778.8714   22611786.7344
       203.0004        203.0004
 21  2  5  0 43 30.0000000  0  8G08G04G09G07G03G01G21G27
 -22092948.81449 -17198872.41747  20416102.910    20416103.1664   20416111.1784
       209.0004        209.0004
 -19631829.94949 -15276444.78047  20789101.869    20789102.6314   20789109.3294
       202.0004        200.0004
 -19084218.89349 -14852362.30548  20812101.818    20812101.9014   20812108.8304
       213.0004        214.0004
  -8618060.88048  -6702959.26846  23168622.690    23168622.9514   23168626.6234
       172.0004        173.0004
   1805349.63148   1757619.29946  24713678.837    24713679.2294   24713691.7024
       168.0004        168.0004
  -8383635.39247  -6519119.85945  23407157.302    23407157.4024   23407167.1614
       154.0004        157.0004
 -12927528.03447 -10058106.82546  22294425.697    22294424.1364   22294430.5694
       163.0004        163.0004
 -12276523.83449  -9554871.76947  22629890.646    22629890.2244   22629898.0474
       203.0004        203.0004
 21  2  5  0 44  0.0000000  0  8G08G04G09G07G03G01G21G27
 -22052288.09049 -17167188.72747  20423840.991    20423841.2714   20423848.7904
       209.0004        210.0004
 -19575286.16749 -15232384.70247  20799862.983    20799863.4704   20799869.1134
       202.0004        201.0004
 -19097566.50449 -14862763.02948  20809561.361    20809561.5244   20809568.9554
       213.0004        213.0004
  -8692027.89048  -6760595.83946  23154545.401    23154546.5844   23154551.8814
       171.0004        173.0004
   1851460.50548   1793549.68246  24722453.428    24722454.5774   24722466.4704
       167.0004        168.0004
  -8459863.18447  -6578518.02645  23392650.546    23392651.6864   23392661.3714
       153.0004        154.0004
 -12969490.60947 -10090804.86545  22286438.147    22286438.7974   22286447.0024
       161.0004        162.0004
 -12181070.55249  -9480492.58347  22648054.185    22648055.0594   22648061.9594
       203.0004        204.0004
 21  2  5  0 44 30.0000000  0  8G08G04G09G07G03G01G21G27
 -22011093.82249 -17135089.28047  20431679.592    20431679.9934   20431687.7994
       209.0004        210.0004
 -19518269.26749 -15187955.95947  20810712.677    20810712.8254   20810719.6644
       202.0004        201.0004
 -19110345.37649 -14872720.59548  20807129.772    20807130.3664   20807137.0994
       213.0004        213.0004
  -8766069.60148  -6818290.64746  23140455.969    23140456.0894   23140462.1974
       171.0004        172.0004
   1897305.92848   1829273.20246  24731178.847    24731179.4854   24731190.4094
       167.0004        168.0004
  -8536176.31447  -6637982.70245  23378128.286    23378130.4294   23378139.6034
       152.0004        155.0004
 -13011219.02448 -10123320.48846  22278503.320    22278502.5084   22278505.6054
       165.0004        169.0004
 -12085340.83549  -9405897.99847  22666272.566    22666272.3444   22666278.7864
       203.0004        202.0004
 21  2  5  0 45  0.0000000  0  8G08G04G09G07G03G01G21G27
 -21969368.16149 -17102575.76847  20439620.280    20439620.6774   20439627.9744
       210.0004        210.0004
 -19460782.01649 -15143160.70047  20821651.964    20821652.8014   20821659.3184
       202.0004        201.0004
 -19122556.00349 -14882235.36748  20804806.075    20804806.4754   20804813.0754
       213.0004        213.0004
  -8840185.00448  -6876042.86346  23126352.520    23126353.0034   23126358.6444
       171.0004        173.0004
   1942883.82748   1864788.24946  24739851.391    24739852.0064   24739862.8504
       167.0004        168.0004
  -8612572.82447  -6697512.32445  23363592.384    23363592.5724   23363602.2654
       153.0004        157.0004
 -13052711.26548 -10155652.10246  22270606.432    22270605.5724   22270609.3254
       168.0004        170.0004
 -11989338.39849  -9331090.89947  22684541.021    22684540.9914   22684546.8744
       202.0004        202.0004
 21  2  5  0 45 30.0000000  0  8G08G04G09G07G03G01G21G27
 -21927113.08949 -17069649.74047  20447661.475    20447661.5864   20447668.7154
       210.0004        210.0004
 -19402826.20649 -15098000.34247  20832680.985    20832681.3284   20832687.8494
       202.0004        201.0004
 -19134197.76649 -14891306.87348  20802590.668    20802590.9514   20802598.0254
       213.0004        213.0004
  -8914372.18148  -6933850.99546  23112236.042    23112236.3084   23112239.8794
       172.0004        175.0004
   1988193.24248   1900094.11046  24748472.552    24748473.4694   24748484.7504
       166.0004        168.0004
  -8689049.67647  -6757104.55145  23349038.545    23349039.1384   23349048.3574
       154.0004        157.0004
 -13093964.38448 -10187797.39646  22262754.092    22262753.9224   22262759.4694
       167.0004        166.0004
 -11893065.90349  -9256073.35547  22702859.387    22702859.8874   22702866.8344
       201.0004        200.0004
 21  2  5  0 46  0.0000000  0  8G08G04G09G07G03G01G21G27
 -21884330.32749 -17036312.50847  20455802.513    20455802.6784   20455809.8874
       210.0004        210.0004
 -19344403.73849 -15052476.35647  20843798.002    20843798.7174   20843805.1794
       202.0004        201.0004
 -19145270.25049 -14899934.78448  20800483.853    20800484.1704   20800491.1994
       213.0004        214.0004
  -8988629.43248  -6991713.75846  23098105.762    23098105.4294   23098108.7884
       173.0004        175.0004
   2033233.10648   1935189.95046  24757044.559    24757045.3154   24757056.1214
       166.0004        168.0004
  -8765603.82447  -6816757.01845  23334471.597    23334471.4204   23334480.0374
       153.0004        155.0004
 -13134975.60347 -10219754.13346  22254948.408    22254948.4434   22254954.3054
       164.0004        163.0004
 -11796526.09949  -9180847.51647  22721230.318    22721231.1434   22721237.7154
       201.0004        201.0004
 21  2  5  0 46 30.0000000  0  8G08G04G09G07G03G01G21G27
 -21841021.76449 -17002565.56247  20464043.526    20464043.7594   20464051.3624
       209.0004        210.0004
 -19285516.76149 -15006590.40347  20855003.908    20855004.1784   20855011.0364
       202.0004        200.0004
 -19155773.28549 -14908118.96448  20798485.654    20798485.4454   20798492.3514
       213.0004        214.0004
  -9062955.36948  -7049630.02046  23083960.084    23083960.4144   23083964.7914
       173.0004        174.0004
   2078002.13148   1970074.71446  24765563.725    24765564.4534   24765576.9764
       169.0004        171.0004
  -8842232.54947  -6876467.63745  23319889.669    23319889.4474   23319897.2334
       152.0004        155.0004
 -13175742.04047 -10251520.15346  22247192.002    22247191.7464   22247197.6474
       163.0004        165.0004
 -11699721.96049  -9105415.70947  22739651.454    22739652.2344   22739658.3354
       201.0004        201.0004
 21  2  5  0 47  0.0000000  0  8G08G04G09G07G03G01G21G27
 -21797189.94949 -16968410.89347  20472384.418    20472385.2134   20472392.5264
       209.0004        210.0004
 -19226167.87449 -14960344.52947  20866298.068    20866298.5644   20866304.4134
       202.0004        200.0004
 -19165707.11549 -14915859.60848  20796594.702    20796595.1304   20796602.1464
       213.0004        214.0004
  -9137348.32748  -7107598.50946  23069805.758    23069804.5754   23069809.2244
       175.0004        177.0004
   2122498.63448   2004747.16146  24774029.558    24774030.9924   24774044.7304
       168.0004        169.0004
  -8918933.54747  -6936234.53745  23305293.123    23305293.8984   23305302.9944
       152.0004        155.0004
 -13216261.40948 -10283093.65846  22239482.828    22239482.6304   22239487.4984
       165.0004        168.0004
 -11602656.85949  -9029780.53947  22758123.470    22758123.2074   22758129.8154
       201.0004        201.0004
 21  2  5  0 47 30.0000000  0  8G08G04G09G07G03G01G21G27
 -21752836.67849 -16933849.89447  20480825.354    20480825.3514   20480832.6104
       209.0004        210.0004
 -19166359.01849 -14913740.23047  20877678.922    20877679.4354   20877685.6894
       201.0004        200.0004
 -19175071.39749 -14923156.44648  20794813.084    20794813.0734   20794820.2154
       213.0004        214.0004
  -9211806.51648  -7165617.82246  23055634.111    23055634.8184   23055639.6144
       175.0004        176.0004
   2166721.59548   2039206.45146  24782446.500    24782447.0554   24782459.1694
       166.0004        166.0004
  -8995703.72147  -6996055.37545  23290684.749    23290684.4204   23290692.6084
       154.0004        156.0004
 -13256530.63848 -10314472.25846  22231821.186    22231820.4404   22231825.2584
       168.0004        170.0004
 -11505333.62749  -8953944.25247  22776643.247    22776643.4144   22776650.1284
       201.0004        200.0004
 21  2  5  0 48  0.0000000  0  7G08G04G09G07G01G21G27
 -21707962.90649 -16898883.30347  20489363.675    20489364.1464   20489371.6744
       209.0004        209.0004
 -19106091.34449 -14866778.41047  20889147.699    20889148.4184   20889154.2684
       202.0004        200.0004
 -19183864.99349 -14930008.59248  20793139.212    20793139.4994   20793146.6994
       213.0004        213.0004
  -9286327.39648  -7223685.99846  23041455.569    23041455.6374   23041459.0924
       176.0004        179.0004
  -9072539.32347  -7055927.15945  23276061.602    23276063.1254   23276072.1734
       154.0004        157.0004
 -13296546.29648 -10345653.27546  22224205.643    22224204.6064   22224210.3484
       170.0004        171.0004
 -11407754.18149  -8877908.29947  22795211.264    22795211.8424   22795218.6084
       200.0004        200.0004
 21  2  5  0 48 30.0000000  0  7G08G04G09G07G01G21G27
 -21662563.69949 -16863507.28247  20498003.212    20498003.4634   20498010.9554
       209.0004        210.0004
 -19045360.14149 -14819455.39847  20900704.727    20900704.9994   20900710.7584
       202.0004        200.0004
 -19192080.89749 -14936410.58948  20791575.996    20791576.1454   20791583.1264
       213.0004        213.0004
  -9360902.01948  -7281796.05546  23027263.404    23027262.9934   23027268.0934
       177.0004        179.0004
  -9149430.59347  -7115842.32245  23261430.059    23261431.0314   23261440.3084
       155.0004        157.0004
 -13336298.62348 -10376629.08146  22216639.829    22216639.5344   22216645.2104
       171.0004        172.0004
 -11309914.56149  -8801669.61747  22813830.655    22813831.0964   22813836.7344
       200.0004        201.0004
 21  2  5  0 49  0.0000000  0  7G08G04G09G07G01G21G27
 -21616653.67449 -16827733.21947  20506739.907    20506739.7884   20506747.4034
       209.0004        210.0004
 -18984180.17749 -14771782.69647  20912346.809    20912347.2564   20912353.0534
       201.0004        200.0004
 -19199731.61549 -14942372.18748  20790119.899    20790120.4184   20790127.4664
       213.0004        214.0004
  -9435541.36848  -7339956.54546  23013060.329    23013060.2774   23013065.4674
       178.0004        179.0004
  -9226387.24647  -7175808.45645  23246785.029    23246786.2004   23246794.9704
       154.0004        156.0004
 -13375797.66448 -10407407.53146  22209123.586    22209123.0494   22209128.6844
       169.0004        169.0004
 -11211830.27849  -8725240.28947  22832495.836    22832495.6394   22832501.2364
       201.0004        200.0004
 21  2  5  0 49 30.0000000  0  7G08G04G09G07G01G21G27
 -21570233.22949 -16791561.43847  20515572.996    20515573.3784   20515580.6904
       209.0004        209.0004
 -18922551.76849 -14723760.56247  20924074.496    20924074.5924   20924080.9524
       201.0004        200.0004
 -19206815.17649 -14947891.83948  20788771.927    20788772.3634   20788779.5934
       213.0004        214.0004
  -9510242.05248  -7398164.83746  22998845.241    22998844.9674   22998849.4394
       179.0004        180.0004
  -9303404.56447  -7235821.89345  23232130.810    23232131.7444   23232139.9664
       155.0004        158.0004
 -13415038.57048 -10437984.84546  22201656.613    22201655.6824   22201661.7674
       168.0004        169.0004
 -11113502.39149  -8648621.15247  22851207.436    22851206.9834   22851212.6104
       201.0004        202.0004
 21  2  5  0 50  0.0000000  0  7G08G04G09G07G01G21G27
 -21523303.24349 -16754992.59447  20524504.044    20524504.0034   20524510.6774
       209.0004        209.0004
 -18860476.48949 -14675390.21347  20935886.768    20935887.4464   20935893.2694
       201.0004        200.0004
 -19213330.87549 -14952968.99648  20787531.972    20787532.4124   20787539.5054
       213.0004        214.0004
  -9585001.42348  -7456418.85346  22984619.173    22984619.2934   22984622.7694
       179.0004        179.0004
  -9380479.01747  -7295879.80245  23217461.860    23217463.4294   23217473.0974
       156.0004        160.0004
 -13454017.99848 -10468358.38646  22194237.423    22194237.0774   22194243.8934
       167.0004        167.0004
 -11014933.18249  -8571813.96247  22869963.246    22869963.7094   22869969.5494
       201.0004        200.0004
 21  2  5  0 50 30.0000000  0  7G08G04G09G07G01G21G27
 -21475864.99549 -16718027.70947  20533530.347    20533530.9254   20533538.0834
       208.0004        208.0004
 -18797955.23149 -14626672.35947  20947784.396    20947784.5084   20947790.7594
       201.0004        200.0004
 -19219277.39049 -14957602.64048  20786400.613    20786400.9404   20786407.8964
       214.0004        214.0004
  -9659816.08748  -7514715.99346  22970381.768    22970382.6004   22970386.4354
       179.0004        180.0004
  -9457606.34447  -7355978.95645  23202786.893    23202787.4464   23202796.0994
       158.0004        161.0004
 -13492731.77448 -10498524.93446  22186871.771    22186870.5714   22186876.8364
       167.0004        168.0004
 -10916124.22849  -8494819.97447  22888764.346    22888766.0774   22888773.2354
       201.0004        201.0004
 21  2  5  0 51  0.0000000  0  7G08G04G09G07G01G21G27
 -21427920.48649 -16680668.34047  20542654.448    20542654.5714   20542661.8004
       208.0004        209.0004
 -18734990.43449 -14577608.87747  20959765.672    20959766.5114   20959772.2254
       201.0004        199.0004
 -19224654.88549 -14961792.88848  20785377.298    20785377.5964   20785384.4864
       214.0004        214.0004
  -9734684.77948  -7573055.18946  22956134.536    22956135.3394   22956141.1054
       179.0004        180.0004
  -9534783.94447  -7416117.24445  23188099.116    23188100.6644   23188109.4794
       158.0004        161.0004
 -13531177.65948 -10528482.75046  22179553.914    22179554.4534   22179560.3724
       166.0004        167.0004
 -10817078.68349  -8417641.59647  22907613.108    22907613.7044   22907621.0614
       201.0004        201.0004
 21  2  5  0 51 30.0000000  0  7G08G04G09G07G01G21G27
 -21379472.10749 -16642916.34047  20551873.658    20551873.9884   20551881.0664
       208.0004        208.0004
 -18671584.29849 -14528201.50247  20971831.674    20971832.1604   20971838.2964
       201.0004        199.0004
 -19229463.39849 -14965539.78048  20784461.983    20784462.4064   20784469.9454
       213.0004        214.0004
  -9809605.82548  -7631435.19846  22941878.168    22941878.3484   22941883.3294
       180.0004        182.0004
  -9612008.78347  -7476292.37946  23173404.710    23173405.7124   23173414.0544
       160.0004        163.0004
 -13569352.82448 -10558229.60346  22172291.008    22172290.4524   22172296.3454
       167.0004        168.0004
 -10717799.41949  -8340281.15847  22926505.943    22926505.9564   22926512.8914
       200.0004        199.0004
 21  2  5  0 52  0.0000000  0  7G08G04G09G07G01G21G27
 -21330522.67349 -16604773.91047  20561188.990    20561189.1434   20561195.9894
       208.0004        209.0004
 -18607739.94149 -14478452.66947  20983981.053    20983981.5104   20983987.8084
       200.0004        199.0004
 -19233703.79149 -14968843.97748  20783655.266    20783655.4264   20783662.5164
       213.0004        214.0004
  -9884577.81248  -7689854.90546  22927611.014    22927611.2644   22927616.1454
       181.0004        181.0004
  -9689278.75347  -7536502.67446  23158701.361    23158702.2444   23158710.1854
       161.0004        164.0004
 -13607255.30648 -10587763.95946  22165078.608    22165078.2054   22165083.9724
       169.0004        171.0004
 -10618290.13649  -8262741.43047  22945441.586    22945442.1934   22945448.9894
       200.0004        200.0004
 21  2  5  0 52 30.0000000  0  7G08G04G09G07G01G21G27
 -21281073.63249 -16566242.16147  20570599.288    20570599.1104   20570605.7594
       209.0004        209.0004
 -18543459.20849 -14428363.77547  20996213.052    20996213.5884   20996219.3944
       200.0004        198.0004
 -19237375.70049 -14971705.18748  20782956.631    20782956.8964   20782963.7224
       213.0004        214.0004
  -9959598.69948  -7748312.71146  22913335.570    22913335.9994   22913339.9194
       181.0004        180.0004
  -9766590.55047  -7596745.56245  23143988.825    23143988.7844   23143997.4914
       161.0004        162.0004
 -13644882.00648 -10617083.43846  22157918.502    22157918.0814   22157923.4674
       170.0004        172.0004
 -10518553.28849  -8185024.39747  22964421.645    22964421.6454   22964427.6134
       200.0004        200.0004
 21  2  5  0 53  0.0000000  0  7G08G04G09G07G01G21G27
 -21231127.26049 -16527322.88047  20580103.299    20580103.4704   20580110.1514
       209.0004        209.0004
 -18478744.16349 -14377936.47647  21008528.098    21008528.4074   21008534.6374
       200.0004        199.0004
 -19240479.05949 -14974123.37748  20782366.218    20782366.6714   20782373.1444
       214.0004        214.0004
 -10034666.62848  -7806807.17746  22899049.506    22899049.9984   22899054.0934
       180.0004        181.0004
  -9843940.94247  -7657018.52446  23129268.741    23129269.8134   23129278.4424
       161.0004        163.0004
 -13682230.05748 -10646185.81346  22150811.320    22150810.9784   22150815.2584
       170.0004        171.0004
 -10418591.66049  -8107132.20747  22983442.970    22983443.2664   22983449.9764
       200.0004        199.0004
 21  2  5  0 53 30.0000000  0  7G08G04G09G07G01G21G27
 -21180685.52449 -16488017.61047  20589701.171    20589701.3384   20589708.8904
       208.0004        208.0004
 -18413596.99549 -14327172.43947  21020924.820    21020925.3794   21020931.5894
       200.0004        198.0004
 -19243013.83749 -14976098.52248  20781883.709    20781884.1104   20781890.9884
       214.0004        215.0004
 -10109779.15848  -7865336.40946  22884758.001    22884757.7404   22884761.1844
       181.0004        181.0004
  -9921326.87147  -7717319.17445  23114542.721    23114543.6544   23114552.7444
       160.0004        162.0004
 -13719296.72148 -10675068.91046  22143758.966    22143758.3524   22143762.8114
       171.0004        173.0004
 -10318407.97949  -8029067.00547  23002507.226    23002507.4004   23002513.6564
       199.0004        197.0004
 21  2  5  0 54  0.0000000  0  7G08G04G09G07G01G21G27
 -21129752.91749 -16448329.84347  20599393.027    20599393.3404   20599400.8904
       207.0004        207.0004
 -18348022.03649 -14276075.07047  21033403.289    21033404.0524   21033410.2334
       200.0004        199.0004
 -19244982.22349 -14977632.32048  20781509.355    20781509.4364   20781516.4184
       214.0004        214.0004
 -10184936.28648  -7923900.37746  22870454.498    22870455.2424   22870459.4034
       180.0004        179.0004
  -9998747.36247  -7777646.79445  23099810.998    23099811.7474   23099818.2514
       160.0004        162.0004
 -13756081.22248 -10703732.13546  22136757.860    22136757.8374   22136763.4784
       172.0004        174.0004
 -10218007.14949  -7950832.58347  23021613.610    23021613.9144   23021620.2334
       199.0004        199.0004
 21  2  5  0 54 30.0000000  0  7G08G04G09G07G01G21G27
 -21078330.42849 -16408260.36047  20609178.678    20609179.0584   20609186.3424
       207.0004        207.0004
 -18282020.73349 -14224645.49247  21045962.939    21045963.4044   21045969.2134
       199.0004        197.0004
 -19246383.50549 -14978724.22648  20781242.185    20781242.7814   20781249.5084
       214.0004        214.0004
 -10260135.86948  -7982497.43046  22856144.124    22856145.2554   22856149.2204
       178.0004        178.0004
 -10076198.56047  -7837998.35546  23085072.163    23085072.8874   23085080.6394
       161.0004        163.0004
 -13792579.81948 -10732172.59546  22129813.472    22129812.4624   22129818.1144
       172.0004        173.0004
 -10117391.20549  -7872430.54047  23040760.223    23040760.2974   23040766.9564
       197.0004        196.0004
 21  2  5  0 55  0.0000000  0  7G08G04G09G07G01G21G27
 -21026420.00349 -16367810.66147  20619056.750    20619057.2494   20619064.7894
       207.0004        207.0004
 -18215594.80749 -14172885.02547  21058603.427    21058604.0704   21058609.9914
       199.0004        197.0004
 -19247217.21349 -14979373.85748  20781083.413    20781083.9214   20781091.1084
       213.0004        214.0004
 -10335374.96748  -8041125.26446  22841827.988    22841828.1224   22841832.1164
       179.0004        181.0004
 -10153676.81547  -7898370.97546  23070327.860    23070328.4374   23070336.7874
       161.0004        163.0004
 -13828789.55648 -10760387.97246  22122922.089    22122920.8134   22122927.6874
       172.0004        173.0004
 -10016562.37949  -7793862.60747  23059946.752    23059946.8844   23059954.1144
       196.0004        195.0004
 21  2  5  0 55 30.0000000  0  7G08G04G09G07G01G21G27
 -20974023.49749 -16326982.20047  20629027.945    20629028.3104   20629035.1754
       207.0004        208.0004
 -18148746.82949 -14120795.68947  21071324.739    21071325.3304   21071330.4264
       199.0004        197.0004
 -19247483.87849 -14979581.63048  20781033.153    20781033.4324   20781040.6094
       214.0004        214.0004
 -10410651.98548  -8099782.64246  22827502.197    22827503.1144   22827507.5824
       180.0004        182.0004
 -10231179.37747  -7958762.54946  23055579.973    23055580.9454   23055589.0734
       161.0004        163.0004
 -13864708.08348 -10788376.42246  22116086.630    22116085.8694   22116091.8964
       171.0004        170.0004
  -9915523.78049  -7715131.23647  23079173.238    23079173.7114   23079181.3494
       195.0004        195.0004
 21  2  5  0 56  0.0000000  0  7G08G04G09G07G01G21G27
 -20921142.87149 -16285776.48747  20639091.386    20639091.4314   20639098.0384
       207.0004        208.0004
 -18081478.45849 -14068378.76447  21084125.429    21084126.0454   21084131.3314
       199.0004        197.0004
 -19247182.99649 -14979347.16248  20781090.889    20781090.8914   20781097.6684
       214.0004        215.0004
 -10485964.32748  -8158467.55146  22813171.949    22813172.2134   22813174.9714
       181.0004        181.0004
 -10308702.49447  -8019170.11646  23040827.518    23040828.4504   23040837.0854
       162.0004        164.0004
 -13900331.83848 -10816135.18046  22109308.457    22109308.7314   22109312.2034
       170.0004        171.0004
  -9814277.59148  -7636238.10447  23098439.057    23098440.1884   23098447.4874
       194.0004        194.0004
 21  2  5  0 56 30.0000000  0  7G08G04G09G07G01G21G27
 -20867781.09749 -16244195.87447  20649245.895    20649245.6934   20649252.2594
       207.0004        207.0004
 -18013792.96749 -14015636.81447  21097005.383    21097005.8854   21097011.8224
       198.0004        197.0004
 -19246315.74649 -14978671.37648  20781255.234    20781255.7204   20781262.7494
       214.0004        215.0004
 -10561310.80048  -8217179.07046  22798833.854    22798833.2604   22798837.6054
       180.0004        180.0004
 -10386244.02147  -8079592.06946  23026072.059    23026072.6994   23026081.1124
       162.0004        164.0004
 -13935659.10648 -10843662.90046  22102585.936    22102585.8484   22102590.7684
       171.0004        172.0004
  -9712827.57848  -7557186.12947  23117747.040    23117745.7144   23117752.0344
       194.0004        193.0004
 21  2  5  0 57  0.0000000  0  7G08G04G09G07G01G21G27
 -20813940.75449 -16202242.35047  20659490.785    20659490.9144   20659497.7974
       207.0004        207.0004
 -17945692.99549 -13962571.90747  21109964.213    21109964.6334   21109971.3234
       198.0004        197.0004
 -19244882.67549 -14977554.69348  20781528.322    20781528.4234   20781535.0564
       214.0004        215.0004
 -10636689.21848  -8275915.49146  22784488.651    22784489.2164   22784493.8294
       179.0004        179.0004
 -10463801.16347  -8140026.17946  23011313.275    23011313.3444   23011322.3314
       162.0004        164.0004
 -13970687.64148 -10870957.85946  22095918.779    22095918.7984   22095924.7934
       171.0004        171.0004
  -9611176.84148  -7477977.76847  23137089.834    23137089.6504   23137095.5104
       194.0004        193.0004
 21  2  5  0 57 30.0000000  0  7G08G04G09G07G01G21G27
 -20759624.11949 -16159917.68947  20669825.551    20669825.9224   20669834.2654
       206.0004        206.0004
 -17877181.02049 -13909185.95947  21123001.128    21123001.9674   21123008.5754
       198.0004        197.0004
 -19242884.18949 -14975997.43048  20781908.441    20781908.8164   20781915.3224
       214.0004        215.0004
 -10712098.26448  -8334675.76346  22770139.263    22770139.6054   22770143.3134
       179.0004        180.0004
 -10541370.91447  -8200470.08945  22996551.510    22996552.2914   22996561.6464
       161.0004        162.0004
 -14005414.50748 -10898017.73746  22089310.685    22089310.6494   22089314.9764
       170.0004        171.0004
  -9509328.32048  -7398615.28347  23156468.499    23156469.9604   23156477.3594
       193.0004        193.0004
 21  2  5  0 58  0.0000000  0  7G08G04G09G07G01G21G27
 -20704834.63349 -16117224.57947  20680250.841    20680251.8274   20680260.8374
       205.0004        206.0004
 -17808260.16749 -13855481.39747  21136115.784    21136116.9494   21136123.3644
       198.0004        196.0004
 -19240321.37649 -14974000.42448  20782396.336    20782396.3804   20782403.3694
       214.0004        215.0004
 -10787536.82048  -8393459.02646  22755783.658    22755783.6004   22755787.7174
       179.0004        178.0004
 -10618950.94647  -8260922.05145  22981790.520    22981790.1844   22981798.6924
       161.0004        162.0004
 -14039837.75948 -10924841.03946  22082760.722    22082760.7844   22082765.7744
       171.0004        172.0004
  -9407285.61648  -7319101.47347  23175887.801    23175888.1534   23175895.1284
       192.0004        192.0004
 21  2  5  0 58 30.0000000  0  7G08G04G09G07G01G21G27
 -20649575.55649 -16074165.54847  20690767.872    20690768.2264   20690776.1944
       206.0004        207.0004
 -17738933.98549 -13801460.99447  21149309.157    21149309.6024   21149315.7594
       197.0004        196.0004
 -19237195.75049 -14971564.85148  20782990.882    20782991.4714   20782998.0474
       215.0004        215.0004
 -10863003.68748  -8452264.35646  22741421.876    22741422.3364   22741426.3374
       177.0004        178.0004
 -10696539.30947  -8321380.47145  22967024.376    22967025.7084   22967033.8214
       161.0004        162.0004
 -14073956.16248 -10951426.78446  22076267.917    22076267.5324   22076273.6084
       171.0004        173.0004
  -9305052.63148  -7239439.39847  23195342.544    23195342.5674   23195350.4574
       193.0004        194.0004
 21  2  5  0 59  0.0000000  0  7G08G04G09G07G01G21G27
 -20593846.29149 -16030740.13247  20701373.692    20701373.6654   20701380.7464
       207.0004        207.0004
 -17669202.40049 -13747124.69547  21162578.358    21162578.9154   21162585.5504
       197.0004        196.0004
 -19233505.13449 -14968689.04248  20783693.559    20783693.8384   20783700.0954
       215.0004        215.0004
 -10938494.40948  -8511088.26146  22727056.093    22727056.6844   22727061.5914
       177.0004        178.0004
 -10774130.35547  -8381840.99745  22952259.244    22952259.6644   22952268.4684
       161.0004        162.0004
 -14107764.73148 -10977771.08646  22069834.388    22069834.4594   22069839.5774
       172.0004        173.0004
  -9202629.76948  -7159629.40347  23214831.206    23214832.0284   23214840.8204
       191.0004        189.0004
 21  2  5  0 59 30.0000000  0  7G08G04G09G07G01G21G27
 -20537649.08949 -15986950.07747  20712067.397    20712067.5614   20712074.6814
       207.0004        207.0004
 -17599067.10249 -13692473.81247  21175924.930    21175925.4544   21175931.5654
       197.0004        196.0004
 -19229249.29849 -14965372.79348  20784503.141    20784503.8744   20784510.1084
       215.0004        215.0004
 -11014005.96348  -8569928.40846  22712687.210    22712688.3664   22712692.4574
       179.0004        180.0004
 -10851720.31047  -8442300.66846  22937494.491    22937495.4754   22937503.3014
       161.0004        164.0004
 -14141259.92248 -11003871.20946  22063460.931    22063460.5034   22063464.5874
       173.0004        174.0004
  -9100019.10848  -7079673.03347  23234357.882    23234358.7484   23234366.7644
       191.0004        191.0004
 21  2  5  1  0  0.0000000  0  7G08G04G09G07G01G21G27
 -20480988.56849 -15942799.01947  20722849.284    20722849.4874   20722856.9004
       206.0004        206.0004
 -17528533.18149 -13637512.32047  21189347.289    21189347.5764   21189353.6344
       197.0004        196.0004
 -19224431.24749 -14961618.46048  20785420.177    20785420.3084   20785427.0684
       214.0004        214.0004
 -11089539.20748  -8628785.47046  22698314.564    22698315.0834   22698318.7954
       180.0004        181.0004
 -10929308.61847  -8502759.05346  22922729.434    22922731.0154   22922738.8524
       162.0004        165.0004
 -14174441.69748 -11029727.13046  22057146.343    22057146.0554   22057151.9554
       173.0004        175.0004
  -8997226.06048  -6999574.55147  23253918.342    23253919.8324   23253927.5014
       190.0004        190.0004
 21  2  5  1  0 30.0000000  0  7G08G04G09G07G01G21G27
 -20423867.27249 -15898288.90947  20733719.018    20733719.1634   20733726.2044
       205.0004        205.0004
 -17457603.28749 -13582242.27847  21202844.564    21202844.9554   21202851.2354
       197.0004        196.0004
 -19219051.67349 -14957426.57548  20786443.837    20786444.0034   20786450.3964
       214.0004        215.0004
 -11165092.30748  -8687657.98546  22683937.364    22683937.5254   22683942.5464
       181.0004        181.0004
 -11006892.37547  -8563213.88746  22907966.760    22907966.6084   22907975.6434
       164.0004        165.0004
 -14207307.99048 -11055337.21146  22050892.569    22050892.7764   22050896.8104
       174.0004        175.0004
  -8894253.68348  -6919336.34346  23273512.847    23273513.8934   23273521.4964
       189.0004        187.0004
 21  2  5  1  1  0.0000000  0  7G08G04G09G07G01G21G27
 -20366287.71949 -15853421.72047  20744675.682    20744676.0764   20744683.2294
       205.0004        205.0004
 -17386280.13549 -13526665.79547  21216416.945    21216417.2464   21216423.8804
       197.0004        196.0004
 -19213111.30949 -14952797.71848  20787574.064    20787574.2694   20787581.1724
       215.0004        215.0004
 -11240663.17848  -8746544.34246  22669556.089    22669555.9694   22669560.8784
       180.0004        180.0004
 -11084468.71547  -8623662.93646  22893205.289    22893204.9684   22893212.3094
       162.0004        164.0004
 -14239856.01748 -11080699.28846  22044699.796    22044698.7844   22044704.1694
       174.0004        175.0004
  -8791105.02148  -6838960.75247  23293143.525    23293143.2464   23293150.6704
       188.0004        190.0004
 21  2  5  1  1 30.0000000  0  7G08G04G09G07G01G21G27
 -20308253.16649 -15808199.97847  20755719.199    20755719.6494   20755727.1944
       205.0004        205.0004
 -17314566.82549 -13470785.29247  21230063.547    21230064.1924   21230070.2324
       197.0004        196.0004
 -19206611.31749 -14947732.77948  20788811.024    20788811.2114   20788817.7964
       214.0004        215.0004
 -11316250.37248  -8805443.42446  22655171.910    22655172.1784   22655176.9434
       180.0004        180.0004
 -11162035.10047  -8684104.23345  22878444.266    22878444.4804   22878452.0914
       161.0004        162.0004
 -14272083.53948 -11105811.61546  22038566.075    22038565.9124   22038570.8634
       174.0004        175.0004
  -8687783.52948  -6758450.49647  23312804.660    23312804.9214   23312811.7954
       190.0004        190.0004
 21  2  5  1  2  0.0000000  0  7G08G04G09G07G01G21G27
 -20249765.71249 -15762625.33147  20766849.561    20766849.5734   20766856.5644
       205.0004        205.0004
 -17242465.37649 -13414602.34647  21243783.720    21243784.6894   21243790.4134
       197.0004        195.0004
 -19199551.73249 -14942231.79648  20790154.054    20790154.3794   20790161.3454
       214.0004        215.0004
 -11391851.46548  -8864353.34546  22640785.517    22640786.3524   22640790.6724
       180.0004        182.0004
 -11239587.87447  -8744534.91345  22863685.934    22863686.8244   22863695.0454
       161.0004        162.0004
 -14303988.27048 -11130672.41446  22032495.551    22032494.0664   22032498.7104
       174.0004        174.0004
  -8584291.55248  -6677807.40447  23332498.981    23332498.8164   23332505.4524
       191.0004        190.0004
 21  2  5  1  2 30.0000000  0  7G08G04G09G07G01G21G27
 -20190827.32749 -15716699.30147  20778064.837    20778065.1804   20778072.8774
       205.0004        206.0004
 -17169978.24849 -13358118.87247  21257577.978    21257578.2544   21257584.2694
       196.0004        194.0004
 -19191933.13349 -14936295.22348  20791604.045    20791604.4714   20791611.0194
       214.0004        215.0004
 -11467464.26248  -8923272.39146  22626397.106    22626397.6354   22626402.5104
       182.0004        183.0004
 -11317123.84247  -8804952.49946  22848932.710    22848932.5024   22848940.4314
       162.0004        165.0004
 -14335567.47848 -11155279.55246  22026485.507    22026484.6594   22026489.6934
       174.0004        173.0004
  -8480631.79548  -6597033.54947  23352224.971    23352224.8324   23352230.8864
       189.0004        190.0004
 21  2  5  1  3  0.0000000  0  7G08G04G09G07G01G21G27
 -20131440.54549 -15670423.86947  20789366.078    20789365.9674   20789373.7284
       206.0004        206.0004
 -17097107.95749 -13301336.82547  21271444.235    21271444.3554   21271451.0044
       195.0004        194.0004
 -19183756.11349 -14929923.51648  20793159.888    20793160.0284   20793167.2474
       214.0004        214.0004
 -11543086.47548  -8982198.76646  22612006.326    22612007.2364   22612011.1064
       182.0004        183.0004
 -11394639.85547  -8865354.53146  22834180.966    22834181.0634   22834189.9934
       163.0004        165.0004
 -14366818.67848 -11179631.10446  22020537.978    22020537.9134   22020542.6364
       174.0004        174.0004
  -8376807.10548  -6516131.19547  23371982.088    23371981.9174   23371989.4964
       191.0004        192.0004
 21  2  5  1  3 30.0000000  0  7G08G04G09G07G01G21G27
 -20071607.89849 -15623801.01747  20800751.423    20800751.9254   20800759.6244
       205.0004        205.0004
 -17023857.27649 -13244258.38047  21285383.521    21285383.8544   21285390.5854
       195.0004        195.0004
 -19175021.50749 -14923117.32548  20794821.775    20794822.4374   20794829.2764
       214.0004        214.0004
 -11618716.33348  -9041131.12746  22597614.796    22597615.3674   22597618.7494
       183.0004        183.0004
 -11472132.99247  -8925738.74946  22819434.256    22819433.3994   22819442.6724
       162.0004        163.0004
 -14397738.98748 -11203724.82346  22014654.277    22014653.6524   22014658.7764
       174.0004        174.0004
  -8272820.48248  -6435102.63647  23391767.837    23391768.7494   23391777.7684
       192.0004        192.0004
 21  2  5  1  4  0.0000000  0  7G08G04G09G07G01G21G27
 -20011330.73449 -15576831.79247  20812221.673    20812221.8624   20812229.2074
       204.0004        204.0004
 -16950227.59249 -13186884.60747  21299395.060    21299395.6454   21299401.3584
       195.0004        194.0004
 -19165728.85049 -14915876.29048  20796590.551    20796590.7314   20796597.8804
       214.0004        215.0004
 -11694350.47448  -9100066.79746  22583222.194    22583222.4454   22583227.3824
       182.0004        183.0004
 -11549598.84447  -8986101.69846  22804692.756    22804693.4884   22804701.6344
       161.0004        164.0004
 -14428325.24648 -11227558.24046  22008834.611    22008833.3404   22008838.5244
       174.0004        174.0004
  -8168673.57448  -6353949.20347  23411587.600    23411588.1584   23411595.6824
       192.0004        193.0004
 21  2  5  1  4 30.0000000  0  7G08G04G09G07G01G21G27
 -19950613.75849 -15529519.84847  20823775.572    20823775.9144   20823783.4084
       204.0004        204.0004
 -16876223.03249 -13129218.71847  21313477.932    21313478.4144   21313484.5784
       196.0004        195.0004
 -19155880.40649 -14908202.17148  20798464.688    20798465.0144   20798471.9854
       214.0004        215.0004
 -11769988.42148  -9159005.43546  22568828.556    22568829.4024   22568833.1244
       184.0004        185.0004
 -11627035.83847  -9046442.18646  22789957.116    22789957.8994   22789966.1284
       163.0004        165.0004
 -14458576.47748 -11251130.60746  22003077.077    22003076.2954   22003082.6844
       174.0004        175.0004
  -8064370.78048  -6272674.28747  23431435.705    23431436.4004   23431444.0914
       193.0004        194.0004
 21  2  5  1  5  0.0000000  0  7G08G04G09G07G01G21G27
 -19889459.16549 -15481866.91147  20835413.365    20835413.3294   20835421.0544
       204.0004        204.0004
 -16801846.65849 -13071263.09947  21327630.481    21327631.3074   21327637.7924
       196.0004        195.0004
 -19145477.32149 -14900095.86248  20800444.095    20800444.4514   20800451.5604
       214.0004        215.0004
 -11845628.23648  -9217945.52546  22554435.260    22554436.4194   22554439.4124
       185.0004        186.0004
 -11704441.28348  -9106758.07546  22775227.680    22775227.8284   22775236.4254
       165.0004        168.0004
 -14488490.55048 -11274440.24746  21997384.510    21997384.0314   21997388.9504
       174.0004        174.0004
  -7959915.36248  -6191280.44247  23451311.882    23451313.4474   23451320.4304
       191.0004        191.0004
 21  2  5  1  5 30.0000000  0  7G08G04G09G07G01G21G27
 -19827868.53449 -15433874.18547  20847133.408    20847133.7534   20847140.9184
       204.0004        204.0004
 -16727099.94149 -13013018.89547  21341854.690    21341855.0494   21341861.0784
       195.0004        194.0004
 -19134519.30449 -14891557.14548  20802529.331    20802529.9054   20802536.5144
       214.0004        214.0004
 -11921266.62048  -9276884.50146  22540041.434    22540041.4514   22540046.0054
       185.0004        184.0004
 -11781810.84648  -9167045.99046  22760503.670    22760504.4814   22760513.5734
       166.0004        167.0004
 -14518063.70048 -11297484.23746  21991755.859    21991756.9434   21991762.0204
       173.0004        174.0004
  -7855308.95748  -6109768.94947  23471219.776    23471219.4434   23471226.2944
       192.0004        192.0004
 21  2  5  1  6  0.0000000  0  7G08G04G09G07G01G21G27
 -19765845.72449 -15385544.71347  20858935.787    20858936.1734   20858943.8334
       203.0004        203.0004
 -16651986.91849 -12954489.28047  21356148.520    21356148.4854   21356154.9824
       196.0004        195.0004
 -19123008.52549 -14882587.71048  20804719.873    20804720.0294   20804726.7764
       214.0004        214.0004
 -11996903.20748  -9335822.07546  22525647.801    22525648.6714   22525652.8724
       185.0004        186.0004
 -11859142.78848  -9227304.61646  22745789.344    22745789.3194   22745796.5104
       166.0004        167.0004
 -14547295.16648 -11320261.97346  21986193.494    21986193.3894   21986198.5024
       172.0004        172.0004
  -7750555.79548  -6028143.12247  23491154.911    23491154.0704   23491159.7454
       191.0004        190.0004
 21  2  5  1  6 30.0000000  0  7G08G04G09G07G01G21G27
 -19703394.00849 -15336881.02347  20870820.040    20870820.4354   20870828.0814
       203.0004        204.0004
 -16576510.39449 -12895676.41147  21370511.232    21370511.5024   21370517.9604
       196.0004        194.0004
 -19110945.98849 -14873188.32248  20807015.177    20807015.4244   20807022.2454
       213.0004        214.0004
 -12072536.04448  -9394756.74646  22511257.087    22511256.9284   22511260.2514
       186.0004        187.0004
 -11936434.06848  -9287531.54446  22731080.914    22731080.4004   22731089.4394
       166.0004        168.0004
 -14576182.94148 -11342771.89646  21980697.084    21980696.4394   21980702.1684
       172.0004        173.0004
  -7645658.84648  -5946405.23747  23511115.653    23511115.3944   23511121.9044
       191.0004        192.0004
 21  2  5  1  7  0.0000000  0  7G08G04G09G07G01G21G27
 -19640515.71449 -15287884.94047  20882785.296    20882785.7134   20882793.0924
       203.0004        203.0004
 -16500673.23749 -12836582.52447  21384941.759    21384942.3214   21384949.0394
       195.0004        193.0004
 -19098332.77949 -14863359.84748  20809415.618    20809415.8254   20809422.4614
       214.0004        214.0004
 -12148163.10048  -9453686.91246  22496864.998    22496865.2864   22496869.6964
       186.0004        186.0004
 -12013681.78648  -9347724.52046  22716379.489    22716381.0254   22716389.9064
       166.0004        168.0004
 -14604724.54548 -11365012.07746  21975265.866    21975265.3634   21975271.0154
       171.0004        173.0004
  -7540621.18748  -5864557.68447  23531103.648    23531102.9154   23531108.6474
       190.0004        190.0004
 21  2  5  1  7 30.0000000  0  7G08G04G09G07G01G21G27
 -19577212.47149 -15238557.72047  20894831.600    20894831.7564   20894839.1064
       203.0004        203.0004
 -16424477.06748 -12777208.88547  21399441.729    21399442.3814   21399448.4404
       194.0004        192.0004
 -19085168.75949 -14853102.17048  20811920.473    20811920.7814   20811927.7624
       214.0004        214.0004
 -12223781.02948  -9512609.94646  22482474.777    22482474.8324   22482480.2624
       186.0004        187.0004
 -12090881.61148  -9407880.19146  22701690.015    22701690.4454   22701699.5534
       168.0004        170.0004
 -14632916.48748 -11386979.79446  21969900.757    21969901.0884   21969905.1624
       172.0004        173.0004
  -7435444.55448  -5782601.88547  23551117.720    23551117.8004   23551122.9764
       191.0004        191.0004
 21  2  5  1  8  0.0000000  0  7G08G04G09G07G01G21G27
 -19513485.97049 -15188900.68647  20906958.007    20906958.0804   20906966.1204
       202.0004        203.0004
 -16347923.95748 -12717557.11147  21414010.683    21414010.5804   21414016.1084
       194.0004        193.0004
 -19071454.23749 -14842415.51948  20814530.294    20814530.4974   20814537.6714
       214.0004        214.0004
 -12299386.96448  -9571523.65047  22468087.551    22468088.3534   22468091.7814
       188.0004        188.0004
 -12168029.85448  -9467995.65246  22687007.840    22687009.2554   22687017.5824
       168.0004        169.0004
 -14660755.92148 -11408672.83546  21964603.367    21964603.2804   21964609.2454
       174.0004        175.0004
  -7330131.15048  -5700539.49047  23571159.341    23571158.3454   23571163.3234
       190.0004        189.0004
 21  2  5  1  8 30.0000000  0  7G08G04G09G07G01G21G27
 -19449339.76549 -15138916.62847  20919164.071    20919164.6664   20919172.5794
       202.0004        202.0004
 -16271017.23248 -12657629.80647  21428644.258    21428645.0474   21428650.6484
       193.0004        191.0004
 -19057190.77749 -14831301.14048  20817244.573    20817245.0684   20817252.0134
       214.0004        215.0004
 -12374979.38148  -9630426.83347  22453702.571    22453703.2524   22453707.3364
       188.0004        188.0004
 -12245123.92148  -9528068.92646  22672338.370    22672339.5284   22672346.6884
       168.0004        170.0004
 -14688241.10748 -11430089.84646  21959372.210    21959372.3454   21959379.1844
       175.0004        175.0004
  -7224684.44948  -5618373.23747  23591224.433    23591224.1174   23591230.3544
       190.0004        190.0004
 21  2  5  1  9  0.0000000  0  7G08G04G09G07G01G21G27
 -19384777.45749 -15088608.31847  20931450.589    20931450.6894   20931458.2834
       201.0004        202.0004
 -16193760.37048 -12597429.64647  21443345.050    21443346.1354   21443352.2274
       193.0004        192.0004
 -19042380.11349 -14819760.36148  20820063.233    20820063.4684   20820070.0214
       214.0004        215.0004
 -12450556.85548  -9689318.35747  22439320.916    22439321.3664   22439324.5274
       187.0004        188.0004
 -12322161.37048  -9588098.06446  22657678.297    22657678.8364   22657686.8584
       169.0004        171.0004
 -14715370.61748 -11451229.69346  21954210.774    21954210.2454   21954215.8604
       175.0004        176.0004
  -7119107.90748  -5536105.80347  23611314.952    23611314.7864   23611320.1664
       188.0004        188.0004
 21  2  5  1  9 30.0000000  0  7G08G04G09G07G01G21G27
 -19319801.24449 -15037977.48847  20943814.186    20943814.8424   20943822.6834
       201.0004        201.0004
 -16116155.86348 -12536958.60747  21458113.809    21458114.2804   21458119.8394
       193.0004        192.0004
 -19027023.09249 -14807793.85148  20822985.365    20822985.5784   20822992.2094
       214.0004        214.0004
 -12526117.01848  -9748196.37547  22424942.746    22424942.3504   22424946.6634
       187.0004        188.0004
 -12399138.81248  -9648080.45546  22643030.667    22643031.4424   22643039.1014
       170.0004        172.0004
 -14742141.83148 -11472090.35246  21949117.432    21949116.3824   21949121.3044
       176.0004        176.0004
  -7013404.16748  -5453739.27046  23631428.945    23631429.2374   23631435.6474
       187.0004        186.0004
 21  2  5  1 10  0.0000000  0  7G08G04G09G07G01G21G27
 -19254414.19749 -14987026.53947  20956257.156    20956257.7754   20956265.7214
       201.0004        201.0004
 -16038206.92848 -12476219.17847  21472947.713    21472947.5924   21472953.7414
       194.0004        193.0004
 -19011121.19349 -14795402.76648  20826011.325    20826011.5904   20826018.3434
       213.0004        214.0004
 -12601658.05648  -9807059.49246  22410567.562    22410567.3314   22410571.9824
       187.0004        187.0004
 -12476053.49748  -9708013.93646  22628393.869    22628394.7384   22628403.2774
       170.0004        171.0004
 -14768552.82848 -11492670.33546  21944091.264    21944090.5534   21944095.4874
       175.0004        176.0004
  -6907576.52648  -5371276.16746  23651567.428    23651567.7774   23651573.9014
       185.0004        185.0004
 21  2  5  1 10 30.0000000  0  7G08G04G09G07G01G21G27
 -19188618.29149 -14935756.99847  20968778.727    20968778.9034   20968786.7504
       201.0004        202.0004
 -15959915.66948 -12415213.01247  21487844.547    21487845.2904   21487851.2754
       193.0004        192.0004
 -18994674.86949 -14782587.45248  20829140.687    20829141.3074   20829148.0634
       214.0004        214.0004
 -12677177.06748  -9865905.46746  22396196.319    22396196.2614   22396200.7234
       187.0004        186.0004
 -12552901.60748  -9767895.54546  22613770.743    22613770.7344   22613779.4804
       169.0004        171.0004
 -14794600.90248 -11512967.52146  21939133.617    21939133.1784   21939138.0024
       176.0004        176.0004
  -6801627.12148  -5288718.20546  23671729.213    23671729.7694   23671736.0814
       185.0004        187.0004
 21  2  5  1 11  0.0000000  0  7G08G04G09G07G01G21G27
 -19122416.32549 -14884171.03147  20981376.562    20981376.5094   20981384.0284
       201.0004        201.0004
 -15881284.87948 -12353942.25447  21502808.081    21502808.7804   21502814.4914
       193.0004        192.0004
 -18977685.25949 -14769348.77448  20832374.133    20832374.2314   20832381.1044
       214.0004        214.0004
 -12752671.91648  -9924732.61747  22381830.192    22381830.9324   22381834.3844
       187.0004        188.0004
 -12629679.89548  -9827722.73146  22599159.110    22599160.0344   22599168.2344
       170.0004        171.0004
 -14820283.60448 -11532979.97446  21934246.954    21934246.6484   21934251.0974
       176.0004        178.0004
  -6695558.77948  -5206067.54147  23691914.669    23691914.6494   23691919.2104
       187.0004        188.0004
 21  2  5  1 11 30.0000000  0  7G08G04G09G07G01G21G27
 -19055811.47849 -14832271.13347  20994050.685    20994050.5174   20994058.2314
       200.0004        200.0004
 -15802317.53748 -12292409.25847  21517834.494    21517835.5044   21517841.3284
       192.0004        190.0004
 -18960153.64649 -14755687.77448  20835710.428    20835710.6524   20835717.0414
       214.0004        214.0004
 -12828140.76648  -9983539.51047  22367469.123    22367470.0384   22367473.1404
       187.0004        188.0004
 -12706385.52248  -9887493.32346  22584562.575    22584563.5504   22584571.5334
       169.0004        171.0004
 -14845598.86248 -11552706.12146  21929429.783    21929429.4464   21929434.0434
       177.0004        178.0004
  -6589374.51648  -5123326.56447  23712120.002    23712120.6244   23712125.3024
       188.0004        189.0004
 21  2  5  1 12  0.0000000  0  8G30G08G04G09G07G01G21G27
  -1582866.66657  -1199499.97745  24242604.783    24242603.6875   24242610.9994
       146.0004        155.0004
 -18988806.56749 -14780059.51647  21006800.561    21006800.5634   21006808.7224
       199.0004        199.0004
 -15723016.85348 -12230616.51947  21532925.402    21532925.9564   21532932.6754
       192.0004        191.0004
 -18942081.65549 -14741605.70348  20839149.684    20839149.6924   20839156.2724
       214.0004        214.0004
 -12903581.70548 -10042324.65447  22353113.182    22353113.7054   22353117.6064
       187.0004        188.0004
 -12783015.65248  -9947205.06146  22569980.216    22569980.9944   22569989.4314
       169.0004        171.0004
 -14870545.17248 -11572144.77246  21924681.906    21924681.4964   21924686.4464
       177.0004        177.0004
  -6483077.51248  -5040497.73046  23732347.911    23732347.5154   23732352.1954
       186.0004        185.0004
 21  2  5  1 12 30.0000000  0  8G30G08G04G09G07G01G21G27
  -1666904.99747  -1264984.36445  24226611.437    24226612.3664   24226619.0274
       151.0004        154.0004
 -18921405.31249 -14727539.05847  21019627.189    21019627.5834   21019634.9274
       199.0004        199.0004
 -15643386.86548 -12168567.17647  21548078.977    21548079.2514   21548084.5804
       192.0004        192.0004
 -18923471.70249 -14727104.43748  20842690.683    20842690.8594   20842697.6934
       214.0004        214.0004
 -12978993.77848 -10101087.30146  22338763.185    22338763.3974   22338766.4684
       186.0004        186.0004
 -12859568.31648 -10006856.45946  22555413.095    22555413.3934   22555422.1744
       169.0004        170.0004
 -14895121.45648 -11591295.09146  21920005.411    21920004.3564   21920009.2514
       177.0004        177.0004
  -6376671.81048  -4957584.20047  23752596.621    23752595.5184   23752602.0444
       188.0004        189.0004
 21  2  5  1 13  0.0000000  0  8G30G08G04G09G07G01G21G27
  -1751048.83747  -1330550.95845  24210598.511    24210599.2904   24210607.1954
       151.0004        154.0004
 -18853610.51649 -14674711.93747  21032528.853    21032528.4514   21032536.1614
       200.0004        200.0004
 -15563429.82248 -12106262.99247  21563294.161    21563294.1894   21563299.6454
       193.0004        191.0004
 -18904324.50449 -14712184.55448  20846333.734    20846334.1324   20846341.2914
       214.0004        214.0004
 -13054374.13848 -10159825.24646  22324417.812    22324418.4964   22324422.2154
       186.0004        187.0004
 -12936039.75748 -10066444.57446  22540860.807    22540861.6564   22540870.8584
       170.0004        172.0004
 -14919324.73048 -11610154.76946  21915398.803    21915398.5324   21915404.4024
       177.0004        177.0004
  -6270159.68348  -4874587.75446  23772863.602    23772863.6104   23772870.0604
       186.0004        185.0004
 21  2  5  1 13 30.0000000  0  8G30G08G04G09G07G01G21G27
  -1835294.62447  -1396196.98645  24194568.269    24194569.1894   24194575.2744
       153.0004        156.0004
 -18785422.63049 -14621578.50147  21045503.885    21045503.7254   21045512.3174
       200.0004        200.0004
 -15483146.42048 -12043704.49447  21578571.785    21578572.2094   21578577.5094
       192.0004        192.0004
 -18884639.11749 -14696845.27548  20850079.976    20850080.3284   20850087.4564
       214.0004        214.0004
 -13129718.38048 -10218535.02647  22310080.446    22310081.1134   22310085.2044
       187.0004        188.0004
 -13012424.60948 -10125965.19546  22526325.502    22526326.1684   22526335.1784
       170.0004        171.0004
 -14943150.90848 -11628720.57946  21910865.942    21910864.8814   21910870.2944
       177.0004        178.0004
  -6163541.73248  -4791508.83946  23793150.066    23793151.8994   23793159.7594
       185.0004        186.0004
 21  2  5  1 14  0.0000000  0  8G30G08G04G09G07G01G21G27
  -1919642.19947  -1461922.32545  24178517.373    24178517.5944   24178525.5134
       155.0004        158.0004
 -18716845.63949 -14568141.87247  21058552.959    21058553.3324   21058561.9474
       199.0004        199.0004
 -15402540.64948 -11980894.79947  21593910.105    21593910.3674   21593916.5384
       192.0004        190.0004
 -18864417.99249 -14681088.55448  20853928.118    20853928.5874   20853935.0614
       214.0004        215.0004
 -13205025.25748 -10277215.69447  22295750.477    22295750.9124   22295754.8924
       188.0004        188.0004
 -13088720.82648 -10185416.74246  22511805.760    22511806.9664   22511814.6414
       169.0004        169.0004
 -14966598.98148 -11646991.77246  21906402.517    21906403.5304   21906408.0514
       178.0004        178.0004
  -6056821.91548  -4708350.53446  23813458.802    23813460.1484   23813467.1814
       183.0004        182.0004
 21  2  5  1 14 30.0000000  0  8G30G08G04G09G07G01G21G27
  -2004090.01347  -1527725.78645  24162447.698    24162447.4114   24162454.9814
       155.0004        158.0004
 -18647882.06749 -14514404.01647  21071675.742    21071676.2144   21071684.6624
       198.0004        198.0004
 -15321615.17848 -11917835.98747  21609309.076    21609310.1844   21609316.2454
       192.0004        191.0004
 -18843662.22749 -14664915.23148  20857877.819    20857878.2254   20857885.0594
       214.0004        215.0004
 -13280292.71348 -10335865.64946  22281427.339    22281427.1684   22281431.5804
       187.0004        186.0004
 -13164924.97448 -10244796.57146  22497306.496    22497305.8974   22497314.8004
       169.0004        170.0004
 -14989666.92548 -11664966.76246  21902013.645    21902013.5054   21902018.6524
       178.0004        179.0004
  -5950002.79848  -4625114.85946  23833785.904    23833787.0184   23833794.7174
       182.0004        182.0004
 21  2  5  1 15  0.0000000  0  8G30G08G04G09G07G01G21G27
  -2088637.47447  -1593606.90245  24146359.494    24146359.1464   24146366.3944
       156.0004        158.0004
 -18578535.43249 -14460367.66947  21084872.677    21084872.8324   21084880.7574
       198.0004        198.0004
 -15240373.63848 -11854530.88347  21624769.369    21624769.8914   21624775.8854
       191.0004        190.0004
 -18822374.01649 -14648327.01048  20861928.647    20861929.1794   20861935.6084
       214.0004        213.0004
 -13355518.94148 -10394483.46446  22267111.309    22267112.2654   22267116.7854
       187.0004        187.0004
 -13241034.71748 -10304102.81946  22482821.895    22482822.3154   22482831.0734
       169.0004        171.0004
 -15012353.21948 -11682644.37146  21897696.679    21897696.4114   21897701.4774
       178.0004        178.0004
  -5843088.02748  -4541804.66346  23854132.794    23854132.7674   23854138.5404
       182.0004        182.0004
 21  2  5  1 15 30.0000000  0  8G30G08G04G09G07G01G21G27
  -2173282.77747  -1659564.24945  24130250.727    24130251.5414   24130258.5634
       156.0004        157.0004
 -18508807.67649 -14406034.34947  21098142.183    21098141.9984   21098149.9114
       198.0004        198.0004
 -15158818.53348 -11790981.44947  21640288.843    21640289.4854   21640295.4024
       192.0004        192.0004
 -18800554.29249 -14631324.62048  20866080.844    20866081.1464   20866087.8134
       213.0004        213.0004
 -13430701.43448 -10453067.22847  22252805.745    22252806.4394   22252809.3484
       187.0004        188.0004
 -13317046.44148 -10363332.69946  22468357.103    22468358.0814   22468366.6234
       170.0004        172.0004
 -15034655.31048 -11700022.60646  21893453.492    21893452.7864   21893456.3474
       177.0004        177.0004
  -5736079.94548  -4458421.73546  23874494.501    23874495.2884   23874502.2104
       181.0004        181.0004
 21  2  5  1 16  0.0000000  0  8G30G08G04G09G07G01G21G27
  -2258023.48447  -1725595.95445  24114124.322    24114125.3574   24114133.2904
       155.0004        157.0004
 -18438701.49149 -14351406.13747  21111482.486    21111482.9704   21111489.9914
       198.0004        198.0004
 -15076951.64548 -11727189.07547  21655867.343    21655867.9764   21655873.8514
       191.0004        190.0004
 -18778203.36549 -14613908.31148  20870334.351    20870334.3934   20870341.5654
       213.0004        214.0004
 -13505836.76748 -10511614.24147  22238508.326    22238508.5574   22238511.8124
       187.0004        188.0004
 -13392955.79248 -10422482.79746  22453912.935    22453913.2914   22453921.4924
       171.0004        173.0004
 -15056569.85748 -11717098.84846  21889282.228    21889281.8454   21889286.4554
       178.0004        178.0004
  -5628980.27548  -4374967.44446  23894876.365    23894875.9504   23894882.5964
       183.0004        185.0004
 21  2  5  1 16 30.0000000  0  8G30G08G04G09G07G01G21G27
  -2342859.36247  -1791701.81145  24097981.385    24097982.0514   24097989.0144
       155.0004        157.0004
 -18368220.13449 -14296485.59447  21124894.249    21124894.4154   21124902.7284
       197.0004        197.0004
 -14994777.03748 -11663156.91347  21671504.951    21671505.5104   21671511.7534
       191.0004        190.0004
 -18755323.82349 -14596080.10848  20874687.454    20874687.9214   20874695.2484
       213.0004        213.0004
 -13580923.82648 -10570123.62747  22224218.584    22224219.1614   22224224.2024
       188.0004        189.0004
 -13468760.75148 -10481551.56646  22439487.822    22439488.5264   22439495.5084
       171.0004        172.0004
 -15078096.00248 -11733872.43546  21885186.149    21885186.0244   21885191.1744
       178.0004        179.0004
  -5521792.88348  -4291444.81046  23915272.734    23915272.6114   23915280.5894
       183.0004        182.0004
 21  2  5  1 17  0.0000000  0  8G30G08G04G09G07G01G21G27
  -2427789.90347  -1857881.42845  24081821.824    24081820.8064   24081827.0224
       155.0004        157.0004
 -18297367.93349 -14241276.06747  21138375.923    21138376.7374   21138385.1934
       196.0004        196.0004
 -14912298.59848 -11598887.99347  21687199.710    21687200.9744   21687206.8184
       192.0004        191.0004
 -18731918.10749 -14577841.88248  20879141.701    20879141.9084   20879149.1374
       213.0004        213.0004
 -13655961.47348 -10628594.49847  22209939.665    22209940.1164   22209944.2534
       189.0004        190.0004
 -13544459.14848 -10540537.26346  22425082.690    22425083.0884   22425091.5494
       171.0004        173.0004
 -15099233.02848 -11750342.80746  21881163.276    21881162.9274   21881168.6084
       178.0004        178.0004
  -5414521.54548  -4207856.76846  23935685.744    23935685.5254   23935693.6894
       181.0004        181.0004
 21  2  5  1 17 30.0000000  0  8G30G08G04G09G07G01G21G27
  -2512813.40847  -1924133.47945  24065640.509    24065640.3274   24065647.9194
       156.0004        159.0004
 -18226147.18149 -14185779.37347  21151929.503    21151929.6514   21151937.9534
       196.0004        196.0004
 -14829518.85548 -11534384.28747  21702952.166    21702953.0294   21702959.4624
       192.0004        190.0004
 -18707987.29149 -14559194.49048  20883695.895    20883696.3404   20883702.8734
       213.0004        214.0004
 -13730946.86048 -10687024.66547  22195671.097    22195671.2994   22195675.1114
       189.0004        190.0004
 -13620047.30848 -10599437.06746  22410699.027    22410699.2424   22410707.3164
       171.0004        172.0004
 -15119978.71248 -11766508.24246  21877215.703    21877215.7784   21877221.0384
       178.0004        179.0004
  -5307168.64448  -4124205.17346  23956114.428    23956114.2674   23956121.1984
       180.0004        180.0004
 21  2  5  1 18  0.0000000  0  8G30G08G04G09G07G01G21G27
  -2597928.09647  -1990456.54545  24049444.069    24049444.0104   24049451.2104
       157.0004        159.0004
 -18154560.21249 -14129997.31847  21165552.379    21165552.6294   21165560.5994
       196.0004        197.0004
 -14746440.34848 -11469647.77647  21718761.393    21718761.9714   21718768.6554
       191.0004        189.0004
 -18683532.57349 -14540138.86148  20888349.517    20888349.8694   20888356.6584
       213.0004        214.0004
 -13805877.35848 -10745412.06847  22181411.696    22181412.3634   22181415.9004
       189.0004        189.0004
 -13695521.73348 -10658248.25646  22396336.174    22396337.0854   22396344.4874
       171.0004        172.0004
 -15140330.45048 -11782366.71346  21873342.979    21873341.8504   21873347.3144
       178.0004        178.0004
  -5199736.66048  -4040491.94946  23976556.861    23976556.9194   23976565.9794
       179.0004        178.0004
 21  2  5  1 18 30.0000000  0  8G30G08G04G09G07G01G21G27
  -2683131.20847  -2056848.57245  24033230.609    24033230.8934   24033238.1294
       159.0004        162.0004
 -18082608.66549 -14073931.17147  21179245.234    21179245.1924   21179252.5944
       196.0004        197.0004
 -14663064.77348 -11404679.78247  21734627.505    21734627.7484   21734634.4564
       191.0004        190.0004
 -18658554.20649 -14520675.19248  20893102.169    20893102.8294   20893109.6704
       213.0004        213.0004
 -13880749.48548 -10803753.98147  22167164.592    22167164.6844   22167168.0894
       189.0004        189.0004
 -13770877.90448 -10716967.29946  22381995.777    22381996.8094   22382005.4964
       172.0004        174.0004
 -15160284.91548 -11797915.61746  21869545.776    21869545.9324   21869549.7794
       177.0004        179.0004
  -5092226.94048  -3956718.18746  23997015.800    23997015.8064   23997023.5814
       177.0004        177.0004
 21  2  5  1 19  0.0000000  0  8G30G08G04G09G07G01G21G27
  -2768421.75947  -2123308.72845  24017001.487    24017001.1634   24017007.9204
       161.0004        162.0004
 -18010296.10249 -14017583.71147  21193005.464    21193005.4524   21193013.4164
       197.0004        197.0004
 -14579395.46148 -11339482.92147  21750549.337    21750549.7304   21750556.4294
       190.0004        190.0004
 -18633054.08349 -14500804.97047  20897955.299    20897955.1024   20897961.9204
       212.0004        212.0004
 -13955561.34348 -10862048.92947  22152927.897    22152927.6394   22152931.9884
       188.0004        189.0004
 -13846113.02048 -10775592.02046  22367679.896    22367680.1384   22367688.8024
       173.0004        175.0004
 -15179840.64348 -11813153.83046  21865826.309    21865825.1524   21865828.8474
       178.0004        180.0004
  -4984642.74348  -3872886.34646  24017487.675    24017488.6724   24017495.4064
       174.0004        174.0004
 21  2  5  1 19 30.0000000  0  8G30G08G04G09G07G01G21G27
  -2853799.19447  -2189836.58745  24000753.160    24000753.3264   24000759.6084
       158.0004        158.0004
 -17937625.90249 -13960957.56947  21206833.577    21206834.1884   21206841.8314
       197.0004        197.0004
 -14495436.26148 -11274060.15847  21766526.252    21766526.3364   21766532.7134
       189.0004        188.0004
 -18607034.75349 -14480530.15848  20902906.459    20902906.7274   20902913.6354
       212.0004        213.0004
 -14030311.25648 -10920295.62147  22138702.748    22138703.0424   22138708.3574
       189.0004        191.0004
 -13921224.70948 -10834120.55646  22353386.538    22353387.4034   22353394.8314
       174.0004        174.0004
 -15198996.65348 -11828080.54546  21862179.735    21862179.3854   21862183.8904
       179.0004        180.0004
  -4876987.66948  -3788999.31446  24037975.296    24037975.1394   24037982.4644
       176.0004        178.0004
 21  2  5  1 20  0.0000000  0  8G30G08G04G09G07G01G21G27
  -2939261.66647  -2256430.70445  23984490.694    23984490.6834   23984496.6224
       154.0004        155.0004
 -17864600.67849 -13904054.79947  21220729.180    21220729.8394   21220738.3774
       195.0004        195.0004
 -14411189.70848 -11208413.49847  21782556.952    21782558.1944   21782564.0714
       188.0004        188.0004
 -18580497.40249 -14459851.71048  20907956.326    20907956.5274   20907963.5194
       212.0004        213.0004
 -14104996.77748 -10978492.11947  22124490.497    22124491.2704   22124496.0014
       191.0004        192.0004
 -13996209.41848 -10892550.15646  22339118.197    22339118.3114   22339125.7114
       174.0004        176.0004
 -15217750.48448 -11842693.90846  21858610.293    21858610.0384   21858615.0034
       179.0004        179.0004
  -4769264.11648  -3705058.88146  24058474.235    24058473.5234   24058480.4404
       173.0004        173.0004
 21  2  5  1 20 30.0000000  0  8G30G08G04G09G07G01G21G27
  -3024808.63347  -2323090.67645  23968211.421    23968211.6064   23968217.8944
       154.0004        156.0004
 -17791224.33749 -13846878.43047  21234692.738    21234692.9034   21234701.2914
       195.0004        195.0004
 -14326659.77748 -11142546.00747  21798643.601    21798643.8004   21798650.0944
       189.0004        188.0004
 -18553444.65749 -14438771.64048  20913103.676    20913104.3664   20913111.5264
       212.0004        213.0004
 -14179616.36048 -11036637.24447  22110291.589    22110291.9544   22110296.6254
       192.0004        192.0004
 -14071064.88648 -10950879.04146  22324873.357    22324873.0234   22324880.7424
       175.0004        176.0004
 -15236101.39848 -11856993.29846  21855117.078    21855117.3434   21855123.2514
       178.0004        178.0004
  -4661475.69248  -3621067.93846  24078986.516    24078985.3604   24078992.0804
       174.0004        176.0004
 21  2  5  1 21  0.0000000  0  8G30G08G04G09G07G01G21G27
  -3110437.69147  -2389814.59245  23951916.538    23951916.3784   23951923.3504
       155.0004        158.0004
 -17717498.87849 -13789430.02947  21248722.657    21248723.0814   21248730.8864
       195.0004        196.0004
 -14241848.44348 -11076459.24546  21814781.773    21814782.9444   21814789.1484
       188.0004        187.0004
 -18525877.18349 -14417290.49348  20918349.888    20918350.2364   20918357.3914
       212.0004        213.0004
 -14254166.67148 -11094728.38947  22096105.069    22096105.5284   22096109.7094
       191.0004        191.0004
 -14145786.94148 -11009103.96346  22310653.355    22310654.6834   22310661.8854
       174.0004        175.0004
 -15254046.35748 -11870976.35246  21851702.775    21851702.9794   21851709.0084
       178.0004        178.0004
  -4553624.28748  -3537027.88346  24099509.115    24099508.6714   24099515.5604
       176.0004        178.0004
 21  2  5  1 21 30.0000000  0  8G30G08G04G09G07G01G21G27
  -3196146.26447  -2456600.44645  23935606.253    23935605.9284   23935613.8524
       155.0004        157.0004
 -17643426.19849 -13731711.04647  21262818.396    21262818.8154   21262825.5184
       195.0004        195.0004
 -14156757.54148 -11010154.64646  21830974.270    21830975.3134   21830980.7614
       188.0004        187.0004
 -18497795.53849 -14395408.68947  20923693.581    20923693.9294   20923700.9124
       212.0004        212.0004
 -14328644.52448 -11152763.07147  22081932.554    22081933.1234   22081936.8174
       191.0004        191.0004
 -14220371.18648 -11067221.51046  22296459.571    22296460.4334   22296469.2614
       174.0004        174.0004
 -15271582.56148 -11884640.90546  21848366.687    21848366.1954   21848370.7884
       178.0004        178.0004
  -4445711.36948  -3452939.91046  24120041.474    24120043.6334   24120050.4584
       175.0004        176.0004
 21  2  5  1 22  0.0000000  0  8G30G08G04G09G07G01G21G27
  -3281932.55747  -2523446.86445  23919281.118    23919281.5544   23919288.7464
       155.0004        158.0004
 -17569008.74749 -13673723.42247  21276979.724    21276979.7574   21276987.0224
       195.0004        195.0004
 -14071389.82548 -10943634.34146  21847220.558    21847220.6444   21847225.9724
       188.0004        187.0004
 -18469201.16249 -14373127.35647  20929135.178    20929135.4924   20929142.1524
       211.0004        212.0004
 -14403047.23948 -11210739.20947  22067774.594    22067774.5424   22067778.4544
       191.0004        192.0004
 -14294814.11548 -11125228.94746  22282294.373    22282295.0284   22282303.6064
       175.0004        177.0004
 -15288707.68248 -11897985.12446  21845108.135    21845107.1204   21845112.4044
       178.0004        179.0004
  -4337739.42648  -3368805.89746  24140589.209    24140590.3504   24140596.5204
       174.0004        175.0004
 21  2  5  1 22 30.0000000  0  8G30G08G04G09G07G01G21G27
  -3367796.16847  -2590353.56145  23902942.156    23902943.0864   23902949.0914
       157.0004        159.0004
 -17494250.70349 -13615470.39447  21291205.750    21291205.7834   21291213.3844
       195.0004        195.0004
 -13985749.34948 -10876901.50846  21863516.281    21863517.1514   21863522.6854
       187.0004        186.0004
 -18440096.92849 -14350448.73047  20934673.310    20934673.6564   20934680.8394
       211.0004        211.0004
 -14477373.44848 -11268655.71847  22053630.393    22053631.0674   22053634.9044
       192.0004        193.0004
 -14369113.68948 -11183124.67246  22268156.528    22268157.2044   22268164.6274
       176.0004        176.0004
 -15305421.34448 -11911008.71646  21841926.972    21841927.5654   21841931.6884
       178.0004        180.0004
  -4229712.29248  -3284628.95546  24161148.397    24161148.5694   24161154.2044
       177.0004        178.0004
 21  2  5  1 23  0.0000000  0  8G30G08G04G09G07G01G21G27
  -3453736.51347  -2657320.06845  23886589.044    23886589.4024   23886596.1264
       156.0004        158.0004
 -17419156.05649 -13556955.08247  21305495.488    21305495.9164   21305503.7934
       195.0004        196.0004
 -13899840.08748 -10809959.22346  21879864.120    21879865.0014   21879870.0164
       186.0004        185.0004
 -18410485.53549 -14327374.91747  20940307.803    20940308.5164   20940315.6194
       211.0004        211.0004
 -14551621.72948 -11326511.52647  22039501.614    22039501.9614   22039505.1294
       192.0004        192.0004
 -14443267.58548 -11240906.87146  22254044.089    22254045.1764   22254053.1454
       176.0004        176.0004
 -15321722.64948 -11923711.01646  21838826.034    21838824.8684   21838829.5884
       179.0004        180.0004
  -4121633.64048  -3200411.82046  24181713.469    24181713.9664   24181721.1234
       176.0004        177.0004
 21  2  5  1 23 30.0000000  0  8G30G08G04G09G07G01G21G27
  -3539751.34547  -2724344.58745  23870220.516    23870220.7934   23870226.9174
       155.0004        156.0004
 -17343726.69149 -13498178.95447  21319849.391    21319849.8504   21319857.3004
       195.0004        196.0004
 -13813664.21748 -10742809.18346  21896262.772    21896263.2464   21896269.6104
       186.0004        185.0004
 -18380367.93449 -14303906.65247  20946039.499    20946039.7514   20946046.5914
       211.0004        212.0004
 -14625789.01748 -11384304.21547  22025387.684    22025388.1294   22025391.7124
       192.0004        192.0004
 -14517271.77348 -11298572.43646  22239961.004    22239962.1834   22239970.1184
       175.0004        175.0004
 -15337609.04448 -11936089.98946  21835803.362    21835802.5544   21835807.2404
       179.0004        180.0004
  -4013505.33048  -3116156.04346  24202289.126    24202290.6304   24202297.4204
       179.0004        180.0004
 21  2  5  1 24  0.0000000  0  8G30G08G04G09G07G01G21G27
  -3625838.94447  -2791425.82445  23853838.572    23853839.8104   23853845.1004
       153.0004        155.0004
 -17267965.64049 -13439144.36647  21334266.303    21334266.6974   21334273.8524
       195.0004        196.0004
 -13727224.63948 -10675453.67146  21912712.049    21912712.6064   21912718.3614
       186.0004        186.0004
 -18349745.81749 -14280045.26547  20951867.080    20951867.0474   20951874.2874
       211.0004        212.0004
 -14699872.60648 -11442031.67547  22011289.335    22011290.4624   22011294.4234
       192.0004        193.0004
 -14591122.88748 -11356118.71446  22225908.685    22225908.7354   22225916.9964
       175.0004        176.0004
 -15353078.57448 -11948144.13046  21832858.105    21832857.0834   21832862.2634
       179.0004        179.0004
  -3905329.89548  -3031863.53246  24222875.157    24222875.7284   24222882.2814
       179.0004        180.0004
 21  2  5  1 24 30.0000000  0  8G30G08G04G09G07G01G21G27
  -3711997.72747  -2858562.53145  23837442.522    23837442.7144   23837449.2414
       152.0004        156.0004
 -17191875.82949 -13379853.60347  21348745.440    21348745.8574   21348753.7744
       195.0004        196.0004
 -13640524.25948 -10607894.93046  21929209.948    21929210.6774   21929216.6584
       185.0004        184.0004
 -18318620.90649 -14255792.08047  20957789.376    20957789.8054   20957797.2004
       212.0004        212.0004
 -14773870.15548 -11499692.09047  21997209.206    21997209.4094   21997213.2464
       193.0004        193.0004
 -14664817.58348 -11413543.10146  22211885.407    22211885.9934   22211892.8804
       176.0004        177.0004
 -15368129.25548 -11959871.90746  21829994.645    21829993.8594   21829998.7054
       179.0004        180.0004
  -3797109.95748  -2947536.30846  24243469.949    24243469.8424   24243474.7424
       178.0004        178.0004
 21  2  5  1 25  0.0000000  0  8G30G08G04G09G07G01G21G27
  -3798227.26647  -2925754.35145  23821033.565    23821033.5684   23821041.9014
       153.0004        156.0004
 -17115460.74848 -13320309.38747  21363286.247    21363286.5584   21363294.8464
       194.0004        194.0004
 -13553567.27148 -10540136.24146  21945758.322    21945758.6254   21945764.2494
       185.0004        184.0004
 -18286996.24349 -14231149.48247  20963807.622    20963807.6704   20963814.6334
       211.0004        212.0004
 -14847780.47248 -11557284.54547  21983144.154    21983144.4644   21983148.7634
       194.0004        194.0004
 -14738353.84048 -11470844.05546  22197891.134    22197891.8494   22197899.8924
       177.0004        178.0004
 -15382760.66648 -11971272.98046  21827209.824    21827209.5114   21827214.8614
       180.0004        180.0004
  -3688849.39848  -2863177.41346  24264071.098    24264071.4844   24264077.4094
       181.0004        183.0004
 21  2  5  1 25 30.0000000  0  8G30G08G04G09G07G01G21G27
  -3884525.02747  -2992999.32745  23804612.394    23804611.7614   23804619.4154
       154.0004        157.0004
 -17038723.05548 -13260513.78247  21377889.410    21377889.9344   21377897.3894
       194.0004        194.0004
 -13466355.62348 -10472179.09846  21962352.982    21962353.9764   21962360.1334
       185.0004        185.0004
 -18254872.66649 -14206118.12247  20969920.688    20969920.7074   20969927.8484
       211.0004        211.0004
 -14921600.01248 -11614806.24847  21969096.571    21969097.1584   21969101.2884
       194.0004        193.0004
 -14811727.34748 -11528018.16546  22183928.810    22183929.6224   22183936.8654
       177.0004        178.0004
 -15396970.17548 -11982345.30446  21824506.000    21824505.2284   21824510.7734
       180.0004        180.0004
  -3580549.80948  -2778788.16046  24284680.847    24284680.2754   24284686.0284
       183.0004        183.0004
 21  2  5  1 26  0.0000000  0  8G30G08G04G09G07G01G21G27
  -3970889.18747  -3060296.06145  23788177.746    23788177.5694   23788185.4574
       156.0004        160.0004
 -16961665.11748 -13200468.63847  21392553.943    21392553.7824   21392560.8014
       194.0004        195.0004
 -13378892.21448 -10404025.80446  21978997.917    21978997.9924   21979003.5274
       185.0004        184.0004
 -18222251.86949 -14180699.32747  20976127.797    20976128.4804   20976135.0664
       211.0004        212.0004
 -14995326.27448 -11672255.29747  21955067.350    21955067.8084   21955071.0914
       193.0004        192.0004
 -14884934.74948 -11585062.86046  22169997.111    22169997.8974   22170005.7584
       177.0004        177.0004
 -15410755.89948 -11993087.40746  21821882.364    21821881.7434   21821886.8774
       179.0004        179.0004
  -3472213.69248  -2694370.43346  24305295.455    24305295.6284   24305300.8834
       180.0004        179.0004
 21  2  5  1 26 30.0000000  0  8G30G08G04G09G07G01G21G27
  -4057317.98447  -3127643.16445  23771730.915    23771730.9224   23771737.7354
       157.0004        159.0004
 -16884290.02048 -13140176.33647  21407277.378    21407277.6674   21407285.0324
       194.0004        194.0004
 -13291179.81948 -10335678.47146  21995688.185    21995688.9194   21995695.2044
       184.0004        184.0004
 -18189135.54749 -14154894.39047  20982429.462    20982429.8614   20982437.1604
       211.0004        212.0004
 -15068956.53848 -11729629.51947  21941055.529    21941055.7244   21941059.6344
       193.0004        193.0004
 -14957972.49448 -11641975.32246  22156098.034    22156099.1744   22156107.4104
       176.0004        177.0004
 -15424115.73948 -12003497.63546  21819340.832    21819340.4334   21819344.2644
       179.0004        180.0004
  -3363843.45248  -2609926.03346  24325918.323    24325917.5654   24325923.1394
       176.0004        175.0004
 21  2  5  1 27  0.0000000  0  8G30G08G04G09G07G01G21G27
  -4143809.48847  -3195039.12545  23755269.828    23755271.3874   23755279.9384
       157.0004        158.0004
 -16806600.25748 -13079638.85247  21422060.998    21422061.6134   21422069.2474
       193.0004        194.0004
 -13203221.16048 -10267139.25046  22012426.374    22012427.0614   22012433.4954
       185.0004        185.0004
 -18155525.34149 -14128704.61447  20988825.845    20988826.4014   20988832.9474
       211.0004        211.0004
 -15142488.20348 -11786926.90147  21927063.481    21927063.8354   21927067.9614
       194.0004        195.0004
 -15030837.11148 -11698752.90246  22142232.665    22142233.8744   22142242.0194
       176.0004        178.0004
 -15437047.89848 -12013574.62346  21816879.914    21816879.1724   21816883.1254
       179.0004        179.0004
  -3255441.35548  -2525456.90846  24346546.708    24346546.1674   24346551.6624
       173.0004        172.0004
 21  2  5  1 27 30.0000000  0  8G30G08G04G09G07G01G21G27
  -4230361.87447  -3262482.49745  23738801.611    23738801.6924   23738809.6464
       157.0004        160.0004
 -16728598.50248 -13018858.25847  21436904.021    21436904.6684   21436912.2874
       193.0004        194.0004
 -13115019.01248 -10198410.30946  22029210.618    22029211.3094   22029217.5704
       185.0004        184.0004
 -18121422.94249 -14102131.31147  20995315.407    20995315.3974   20995322.7784
       211.0004        212.0004
 -15215918.40549 -11844145.23347  21913090.518    21913090.3844   21913094.1444
       195.0004        195.0004
 -15103525.05148 -11755392.81646  22128400.767    22128401.4034   22128410.7564
       177.0004        178.0004
 -15449550.68448 -12023317.03546  21814501.458    21814499.4734   21814504.1244
       180.0004        180.0004
  -3147009.86848  -2440964.80846  24367182.014    24367181.3244   24367184.0494
       172.0004        174.0004
 21  2  5  1 28  0.0000000  0  8G30G08G04G09G07G01G21G27
  -4316974.76047  -3329973.04245  23722320.449    23722320.2374   23722327.0684
       158.0004        159.0004
 -16650288.93048 -12957837.81047  21451806.050    21451806.0874   21451814.1984
       193.0004        193.0004
 -13026577.63548 -10129494.94346  22046041.466    22046041.9754   22046046.5574
       185.0004        185.0004
 -18086831.53049 -14075176.96047  21001898.547    21001898.3844   21001905.1954
       211.0004        212.0004
 -15289246.05148 -11901283.66947  21899135.629    21899136.2994   21899140.2694
       194.0004        194.0004
 -15176034.30548 -11811893.48546  22114602.922    22114603.0464   22114612.0714
       177.0004        177.0004
 -15461623.57048 -12032724.45846  21812203.040    21812202.2114   21812206.9384
       180.0004        181.0004
  -3038552.80048  -2356452.78946  24387819.456    24387819.2674   24387823.6324
       175.0004        176.0004
 21  2  5  1 28 30.0000000  0  8G30G08G04G09G07G01G21G27
  -4403646.70447  -3397509.61445  23705827.293    23705826.3174   23705834.2164
       156.0004        158.0004
 -16571674.96448 -12896580.17947  21466766.099    21466766.2244   21466774.1984
       192.0004        193.0004
 -12937900.30148 -10060395.71246  22062915.688    22062915.5944   22062922.2924
       185.0004        184.0004
 -18051753.35549 -14047843.32347  21008572.571    21008573.1154   21008580.4614
       211.0004        211.0004
 -15362468.85448 -11958340.39347  21885202.507    21885202.8684   21885207.1324
       194.0004        195.0004
 -15248361.87748 -11868252.58046  22100839.858    22100840.6994   22100847.6764
       177.0004        179.0004
 -15473265.01948 -12041795.69446  21809986.970    21809987.2054   21809992.5854
       180.0004        180.0004
  -2930072.95948  -2271923.08246  24408462.251    24408462.3104   24408467.6544
       175.0004        176.0004
 21  2  5  1 29  0.0000000  0  9G30G08G17G04G09G07G01G21G27
  -4490375.27947  -3465090.28945  23689322.495    23689322.0244   23689330.6574
       155.0004        158.0004
 -16492758.51548 -12835086.84347  21481782.647    21481783.0624   21481791.5134
       192.0004        192.0004
   -468616.91957   -337004.35845  24214034.140    24214035.2045   24214041.1174
       138.0004        147.0004
 -12848989.22748  -9991114.35846  22079834.705    22079834.7084   22079840.6814
       184.0004        183.0004
 -18016189.60549 -14020131.31647  21015339.831    21015340.1964   21015347.6984
       210.0004        210.0004
 -15435583.55149 -12015312.88647  21871289.992    21871289.3244   21871293.4754
       195.0004        195.0004
 -15320503.66048 -11924466.92246  22087112.748    22087112.7904   22087120.9134
       179.0004        181.0004
 -15484472.92048 -12050529.09946  21807853.884    21807853.8584   21807859.3324
       180.0004        181.0004
  -2821572.16348  -2187377.01146  24429107.831    24429108.8514   24429113.4784
       173.0004        172.0004
 21  2  5  1 29 30.0000000  0  9G30G08G17G04G09G07G01G21G27
  -4577159.15147  -3532714.07745  23672808.186    23672808.7174   23672815.4394
       155.0004        158.0004
 -16413542.96448 -12773360.43447  21496856.452    21496857.4124   21496865.8164
       192.0004        192.0004
   -564954.60647   -412072.32345  24195700.330    24195701.8734   24195709.0874
       142.0004        147.0004
 -12759847.74548  -9921653.45646  22096797.585    22096798.1764   22096804.3324
       184.0004        184.0004
 -17980142.63849 -13992042.76047  21022199.768    21022200.0224   21022207.3634
       211.0004        212.0004
 -15508588.02649 -12072199.47947  21857395.778    21857396.9554   21857401.2784
       195.0004        196.0004
 -15392456.72348 -11980534.19146  22073420.341    22073420.1594   22073428.5744
       179.0004        180.0004
 -15495245.90948 -12058923.62346  21805804.875    21805804.2724   21805809.7834
       181.0004        182.0004
  -2713053.35848  -2102816.89046  24449756.822    24449757.9464   24449765.6824
       171.0004        171.0004
 21  2  5  1 30  0.0000000  0  9G30G08G17G04G09G07G01G21G27
  -4663998.41147  -3600381.03745  23656284.039    23656283.1474   23656290.9714
       157.0004        160.0004
 -16334032.96548 -12711404.61047  21511987.291    21511987.9134   21511995.3954
       191.0004        190.0004
   -661067.28247   -486964.97845  24177412.124    24177411.9874   24177419.3244
       144.0004        149.0004
 -12670480.72648  -9852016.81046  22113802.890    22113803.6364   22113810.3334
       184.0004        183.0004
 -17943616.28549 -13963580.67247  21029150.839    21029150.8344   21029158.3054
       211.0004        212.0004
 -15581481.52949 -12128999.61047  21843525.289    21843525.8994   21843530.0544
       195.0004        195.0004
 -15464219.67248 -12036453.31746  22059763.233    22059763.8474   22059772.2344
       179.0004        179.0004
 -15505584.20648 -12066979.43146  21803837.512    21803837.1634   21803842.0424
       180.0004        180.0004
  -2604520.87648  -2018246.18146  24470410.779    24470411.7864   24470418.2374
       171.0004        171.0004
 21  2  5  1 30 30.0000000  0  9G30G08G17G04G09G07G01G21G27
  -4750889.46147  -3668088.31345  23639748.225    23639748.2724   23639756.1294
       160.0004        162.0004
 -16254229.88648 -12649220.38047  21527173.471    21527173.5474   21527181.6724
       190.0004        191.0004
   -756951.09547   -561679.29145  24159164.733    24159164.6784   24159172.6544
       146.0004        150.0004
 -12580889.17448  -9782205.21346  22130852.833    22130853.0934   22130859.4204
       185.0004        184.0004
 -17906610.63249 -13934745.08147  21036192.410    21036192.7174   21036199.6684
       211.0004        211.0004
 -15654259.47149 -12185709.68247  21829676.987    21829676.7424   21829680.7024
       195.0004        196.0004
 -15535787.14148 -12092220.13946  22046144.314    22046144.8614   22046151.6684
       178.0004        179.0004
 -15515484.40548 -12074693.85046  21801953.679    21801952.5124   21801956.7374
       180.0004        179.0004
  -2495975.26348  -1933665.18046  24491067.009    24491067.3084   24491073.7904
       170.0004        171.0004
 21  2  5  1 31  0.0000000  0  9G30G08G17G04G09G07G01G21G27
  -4837829.53847  -3735833.79445  23623203.148    23623203.6904   23623211.0104
       159.0004        161.0004
 -16174135.01748 -12586808.78647  21542415.391    21542415.8774   21542423.3494
       191.0004        192.0004
   -852603.03047   -636212.91045  24140962.693    24140963.8024   24140970.3864
       147.0004        151.0004
 -12491075.13248  -9712220.24146  22147943.083    22147943.4414   22147949.8494
       185.0004        184.0004
 -17869126.74349 -13905536.84947  21043326.212    21043326.0804   21043333.1954
       210.0004        211.0004
 -15726918.45549 -12242327.07447  21815850.143    21815849.8204   21815854.3644
       195.0004        195.0004
 -15607154.94248 -12147831.36846  22032563.126    22032563.5724   22032571.5444
       178.0004        179.0004
 -15524943.93248 -12082064.89446  21800153.643    21800153.0104   21800156.4444
       179.0004        179.0004
  -2387418.06948  -1849075.18846  24511722.699    24511724.3114   24511731.2434
       170.0004        171.0004
 21  2  5  1 31 30.0000000  0  9G30G08G17G04G09G07G01G21G27
  -4924814.52147  -3803614.26945  23606649.454    23606650.6974   23606658.9814
       158.0004        159.0004
 -16093749.49048 -12524170.71647  21557712.983    21557712.7354   21557719.9194
       191.0004        191.0004
   -948018.15347   -710562.02045  24122807.002    24122807.4444   24122812.4194
       148.0004        152.0004
 -12401039.19448  -9642062.36346  22165076.088    22165076.4604   22165083.5144
       184.0004        183.0004
 -17831164.30049 -13875955.74147  21050549.579    21050549.8584   21050557.0834
       210.0004        210.0004
 -15799453.47949 -12298847.86547  21802046.026    21802047.1074   21802051.7064
       195.0004        195.0004
 -15678317.30548 -12203282.53046  22019020.602    22019021.3114   22019030.1884
       178.0004        179.0004
 -15533959.02048 -12089089.63046  21798437.078    21798437.2234   21798440.3144
       179.0004        179.0004
  -2278849.50348  -1764476.32046  24532383.461    24532383.8274   24532391.3144
       171.0004        172.0004
 21  2  5  1 32  0.0000000  0  9G30G08G17G04G09G07G01G21G27
  -5011844.71347  -3871429.97545  23590090.835    23590090.1054   23590097.8094
       159.0004        162.0004
 -16013078.22848 -12461309.98147  21573062.575    21573063.7844   21573071.4494
       191.0004        191.0004
  -1043196.45747   -784726.65445  24104694.177    24104695.6314   24104699.8054
       146.0004        149.0004
 -12310786.43148  -9571735.52846  22182250.841    22182251.5084   22182257.5254
       183.0004        182.0004
 -17792727.46149 -13846004.95147  21057864.181    21057864.1984   21057870.8874
       210.0004        210.0004
 -15871864.19949 -12355271.80347  21788268.139    21788268.1764   21788272.3514
       196.0004        197.0004
 -15749273.04148 -12258572.65246  22005517.978    22005519.0944   22005527.8494
       179.0004        179.0004
 -15542529.99148 -12095768.29646  21796807.273    21796806.1824   21796809.5264
       179.0004        179.0004
  -2170273.95248  -1679872.00446  24553042.119    24553043.4374   24553053.4444
       168.0004        168.0004
 21  2  5  1 32 30.0000000  0  9G30G08G17G04G09G07G01G21G27
  -5098918.92947  -3939280.02345  23573520.664    23573521.0154   23573527.2774
       161.0004        162.0004
 -15932124.27648 -12398228.96947  21588467.766    21588468.2184   21588476.0974
       190.0004        190.0004
  -1138136.40947   -858705.56745  24086627.025    24086627.1524   24086633.4294
       146.0004        148.0004
 -12220320.41748  -9501242.51646  22199467.000    22199467.4014   22199472.5204
       183.0004        182.0004
 -17753818.85249 -13815686.55047  21065268.034    21065268.4094   21065274.9944
       210.0004        210.0004
 -15944148.76549 -12411597.42647  21774512.141    21774512.3274   21774516.6904
       196.0004        196.0004
 -15820019.39748 -12313699.63346  21992056.256    21992057.2604   21992064.7254
       179.0004        179.0004
 -15550656.08248 -12102100.28246  21795260.353    21795260.2304   21795264.2994
       180.0004        180.0004
  -2061694.58848  -1595264.75846  24573704.241    24573706.2614   24573715.0904
       170.0004        172.0004
 21  2  5  1 33  0.0000000  0  8G30G08G17G04G09G07G01G21
  -5186034.67747  -4007162.40846  23556943.154    23556942.8124   23556950.4484
       161.0004        163.0004
 -15850890.39548 -12334929.83547  21603927.396    21603927.0464   21603934.2364
       190.0004        190.0004
  -1232834.86547   -932496.32645  24068606.462    24068607.2164   24068611.1554
       144.0004        147.0004
 -12129643.41648  -9430585.10246  22216721.584    22216721.9964   22216728.0284
       183.0004        182.0004
 -17714439.91249 -13785001.65547  21072761.386    21072761.8324   21072768.5794
       210.0004        210.0004
 -16016303.61449 -12467821.97947  21760781.235    21760781.8614   21760785.5144
       195.0004        195.0004
 -15890552.36448 -12368660.34146  21978635.290    21978635.5114   21978642.7144
       179.0004        180.0004
 -15558335.21548 -12108083.99946  21793799.343    21793798.5994   21793803.6264
       181.0004        182.0004
 21  2  5  1 33 30.0000000  0  8G30G08G17G04G09G07G01G21
  -5273191.95847  -4075077.17946  23540357.505    23540358.4384   23540364.4704
       162.0004        164.0004
 -15769381.42748 -12271416.35147  21619438.061    21619437.9884   21619444.7754
       190.0004        190.0004
  -1327291.88647  -1006099.00945  24050631.801    24050632.3444   24050638.1244
       145.0004        150.0004
 -12038760.23048  -9359767.04346  22234015.730    22234016.5304   22234022.9934
       183.0004        183.0004
 -17674594.58049 -13753953.34947  21080344.216    21080344.1914   21080351.0004
       210.0004        210.0004
 -16088328.04249 -12523944.91447  21747074.778    21747075.9454   21747080.1744
       195.0004        195.0004
 -15960870.41248 -12423453.58346  21965253.848    21965254.3754   21965262.7954
       180.0004        181.0004
 -15565567.59348 -12113719.59746  21792422.220    21792421.5684   21792428.3104
       181.0004        182.0004
 21  2  5  1 34  0.0000000  0  8G30G08G17G04G09G07G01G21
  -5360388.09047  -4143022.19246  23523764.781    23523764.2344   23523771.9924
       163.0004        165.0004
 -15687598.98848 -12207689.77447  21635000.013    21635000.5444   21635007.1584
       190.0004        190.0004
  -1421504.34747  -1079511.07845  24032702.731    24032703.8134   24032710.5664
       147.0004        151.0004
 -11947673.00148  -9288789.96546  22251349.483    22251349.3034   22251356.2144
       182.0004        181.0004
 -17634284.09349 -13722542.58847  21088014.276    21088014.8654   21088021.7124
       210.0004        210.0004
 -16160218.37149 -12579963.34147  21733395.733    21733396.0034   21733400.0464
       196.0004        197.0004
 -16030969.35348 -12478076.08646  21951914.400    21951915.0764   21951922.2454
       180.0004        181.0004
 -15572350.95348 -12119005.29046  21791131.156    21791131.2424   21791137.3204
       181.0004        182.0004
 21  2  5  1 34 30.0000000  0  8G30G08G17G04G09G07G01G21
  -5447621.62147  -4210996.34046  23507164.920    23507165.0104   23507171.8204
       164.0004        166.0004
 -15605546.70948 -12143752.92947  21650614.781    21650614.4434   21650621.1764
       189.0004        189.0004
  -1515470.45347  -1152731.17045  24014821.686    24014821.6434   24014829.5494
       149.0004        153.0004
 -11856385.06748  -9217656.52546  22268720.157    22268721.0914   22268726.5164
       181.0004        179.0004
 -17593511.02449 -13690771.36747  21095773.565    21095773.6444   21095781.1944
       210.0004        210.0004
 -16231972.57349 -12635875.70247  21719740.855    21719741.0414   21719744.7444
       196.0004        196.0004
 -16100846.23948 -12532525.56646  21938616.705    21938617.1174   21938625.3424
       180.0004        180.0004
 -15578684.11848 -12123940.21946  21789926.951    21789926.4474   21789931.9634
       182.0004        182.0004
 21  2  5  1 35  0.0000000  0  8G30G08G17G04G09G07G01G21
  -5534890.40048  -4278997.96146  23490557.906    23490558.6034   23490565.3584
       165.0004        167.0004
 -15523227.03248 -12079607.71647  21666279.418    21666280.1194   21666286.4224
       189.0004        189.0004
  -1609187.98047  -1225757.60145  23996988.582    23996988.6444   23996995.0074
       152.0004        155.0004
 -11764899.05748  -9146368.71746  22286130.396    22286130.3514   22286136.2884
       179.0004        178.0004
 -17552277.21249 -13658641.12547  21103619.966    21103620.3234   21103627.3654
       210.0004        210.0004
 -16303587.83249 -12691679.80647  21706113.232    21706113.6594   21706117.3494
       196.0004        197.0004
 -16170497.44748 -12586799.19846  21925362.913    21925363.2294   21925369.9354
       180.0004        181.0004
 -15584565.55248 -12128523.13446  21788808.028    21788807.3114   21788811.7274
       182.0004        182.0004
 21  2  5  1 35 30.0000000  0  8G30G08G17G04G09G07G01G21
  -5622192.83748  -4347025.84946  23473945.351    23473945.3994   23473952.2234
       165.0004        165.0004
 -15440643.09048 -12015256.60147  21681995.067    21681995.1004   21682001.6184
       189.0004        189.0004
  -1702654.23247  -1298588.26145  23979202.077    23979202.6484   23979209.2244
       153.0004        157.0004
 -11673218.28948  -9074929.15546  22303575.354    22303576.1004   22303583.1074
       177.0004        177.0004
 -17510585.16349 -13626153.82147  21111554.174    21111554.2454   21111560.7184
       210.0004        210.0004
 -16375061.69749 -12747373.73947  21692512.311    21692512.9124   21692516.6224
       197.0004        197.0004
 -16239919.91948 -12640894.60546  21912151.510    21912152.3944   21912161.0994
       181.0004        182.0004
 -15589994.12248 -12132753.16946  21787774.978    21787774.6304   21787778.2514
       182.0004        181.0004
 21  2  5  1 36  0.0000000  0  8G30G08G17G04G09G07G01G21
  -5709526.87547  -4415078.34246  23457325.155    23457326.1814   23457332.1904
       164.0004        166.0004
 -15357797.68748 -11950701.72947  21697759.035    21697759.5464   21697766.8994
       189.0004        190.0004
  -1795867.58247  -1371221.88845  23961464.113    23961464.7284   23961470.7864
       154.0004        157.0004
 -11581345.48348  -9003339.94446  22321059.241    22321059.8294   22321065.4314
       177.0004        177.0004
 -17468436.78949 -13593310.93047  21119574.761    21119574.9374   21119581.2934
       210.0004        210.0004
 -16446391.06849 -12802955.04947  21678938.574    21678939.0164   21678943.1314
       197.0004        197.0004
 -16309110.09148 -12694808.97946  21898985.300    21898985.4174   21898994.3074
       181.0004        182.0004
 -15594968.23548 -12136629.09446  21786827.052    21786827.4584   21786830.7874
       181.0004        181.0004
 21  2  5  1 36 30.0000000  0  8G30G08G17G04G09G07G01G21
  -5796890.16347  -4483153.63746  23440700.307    23440700.7324   23440707.7204
       163.0004        164.0004
 -15274693.07649 -11885944.88847  21713574.027    21713573.9534   21713581.2644
       206.0004        208.0004
  -1888825.37247  -1443656.35745  23943775.338    23943775.7794   23943781.0454
       157.0004        160.0004
 -11489283.22048  -8931603.10446  22338578.171    22338578.3654   22338584.2034
       178.0004        178.0004
 -17425833.90349 -13560113.87347  21127681.251    21127681.6644   21127688.4584
       209.0004        209.0004
 -16517572.99449 -12858421.46147  21665392.461    21665393.4394   21665397.9984
       197.0004        197.0004
 -16378064.21348 -12748539.40946  21885863.270    21885863.9524   21885872.9594
       181.0004        182.0004
 -15599486.13548 -12140149.51146  21785967.745    21785967.6394   21785971.6414
       181.0004        180.0004
 21  2  5  1 37  0.0000000  0  8G30G08G17G04G09G07G01G21
  -5884281.62347  -4551250.87046  23424069.461    23424070.4894   23424078.4304
       162.0004        163.0004
 -15191333.02949 -11820989.01547  21729437.078    21729437.3114   21729443.9474
       209.0004        207.0004
  -1981526.16847  -1515890.58145  23926135.108    23926135.5674   23926140.0094
       158.0004        160.0004
 -11397035.19448  -8859721.52846  22356131.425    22356131.9444   22356137.9484
       177.0004        176.0004
 -17382779.52449 -13526564.99947  21135874.238    21135874.6094   21135881.6474
       209.0004        209.0004
 -16588605.94549 -12913771.81147  21651875.759    21651876.4544   21651880.3564
       197.0004        198.0004
 -16446779.72848 -12802083.92846  21872786.891    21872788.0694   21872795.9664
       182.0004        182.0004
 -15603547.42248 -12143314.11946  21785195.309    21785194.1254   21785199.2264
       182.0004        183.0004
 21  2  5  1 37 30.0000000  0  8G30G08G17G04G09G07G01G21
  -5971699.01647  -4619368.30446  23407435.019    23407435.3994   23407444.1694
       162.0004        164.0004
 -15107720.36949 -11755836.28348  21745348.921    21745348.2234   21745354.8524
       218.0004        221.0004
  -2073967.68447  -1587922.76845  23908543.643    23908543.7114   23908549.8404
       157.0004        159.0004
 -11304604.11948  -8787697.32546  22373721.316    22373721.3544   22373726.5434
       176.0004        176.0004
 -17339275.63649 -13492665.87847  21144153.194    21144153.2294   21144159.6874
       209.0004        209.0004
 -16659486.50049 -12969003.41447  21638388.441    21638388.4024   21638392.0684
       197.0004        197.0004
 -16515253.01748 -12855439.70846  21859757.944    21859758.6104   21859766.4044
       182.0004        182.0004
 -15607150.34348 -12146121.56446  21784509.627    21784509.4034   21784514.0914
       182.0004        183.0004
 21  2  5  1 38  0.0000000  0  8G30G08G17G04G09G07G01G21
  -6059140.65047  -4687504.63646  23390796.989    23390796.8704   23390803.8184
       163.0004        166.0004
 -15023857.97849 -11690488.96148  21761305.437    21761306.2204   21761313.4034
       221.0004        221.0004
  -2166147.72547  -1659751.19245  23891002.119    23891002.7004   23891008.1694
       158.0004        160.0004
 -11211993.15348  -8715532.91846  22391344.639    22391345.0234   22391351.3664
       176.0004        176.0004
 -17295324.66249 -13458418.36647  21152516.733    21152516.8134   21152523.5094
       209.0004        209.0004
 -16730212.40449 -13024114.50347  21624929.187    21624929.8904   21624933.7194
       197.0004        198.0004
 -16583480.93948 -12908604.29446  21846774.558    21846775.0494   21846782.7684
       182.0004        182.0004
 -15610293.82548 -12148571.00946  21783910.595    21783911.1694   21783916.7724
       184.0004        184.0004
 21  2  5  1 38 30.0000000  0  9G30G14G08G17G04G09G07G01G21
  -6146605.34147  -4755658.94746  23374152.656    23374152.8354   23374159.4564
       163.0004        164.0004
  -1126274.41457   -870106.86745  23527356.898    23527358.8905   23527361.4124
       149.0004        158.0004
 -14939749.60949 -11624949.97648  21777311.451    21777311.9844   21777318.6934
       222.0004        221.0004
  -2258065.20047  -1731375.03845  23873510.257    23873510.7104   23873515.9014
       158.0004        160.0004
 -11119206.00448  -8643231.24646  22409001.662    22409001.7264   22409008.5474
       177.0004        176.0004
 -17250929.67249 -13423824.87347  21160964.107    21160964.6074   21160971.6904
       209.0004        209.0004
 -16800781.65349 -13079103.52447  21611500.360    21611500.6404   21611504.8464
       198.0004        198.0004
 -16651460.94848 -12961575.69946  21833838.219    21833838.5164   21833847.0994
       182.0004        182.0004
 -15612977.29448 -12150662.00346  21783400.525    21783400.1274   21783405.7394
       185.0004        185.0004
 21  2  5  1 39  0.0000000  0  9G30G14G08G17G04G09G07G01G21
  -6234090.94647  -4823829.55746  23357505.487    23357505.5474   23357511.8544
       163.0004        165.0004
  -1152652.20947   -890660.96145  23522336.737    23522337.4374   23522343.2994
       157.0004        161.0004
 -14855397.75449 -11559221.24848  21793363.782    21793363.9144   21793370.1874
       222.0004        221.0004
  -2349717.60647  -1802792.32545  23856069.595    23856069.8324   23856075.4804
       158.0004        159.0004
 -11026245.43348  -8570794.44046  22426690.922    22426691.7064   22426698.2764
       177.0004        177.0004
 -17206092.71149 -13388886.97747  21169496.605    21169497.1144   21169503.9224
       209.0004        209.0004
 -16871191.33349 -13133968.21547  21598101.888    21598101.9604   21598106.3704
       198.0004        198.0004
 -16719189.44248 -13014351.10446  21820949.333    21820950.0864   21820958.4334
       183.0004        183.0004
 -15615199.31948 -12152393.42946  21782978.680    21782978.3684   21782983.3764
       186.0004        187.0004
 21  2  5  1 39 30.0000000  0  9G30G14G08G17G04G09G07G01G21
  -6321595.21847  -4892014.68746  23340853.727    23340853.3654   23340860.5784
       164.0004        165.0004
  -1178985.30247   -911180.23246  23517326.751    23517326.7784   23517332.3434
       161.0004        164.0004
 -14770805.41049 -11493305.12948  21809461.056    21809461.1174   21809467.3464
       221.0004        219.0004
  -2441103.14647  -1874001.63445  23838677.576    23838678.6404   23838684.7454
       155.0004        155.0004
 -10933114.13848  -8498224.60246  22444413.187    22444414.2694   22444419.8484
       177.0004        177.0004
 -17160815.82649 -13353606.28747  21178112.406    21178112.7514   21178120.0784
       209.0004        209.0004
 -16941438.87549 -13188706.55247  21584734.079    21584734.3684   21584738.6824
       198.0004        198.0004
 -16786662.87448 -13066927.78346  21808109.395    21808109.8704   21808118.5454
       183.0004        184.0004
 -15616958.63048 -12153764.27747  21782643.952    21782642.8784   21782649.5034
       188.0004        189.0004
 21  2  5  1 40  0.0000000  0  9G30G14G08G17G04G09G07G01G21
  -6409115.66548  -4960212.41746  23324198.527    23324198.4994   23324206.1724
       165.0004        167.0004
  -1205274.40047   -931665.23446  23512324.318    23512324.4404   23512329.3074
       163.0004        165.0004
 -14685974.38249 -11427203.02648  21825604.234    21825603.7294   21825610.1974
       220.0004        220.0004
  -2532218.78947  -1945000.65245  23821338.485    23821339.3724   23821345.6384
       151.0004        153.0004
 -10839814.52948  -8425523.59446  22462168.030    22462168.0224   22462174.1514
       177.0004        177.0004
 -17115100.82349 -13317984.20647  21186811.953    21186812.3854   21186819.1264
       209.0004        209.0004
 -17011520.69249 -13243315.75347  21571398.217    21571398.5324   21571402.9814
       199.0004        199.0004
 -16853877.35748 -13119302.66046  21795319.610    21795320.2014   21795328.7904
       183.0004        185.0004
 -15618253.29448 -12154773.07546  21782395.952    21782395.9184   21782403.7104
       188.0004        187.0004
 21  2  5  1 40 30.0000000  0  9G30G14G08G17G04G09G07G01G21
  -6496650.64548  -5028421.47146  23307541.375    23307541.5704   23307548.7504
       165.0004        165.0004
  -1231521.06747   -952117.16146  23507329.938    23507330.2294   23507334.6394
       164.0004        165.0004
 -14600908.33849 -11360917.80748  21841790.518    21841791.0224   21841797.7554
       220.0004        220.0004
  -2623062.87847  -2015788.04745  23804053.296    23804053.5364   23804059.0454
       152.0004        155.0004
 -10746349.93048  -8352694.02746  22479954.843    22479954.6764   22479959.9874
       177.0004        177.0004
 -17068950.38249 -13282022.83547  21195594.125    21195594.2164   21195601.2394
       208.0004        208.0004
 -17081434.22649 -13297793.83247  21558094.121    21558094.8384   21558098.5454
       199.0004        199.0004
 -16920829.89848 -13171473.44746  21782578.824    21782579.6344   21782587.3854
       184.0004        185.0004
 -15619082.31948 -12155419.05647  21782238.065    21782238.3644   21782245.1254
       187.0004        188.0004
 21  2  5  1 41  0.0000000  0  9G30G14G08G17G04G09G07G01G21
  -6584198.54547  -5096640.59846  23290881.233    23290881.1374   23290888.6224
       164.0004        164.0004
  -1257726.84047   -972537.21946  23502342.540    23502342.9014   23502348.4084
       163.0004        164.0004
 -14515610.29549 -11294451.79548  21858022.099    21858022.6244   21858029.7064
       220.0004        219.0004
  -2713633.51147  -2086362.35645  23786817.835    23786817.8824   23786824.7224
       153.0004        156.0004
 -10652723.61448  -8279738.45446  22497769.996    22497770.1414   22497776.1134
       177.0004        177.0004
 -17022367.16749 -13245724.22347  21204458.372    21204458.5434   21204465.8254
       208.0004        209.0004
 -17151177.30649 -13352139.08947  21544822.443    21544822.6574   21544826.7634
       199.0004        199.0004
 -16987517.53948 -13223437.82046  21769887.630    21769888.8904   21769896.5714
       184.0004        184.0004
 -15619445.24448 -12155701.83646  21782169.077    21782169.0554   21782175.8304
       186.0004        186.0004
 21  2  5  1 41 30.0000000  0  9G30G14G08G17G04G09G07G01G21
  -6671756.29347  -5164867.38046  23274220.154    23274220.0884   23274226.3264
       163.0004        165.0004
  -1283891.83747   -992925.52945  23497362.605    23497364.0014   23497369.3584
       161.0004        162.0004
 -14430082.55849 -11227806.80848  21874297.915    21874298.2024   21874305.2404
       219.0004        219.0004
  -2803927.85447  -2156721.38345  23769635.362    23769635.4924   23769642.2514
       155.0004        158.0004
 -10558937.45048  -8206658.33046  22515616.830    22515617.3794   22515623.7674
       177.0004        178.0004
 -16975352.51349 -13209089.43347  21213404.723    21213405.7234   21213412.1864
       208.0004        208.0004
 -17220746.24949 -13406348.65547  21531583.777    21531583.7904   21531587.9464
       198.0004        199.0004
 -17053935.86348 -13275192.34046  21757249.105    21757249.8964   21757257.7064
       183.0004        184.0004
 -15619339.61148 -12155619.50246  21782189.146    21782189.6304   21782196.0764
       186.0004        185.0004
 21  2  5  1 42  0.0000000  0  9G30G14G08G17G04G09G07G01G21
  -6759322.48848  -5233100.78246  23257555.471    23257556.0624   23257562.8024
       165.0004        168.0004
  -1310017.97347  -1013283.52145  23492391.998    23492391.9084   23492397.7204
       160.0004        162.0004
 -14344328.40249 -11160985.38348  21890616.795    21890617.0374   21890623.6374
       219.0004        219.0004
  -2893944.19347  -2226863.81945  23752504.962    23752506.2884   23752511.7514
       158.0004        161.0004
 -10464995.08648  -8133456.49346  22533492.953    22533494.5174   22533500.0494
       177.0004        178.0004
 -16927909.46749 -13172120.82347  21222433.773    21222433.7534   21222440.0124
       208.0004        208.0004
 -17290138.81749 -13460420.77147  21518378.287    21518378.6334   21518383.2394
       198.0004        199.0004
 -17120082.21348 -13326734.91946  21744663.130    21744663.4464   21744670.8154
       185.0004        186.0004
 -15618764.90648 -12155171.66346  21782298.372    21782298.9024   21782304.6734
       185.0004        185.0004
 21  2  5  1 42 30.0000000  0  9G30G14G08G17G04G09G07G01G21
  -6846895.06348  -5301339.13246  23240890.679    23240891.3384   23240899.3234
       168.0004        170.0004
  -1336106.34547  -1033612.07046  23487427.611    23487427.8514   23487433.6094
       161.0004        164.0004
 -14258350.43549 -11093989.56548  21906977.652    21906978.2374   21906984.8824
       220.0004        219.0004
  -2983681.01347  -2296788.46845  23735429.473    23735429.5964   23735434.7084
       156.0004        158.0004
 -10370899.39748  -8060135.16546  22551399.932    22551400.4824   22551405.8484
       177.0004        177.0004
 -16880040.34249 -13134820.20147  21231542.555    21231542.7734   21231549.3264
       208.0004        208.0004
 -17359352.40949 -13514353.44047  21505208.384    21505208.6394   21505212.0084
       199.0004        199.0004
 -17185953.26148 -13378062.97446  21732127.336    21732128.1194   21732136.1614
       185.0004        186.0004
 -15617719.95248 -12154357.38746  21782498.505    21782497.0904   21782502.7634
       184.0004        184.0004
 21  2  5  1 43  0.0000000  0  9G30G14G08G17G04G09G07G01G21
  -6934472.72148  -5369581.43646  23224224.483    23224225.3214   23224232.8694
       166.0004        165.0004
  -1362158.79947  -1053912.65146  23482469.696    23482470.1124   23482475.3574
       163.0004        164.0004
 -14172152.13949 -11026822.06348  21923380.674    21923381.0304   21923388.2684
       220.0004        220.0004
  -3073136.46047  -2366493.82845  23718406.231    23718406.3764   23718411.8864
       155.0004        157.0004
 -10276653.98548  -7986697.17646  22569334.087    22569334.6854   22569340.4894
       177.0004        177.0004
 -16831748.24349 -13097189.97947  21240731.948    21240732.2734   21240739.4204
       207.0004        208.0004
 -17428384.83649 -13568144.93947  21492071.969    21492071.8634   21492075.3274
       199.0004        199.0004
 -17251546.31548 -13429174.42046  21719645.359    21719646.2064   21719653.5734
       185.0004        186.0004
 -15616204.37648 -12153176.40646  21782786.340    21782785.7114   21782789.6494
       183.0004        183.0004
 21  2  5  1 43 30.0000000  0  9G30G14G08G17G04G09G07G01G21
  -7022052.44148  -5437825.38046  23207558.923    23207560.2574   23207567.4784
       166.0004        169.0004
  -1388175.62347  -1074185.47246  23477519.033    23477518.9494   23477524.1994
       162.0004        164.0004
 -14085735.51049 -10959484.43048  21939824.847    21939825.3174   21939832.4744
       220.0004        219.0004
  -3162307.92647  -2435977.98845  23701436.079    23701436.8554   23701442.8994
       154.0004        158.0004
 -10182260.94848  -7913144.14346  22587295.148    22587295.8394   22587302.5244
       176.0004        176.0004
 -16783034.68349 -13059231.36847  21250002.316    21250002.6014   21250009.0564
       207.0004        207.0004
 -17497232.54049 -13621792.49247  21478970.079    21478971.1024   21478974.6494
       200.0004        200.0004
 -17316857.17848 -13480065.97646  21707217.191    21707217.8124   21707225.4124
       185.0004        185.0004
 -15614216.41648 -12151627.33046  21783164.233    21783164.3274   21783168.6874
       183.0004        183.0004
 21  2  5  1 44  0.0000000  0  9G30G14G08G17G04G09G07G01G21
  -7109632.37448  -5506069.47846  23190894.537    23190894.1794   23190901.9504
       168.0004        170.0004
  -1414158.23147  -1094431.63545  23472574.631    23472574.9504   23472579.8164
       162.0004        162.0004
 -13999103.76649 -10891979.17048  21956310.192    21956310.5244   21956317.2284
       219.0004        217.0004
  -3251193.66547  -2505239.45845  23684522.578    23684523.3134   23684528.3794
       157.0004        160.0004
 -10087723.36048  -7839478.49646  22605286.092    22605286.4394   22605292.2124
       176.0004        176.0004
 -16733902.30349 -13020946.39647  21259351.818    21259352.0504   21259358.6754
       207.0004        208.0004
 -17565892.82349 -13675294.03947  21465904.885    21465905.0894   21465908.7374
       200.0004        200.0004
 -17381882.72248 -13530735.21346  21694843.822    21694844.2724   21694851.8434
       185.0004        186.0004
 -15611755.21448 -12149709.51046  21783633.644    21783633.1404   21783636.6944
       182.0004        182.0004
 21  2  5  1 44 30.0000000  0  9G30G14G08G17G04G09G07G01G21
  -7197211.59348  -5574313.02046  23174228.822    23174228.6604   23174235.7434
       170.0004        171.0004
  -1440108.88447  -1114652.89846  23467636.963    23467637.3884   23467641.7124
       162.0004        164.0004
 -13912260.89049 -10824309.39348  21972836.704    21972836.7104   21972842.6234
       218.0004        217.0004
  -3339792.71947  -2574277.52945  23667662.951    23667663.4674   23667666.6854
       157.0004        159.0004
  -9993045.25648  -7765703.34646  22623302.192    22623303.1754   22623308.9194
       175.0004        175.0004
 -16684354.67149 -12982337.84247  21268780.316    21268780.5754   21268787.8484
       208.0004        208.0004
 -17634364.12049 -13728648.29347  21452874.366    21452874.8224   21452879.0054
       199.0004        199.0004
 -17446620.76048 -13581180.40946  21682523.229    21682523.9854   21682532.0474
       185.0004        185.0004
 -15608820.71448 -12147422.86846  21784191.796    21784191.0504   21784194.9444
       181.0004        181.0004
 21  2  5  1 45  0.0000000  0  9G30G14G08G17G04G09G07G01G21
  -7284788.05948  -5642554.44846  23157564.512    23157564.0674   23157571.3864
       171.0004        173.0004
  -1466028.86047  -1134850.23845  23462703.499    23462704.4404   23462709.2994
       161.0004        162.0004
 -13825209.51549 -10756477.16348  21989402.198    21989401.9814   21989408.3614
       217.0004        217.0004
  -3428103.10447  -2643090.68645  23650857.531    23650858.3384   23650863.0154
       157.0004        159.0004
  -9898229.64548  -7691821.05446  22641344.720    22641345.7314   22641352.5284
       175.0004        176.0004
 -16634394.29349 -12943407.68147  21278287.725    21278287.8294   21278294.3784
       207.0004        208.0004
 -17702643.65749 -13781853.12647  21439881.282    21439881.6654   21439886.2584
       199.0004        200.0004
 -17511068.02248 -13631399.03946  21670259.960    21670260.0024   21670268.4274
       185.0004        186.0004
 -15605411.91348 -12144766.65946  21784841.229    21784840.6614   21784843.7084
       181.0004        181.0004
 21  2  5  1 45 30.0000000  0  9G30G14G08G17G04G09G07G01G21
  -7372359.49548  -5710791.90246  23140899.352    23140899.3164   23140906.3364
       172.0004        173.0004
  -1491919.13747  -1155024.46946  23457777.624    23457777.9244   23457783.4694
       161.0004        163.0004
 -13737952.45849 -10688484.64948  22006005.267    22006006.0044   22006013.0554
       217.0004        217.0004
  -3516122.74047  -2711677.29345  23634109.949    23634110.1414   23634113.2024
       158.0004        161.0004
  -9803279.30048  -7617833.77646  22659413.180    22659413.2884   22659420.5414
       175.0004        175.0004
 -16584023.51749 -12904157.71947  21287871.980    21287872.5364   21287880.2464
       207.0004        208.0004
 -17770728.71049 -13834906.40747  21426925.531    21426925.9544   21426929.7634
       200.0004        200.0004
 -17575221.08248 -13681388.40446  21658052.395    21658052.6354   21658060.3414
       186.0004        187.0004
 -15601527.89448 -12141740.13846  21785579.636    21785578.9654   21785582.7444
       181.0004        180.0004
 21  2  5  1 46  0.0000000  0  9G30G14G08G17G04G09G07G01G21
  -7459923.92648  -5779023.91346  23124237.382    23124237.0774   23124243.2844
       172.0004        173.0004
  -1517780.99547  -1175176.54145  23452854.822    23452855.8924   23452860.4624
       160.0004        162.0004
 -13650492.79949 -10620334.27648  22022649.766    22022649.2004   22022656.3664
       218.0004        217.0004
  -3603849.90147  -2780036.00445  23617414.656    23617414.7334   23617420.0544
       159.0004        161.0004
  -9708197.24648  -7543743.87146  22677507.112    22677507.6774   22677513.4854
       174.0004        173.0004
 -16533244.88449 -12864589.94847  21297535.732    21297535.7294   21297542.8894
       207.0004        208.0004
 -17838616.28049 -13887805.81047  21414006.544    21414007.2404   21414011.6044
       200.0004        200.0004
 -17639076.70848 -13731146.00546  21645901.109    21645901.3474   21645908.5454
       186.0004        186.0004
 -15597167.67748 -12138342.55346  21786408.880    21786408.5354   21786411.9654
       180.0004        180.0004
 21  2  5  1 46 30.0000000  0  9G30G14G08G17G04G09G07G01G21
  -7547478.58648  -5847248.31846  23107576.493    23107575.2904   23107582.1334
       172.0004        172.0004
  -1543614.93947  -1195306.85645  23447939.189    23447940.4564   23447945.1214
       159.0004        161.0004
 -13562832.66449 -10552027.69048  22039329.869    22039330.4584   22039337.4324
       217.0004        216.0004
  -3691281.79547  -2848164.63045  23600775.366    23600776.5614   23600782.7874
       160.0004        162.0004
  -9612985.79248  -7469553.12146  22695625.758    22695626.3674   22695631.8284
       173.0004        173.0004
 -16482060.33249 -12824705.87647  21307275.519    21307275.9554   21307282.9264
       207.0004        208.0004
 -17906303.21849 -13940548.86647  21401126.022    21401126.6054   21401130.8294
       199.0004        200.0004
 -17702630.99748 -13780668.80946  21633806.191    21633806.7394   21633815.0494
       185.0004        186.0004
 -15592329.71148 -12134572.69646  21787329.932    21787329.8284   21787332.9374
       180.0004        181.0004
 21  2  5  1 47  0.0000000  0  9G30G14G08G17G04G09G07G01G21
  -7635020.92548  -5915463.12746  23090916.245    23090916.7854   23090923.4154
       170.0004        168.0004
  -1569421.73647  -1215416.02246  23443028.271    23443029.5434   23443034.0744
       161.0004        164.0004
 -13474974.50549 -10483566.78948  22056050.141    22056049.3354   22056055.7414
       217.0004        216.0004
  -3778415.90147  -2916061.22045  23584195.179    23584195.9344   23584200.3744
       159.0004        160.0004
  -9517647.38148  -7395263.45046  22713767.718    22713767.7594   22713773.8784
       172.0004        173.0004
 -16430471.90049 -12784507.09847  21317092.641    21317092.9854   21317099.2004
       206.0004        206.0004
 -17973786.33549 -13993133.11247  21388285.101    21388285.4634   21388289.2334
       200.0004        201.0004
 -17765880.22648 -13829953.90246  21621771.386    21621771.8844   21621779.2044
       186.0004        187.0004
 -15587012.73248 -12130429.58646  21788340.312    21788340.2584   21788344.3404
       181.0004        181.0004
 21  2  5  1 47 30.0000000  0  9G30G14G08G17G04G09G07G01G21
  -7722549.12348  -5983666.93146  23074259.254    23074260.1234   23074267.0754
       168.0004        168.0004
  -1595202.77747  -1235505.13546  23438121.746    23438122.4604   23438128.4974
       162.0004        163.0004
 -13386921.45649 -10414954.03048  22072804.639    22072805.2504   22072811.3914
       216.0004        216.0004
  -3865251.03547  -2983724.84845  23567670.167    23567670.7934   23567677.3834
       156.0004        157.0004
  -9422185.25248  -7320877.37446  22731933.432    22731933.8104   22731940.0394
       172.0004        172.0004
 -16378482.44349 -12743995.84447  21326985.494    21326985.8914   21326992.9194
       206.0004        207.0004
 -18041062.99349 -14045556.49347  21375482.958    21375483.2854   21375486.9914
       201.0004        201.0004
 -17828821.42948 -13878998.97747  21609794.000    21609794.1264   21609801.7764
       187.0004        188.0004
 -15581216.24848 -12125912.84246  21789443.418    21789443.4354   21789447.6644
       180.0004        180.0004
 21  2  5  1 48  0.0000000  0  9G30G14G08G17G04G09G07G01G21
  -7810060.44148  -6051857.55046  23057607.347    23057606.7374   23057615.3354
       169.0004        172.0004
  -1620958.67347  -1255574.65945  23433221.146    23433221.6264   23433227.1774
       161.0004        162.0004
 -13298675.52049 -10346190.97248  22089597.433    22089598.0774   22089605.0194
       217.0004        217.0004
  -3951784.52447  -3051153.40245  23551202.630    23551204.7484   23551209.9164
       154.0004        156.0004
  -9326601.72248  -7246396.72646  22750122.077    22750122.6824   22750129.1424
       171.0004        171.0004
 -16326093.87749 -12703173.58747  21336954.945    21336955.2574   21336962.5284
       206.0004        207.0004
 -18108129.85149 -14097816.38147  21362719.544    21362720.1264   21362724.7074
       201.0004        201.0004
 -17891450.66348 -13927800.95747  21597874.871    21597876.2914   21597883.6164
       187.0004        188.0004
 -15574938.53348 -12121021.09646  21790638.714    21790638.7844   21790642.8444
       181.0004        181.0004
 21  2  5  1 48 30.0000000  0  9G30G14G08G17G04G09G07G01G21
  -7897553.87548  -6120034.22946  23040957.394    23040957.6214   23040964.4054
       170.0004        171.0004
  -1646691.76547  -1275626.37245  23428324.425    23428324.2634   23428330.2824
       159.0004        159.0004
 -13210240.63749 -10277280.67548  22106426.694    22106426.8574   22106433.6674
       217.0004        217.0004
  -4038015.76347  -3118346.48245  23534793.751    23534794.1264   23534799.4084
       154.0004        157.0004
  -9230900.86048  -7171824.62746  22768334.282    22768334.4924   22768340.0704
       170.0004        169.0004
 -16273309.94049 -12662043.24647  21346999.404    21346999.8844   21347006.6944
       206.0004        206.0004
 -18174985.36449 -14149911.58147  21349998.269    21349998.5124   21350002.4214
       201.0004        202.0004
 -17953765.92648 -13976358.28147  21586017.673    21586018.0854   21586026.2674
       188.0004        188.0004
 -15568179.99348 -12115754.68346  21791925.273    21791924.4554   21791929.7264
       182.0004        182.0004
 21  2  5  1 49  0.0000000  0  9G30G14G08G17G04G09G07G01G21
  -7985027.74548  -6188195.68746  23024312.405    23024312.4594   23024318.7064
       171.0004        172.0004
  -1672403.59447  -1295661.53545  23423432.206    23423431.8904   23423436.6434
       157.0004        158.0004
 -13121620.49549 -10208226.02348  22123290.035    22123290.4664   22123297.4284
       216.0004        216.0004
  -4123943.09147  -3185302.72845  23518442.926    23518442.7134   23518445.9004
       154.0004        155.0004
  -9135086.01048  -7097163.69746  22786566.884    22786567.6034   22786572.5294
       169.0004        170.0004
 -16220133.67949 -12620607.18647  21357118.323    21357118.9004   21357125.5644
       205.0004        206.0004
 -18241627.14849 -14201840.24147  21337317.271    21337317.3994   21337321.0334
       202.0004        202.0004
 -18015764.31148 -14024668.69347  21574220.114    21574220.5684   21574227.5554
       188.0004        188.0004
 -15560940.24748 -12110113.30846  21793302.247    21793302.0224   21793306.5474
       182.0004        181.0004
 21  2  5  1 49 30.0000000  0  9G30G14G08G17G04G09G07G01G21
  -8072479.30548  -6256339.77946  23007672.019    23007671.1384   23007677.3454
       172.0004        175.0004
  -1698094.76647  -1315680.62145  23418543.081    23418543.0444   23418547.9394
       157.0004        159.0004
 -13032817.55949 -10139028.92848  22140188.421    22140188.7444   22140196.2994
       216.0004        215.0004
  -4209564.29547  -3252020.44445  23502149.973    23502150.5614   23502154.5864
       153.0004        156.0004
  -9039159.58748  -7022415.82446  22804820.981    22804821.8894   22804826.9414
       169.0004        170.0004
 -16166567.11449 -12578867.00547  21367312.517    21367311.9684   21367318.9564
       205.0004        205.0004
 -18308051.83649 -14253599.73847  21324676.247    21324676.6554   21324681.0304
       202.0004        202.0004
 -18077442.11448 -14072729.30246  21562481.684    21562482.5794   21562490.1944
       187.0004        187.0004
 -15553218.05348 -12104095.99846  21794772.875    21794771.9444   21794776.7024
       182.0004        183.0004
 21  2  5  1 50  0.0000000  0  9G30G14G08G17G04G09G07G01G21
  -8159907.04348  -6324465.28546  22991034.435    22991033.3704   22991041.1314
       172.0004        173.0004
  -1723767.14447  -1335685.04845  23413656.989    23413657.9224   23413662.8304
       157.0004        159.0004
 -12943834.55349 -10069691.53848  22157121.545    22157121.7264   22157129.2464
       215.0004        215.0004
  -4294878.16647  -3318498.70145  23485916.339    23485916.9444   23485920.3664
       155.0004        159.0004
  -8943125.09648  -6947583.77346  22823096.083    22823096.2424   22823102.0634
       168.0004        168.0004
 -16112613.49049 -12536825.22647  21377579.158    21377579.6704   21377586.6074
       205.0004        206.0004
 -18374257.32349 -14305188.44447  21312077.150    21312078.1534   21312081.9764
       202.0004        202.0004
 -18138796.66848 -14120538.02647  21550806.847    21550807.6184   21550815.4464
       187.0004        188.0004
 -15545013.26948 -12097702.63746  21796333.602    21796332.9514   21796338.5874
       183.0004        183.0004
 21  2  5  1 50 30.0000000  0  9G30G14G08G17G04G09G07G01G21
  -8247309.07048  -6392570.74746  22974402.327    22974401.4874   22974409.2664
       172.0004        173.0004
  -1749422.05547  -1355675.87445  23408776.254    23408776.6194   23408781.8274
       158.0004        160.0004
 -12854674.85949 -10000216.45748  22174088.844    22174088.8104   22174096.0204
       215.0004        215.0004
  -4379882.81347  -3384735.99245  23469739.208    23469739.1144   23469743.8634
       157.0004        160.0004
  -8846985.71248  -6872669.97046  22841389.899    22841391.3184   22841395.8724
       168.0004        168.0004
 -16058275.70749 -12494484.09047  21387918.881    21387919.0554   21387926.4684
       205.0004        204.0004
 -18440241.10849 -14356604.37747  21299521.816    21299521.8774   21299526.0154
       201.0004        202.0004
 -18199825.02548 -14168092.56547  21539195.067    21539195.1124   21539202.1104
       188.0004        188.0004
 -15536325.42248 -12090932.88046  21797986.336    21797985.9794   21797991.8044
       183.0004        184.0004
 21  2  5  1 51  0.0000000  0  9G30G14G08G17G04G09G07G01G21
  -8334682.49748  -6460653.92646  22957774.676    22957774.6304   22957782.7034
       171.0004        171.0004
  -1775060.09447  -1375653.53245  23403895.591    23403896.3394   23403901.5964
       157.0004        158.0004
 -12765340.54249  -9930605.30748  22191088.046    22191088.1974   22191095.3884
       215.0004        214.0004
  -4464576.22547  -3450730.78146  23453621.462    23453622.8384   23453627.9694
       160.0004        163.0004
  -8750743.72548  -6797676.21646  22859705.751    22859705.9244   22859710.8984
       168.0004        169.0004
 -16003555.77249 -12451845.19147  21398332.163    21398332.4404   21398339.1434
       204.0004        204.0004
 -18506000.05949 -14407845.12047  21287007.571    21287008.2304   21287012.8554
       202.0004        203.0004
 -18260523.29948 -14215389.91746  21527643.923    21527644.0514   21527651.0524
       188.0004        187.0004
 -15527153.08148 -12083785.58846  21799732.347    21799731.4644   21799737.0234
       184.0004        184.0004
 21  2  5  1 51 30.0000000  0  9G30G14G08G17G04G09G07G01G21
  -8422024.43848  -6528712.55446  22941152.333    22941152.2484   22941161.3804
       168.0004        167.0004
  -1800681.52547  -1395618.27645  23399022.631    23399022.9234   23399027.0394
       157.0004        160.0004
 -12675834.03349  -9860859.97348  22208120.035    22208120.4594   22208127.6024
       214.0004        213.0004
  -4548955.74647  -3516480.97345  23437564.054    23437565.0374   23437571.5014
       160.0004        162.0004
  -8654401.24948  -6722604.15446  22878038.035    22878038.9774   22878042.8124
       167.0004        167.0004
 -15948455.50549 -12408909.92247  21408817.071    21408817.3544   21408824.4504
       204.0004        204.0004
 -18571529.92549 -14458907.35347  21274537.989    21274538.3594   21274542.4254
       202.0004        202.0004
 -18320887.55348 -14262426.96546  21516156.070    21516156.4254   21516164.8214
       187.0004        187.0004
 -15517494.84648 -12076259.67146  21801568.465    21801569.0884   21801574.9744
       183.0004        183.0004
 21  2  5  1 52  0.0000000  0  9G30G14G08G17G04G09G07G01G21
  -8509332.85448  -6596745.06746  22924539.616    22924539.2074   22924547.4104
       168.0004        171.0004
  -1826287.77247  -1415571.19745  23394147.977    23394149.1604   23394153.1504
       156.0004        157.0004
 -12586158.00449  -9790982.55248  22225185.040    22225185.0964   22225192.1484
       213.0004        213.0004
  -4633019.52047  -3581985.12746  23421567.533    23421568.0364   23421575.2484
       160.0004        163.0004
  -8557961.40548  -6647456.21146  22896391.342    22896391.1624   22896396.4084
       168.0004        169.0004
 -15892977.82849 -12365680.56947  21419373.924    21419374.3914   21419381.3834
       204.0004        204.0004
 -18636828.54749 -14509789.38847  21262112.183    21262112.3734   21262116.2384
       202.0004        202.0004
 -18380914.76448 -14309201.36947  21504733.112    21504733.5734   21504741.9674
       187.0004        189.0004
 -15507350.37348 -12068354.87146  21803500.134    21803499.6954   21803504.9864
       184.0004        185.0004
 21  2  5  1 52 30.0000000  0  9G30G14G08G17G04G09G07G01G21
  -8596606.16948  -6664750.24346  22907932.979    22907933.7044   22907939.3044
       169.0004        171.0004
  -1851880.65247  -1435513.67545  23389278.334    23389278.9384   23389284.1954
       154.0004        155.0004
 -12496316.17049  -9720975.92248  22242281.286    22242281.5104   22242288.7014
       213.0004        213.0004
  -4716766.67847  -3647242.56546  23405632.423    23405632.7494   23405638.6594
       164.0004        168.0004
  -8461427.71848  -6572235.17146  22914760.413    22914760.8034   22914766.4654
       169.0004        170.0004
 -15837126.02749 -12322159.68547  21430002.551    21430002.8814   21430009.5054
       204.0004        204.0004
 -18701893.37549 -14560489.25247  21249730.782    21249731.3364   21249735.3264
       202.0004        202.0004
 -18440602.37148 -14355711.17247  21493375.826    21493376.8494   21493383.3614
       189.0004        191.0004
 -15496719.44448 -12060071.00646  21805524.291    21805523.0874   21805528.2524
       184.0004        184.0004
 21  2  5  1 53  0.0000000  0  9G30G14G08G17G04G09G07G01G21
  -8683842.29948  -6732726.46846  22891332.415    22891332.4774   22891339.0044
       171.0004        172.0004
  -1877461.37747  -1455446.69745  23384409.971    23384411.0114   23384417.3494
       154.0004        155.0004
 -12406311.43049  -9650842.38048  22259409.641    22259409.3084   22259416.3264
       213.0004        213.0004
  -4800195.67348  -3712252.06846  23389755.952    23389755.9584   23389761.9524
       166.0004        168.0004
  -8364803.25248  -6496943.36446  22933145.940    22933147.7334   22933152.6074
       168.0004        169.0004
 -15780902.92749 -12278349.48447  21440701.273    21440701.8074   21440708.5894
       203.0004        203.0004
 -18766722.29949 -14611005.29847  21237393.811    21237394.2414   21237398.8084
       202.0004        202.0004
 -18499947.25748 -14401953.94447  21482083.902    21482084.2414   21482090.1724
       191.0004        192.0004
 -15485601.42948 -12051407.61246  21807638.918    21807638.4124   21807644.1614
       184.0004        184.0004
 21  2  5  1 53 30.0000000  0 10G30G14G28G08G17G04G09G07G01G21
  -8771039.95348  -6800672.66346  22874738.495    22874738.8154   22874745.6374
       170.0004        172.0004
  -1903032.00047  -1475371.85345  23379544.658    23379544.3004   23379550.2754
       155.0004        157.0004
  -1672659.37356  -1297553.60745  23709521.131    23709520.6465   23709522.0554
       120.0004        132.0004
 -12316147.01549  -9580584.40548  22276567.922    22276567.2314   22276574.0044
       213.0004        213.0004
  -4883305.43848  -3777012.81746  23373939.804    23373940.7554   23373947.7424
       167.0004        168.0004
  -8268091.71248  -6421583.75246  22951550.585    22951551.0044   22951556.1714
       168.0004        169.0004
 -15724312.08549 -12234252.74247  21451469.870    21451470.5324   21451477.6854
       203.0004        204.0004
 -18831313.25249 -14661335.91747  21225102.140    21225102.6684   21225107.3624
       202.0004        202.0004
 -18558947.26048 -14447927.97047  21470854.691    21470855.6394   21470863.1104
       191.0004        190.0004
 -15473997.10948 -12042365.28346  21809847.479    21809847.1524   21809852.0654
       184.0004        185.0004
 21  2  5  1 54  0.0000000  0 10G30G14G28G08G17G04G09G07G01G21
  -8858196.19648  -6868586.62546  22858153.642    22858154.5944   22858160.9804
       171.0004        172.0004
  -1928592.96047  -1495289.49845  23374680.149    23374681.2134   23374685.4534
       155.0004        157.0004
  -1687760.69346  -1309320.83445  23706646.489    23706648.0064   23706652.2444
       125.0004        134.0004
 -12225825.36749  -9510203.89247  22293753.458    22293754.0504   22293761.7334
       213.0004        212.0004
  -4966093.48948  -3841522.90446  23358186.130    23358187.3194   23358193.2384
       167.0004        168.0004
  -8171295.39748  -6346158.05546  22969970.041    22969970.5094   22969976.6104
       168.0004        169.0004
 -15667355.56949 -12189871.05447  21462308.579    21462308.7044   21462316.0184
       203.0004        203.0004
 -18895662.51749 -14711478.20247  21212857.703    21212858.1204   21212861.8334
       202.0004        203.0004
 -18617598.46548 -14493630.17447  21459693.749    21459694.2504   21459702.4164
       189.0004        189.0004
 -15461904.89248 -12032942.76246  21812148.961    21812148.2844   21812153.8834
       185.0004        186.0004
 21  2  5  1 54 30.0000000  0 10G30G14G28G08G17G04G09G07G01G21
  -8945309.09648  -6936466.77146  22841576.603    22841576.7384   22841583.5794
       171.0004        172.0004
  -1954145.74447  -1515200.76045  23369817.803    23369817.9184   23369823.6314
       155.0004        157.0004
  -1702835.97546  -1321067.75845  23703778.388    23703778.8564   23703782.5704
       129.0004        137.0004
 -12135349.85449  -9439703.48947  22310971.631    22310971.1004   22310978.5264
       212.0004        211.0004
  -5048558.84648  -3905781.55346  23342492.855    23342493.1944   23342500.1904
       166.0004        168.0004
  -8074417.57748  -6270668.84046  22988405.829    22988407.2694   22988410.8004
       169.0004        169.0004
 -15610036.45049 -12145206.80047  21473215.743    21473215.8764   21473223.1424
       202.0004        201.0004
 -18959767.86649 -14761430.40847  21200658.567    21200659.0734   21200663.3854
       203.0004        203.0004
 -18675898.09448 -14539058.41947  21448598.241    21448599.3794   21448607.7854
       188.0004        188.0004
 -15449324.81348 -12023140.07646  21814541.823    21814541.6104   21814547.4184
       185.0004        185.0004
 21  2  5  1 55  0.0000000  0 10G30G14G28G08G17G04G09G07G01G21
  -9032376.91748  -7004311.82046  22825007.179    22825006.7814   22825014.6924
       170.0004        169.0004
  -1979691.96947  -1535106.88445  23364956.174    23364956.5664   23364962.8294
       156.0004        158.0004
  -1717887.08046  -1332795.86345  23700914.751    23700916.2834   23700919.3094
       131.0004        138.0004
 -12044723.62749  -9369085.66747  22328216.691    22328216.5474   22328223.7714
       211.0004        210.0004
  -5130700.00248  -3969787.60346  23326864.539    23326863.7414   23326868.5804
       167.0004        168.0004
  -7977461.53348  -6195118.66946  23006856.291    23006855.4194   23006860.5314
       169.0004        169.0004
 -15552357.94449 -12100262.53147  21484191.900    21484192.6564   21484198.9794
       201.0004        202.0004
 -19023626.96649 -14811190.74347  21188506.679    21188507.1934   21188511.3664
       203.0004        203.0004
 -18733843.45948 -14584210.62247  21437573.115    21437573.8574   21437581.2304
       188.0004        188.0004
 -15436257.02948 -12012957.37946  21817029.043    21817028.6374   21817033.6144
       184.0004        184.0004
 21  2  5  1 55 30.0000000  0 10G30G14G28G08G17G04G09G07G01G21
  -9119396.56848  -7072119.31746  22808449.425    22808449.4554   22808455.7864
       172.0004        176.0004
  -2005231.90647  -1555008.10145  23360095.128    23360096.1964   23360103.1784
       156.0004        158.0004
  -1732914.41647  -1344505.44245  23698055.255    23698054.0404   23698060.1464
       135.0004        140.0004
 -11953948.30549  -9298351.64147  22345490.639    22345490.4614   22345497.4664
       209.0004        208.0004
  -5212514.35547  -4033538.94746  23311293.983    23311294.1624   23311298.8344
       164.0004        165.0004
  -7880429.37448  -6119509.20146  23025319.536    23025320.5214   23025325.5994
       168.0004        169.0004
 -15494321.92249 -12055039.65947  21495235.924    21495235.8284   21495243.3854
       201.0004        201.0004
 -19087236.27649 -14860756.43847  21176403.313    21176403.2274   21176406.9134
       203.0004        204.0004
 -18791430.55148 -14629083.66647  21426615.042    21426615.8224   21426623.7194
       190.0004        191.0004
 -15422699.65648 -12002393.17746  21819609.510    21819608.0724   21819613.3924
       184.0004        184.0004
 21  2  5  1 56  0.0000000  0 10G30G14G28G08G17G04G09G07G01G21
  -9206363.49548  -7139885.76146  22791899.794    22791899.4404   22791906.3654
       176.0004        178.0004
  -2030764.41547  -1574903.56245  23355238.378    23355238.9614   23355243.4594
       158.0004        160.0004
  -1747917.65847  -1356196.27945  23695199.931    23695199.2264   23695203.8864
       136.0004        141.0004
 -11863024.28849  -9227501.76447  22362792.632    22362792.8464   22362800.0144
       209.0004        209.0004
  -5293998.01648  -4097032.67846  23295788.461    23295789.3734   23295792.3774
       165.0004        167.0004
  -7783321.63448  -6043840.84046  23043798.905    23043798.9704   23043805.4924
       168.0004        169.0004
 -15435928.92849 -12009538.61647  21506347.560    21506347.6794   21506355.0744
       201.0004        201.0004
 -19150590.59749 -14910123.44547  21164346.320    21164346.8554   21164351.1044
       203.0004        204.0004
 -18848654.00348 -14673673.36947  21415725.677    21415726.6844   21415733.7074
       192.0004        192.0004
 -15408650.29848 -11991445.61846  21822282.105    21822282.1954   21822286.5574
       184.0004        184.0004
 21  2  5  1 56 30.0000000  0 10G30G14G28G08G17G04G09G07G01G21
  -9293276.48148  -7207610.17346  22775360.772    22775361.2374   22775367.3404
       177.0004        178.0004
  -2056291.70447  -1594794.95045  23350380.179    23350380.7894   23350385.1434
       159.0004        160.0004
  -1762899.30147  -1367870.28245  23692349.912    23692349.5194   23692352.8824
       136.0004        142.0004
 -11771955.72349  -9156539.25347  22380123.021    22380122.8964   22380129.6714
       209.0004        209.0004
  -5375150.44947  -4160268.28446  23280345.553    23280345.5384   23280349.0474
       164.0004        165.0004
  -7686142.36248  -5968116.73646  23062291.853    23062291.6784   23062298.2114
       167.0004        168.0004
 -15377182.77449 -11963762.40347  21517527.112    21517527.2904   21517533.8124
       201.0004        201.0004
 -19213688.15849 -14959290.37147  21152339.041    21152339.6474   21152343.8124
       203.0004        203.0004
 -18905511.81648 -14717978.15047  21404906.996    21404907.6664   21404913.8824
       193.0004        193.0004
 -15394109.77148 -11980115.31046  21825048.366    21825048.4054   21825053.8174
       184.0004        184.0004
 21  2  5  1 57  0.0000000  0 10G30G14G28G08G17G04G09G07G01G21
  -9380133.70948  -7275291.11746  22758831.396    22758831.1114   22758839.0374
       176.0004        175.0004
  -2081815.28847  -1614683.44845  23345523.647    23345523.4304   23345528.6414
       159.0004        161.0004
  -1777861.46447  -1379529.10345  23689501.785    23689502.1354   23689505.8074
       138.0004        143.0004
 -11680746.02349  -9085466.76247  22397479.457    22397478.6884   22397486.5004
       209.0004        208.0004
  -5455970.69347  -4223245.05546  23264965.899    23264966.0364   23264969.0474
       163.0004        164.0004
  -7588894.74348  -5892339.37546  23080796.432    23080798.1244   23080803.7114
       166.0004        168.0004
 -15318086.66449 -11917713.49247  21528772.201    21528772.3574   21528779.5414
       201.0004        201.0004
 -19276526.51249 -15008255.32347  21140381.923    21140382.2184   21140386.0754
       203.0004        204.0004
 -18962001.25248 -14761995.88647  21394157.437    21394157.6904   21394164.8534
       193.0004        193.0004
 -15379077.83648 -11968402.10946  21827909.637    21827909.1504   21827914.7794
       184.0004        184.0004
 21  2  5  1 57 30.0000000  0 10G30G14G28G08G17G04G09G07G01G21
  -9466932.62548  -7342926.61946  22742315.903    22742315.2474   22742321.8454
       177.0004        180.0004
  -2107335.98447  -1634569.67245  23340666.902    23340667.8514   23340672.6414
       160.0004        162.0004
  -1792805.20447  -1391173.55545  23686657.472    23686658.0624   23686662.0834
       138.0004        143.0004
 -11589397.55549  -9014286.14447  22414860.722    22414861.9594   22414869.1594
       207.0004        207.0004
  -5536456.66347  -4285961.30545  23249649.165    23249649.9104   23249652.6364
       161.0004        162.0004
  -7491581.46948  -5816510.84846  23099316.368    23099315.9294   23099320.5314
       166.0004        167.0004
 -15258643.07549 -11871393.80847  21540084.124    21540084.1174   21540091.1974
       201.0004        202.0004
 -19339103.01749 -15057016.23747  21128473.767    21128474.4564   21128478.3624
       204.0004        204.0004
 -19018118.92848 -14805723.94147  21383477.275    21383478.1804   21383485.7494
       193.0004        192.0004
 -15363553.77048 -11956305.42046  21830864.041    21830863.6264   21830868.6834
       184.0004        185.0004
 21  2  5  1 58  0.0000000  0 10G30G14G28G08G17G04G09G07G01G21
  -9553671.28948  -7410515.18846  22725809.197    22725808.8524   22725816.2094
       179.0004        181.0004
  -2132855.26547  -1654454.81445  23335811.018    23335811.3234   23335815.2174
       160.0004        161.0004
  -1807732.29847  -1402805.04445  23683818.050    23683818.1644   23683820.5864
       139.0004        144.0004
 -11497912.95849  -8942999.44447  22432271.580    22432271.2914   22432278.5914
       208.0004        208.0004
  -5616606.94447  -4348416.02245  23234397.445    23234398.3734   23234401.4554
       160.0004        162.0004
  -7394205.73348  -5740633.65846  23117845.481    23117845.9944   23117851.0674
       165.0004        165.0004
 -15198855.23449 -11824805.86347  21551461.664    21551461.6574   21551468.1544
       202.0004        202.0004
 -19401415.13549 -15105571.12847  21116616.461    21116616.8274   21116620.8014
       204.0004        204.0004
 -19073862.20548 -14849160.23047  21372869.563    21372870.0204   21372877.5154
       191.0004        190.0004
 -15347537.56048 -11943825.23946  21833911.180    21833910.6874   21833917.0024
       184.0004        184.0004
 21  2  5  1 58 30.0000000  0 10G30G14G28G08G17G04G09G07G01G21
  -9640347.88448  -7478055.40846  22709315.929    22709315.6754   22709321.9284
       180.0004        179.0004
  -2158374.77947  -1674340.15645  23330954.841    23330955.2444   23330958.7974
       159.0004        160.0004
  -1822644.87147  -1414425.21345  23680980.574    23680980.0914   23680985.9804
       140.0004        145.0004
 -11406296.01749  -8871609.61847  22449705.138    22449705.1634   22449712.9494
       208.0004        208.0004
  -5696420.84647  -4410608.63446  23219208.699    23219209.7774   23219213.3124
       161.0004        164.0004
  -7296770.87147  -5664710.40046  23136386.464    23136386.8994   23136393.3234
       164.0004        165.0004
 -15138726.42249 -11777952.25647  21562903.611    21562903.9254   21562911.1194
       202.0004        202.0004
 -19463460.33449 -15153918.04547  21104809.392    21104809.8414   21104813.4294
       204.0004        204.0004
 -19129228.44448 -14892302.75447  21362333.625    21362334.3784   21362342.2324
       190.0004        191.0004
 -15331029.83848 -11930962.06446  21837052.281    21837052.2534   21837057.2374
       184.0004        183.0004
 21  2  5  1 59  0.0000000  0 10G30G14G28G08G17G04G09G07G01G21
  -9726959.53648  -7545544.99346  22692832.276    22692832.8864   22692839.9084
       177.0004        177.0004
  -2183895.00747  -1694226.04045  23326098.587    23326098.5804   23326102.4144
       159.0004        160.0004
  -1837543.94947  -1426034.87845  23678145.203    23678144.4264   23678149.1904
       141.0004        146.0004
 -11314548.69949  -8800118.20347  22467163.582    22467163.8904   22467171.6714
       208.0004        208.0004
  -5775895.71647  -4472537.06446  23204086.592    23204087.0674   23204091.1844
       163.0004        167.0004
  -7199279.15947  -5588742.84845  23154936.475    23154937.3084   23154944.9484
       162.0004        162.0004
 -15078258.88449 -11730834.68547  21574410.000    21574410.4834   21574417.0624
       202.0004        202.0004
 -19525235.30549 -15202054.39247  21093054.751    21093054.9054   21093058.2344
       204.0004        205.0004
 -19184214.00948 -14935148.63547  21351869.665    21351870.9054   21351879.0714
       190.0004        191.0004
 -15314029.05348 -11917714.69946  21840287.393    21840287.4564   21840292.4634
       184.0004        185.0004
 21  2  5  1 59 30.0000000  0 10G30G14G28G08G17G04G09G07G01G21
  -9813504.00048  -7612982.24446  22676364.706    22676364.5254   22676371.0964
       178.0004        180.0004
  -2209417.19847  -1714113.44545  23321241.884    23321241.9654   23321245.7864
       158.0004        159.0004
  -1852431.28447  -1437635.39745  23675311.288    23675310.9534   23675316.2804
       143.0004        147.0004
 -11222673.69549  -8728527.30347  22484647.061    22484647.1584   22484654.8324
       208.0004        208.0004
  -5855030.24948  -4534200.26546  23189027.053    23189027.1994   23189032.0724
       165.0004        168.0004
  -7101733.62047  -5512733.33646  23173499.325    23173500.7244   23173507.8964
       161.0004        163.0004
 -15017455.57149 -11683455.47147  21585980.420    21585981.1944   21585987.9744
       202.0004        203.0004
 -19586737.60749 -15249978.25947  21081350.250    21081351.0294   21081354.9174
       204.0004        204.0004
 -19238815.96848 -14977695.59447  21341479.297    21341480.3464   21341488.1684
       190.0004        190.0004
 -15296535.37048 -11904083.24646  21843617.434    21843616.7554   21843621.7624
       184.0004        184.0004
 21  2  5  2  0  0.0000000  0 10G30G14G28G08G17G04G09G07G01G21
  -9899979.30648  -7680365.60446  22659909.004    22659909.6004   22659915.4184
       178.0004        181.0004
  -2234942.72947  -1734003.48045  23316383.166    23316383.9334   23316389.2174
       158.0004        160.0004
  -1867308.43647  -1449227.96045  23672480.077    23672480.6094   23672484.8024
       144.0004        149.0004
 -11130674.51749  -8656839.63347  22502153.446    22502154.1674   22502162.1784
       207.0004        207.0004
  -5933823.72048  -4595597.74046  23174032.607    23174032.7914   23174038.8394
       167.0004        169.0004
  -7004137.34647  -5436684.31246  23192073.136    23192073.1124   23192079.6034
       162.0004        164.0004
 -14956319.65849 -11635817.09947  21597614.780    21597615.0514   21597621.8054
       203.0004        202.0004
 -19647964.25049 -15297687.32947  21069699.660    21069700.0914   21069703.4034
       204.0004        204.0004
 -19293031.60748 -15019941.52447  21331162.006    21331163.4954   21331171.8694
       190.0004        191.0004
 -15278548.58548 -11890067.56246  21847039.976    21847039.0864   21847044.4584
       184.0004        184.0004
 21  2  5  2  0 30.0000000  0 10G30G14G28G08G17G04G09G07G01G21
  -9986382.96948  -7747693.14046  22643467.145    22643467.2294   22643474.1214
       181.0004        182.0004
  -2260472.57847  -1753896.87345  23311526.500    23311526.7094   23311530.7494
       158.0004        159.0004
  -1882176.85047  -1460813.73445  23669652.769    23669652.2724   23669655.6404
       146.0004        151.0004
 -11038553.20649  -8585056.81447  22519683.241    22519683.8724   22519691.5864
       207.0004        206.0004
  -6012274.01148  -4656727.78746  23159104.209    23159105.5984   23159110.7434
       168.0004        170.0004
  -6906493.13647  -5360597.92646  23210653.248    23210654.6604   23210661.2624
       162.0004        164.0004
 -14894853.81549 -11587921.63847  21609311.564    21609311.2554   21609318.7274
       203.0004        203.0004
 -19708912.61649 -15345179.58447  21058101.695    21058102.0984   21058105.4924
       204.0004        205.0004
 -19346857.77548 -15061883.99347  21320920.860    21320921.5904   21320928.7444
       192.0004        193.0004
 -15260068.53448 -11875667.52346  21850556.193    21850555.6444   21850560.9824
       184.0004        184.0004
 21  2  5  2  1  0.0000000  0 10G30G14G28G08G17G04G09G07G01G21
 -10072712.01548  -7814962.51646  22627039.538    22627040.4174   22627046.4064
       182.0004        183.0004
  -2286007.11347  -1773793.89845  23306666.519    23306666.7494   23306671.3504
       157.0004        158.0004
  -1897037.55547  -1472393.45545  23666823.600    23666822.9134   23666828.2344
       148.0004        151.0004
 -10946312.25349  -8513180.72847  22537237.680    22537237.2754   22537243.9324
       206.0004        206.0004
  -6090379.13048  -4717588.85046  23144241.379    23144241.6724   23144248.6644
       170.0004        172.0004
  -6808802.99347  -5284475.74246  23229243.431    23229244.6424   23229249.9594
       162.0004        164.0004
 -14833060.25949 -11539770.81147  21621069.850    21621070.1564   21621077.3124
       203.0004        203.0004
 -19769579.26749 -15392452.28647  21046557.184    21046557.3094   21046561.3674
       204.0004        205.0004
 -19400290.75048 -15103520.05147  21310752.421    21310753.1484   21310761.0064
       192.0004        193.0004
 -15241094.49548 -11860882.54946  21854167.968    21854166.7074   21854171.5994
       184.0004        184.0004
 21  2  5  2  1 30.0000000  0 10G30G14G28G08G17G04G09G07G01G21
 -10158965.46848  -7882173.00046  22610625.234    22610626.2464   22610632.5974
       182.0004        183.0004
  -2311548.83547  -1793696.51945  23301807.623    23301807.7444   23301812.1424
       157.0004        159.0004
  -1911893.33347  -1483969.37145  23663996.178    23663996.1194   23664001.2814
       149.0004        153.0004
 -10853955.37649  -8441214.34247  22554811.954    22554811.9004   22554818.9784
       205.0004        205.0004
  -6168138.43948  -4778180.46846  23129445.396    23129445.6464   23129449.5154
       170.0004        170.0004
  -6711071.33747  -5208321.22046  23247842.926    23247842.7454   23247847.8994
       163.0004        164.0004
 -14770943.21249 -11491367.91547  21632890.772    21632890.8314   21632897.6404
       202.0004        202.0004
 -19829962.75749 -15439504.36247  21035066.745    21035067.1004   21035070.6784
       205.0004        205.0004
 -19453328.93248 -15144848.49347  21300659.702    21300660.7694   21300668.1154
       193.0004        194.0004
 -15221627.26148 -11845713.27046  21857871.789    21857871.0024   21857875.7884
       183.0004        183.0004
 21  2  5  2  2  0.0000000  0 10G30G14G28G08G17G04G09G07G01G21
 -10245141.03548  -7949322.78346  22594227.166    22594227.4584   22594233.4834
       182.0004        181.0004
  -2337098.88447  -1813605.65345  23296944.566    23296945.1974   23296949.2704
       158.0004        160.0004
  -1926745.91247  -1495542.80645  23661170.070    23661169.5514   23661174.6944
       150.0004        153.0004
 -10761485.71749  -8369160.07047  22572407.849    22572408.0324   22572415.6904
       205.0004        205.0004
  -6245551.32548  -4838502.12946  23114714.371    23114714.1054   23114717.9914
       170.0004        171.0004
  -6613301.03647  -5132136.56046  23266447.027    23266447.4424   23266452.8364
       163.0004        164.0004
 -14708505.68349 -11442715.29247  21644771.572    21644772.0144   21644778.9504
       202.0004        202.0004
 -19890060.52249 -15486333.79347  21023630.974    21023630.5554   21023634.4434
       205.0004        205.0004
 -19505969.43948 -15185867.05347  21290642.115    21290643.1624   21290650.7314
       194.0004        195.0004
 -15201667.18848 -11830159.95546  21861669.511    21861669.1344   21861674.3954
       183.0004        184.0004
 21  2  5  2  2 30.0000000  0 10G30G14G28G08G17G04G09G07G01G21
 -10331235.20148  -8016409.15146  22577845.090    22577843.9784   22577850.6074
       180.0004        179.0004
  -2362657.16847  -1833521.19445  23292080.623    23292080.5974   23292085.6734
       159.0004        161.0004
  -1941595.48447  -1507113.88445  23658344.375    23658344.0244   23658348.4914
       150.0004        154.0004
 -10668904.35649  -8297018.76347  22590026.106    22590025.9094   22590033.7054
       205.0004        206.0004
  -6322614.81848  -4898551.56046  23100047.056    23100047.5444   23100054.0634
       168.0004        168.0004
  -6515493.66547  -5055923.04946  23285058.478    23285059.3394   23285065.9734
       162.0004        163.0004
 -14645749.34849 -11393814.25147  21656713.971    21656714.6184   21656721.0434
       201.0004        202.0004
 -19949868.55649 -15532937.45647  21012248.858    21012249.6254   21012253.5284
       205.0004        205.0004
 -19558208.14548 -15226572.52947  21280701.964    21280702.7804   21280709.9744
       194.0004        194.0004
 -15181212.61848 -11814221.32046  21865562.503    21865561.7424   21865567.0204
       184.0004        184.0004
 21  2  5  2  3  0.0000000  0 10G30G14G28G08G17G04G09G07G01G21
 -10417246.27848  -8083430.76646  22561475.890    22561476.0174   22561482.2864
       178.0004        177.0004
  -2388225.47547  -1853444.52645  23287215.677    23287215.5304   23287220.5514
       159.0004        161.0004
  -1956444.13747  -1518684.25845  23655517.895    23655518.8794   23655522.5774
       151.0004        154.0004
 -10576215.23749  -8224793.49447  22607664.876    22607664.1974   22607672.8704
       205.0004        205.0004
  -6399328.01448  -4958328.03646  23085451.102    23085450.7254   23085455.3024
       167.0004        169.0004
  -6417652.80847  -4979683.44546  23303676.928    23303678.2434   23303683.2574
       161.0004        163.0004
 -14582677.81249 -11344667.61947  21668716.368    21668716.5964   21668723.5014
       201.0004        201.0004
 -20009384.69749 -15579313.68147  21000924.021    21000924.1344   21000927.9224
       205.0004        205.0004
 -19610042.72848 -15266963.10447  21270837.936    21270838.8534   21270846.3354
       194.0004        195.0004
 -15160264.27248 -11797897.91646  21869548.747    21869548.2364   21869552.9634
       184.0004        184.0004
 21  2  5  2  3 30.0000000  0 10G30G14G28G08G17G04G09G07G01G21
 -10503171.14748  -8150385.21046  22545124.135    22545124.2994   22545131.6844
       177.0004        178.0004
  -2413804.03847  -1873375.86245  23282347.991    23282348.2524   23282353.3424
       159.0004        161.0004
  -1971292.81247  -1530254.65645  23652692.677    23652692.7004   23652697.2924
       152.0004        155.0004
 -10483419.60549  -8152485.21847  22625323.812    22625322.9414   22625330.8634
       205.0004        205.0004
  -6475688.87348  -5017829.95846  23070918.769    23070919.5984   23070922.8224
       167.0004        169.0004
  -6319780.43647  -4903419.26846  23322300.364    23322301.7024   23322307.9504
       161.0004        163.0004
 -14519293.18949 -11295277.00247  21680777.765    21680777.7674   21680784.8194
       200.0004        200.0004
 -20068605.32949 -15625459.62547  20989654.584    20989654.6814   20989658.5294
       205.0004        205.0004
 -19661469.52149 -15307035.90847  21261052.607    21261052.8944   21261060.1584
       195.0004        195.0004
 -15138821.31448 -11781189.11346  21873629.196    21873629.1994   21873633.3304
       184.0004        184.0004
 21  2  5  2  4  0.0000000  0 10G30G14G28G08G17G04G09G07G01G21
 -10589007.72848  -8217270.84646  22528790.605    22528791.0424   22528798.0964
       178.0004        178.0004
  -2439394.28447  -1893316.30745  23277478.125    23277477.9704   23277482.5284
       160.0004        162.0004
  -1986143.22247  -1541826.39945  23649867.547    23649866.9194   23649870.6014
       153.0004        155.0004
 -10390521.02349  -8080096.73347  22642999.884    22643000.3974   22643008.7224
       204.0004        203.0004
  -6551696.23648  -5077056.42946  23056455.991    23056456.3624   23056460.2944
       168.0004        170.0004
  -6221879.75647  -4827133.01845  23340930.325    23340930.9704   23340938.4774
       161.0004        162.0004
 -14455598.72849 -11245644.97947  21692898.079    21692898.7154   21692905.8644
       200.0004        200.0004
 -20127528.29549 -15671373.62947  20978441.266    20978441.7614   20978445.7694
       204.0004        205.0004
 -19712485.90049 -15346788.92947  21251344.336    21251344.4004   21251351.5424
       195.0004        194.0004
 -15116883.91448 -11764095.02446  21877803.129    21877803.3454   21877807.7314
       184.0004        184.0004
 21  2  5  2  4 30.0000000  0 10G30G14G28G08G17G04G09G07G01G21
 -10674753.93548  -8284086.07746  22512473.922    22512473.7604   22512480.7624
       177.0004        178.0004
  -2464997.45247  -1913266.79846  23272605.861    23272606.2664   23272611.2604
       161.0004        163.0004
  -2000997.10147  -1553400.83445  23647040.657    23647040.2264   23647044.0514
       152.0004        154.0004
 -10297522.11649  -8007630.04947  22660696.889    22660697.7424   22660705.5524
       204.0004        204.0004
  -6627348.80248  -5136006.45046  23042059.306    23042059.4404   23042063.1284
       169.0004        168.0004
  -6123953.81047  -4750827.09546  23359565.711    23359566.5284   23359572.5774
       161.0004        163.0004
 -14391597.57849 -11195773.96547  21705077.024    21705077.2554   21705084.4584
       199.0004        199.0004
 -20186151.00349 -15717053.66347  20967286.101    20967286.0884   20967290.4484
       205.0004        205.0004
 -19763089.18248 -15386220.04447  21241714.225    21241715.0394   21241722.2524
       194.0004        195.0004
 -15094452.29548 -11746615.82446  21882072.013    21882072.1904   21882076.2664
       184.0004        184.0004
 21  2  5  2  5  0.0000000  0 10G30G14G28G08G17G04G09G07G01G21
 -10760406.90448  -8350828.65346  22496174.936    22496175.1044   22496181.2814
       178.0004        179.0004
  -2490614.29047  -1933227.96346  23267731.853    23267732.6054   23267736.5434
       162.0004        164.0004
  -2015855.65247  -1564978.90445  23644213.413    23644213.8174   23644217.0914
       151.0004        153.0004
 -10204425.51649  -7935087.25147  22678412.358    22678412.7454   22678421.2814
       203.0004        203.0004
  -6702645.05248  -5194678.77346  23027730.565    23027730.6464   23027734.1154
       166.0004        167.0004
  -6026005.01947  -4674503.36146  23378205.418    23378206.0024   23378211.0344
       161.0004        163.0004
 -14327292.31349 -11145665.97447  21717314.218    21717314.3284   21717321.1674
       198.0004        199.0004
 -20244470.07649 -15762497.10247  20956187.819    20956188.6684   20956192.5594
       205.0004        205.0004
 -19813276.13448 -15425326.73647  21232163.508    21232164.4344   21232172.1104
       194.0004        193.0004
 -15071526.38048 -11728751.45446  21886435.371    21886434.4824   21886439.2654
       184.0004        184.0004
 21  2  5  2  5 30.0000000  0 10G30G14G28G08G17G04G09G07G01G21
 -10845965.01748  -8417497.33246  22479893.591    22479894.4474   22479901.0844
       179.0004        180.0004
  -2516246.60647  -1953201.18545  23262853.883    23262854.3764   23262858.9274
       161.0004        161.0004
  -2030721.06847  -1576562.31645  23641383.656    23641383.4294   23641387.6244
       150.0004        152.0004
 -10111234.48949  -7862470.88947  22696147.231    22696146.9204   22696155.0894
       203.0004        203.0004
  -6777584.39248  -5253073.04346  23013470.434    23013470.9904   23013474.0784
       166.0004        168.0004
  -5928036.91247  -4598164.59445  23396848.854    23396848.8024   23396853.2624
       160.0004        162.0004
 -14262686.55849 -11095323.83147  21729608.238    21729608.7874   21729615.7184
       199.0004        199.0004
 -20302483.81049 -15807702.61747  20945148.651    20945149.0724   20945152.8384
       205.0004        205.0004
 -19863044.56148 -15464107.32047  21222693.395    21222694.0544   21222701.1404
       193.0004        193.0004
 -15048106.38148 -11710502.09446  21890891.264    21890891.1894   21890896.2644
       184.0004        184.0004
 21  2  5  2  6  0.0000000  0 10G30G14G28G08G17G04G09G07G01G21
 -10931425.41248  -8484089.83446  22463630.186    22463630.3744   22463638.3454
       178.0004        178.0004
  -2541894.87947  -1973186.85845  23257972.083    23257973.5794   23257976.7684
       159.0004        160.0004
  -2045594.49247  -1588152.00145  23638553.591    23638553.5994   23638558.6394
       149.0004        152.0004
 -10017951.03849  -7789782.47947  22713897.979    22713897.6024   22713906.7064
       202.0004        202.0004
  -6852164.87548  -5311187.67546  22999277.115    22999277.8694   22999282.4644
       167.0004        168.0004
  -5830051.77247  -4521812.52645  23415495.410    23415495.8944   23415500.1654
       160.0004        161.0004
 -14197782.81449 -11044749.49247  21741959.235    21741959.4994   21741966.1874
       198.0004        199.0004
 -20360188.80349 -15852667.55347  20934167.669    20934168.0154   20934172.3324
       205.0004        206.0004
 -19912391.09648 -15502559.15747  21213303.610    21213302.9304   21213310.9954
       193.0004        193.0004
 -15024192.14448 -11691867.62646  21895441.209    21895441.5024   21895446.6774
       184.0004        184.0004
 21  2  5  2  6 30.0000000  0 11G30G14G28G08G17G04G09G07G01G21G22
 -11016785.13748  -8550603.88646  22447387.255    22447387.4604   22447394.9634
       178.0004        181.0004
  -2567559.61447  -1993185.33845  23253087.874    23253089.7444   23253094.0884
       159.0004        161.0004
  -2060476.54647  -1599748.40845  23635722.209    23635722.8894   23635726.2144
       149.0004        152.0004
  -9924577.16549  -7717023.63047  22731666.823    22731666.9284   22731675.5074
       202.0004        203.0004
  -6926384.57948  -5369021.19746  22985155.079    22985155.7934   22985159.6124
       169.0004        172.0004
  -5732051.87247  -4445448.97045  23434142.766    23434144.5914   23434150.0934
       159.0004        160.0004
 -14132583.44849 -10993944.78247  21754366.406    21754366.6904   21754373.4684
       199.0004        199.0004
 -20417581.68149 -15897389.27347  20923245.763    20923246.3584   20923250.6224
       205.0004        205.0004
 -19961312.34148 -15540679.58847  21203993.601    21203994.1994   21204001.3274
       193.0004        193.0004
 -14999783.08948 -11672847.58246  21900086.648    21900086.2604   21900091.0884
       184.0004        184.0004
  -2036359.12754
        74.0004
 21  2  5  2  7  0.0000000  0 11G30G14G28G08G17G04G09G07G01G21G22
 -11102042.26348  -8617038.01346  22431164.490    22431164.4794   22431171.1014
       180.0004        182.0004
  -2593242.44447  -2013197.93746  23248201.373    23248202.1054   23248206.3754
       161.0004        163.0004
  -2075369.34747  -1611353.17945  23632887.246    23632887.5174   23632893.0114
       150.0004        153.0004
  -9831116.03549  -7644196.79247  22749451.527    22749451.9764   22749460.2344
       202.0004        203.0004
  -7000242.87048  -5426573.08146  22971099.549    22971099.8464   22971104.8624
       172.0004        174.0004
  -5634040.53547  -4369076.50945  23452794.854    23452794.5544   23452800.7144
       158.0004        160.0004
 -14067092.00349 -10942912.48747  21766828.499    21766828.8764   21766835.7754
       199.0004        198.0004
 -20474660.29149 -15941866.12247  20912384.708    20912384.8584   20912388.6424
       205.0004        206.0004
 -20009806.04348 -15578466.87247  21194765.364    21194765.8274   21194773.7204
       193.0004        194.0004
 -14974879.66948 -11653442.30346  21904826.166    21904826.0534   21904830.4664
       184.0004        184.0004
  -2036359.12744
        74.0004
 21  2  5  2  7 30.0000000  0 11G30G14G28G08G17G04G09G07G01G21G22
 -11187193.93148  -8683389.97046  22414959.312    22414959.8474   22414967.2814
       181.0004        182.0004
  -2618943.86247  -2033225.02246  23243310.873    23243311.7134   23243316.0454
       162.0004        163.0004
  -2090274.01047  -1622967.19945  23630051.234    23630051.7854   23630056.0854
       151.0004        153.0004
  -9737570.19249  -7571303.92947  22767253.407    22767252.9484   22767260.5124
       202.0004        202.0004
  -7073737.96648  -5483841.96046  22957113.442    22957114.2264   22957119.4664
       171.0004        171.0004
  -5536020.07247  -4292696.93045  23471446.171    23471447.2054   23471453.0154
       158.0004        160.0004
 -14001310.97849 -10891654.53947  21779346.410    21779346.7144   21779352.8954
       197.0004        197.0004
 -20531421.42849 -15986095.57647  20901583.352    20901583.5614   20901587.3834
       205.0004        206.0004
 -20057868.85048 -15615918.40847  21185618.224    21185619.7764   21185627.4634
       193.0004        194.0004
 -14949481.85248 -11633651.78746  21909659.838    21909658.7334   21909663.3234
       184.0004        185.0004
  -2036359.12744
        74.0004
 21  2  5  2  8  0.0000000  0 10G30G14G28G08G17G04G09G07G01G21
 -11272237.92848  -8749657.99146  22398775.644    22398776.8044   22398784.0844
       181.0004        182.0004
  -2644665.14847  -2053267.53846  23238416.627    23238416.8454   23238421.8014
       161.0004        163.0004
  -2105192.43647  -1634591.94245  23627212.103    23627212.9154   23627216.3814
       151.0004        154.0004
  -9643942.47149  -7498347.26447  22785068.442    22785069.5914   22785077.4314
       201.0004        200.0004
  -7146868.81548  -5540826.98146  22943197.594    22943198.5324   22943203.3874
       171.0004        173.0004
  -5437993.50247  -4216312.58245  23490100.152    23490101.0074   23490106.3934
       158.0004        160.0004
 -13935243.57049 -10840173.43247  21791918.478    21791918.5434   21791926.1404
       197.0004        197.0004
 -20587862.64549 -16030075.76147  20890842.579    20890843.0434   20890847.4464
       206.0004        206.0004
 -20105498.21649 -15653032.16947  21176556.185    21176556.7364   21176564.2804
       195.0004        196.0004
 -14923589.81148 -11613476.15046  21914585.975    21914585.7614   21914590.4414
       184.0004        184.0004
 21  2  5  2  8 30.0000000  0 10G30G14G28G08G17G04G09G07G01G21
 -11357171.22448  -8815839.77346  22382613.942    22382614.5084   22382621.0094
       181.0004        180.0004
  -2670406.68447  -2073325.86346  23233519.740    23233519.1674   23233523.6054
       164.0004        165.0004
  -2120124.99447  -1646227.68945  23624371.677    23624370.5064   23624374.8494
       151.0004        152.0004
  -9550234.66449  -7425328.18747  22802901.617    22802901.3434   22802909.7294
       199.0004        198.0004
  -7219633.60448  -5597526.77246  22929350.283    22929350.9084   22929356.8814
       171.0004        174.0004
  -5339962.91247  -4139925.11845  23508755.071    23508755.7364   23508760.4594
       157.0004        157.0004
 -13868892.08049 -10788470.97447  21804545.053    21804545.5244   21804552.2314
       197.0004        197.0004
 -20643980.71949 -16073804.11447  20880162.997    20880163.7824   20880168.3804
       206.0004        206.0004
 -20152690.69949 -15689805.52347  21167575.987    21167576.1154   21167584.1344
       196.0004        196.0004
 -14897203.27548 -11592915.21646  21919607.925    21919607.5444   21919610.4114
       184.0004        184.0004
 21  2  5  2  9  0.0000000  0 10G30G14G28G08G17G04G09G07G01G21
 -11441993.27548  -8881934.89346  22366473.641    22366473.3004   22366479.7724
       181.0004        182.0004
  -2696171.42148  -2093402.29146  23228614.923    23228615.7824   23228620.6994
       165.0004        166.0004
  -2135075.35847  -1657877.32145  23621525.838    23621526.0024   23621530.4834
       152.0004        155.0004
  -9456451.23749  -7352250.22747  22820749.475    22820748.3694   22820755.7324
       198.0004        199.0004
  -7292033.00748  -5653941.86346  22915574.407    22915574.5084   22915579.3064
       174.0004        175.0004
  -5241933.01247  -4063538.20745  23527409.812    23527410.8914   23527416.4034
       156.0004        157.0004
 -13802261.42649 -10736550.97847  21817224.038    21817224.2494   21817231.2024
       197.0004        196.0004
 -20699774.50149 -16117279.79647  20869546.207    20869546.9704   20869551.0484
       205.0004        206.0004
 -20199445.45749 -15726237.79847  21158678.715    21158679.1364   21158686.8334
       197.0004        197.0004
 -14870324.03348 -11571970.33446  21924722.977    21924721.8864   21924727.1884
       184.0004        185.0004
 21  2  5  2  9 30.0000000  0 10G30G14G28G08G17G04G09G07G01G21
 -11526700.09948  -8947940.21746  22350354.291    22350353.9094   22350359.8354
       182.0004        183.0004
  -2721958.81748  -2113496.36146  23223708.200    23223708.4234   23223713.2584
       165.0004        166.0004
  -2150043.55547  -1669540.84045  23618677.121    23618677.7794   23618681.8654
       153.0004        156.0004
  -9362593.57349  -7279114.37947  22838607.347    22838608.4794   22838616.9194
       199.0004        200.0004
  -7364064.01248  -5710069.88846  22901866.707    22901867.1524   22901871.9564
       173.0004        173.0004
  -5143905.03547  -3987152.78845  23546065.031    23546064.2734   23546069.6754
       156.0004        157.0004
 -13735353.12449 -10684414.64647  21829955.889    21829956.8004   21829963.3754
       196.0004        197.0004
 -20755239.88449 -16160499.58647  20858992.168    20858992.3114   20858996.5334
       206.0004        206.0004
 -20245758.20849 -15762325.64947  21149865.820    21149866.4154   21149873.2974
       197.0004        198.0004
 -14842951.28348 -11550640.91246  21929930.942    21929930.6214   21929935.4714
       184.0004        185.0004
 21  2  5  2 10  0.0000000  0 10G30G14G28G08G17G04G09G07G01G21
 -11611288.64748  -9013853.35246  22334257.270    22334257.4344   22334263.8774
       184.0004        186.0004
  -2747769.25848  -2133608.40246  23218797.560    23218797.9954   23218801.4554
       166.0004        168.0004
  -2165030.20947  -1681218.75145  23615825.868    23615826.2294   23615829.8114
       153.0004        156.0004
  -9268663.38349  -7205922.03547  22856482.477    22856482.8564   22856491.2054
       199.0004        199.0004
  -7435725.23948  -5765909.77446  22888229.380    22888230.0164   22888235.0944
       172.0004        173.0004
  -5045881.11647  -3910770.51545  23564717.510    23564717.7324   23564723.7904
       156.0004        157.0004
 -13668169.52149 -10632063.78047  21842741.267    21842741.7744   21842748.0584
       196.0004        197.0004
 -20810373.61649 -16203460.92847  20848499.629    20848500.2714   20848504.9034
       206.0004        206.0004
 -20291625.58349 -15798066.44647  21141136.430    21141137.4284   21141144.9004
       197.0004        197.0004
 -14815083.88048 -11528926.04646  21935234.378    21935234.2104   21935238.4374
       184.0004        184.0004
 21  2  5  2 10 30.0000000  0 10G30G14G28G08G17G04G09G07G01G21
 -11695757.35248  -9079673.11546  22318184.059    22318184.3284   22318190.4384
       186.0004        187.0004
  -2773604.72948  -2153739.92046  23213880.108    23213880.0614   23213885.0204
       165.0004        165.0004
  -2180037.94647  -1692913.06445  23612970.810    23612970.5174   23612974.3754
       154.0004        156.0004
  -9174664.26549  -7132675.97847  22874370.889    22874369.7244   22874378.1214
       198.0004        197.0004
  -7507016.05548  -5821461.02046  22874664.022    22874664.3294   22874669.1194
       174.0004        176.0004
  -4947864.93047  -3834394.27145  23583368.760    23583369.8834   23583374.7964
       154.0004        157.0004
 -13600714.55349 -10579501.47347  21855578.486    21855578.3604   21855585.0414
       197.0004        197.0004
 -20865173.93949 -16246162.49047  20838072.061    20838072.6864   20838076.7714
       206.0004        207.0004
 -20337045.77949 -15833458.79647  21132493.420    21132494.5584   21132502.1464
       197.0004        198.0004
 -14786723.21348 -11506826.81146  21940630.783    21940630.2294   21940636.1944
       184.0004        183.0004
 21  2  5  2 11  0.0000000  0 10G30G14G28G08G17G04G09G07G01G21
 -11780102.72248  -9145396.76946  22302134.329    22302133.8724   22302139.8574
       186.0004        186.0004
  -2799465.14747  -2173890.86646  23208957.846    23208958.6304   23208964.6044
       163.0004        164.0004
  -2195066.90847  -1704623.93145  23610109.769    23610110.4094   23610113.6934
       153.0004        156.0004
  -9080597.58849  -7059377.27247  22892269.815    22892270.0834   22892278.2334
       197.0004        197.0004
  -7577934.45748  -5876722.07546  22861168.312    22861169.1734   22861173.1434
       174.0004        175.0004
  -4849858.16647  -3758025.38445  23602019.151    23602019.3574   23602024.9744
       154.0004        156.0004
 -13532990.21149 -10526729.23947  21868465.267    21868465.7884   21868472.2864
       196.0004        196.0004
 -20919636.95149 -16288601.19547  20827708.055    20827708.3474   20827712.7554
       206.0004        207.0004
 -20382015.06649 -15868499.78547  21123936.535    21123937.2794   21123944.3904
       197.0004        198.0004
 -14757869.03148 -11484343.01846  21946122.016    21946121.3614   21946126.7704
       184.0004        184.0004
 21  2  5  2 11 30.0000000  0 10G30G14G28G08G17G04G09G07G01G21
 -11864322.46148  -9211022.53046  22286106.343    22286106.9314   22286113.0254
       185.0004        185.0004
  -2825351.55147  -2194062.09246  23204032.791    23204032.9324   23204037.9044
       163.0004        165.0004
  -2210118.80047  -1716352.66245  23607245.748    23607245.9904   23607250.8334
       155.0004        158.0004
  -8986466.20649  -6986028.16547  22910182.207    22910182.7904   22910191.6604
       196.0004        197.0004
  -7648479.34148  -5931692.08446  22847745.498    22847745.1924   22847749.5174
       175.0004        177.0004
  -4751863.67647  -3681666.08445  23620666.093    23620666.6724   23620673.2334
       153.0004        156.0004
 -13464999.56749 -10473749.52347  21881403.321    21881403.5614   21881409.9564
       195.0004        195.0004
 -20973760.29749 -16330775.23247  20817408.762    20817409.4744   20817413.4154
       207.0004        208.0004
 -20426530.83649 -15903187.39347  21115465.386    21115466.2944   21115473.9574
       198.0004        198.0004
 -14728521.98448 -11461475.17046  21951705.700    21951705.6614   21951711.1714
       183.0004        183.0004
 21  2  5  2 12  0.0000000  0 10G30G14G28G08G17G04G09G07G01G21
 -11948414.23448  -9276548.58346  22270104.724    22270104.7224   22270111.6644
       186.0004        186.0004
  -2851265.19147  -2214254.50146  23199101.315    23199101.5974   23199107.9764
       164.0004        165.0004
  -2225195.14947  -1728100.45145  23604376.576    23604376.3224   23604381.9114
       155.0004        157.0004
  -8892272.83149  -6912630.72447  22928109.723    22928108.2694   22928115.9004
       197.0004        197.0004
  -7718649.36448  -5986370.01446  22834391.970    22834392.7684   22834397.0274
       176.0004        177.0004
  -4653884.34747  -3605318.58045  23639311.760    23639311.7264   23639318.8934
       154.0004        157.0004
 -13396745.86848 -10420564.82747  21894390.668    21894391.6434   21894398.5084
       194.0004        194.0004
 -21027541.19749 -16372682.42547  20807174.934    20807175.0784   20807179.1234
       207.0004        208.0004
 -20470590.63749 -15937519.68947  21107081.514    21107082.1574   21107089.5984
       198.0004        198.0004
 -14698681.73648 -11438223.01646  21957385.165    21957384.1814   21957389.1664
       184.0004        184.0004
 21  2  5  2 12 30.0000000  0 10G30G14G28G08G17G04G09G07G01G21
 -12032377.21448  -9341974.28547  22254127.098    22254128.0134   22254133.9404
       187.0004        188.0004
  -2877208.63647  -2234470.16845  23194163.679    23194163.8314   23194169.6024
       162.0004        162.0004
  -2240299.20647  -1739869.82645  23601503.386    23601502.7944   23601506.8534
       155.0004        157.0004
  -8798021.84549  -6839188.41047  22946044.113    22946043.4884   22946051.2854
       197.0004        197.0004
  -7788445.44648  -6040756.55646  22821108.708    22821109.6804   22821113.8114
       175.0004        173.0004
  -4555924.57647  -3528986.29745  23657951.969    23657952.4434   23657958.5344
       153.0004        154.0004
 -13328233.75048 -10367178.77047  21907427.918    21907428.0674   21907436.1034
       192.0004        192.0004
 -21080978.66549 -16414322.03547  20797006.270    20797006.4364   20797010.4714
       207.0004        208.0004
 -20514193.40749 -15971495.87047  21098784.568    21098784.5684   21098792.1034
       198.0004        198.0004
 -14668350.42248 -11414588.23546  21963156.425    21963156.0134   21963160.5634
       183.0004        183.0004
 21  2  5  2 13  0.0000000  0 10G30G14G28G08G17G04G09G07G01G21
 -12116206.78948  -9407296.01447  22238174.789    22238174.9114   22238181.4974
       188.0004        188.0004
  -2903180.75547  -2254708.16045  23189220.646    23189221.6354   23189228.3974
       160.0004        161.0004
  -2255430.34647  -1751660.30345  23598623.465    23598622.9424   23598628.1254
       154.0004        155.0004
  -8703713.62249  -6765701.49247  22963989.407    22963989.7204   22963997.5374
       197.0004        198.0004
  -7857864.68148  -6094849.42746  22807900.475    22807900.5834   22807905.1824
       173.0004        175.0004
  -4457984.94847  -3452669.71445  23676589.933    23676590.4264   23676595.5204
       152.0004        154.0004
 -13259464.12748 -10313592.05347  21920513.614    21920514.4404   21920522.4204
       191.0004        191.0004
 -21134068.01949 -16455690.36347  20786903.878    20786903.8784   20786908.2404
       208.0004        208.0004
 -20557334.42649 -16005112.24447  21090574.310    21090575.0814   21090582.0764
       198.0004        198.0004
 -14637526.72748 -11390569.75646  21969022.248    21969021.5954   21969026.1154
       183.0004        184.0004
 21  2  5  2 13 30.0000000  0 10G30G14G28G08G17G04G09G07G01G21
 -12199900.95148  -9472512.25047  22222248.132    22222248.4894   22222256.3964
       189.0004        190.0004
  -2929182.97547  -2274969.65545  23184274.208    23184274.3444   23184279.4064
       160.0004        161.0004
  -2270590.24547  -1763473.21345  23595737.669    23595737.8124   23595743.4544
       153.0004        155.0004
  -8609351.12649  -6692172.29247  22981947.022    22981946.2394   22981953.6464
       196.0004        196.0004
  -7926906.09248  -6148647.92346  22794761.113    22794761.8114   22794765.5414
       172.0004        173.0004
  -4360068.66947  -3376371.34145  23695222.491    23695223.9294   23695228.3014
       153.0004        157.0004
 -13190440.53948 -10259807.46147  21933649.178    21933649.0554   21933656.6314
       190.0004        191.0004
 -21186807.09449 -16496785.75247  20776867.087    20776867.4334   20776872.1034
       208.0004        208.0004
 -20600011.55849 -16038367.14847  21082453.014    21082453.8574   21082460.8354
       197.0004        197.0004
 -14606211.08848 -11366167.95746  21974981.173    21974981.0824   21974984.5284
       183.0004        182.0004
 21  2  5  2 14  0.0000000  0 10G30G14G28G08G17G04G09G07G01G21
 -12283457.62948  -9537621.33247  22206348.148    22206347.5714   22206355.4184
       189.0004        189.0004
  -2955216.69647  -2295255.69146  23179320.180    23179321.1044   23179326.4874
       161.0004        164.0004
  -2285780.53247  -1775309.79545  23592848.693    23592847.0544   23592851.8984
       153.0004        155.0004
  -8514937.24749  -6618603.04647  22999911.814    22999911.7764   22999920.6244
       196.0004        196.0004
  -7995569.19248  -6202151.62446  22781694.425    22781695.8744   22781700.5134
       173.0004        174.0004
  -4262178.79347  -3300093.53245  23713850.588    23713851.0504   23713856.4014
       155.0004        158.0004
 -13121166.42448 -10205827.61247  21946831.375    21946831.6394   21946839.4734
       191.0004        193.0004
 -21239193.53249 -16537606.34447  20766898.551    20766899.0814   20766903.3734
       208.0004        209.0004
 -20642222.61649 -16071258.86747  21074419.690    21074420.1194   21074428.3774
       196.0004        196.0004
 -14574404.37748 -11341383.48746  21981033.860    21981033.3014   21981038.0704
       182.0004        183.0004
 21  2  5  2 14 30.0000000  0 10G30G14G28G08G17G04G09G07G01G21
 -12366873.57348  -9602620.75747  22190474.486    22190474.3124   22190481.2604
       188.0004        188.0004
  -2981282.10047  -2315566.38546  23174360.208    23174360.5944   23174365.0474
       163.0004        165.0004
  -2301002.24047  -1787170.85045  23589952.137    23589951.4774   23589954.7144
       153.0004        156.0004
  -8420473.89449  -6544995.24047  23017887.315    23017887.6344   23017896.5244
       196.0004        196.0004
  -8063851.88348  -6255358.88046  22768701.861    22768702.3024   22768705.0504
       172.0004        172.0004
  -4164317.30847  -3223837.84245  23732471.457    23732472.8924   23732479.2714
       156.0004        159.0004
 -13051644.07648 -10151654.35447  21960062.376    21960062.7634   21960069.6414
       194.0004        196.0004
 -21291224.10249 -16578149.64247  20756997.777    20756998.0294   20757002.1604
       208.0004        208.0004
 -20683964.18849 -16103784.76447  21066476.886    21066477.8604   21066485.4754
       196.0004        197.0004
 -14542106.77948 -11316216.51446  21987180.386    21987179.6614   21987184.5794
       183.0004        183.0004
 21  2  5  2 15  0.0000000  0 10G30G14G28G08G17G04G09G07G01G21
 -12450146.45748  -9667508.72646  22174627.852    22174627.8314   22174634.3294
       187.0004        187.0004
  -3007380.32848  -2335902.65646  23169393.320    23169394.0724   23169399.0864
       165.0004        167.0004
  -2316256.71147  -1799057.46645  23587048.445    23587047.7564   23587052.2574
       152.0004        153.0004
  -8325963.43149  -6471350.74247  23035872.537    23035872.3694   23035880.9404
       195.0004        196.0004
  -8131753.76248  -6308269.40046  22755780.320    22755780.3314   22755784.3744
       172.0004        175.0004
  -4066487.08047  -3147606.52445  23751089.631    23751089.1064   23751096.5314
       157.0004        159.0004
 -12981876.76549 -10097290.20947  21973339.858    21973339.9014   21973345.5094
       196.0004        197.0004
 -21342896.11049 -16618413.54047  20747164.725    20747165.2724   20747169.2484
       208.0004        208.0004
 -20725233.95749 -16135943.01647  21058624.380    21058624.5294   21058632.1414
       196.0004        196.0004
 -14509318.56848 -11290667.25846  21993419.782    21993418.6584   21993422.6994
       183.0004        183.0004
 21  2  5  2 15 30.0000000  0 10G30G14G28G08G17G04G09G07G01G21
 -12533273.54148  -9732283.07347  22158808.845    22158809.4234   22158816.8034
       188.0004        189.0004
  -3033512.11348  -2356265.06346  23164422.702    23164423.4254   23164426.3054
       168.0004        170.0004
  -2331545.61447  -1810970.89945  23584137.281    23584136.4544   23584142.3344
       148.0004        149.0004
  -8231408.72549  -6397671.75847  23053867.047    23053866.3114   23053873.4004
       196.0004        196.0004
  -8199273.48948  -6360882.15546  22742930.497    22742931.4894   22742934.9134
       172.0004        172.0004
  -3968690.57947  -3071401.48645  23769698.474    23769699.2284   23769706.1954
       156.0004        157.0004
 -12911867.29049 -10042737.36747  21986662.057    21986662.2214   21986667.6494
       196.0004        197.0004
 -21394206.53849 -16658395.70047  20737401.353    20737401.4324   20737405.0284
       208.0004        209.0004
 -20766029.18849 -16167731.50247  21050860.887    21050861.4274   21050869.1184
       196.0004        196.0004
 -14476039.87148 -11264735.79446  21999752.368    21999752.3764   21999755.8234
       183.0004        183.0004
 21  2  5  2 16  0.0000000  0 10G30G14G28G08G17G04G09G07G01G21
 -12616252.57248  -9796942.03147  22143018.900    22143019.5184   22143026.4124
       188.0004        188.0004
  -3059678.64548  -2376654.53546  23159443.955    23159444.4494   23159446.6264
       170.0004        170.0004
  -2346870.29247  -1822912.20345  23581223.128    23581223.6794   23581228.0074
       147.0004        152.0004
  -8136812.01349  -6323960.04347  23071866.666    23071866.6484   23071874.7314
       196.0004        195.0004
  -8266409.94548  -6413196.27246  22730155.929    22730155.8454   22730160.0394
       171.0004        172.0004
  -3870930.69147  -2995224.95745  23788302.493    23788301.9484   23788308.9664
       154.0004        155.0004
 -12841618.93749  -9987998.37947  22000029.285    22000029.8454   22000035.5494
       197.0004        198.0004
 -21445153.10549 -16698094.32347  20727705.641    20727706.1784   20727710.6794
       208.0004        208.0004
 -20806347.56349 -16199148.39747  21043188.665    21043189.0124   21043196.7834
       196.0004        196.0004
 -14442271.75148 -11238422.96346  22006178.051    22006177.6684   22006182.4164
       183.0004        183.0004
 21  2  5  2 16 30.0000000  0 10G30G14G28G08G17G04G09G07G01G21
 -12699081.89748  -9861484.35547  22127258.420    22127258.1834   22127264.0304
       189.0004        190.0004
  -3085881.71248  -2397072.46846  23154456.243    23154456.2944   23154460.9054
       168.0004        167.0004
  -2362233.21047  -1834883.30245  23578298.517    23578297.7904   23578303.8894
       148.0004        150.0004
  -8042176.96149  -6250218.44347  23089874.523    23089874.7594   23089883.7404
       195.0004        195.0004
  -8333163.53948  -6465212.03046  22717453.870    22717454.7654   22717456.7924
       173.0004        175.0004
  -3773211.01847  -2919079.76945  23806896.569    23806898.3744   23806903.7834
       151.0004        153.0004
 -12771135.63149  -9933076.31747  22013442.485    22013442.3354   22013448.3384
       198.0004        198.0004
 -21495734.33449 -16737508.26747  20718081.106    20718081.4374   20718085.2744
       208.0004        209.0004
 -20846187.41849 -16230192.43647  21035606.084    21035607.6964   21035614.6164
       195.0004        195.0004
 -14408015.68348 -11211729.92246  22012696.780    22012696.0994   22012700.1044
       184.0004        185.0004
 21  2  5  2 17  0.0000000  0 10G30G14G28G08G17G04G09G07G01G21
 -12781756.84548  -9925906.39947  22111524.549    22111524.8274   22111531.6084
       188.0004        188.0004
  -3112120.01347  -2417517.89545  23149460.078    23149460.6164   23149467.1634
       163.0004        162.0004
  -2377633.16647  -1846883.28445  23575367.111    23575367.9824   23575372.0854
       144.0004        145.0004
  -7947503.93049  -6176447.25247  23107890.143    23107890.1654   23107899.8114
       195.0004        195.0004
  -8399530.89948  -6516926.84946  22704824.060    22704823.4444   22704827.5834
       173.0004        173.0004
  -3675531.95647  -2842966.22445  23825484.412    23825485.5894   23825491.3924
       153.0004        156.0004
 -12700418.29949  -9877971.89747  22026898.321    22026898.3034   22026905.0074
       196.0004        194.0004
 -21545945.31549 -16776633.70547  20708526.029    20708526.3314   20708530.2944
       209.0004        209.0004
 -20885544.14249 -16260860.01047  21028118.064    21028118.0134   21028125.8994
       195.0004        196.0004
 -14373269.65048 -11184655.08046  22019308.472    22019307.8994   22019312.7614
       183.0004        183.0004
 21  2  5  2 17 30.0000000  0 10G30G14G28G08G17G04G09G07G01G21
 -12864274.91948  -9990206.18847  22095820.557    22095821.1964   22095829.5754
       188.0004        188.0004
  -3138394.48747  -2437991.55545  23144459.574    23144460.5334   23144467.8804
       159.0004        159.0004
  -2393071.79047  -1858913.33745  23572431.135    23572430.9114   23572433.8184
       143.0004        148.0004
  -7852794.97549  -6102648.09147  23125913.995    23125913.7274   23125921.6864
       195.0004        196.0004
  -8465511.17948  -6568340.03646  22692268.460    22692268.6584   22692272.0714
       172.0004        173.0004
  -3577896.26247  -2766886.49545  23844065.995    23844066.2774   23844072.2134
       155.0004        158.0004
 -12629470.00348  -9822687.50647  22040398.624    22040399.0654   22040406.9004
       194.0004        193.0004
 -21595783.28049 -16815468.48647  20699041.975    20699042.3804   20699046.5334
       209.0004        210.0004
 -20924415.29949 -16291149.20447  21020719.481    21020720.7144   21020729.6224
       195.0004        196.0004
 -14338034.83648 -11157199.37946  22026014.087    22026013.2884   22026017.8154
       183.0004        184.0004
 21  2  5  2 18  0.0000000  0 10G30G14G28G08G17G04G09G07G01G21
 -12946635.60548 -10054383.33947  22080148.825    22080149.5434   22080156.5254
       188.0004        188.0004
  -3164708.10247  -2458495.65346  23139456.830    23139456.6904   23139461.6274
       160.0004        164.0004
  -2408552.51447  -1870976.25145  23569485.925    23569484.8624   23569489.3704
       147.0004        153.0004
  -7758054.87649  -6028824.64047  23143940.945    23143942.0994   23143951.0524
       196.0004        197.0004
  -8531105.33348  -6619452.33846  22679784.625    22679786.6644   22679790.7394
       172.0004        174.0004
  -3480308.50247  -2690844.10845  23862636.102    23862636.1104   23862642.5404
       156.0004        158.0004
 -12558295.73248  -9767227.03347  22053941.876    22053942.4974   22053950.6234
       192.0004        192.0004
 -21645247.85949 -16854012.30647  20689629.182    20689629.7694   20689633.6334
       209.0004        209.0004
 -20962800.34549 -16321059.62047  21013415.398    21013416.7254   21013424.4924
       195.0004        196.0004
 -14302313.54348 -11129364.58446  22032810.878    22032810.2404   22032814.8344
       183.0004        182.0004
 21  2  5  2 18 30.0000000  0 10G30G14G28G08G17G04G09G07G01G21
 -13028836.23948 -10118435.78047  22064507.910    22064507.4784   22064514.3964
       188.0004        189.0004
  -3191061.76948  -2479030.96146  23134442.967    23134442.3744   23134445.4574
       166.0004        168.0004
  -2424076.76647  -1883073.07245  23566531.550    23566530.8744   23566534.8184
       150.0004        154.0004
  -7663286.03149  -5954978.80047  23161976.129    23161975.4744   23161984.6914
       195.0004        195.0004
  -8596312.62948  -6670263.23846  22667377.857    22667377.6524   22667381.8964
       174.0004        174.0004
  -3382771.36647  -2614841.18445  23881195.480    23881196.7964   23881203.1954
       154.0004        155.0004
 -12486898.67748  -9711592.98247  22067527.412    22067528.5644   22067536.5714
       191.0004        191.0004
 -21694336.21649 -16892262.99047  20680288.091    20680288.5794   20680292.4174
       209.0004        210.0004
 -21000696.94049 -16350589.42947  21006205.496    21006205.8104   21006213.0044
       196.0004        196.0004
 -14266105.85948 -11101150.81046  22039699.498    22039700.4264   22039705.1154
       182.0004        182.0004
 21  2  5  2 19  0.0000000  0 10G30G14G28G08G17G04G09G07G01G21
 -13110873.12548 -10182360.62147  22048897.057    22048896.5994   22048902.9464
       189.0004        190.0004
  -3217455.13548  -2499597.21846  23129418.941    23129419.1734   23129423.4834
       167.0004        167.0004
  -2439644.49947  -1895203.79045  23563567.826    23563567.6454   23563572.9544
       152.0004        155.0004
  -7568489.78649  -5881111.60047  23180015.444    23180015.9174   23180023.8894
       195.0004        196.0004
  -8661130.94648  -6720770.98746  22655042.755    22655043.0594   22655047.7654
       175.0004        177.0004
  -3285286.28147  -2538878.79345  23899745.982    23899747.5604   23899753.9524
       153.0004        154.0004
 -12415280.64348  -9655786.72647  22081158.166    22081158.7754   22081165.1244
       191.0004        192.0004
 -21743044.81349 -16930217.73547  20671019.043    20671019.3094   20671023.6294
       209.0004        210.0004
 -21038101.42249 -16379735.76747  20999087.006    20999087.8044   20999094.8664
       196.0004        197.0004
 -14229412.00448 -11072558.18246  22046684.105    22046683.4914   22046687.8554
       182.0004        183.0004
 21  2  5  2 19 30.0000000  0 10G30G14G28G08G17G04G09G07G01G21
 -13192744.00048 -10246156.12647  22033316.219    22033317.4404   22033323.2664
       189.0004        188.0004
  -3243889.33748  -2520195.29446  23124386.183    23124388.2334   23124392.9934
       165.0004        165.0004
  -2455257.59747  -1907369.83645  23560597.615    23560597.0554   23560601.6754
       150.0004        152.0004
  -7473668.63348  -5807224.99547  23198059.803    23198059.7814   23198067.6194
       194.0004        194.0004
  -8725559.33648  -6770974.94346  22642782.746    22642783.0334   22642788.3164
       177.0004        178.0004
  -3187856.09547  -2462959.20445  23918288.138    23918287.6924   23918294.3354
       151.0004        153.0004
 -12343444.96648  -9599810.88347  22094828.442    22094828.4734   22094835.0934
       192.0004        193.0004
 -21791371.10049 -16967874.58847  20661823.045    20661823.4444   20661827.3944
       209.0004        210.0004
 -21075011.68249 -16408496.99747  20992063.639    20992063.9534   20992071.5864
       196.0004        197.0004
 -14192232.95248 -11043587.48846  22053759.432    22053759.0284   22053763.1174
       183.0004        183.0004
 21  2  5  2 20  0.0000000  0 10G30G14G28G08G17G04G09G07G01G21
 -13274445.60848 -10309819.70746  22017768.702    22017769.4134   22017776.3564
       187.0004        187.0004
  -3270364.48947  -2540825.27446  23119349.116    23119349.4284   23119354.6224
       164.0004        165.0004
  -2470916.47747  -1919571.53745  23557618.148    23557617.0854   23557620.9334
       149.0004        152.0004
  -7378824.44648  -5733320.45847  23216109.205    23216108.7634   23216115.6964
       194.0004        194.0004
  -8789596.88148  -6820874.30846  22630595.712    22630597.3574   22630600.7904
       176.0004        176.0004
  -3090482.69547  -2387083.85345  23936816.020    23936817.7874   23936823.4924
       149.0004        151.0004
 -12271394.04548  -9543667.30547  22108539.529    22108539.8204   22108546.3704
       193.0004        194.0004
 -21839312.02949 -17005231.16047  20652699.720    20652700.2154   20652704.2204
       209.0004        210.0004
 -21111424.66749 -16436870.74847  20985134.905    20985135.4474   20985142.4104
       197.0004        198.0004
 -14154568.58648 -11014238.63046  22060925.725    22060925.6994   22060929.9604
       182.0004        182.0004
 21  2  5  2 20 30.0000000  0 10G30G14G28G08G17G04G09G07G01G21
 -13355975.90948 -10373349.79847  22002254.443    22002254.4234   22002261.3894
       188.0004        189.0004
  -3296882.10047  -2561488.32646  23114302.833    23114303.6914   23114309.2104
       163.0004        164.0004
  -2486623.15647  -1931810.49645  23554627.656    23554627.3374   23554631.7664
       147.0004        150.0004
  -7283960.15548  -5659400.23647  23234159.048    23234159.3494   23234167.0754
       193.0004        192.0004
  -8853243.01548  -6870468.67846  22618483.962    22618485.2914   22618489.1984
       176.0004        177.0004
  -2993169.22247  -2311255.18245  23955334.825    23955335.9554   23955340.9654
       147.0004        150.0004
 -12199131.42348  -9487358.78147  22122289.308    22122289.8034   22122296.6394
       192.0004        191.0004
 -21886865.02349 -17042285.42047  20643650.818    20643651.2514   20643655.2934
       209.0004        210.0004
 -21147338.46949 -16464855.51247  20978299.938    20978300.2824   20978308.4374
       198.0004        198.0004
 -14116419.44648 -10984512.02146  22068184.996    22068184.6984   22068189.8824
       182.0004        182.0004
 21  2  5  2 21  0.0000000  0 10G30G14G28G08G17G04G09G07G01G21
 -13437331.54348 -10436743.79647  21986772.482    21986772.8754   21986780.2074
       188.0004        190.0004
  -3323442.22947  -2582184.53245  23109247.835    23109248.4304   23109254.4164
       160.0004        160.0004
  -2502378.20847  -1944087.16645  23551630.922    23551630.1854   23551634.5294
       147.0004        151.0004
  -7189077.13048  -5585465.41347  23252213.493    23252213.8824   23252223.2234
       192.0004        192.0004
  -8916496.15048  -6919756.82246  22606449.347    22606448.9094   22606453.9114
       177.0004        179.0004
  -2895917.52647  -2235474.63545  23973841.807    23973842.2244   23973846.6924
       147.0004        150.0004
 -12126659.43948  -9430887.12047  22136080.225    22136080.4134   22136088.6204
       190.0004        190.0004
 -21934027.20249 -17079035.17847  20634676.401    20634676.7894   20634680.5364
       209.0004        210.0004
 -21182750.05249 -16492448.94847  20971560.337    20971561.6614   20971569.6714
       198.0004        198.0004
 -14077785.89648 -10954407.94046  22075536.930    22075537.0544   22075541.8074
       182.0004        182.0004
 21  2  5  2 21 30.0000000  0 10G30G14G28G08G17G04G09G07G01G21
 -13518509.58448 -10499999.40447  21971325.180    21971325.5564   21971332.4774
       189.0004        191.0004
  -3350045.35547  -2602914.22145  23104185.426    23104186.3494   23104192.5054
       160.0004        162.0004
  -2518182.57847  -1956402.23645  23548623.694    23548623.0504   23548627.4314
       148.0004        151.0004
  -7094177.76948  -5511517.86147  23270272.008    23270272.7704   23270281.8644
       191.0004        191.0004
  -8979355.19848  -6968737.86646  22594486.621    22594486.9584   22594491.9704
       177.0004        177.0004
  -2798729.82547  -2159743.96945  23992335.694    23992336.2244   23992343.5194
       146.0004        149.0004
 -12053980.78248  -9374254.39147  22149910.208    22149910.9594   22149918.8494
       190.0004        191.0004
 -21980795.70949 -17115478.16647  20625776.897    20625777.1564   20625781.1194
       210.0004        211.0004
 -21217656.73449 -16519648.94947  20964918.252    20964919.2654   20964926.4724
       198.0004        198.0004
 -14038669.21648 -10923927.39946  22082980.885    22082980.5904   22082985.7504
       182.0004        182.0004
 21  2  5  2 22  0.0000000  0 11G30G14G28G08G17G04G09G07G01G21G22
 -13599508.21048 -10563115.21347  21955911.843    21955911.2224   21955919.1004
       191.0004        191.0004
  -3376692.97447  -2623678.62846  23099116.603    23099117.0634   23099121.2344
       163.0004        167.0004
  -2534038.21147  -1968757.28245  23545605.282    23545605.1844   23545610.0434
       150.0004        153.0004
  -6999264.97648  -5437559.83647  23288332.628    23288333.2244   23288343.9574
       191.0004        190.0004
  -9041820.11548  -7017411.81546  22582599.362    22582600.0434   22582604.1914
       176.0004        177.0004
  -2701609.37047  -2084065.74545  24010816.947    24010817.7704   24010825.1644
       146.0004        149.0004
 -11981099.29648  -9317463.62847  22163779.832    22163780.2304   22163787.1274
       190.0004        190.0004
 -22027168.61449 -17151612.90047  20616952.212    20616952.6244   20616956.4854
       210.0004        210.0004
 -21252056.95849 -16546454.30947  20958372.837    20958373.2444   20958380.3614
       198.0004        198.0004
 -13999070.25848 -10893071.06046  22090516.907    22090516.0274   22090520.3074
       182.0004        182.0004
  -2036359.12754  -1575522.84743                                  24578536.5404
        74.0004         78.0004
 21  2  5  2 22 30.0000000  0 10G30G14G28G08G17G04G09G07G01G21
 -13680324.42448 -10626088.87847  21940532.666    21940532.5274   21940540.2204
       190.0004        191.0004
  -3403385.60847  -2644478.07346  23094036.609    23094036.6024   23094041.8994
       164.0004        166.0004
  -2549945.95547  -1981152.91645  23542578.072    23542578.5234   23542582.0774
       151.0004        154.0004
  -6904340.76248  -5363592.94047  23306395.929    23306397.6564   23306406.6314
       189.0004        189.0004
  -9103889.76748  -7065777.76846  22570788.482    22570788.7984   22570792.8564
       177.0004        178.0004
  -2604558.35047  -2008441.62345  24029284.635    24029285.4404   24029291.6684
       145.0004        149.0004
 -11908017.58348  -9260516.84647  22177686.489    22177687.1284   22177693.7574
       189.0004        189.0004
 -22073142.77649 -17187436.93247  20608203.102    20608203.6814   20608207.8524
       210.0004        210.0004
 -21285947.98349 -16572862.89347  20951923.587    20951924.2374   20951931.6264
       198.0004        199.0004
 -13958989.20548 -10861839.07246  22098143.572    22098142.8654   22098147.6434
       181.0004        181.0004
 21  2  5  2 23  0.0000000  0 10G30G14G28G08G17G04G09G07G01G21
 -13760956.23548 -10688918.86647  21925188.390    21925188.8364   21925196.0614
       191.0004        192.0004
  -3430124.62447  -2665313.66546  23088947.077    23088948.6734   23088953.3324
       164.0004        166.0004
  -2565907.76447  -1993590.68645  23539541.312    23539541.1974   23539546.1684
       152.0004        156.0004
  -6809408.33248  -5289619.61147  23324464.443    23324463.8254   23324471.9314
       189.0004        189.0004
  -9165563.67148  -7113835.35346  22559052.675    22559052.7664   22559057.8444
       178.0004        180.0004
  -2507579.93547  -1932874.04845  24047739.458    24047740.7944   24047746.0694
       145.0004        148.0004
 -11834739.34948  -9203416.93447  22191631.396    22191631.6014   22191638.4074
       189.0004        189.0004
 -22118716.52749 -17222948.95247  20599530.675    20599531.4074   20599535.5584
       210.0004        210.0004
 -21319328.23149 -16598873.47747  20945571.203    20945571.8104   20945579.4104
       199.0004        199.0004
 -13918427.57148 -10830232.59946  22105861.721    22105861.9324   22105866.0044
       181.0004        182.0004
 21  2  5  2 23 30.0000000  0 10G30G14G28G08G17G04G09G07G01G21
 -13841401.93148 -10751603.82847  21909881.073    21909881.6074   21909888.0624
       191.0004        192.0004
  -3456911.84547  -2686186.79646  23083850.018    23083850.6414   23083856.3364
       164.0004        165.0004
  -2581925.97047  -2006072.38745  23536493.777    23536493.4164   23536498.1594
       152.0004        153.0004
  -6714470.51348  -5215642.12247  23342532.248    23342530.5344   23342538.3084
       188.0004        188.0004
  -9226842.22948  -7161584.86146  22547391.432    22547392.4314   22547396.9284
       179.0004        182.0004
  -2410677.55547  -1857365.72845  24066182.089    24066181.8674   24066185.8654
       144.0004        148.0004
 -11761268.52748  -9146166.94147  22205612.907    22205613.5984   22205620.0764
       189.0004        190.0004
 -22163888.04149 -17258147.53447  20590934.756    20590935.2514   20590939.8264
       210.0004        210.0004
 -21352196.31449 -16624484.96647  20939317.104    20939317.5224   20939324.9894
       199.0004        200.0004
 -13877386.86148 -10798252.81046  22113672.641    22113672.1574   22113676.0514
       181.0004        181.0004
