     2.11           OBSERVATION DATA    G (GPS)             RINEX VERSION / TYPE
teqc  2018Jun8                          20210202 03:10:34UTCPGM / RUN BY / DATE
Linux2.6.32-573.12.1.el6.x86_64|x86_64|gcc|Win64-MinGW64|=+ COMMENT
BIT 2 OF LLI FLAGS DATA COLLECTED UNDER A/S CONDITION       COMMENT
-Unknown-                                                   MARKER NAME
CRNO                                                        MARKER NUMBER
-Unknown-           -Unknown-                               OBSERVER / AGENCY
-Unknown-           ASHTECH             -Unknown-           REC # / TYPE / VERS
-Unknown-           -Unknown-                               ANT # / TYPE
   408078.8105 -6158373.1371  1605163.8392                  APPROX POSITION XYZ
        0.0000        0.0000        0.0000                  ANTENNA: DELTA H/E/N
     1     1                                                WAVELENGTH FACT L1/2
     7    L1    L2    C1    P1    P2    S1    S2            # / TYPES OF OBSERV
    30.0000                                                 INTERVAL
Forced Modulo Decimation to 30 seconds                      COMMENT
 SNR is mapped to RINEX snr flag value [1-9]                COMMENT
  L1: 1 -> 1;  90 -> 5; 210 -> 9                            COMMENT
  L2: 1 -> 1; 150 -> 5; 250 -> 9                            COMMENT
pseudorange smoothing corrections not applied               COMMENT
  2021     2     3     0     0   30.0000000     GPS         TIME OF FIRST OBS
                                                            END OF HEADER
 21  2  3  0  0 30.0000000  0  9G03G16G07G08G22G27G21G04G09
  -3027394.14948  -2338694.83146  23606969.475    23606970.2764   23606976.5814
       174.0004        180.0004
  -5774718.77647  -4476317.12245  23451896.400    23451896.1704   23451901.0594
       144.0004        147.0004
  -1481768.94247  -1119289.15745  24494703.584    24494703.6104   24494708.1104
       150.0004        153.0004
 -24152812.55549 -18779443.72847  20208203.557    20208204.0174   20208211.7274
       211.0004        212.0004
  -3042562.19547  -2343393.12445  24348245.995    24348244.9184   24348253.1894
       148.0004        150.0004
 -19399633.42249 -15076431.35747  21150637.167    21150637.5984   21150644.4254
       201.0004        201.0004
  -6063500.30047  -4712203.68045  23252210.854    23252210.3514   23252218.3074
       143.0004        148.0004
 -22153487.79249 -16963784.00848  20219485.403    20219485.5684   20219490.8434
       217.0004        215.0004
 -14938928.51749 -11611028.57947  21619065.888    21619066.1724   21619073.2384
       196.0004        196.0004
 21  2  3  0  1  0.0000000  0  9G03G16G07G08G22G27G21G04G09
  -2963495.77548  -2288903.89346  23619128.307    23619128.7034   23619135.3734
       177.0004        177.0004
  -5689604.19047  -4409994.06945  23468093.831    23468093.5884   23468098.1844
       144.0004        147.0004
  -1542151.46947  -1166340.43645  24483212.422    24483213.0964   24483218.5654
       153.0004        157.0004
 -24172494.98949 -18794780.67747  20204457.917    20204458.2124   20204465.9734
       211.0004        212.0004
  -2987995.03547  -2300873.48545  24358629.093    24358628.6534   24358635.9394
       145.0004        148.0004
 -19347484.11249 -15035795.51447  21160561.187    21160561.3484   21160567.9264
       201.0004        201.0004
  -6115069.30647  -4752387.23345  23242396.869    23242397.1884   23242405.1704
       144.0004        148.0004
 -22152850.02849 -16963287.05648  20219606.220    20219606.8674   20219612.4114
       217.0004        216.0004
 -15004986.31249 -11662502.16747  21606494.399    21606495.0174   21606502.8904
       196.0004        196.0004
 21  2  3  0  1 30.0000000  0  9G03G16G07G08G22G27G21G04G09
  -2899660.93048  -2239162.45046  23631274.229    23631274.7584   23631282.4514
       181.0004        185.0004
  -5604568.23747  -4343732.26745  23484274.119    23484275.2224   23484280.0224
       143.0004        146.0004
  -1602702.11747  -1213522.68145  24471690.840    24471690.6524   24471696.0264
       155.0004        159.0004
 -24191576.81849 -18809649.59947  20200826.550    20200827.2974   20200834.7254
       211.0004        212.0004
  -2933619.12947  -2258502.85545  24368976.301    24368975.5094   24368984.8164
       145.0004        149.0004
 -19294785.98649 -14994732.01447  21170589.856    21170589.6064   21170596.4024
       200.0004        200.0004
  -6166674.83747  -4792599.22845  23232576.716    23232576.2884   23232584.0844
       144.0004        148.0004
 -22151639.55049 -16962343.81048  20219837.137    20219837.2764   20219842.6174
       217.0004        215.0004
 -15070620.10449 -11713645.34647  21594006.706    21594006.1134   21594012.9654
       196.0004        197.0004
 21  2  3  0  2  0.0000000  0  9G03G16G07G08G22G27G21G04G09
  -2835894.25448  -2189474.18546  23643407.120    23643408.4924   23643417.2624
       183.0004        185.0004
  -5519614.71347  -4277534.67745  23500439.447    23500440.3084   23500446.5564
       142.0004        146.0004
  -1663422.03147  -1260836.84445  24460135.628    24460136.1434   24460141.5174
       157.0004        160.0004
 -24210059.22249 -18824051.46347  20197310.173    20197310.2324   20197317.5064
       211.0004        212.0004
  -2879437.71447  -2216283.80045  24379286.736    24379286.3214   24379295.1164
       145.0004        149.0004
 -19241543.09349 -14953244.04147  21180720.650    21180721.3674   21180727.4934
       200.0004        200.0004
  -6218315.97147  -4832838.97545  23222751.032    23222749.9424   23222756.4194
       146.0004        149.0004
 -22149858.11749 -16960955.69048  20220175.673    20220176.0464   20220181.8594
       217.0004        215.0004
 -15135829.69749 -11764458.01047  21581595.858    21581596.7314   21581603.7304
       196.0004        196.0004
 21  2  3  0  2 30.0000000  0  9G03G16G07G08G22G27G21G04G09
  -2772195.96048  -2139839.17946  23655529.507    23655530.5814   23655539.4104
       185.0004        187.0004
  -5434742.83147  -4211400.75645  23516592.740    23516592.8134   23516595.3204
       141.0004        145.0004
  -1724308.49047  -1308280.78145  24448549.703    24448549.7504   24448553.8344
       157.0004        159.0004
 -24227939.18149 -18837983.87047  20193906.964    20193907.5754   20193915.5184
       211.0004        212.0004
  -2825450.28947  -2174215.89745  24389561.307    24389561.3234   24389568.3534
       146.0004        150.0004
 -19187754.96649 -14911331.18647  21190956.694    21190956.8334   21190963.7074
       200.0004        201.0004
  -6269987.97747  -4873102.76645  23212917.329    23212917.0394   23212922.3364
       146.0004        149.0004
 -22147503.07449 -16959120.58848  20220623.388    20220623.8974   20220630.0984
       216.0004        215.0004
 -15200610.39249 -11814936.45347  21569269.081    21569269.3904   21569276.1204
       196.0004        196.0004
 21  2  3  0  3  0.0000000  0  9G03G16G07G08G22G27G21G04G09
  -2708570.67348  -2090261.04146  23667637.839    23667638.4194   23667647.3134
       187.0004        187.0004
  -5349956.24447  -4145333.29945  23532725.355    23532725.1214   23532729.8434
       141.0004        146.0004
  -1785363.51247  -1355856.06345  24436930.267    24436931.3304   24436935.7134
       157.0004        160.0004
 -24245218.13149 -18851447.96947  20190619.602    20190619.8894   20190627.0984
       212.0004        212.0004
  -2771660.81347  -2132302.27645  24399798.267    24399797.0384   24399803.5604
       147.0004        150.0004
 -19133425.75949 -14868996.72147  21201294.922    21201295.2764   21201302.0274
       200.0004        200.0004
  -6321691.26947  -4913390.94045  23203080.022    23203079.9864   23203084.1584
       147.0004        150.0004
 -22144576.30149 -16956839.97848  20221180.933    20221181.1754   20221186.9804
       216.0004        215.0004
 -15264962.03649 -11865080.57647  21557023.021    21557023.4754   21557030.7374
       196.0004        196.0004
 21  2  3  0  3 30.0000000  0  9G03G16G07G08G22G27G21G04G09
  -2645018.99948  -2040740.25046  23679730.563    23679730.9114   23679739.9254
       185.0004        184.0004
  -5265254.75947  -4079332.09945  23548843.658    23548845.8874   23548847.7784
       141.0004        144.0004
  -1846585.11547  -1403561.14745  24425279.932    24425280.3284   24425285.3304
       157.0004        160.0004
 -24261893.45649 -18864441.70547  20187446.252    20187446.3204   20187454.1374
       212.0004        212.0004
  -2718069.00147  -2090542.64245  24409995.787    24409995.9824   24410003.8344
       147.0004        151.0004
 -19078555.55949 -14826240.69547  21211735.646    21211736.0464   21211743.3054
       200.0004        200.0004
  -6373421.78447  -4953700.33145  23193235.088    23193234.0174   23193241.0834
       148.0004        152.0004
 -22141075.62749 -16954112.17248  20221846.770    20221847.1144   20221852.9604
       216.0004        215.0004
 -15328880.45649 -11914887.10647  21544859.403    21544859.9104   21544867.8774
       196.0004        197.0004
 21  2  3  0  4  0.0000000  0  9G03G16G07G08G22G27G21G04G09
  -2581544.18148  -1991279.37646  23691809.501    23691810.6164   23691818.6754
       184.0004        184.0004
  -5180640.54047  -4013398.93745  23564946.483    23564943.0464   23564950.5604
       139.0004        143.0004
  -1907973.50647  -1451396.21745  24413597.155    24413599.0484   24413604.3144
       158.0004        161.0004
 -24277965.13049 -18876965.06948  20184387.402    20184388.2074   20184395.9614
       212.0004        213.0004
  -2664676.72947  -2048938.51745  24420155.785    24420156.4784   24420162.8314
       147.0004        150.0004
 -19023147.19949 -14783065.32747  21222279.887    21222280.2064   21222286.9604
       199.0004        200.0004
  -6425176.80247  -4994028.79045  23183384.277    23183384.8204   23183393.3474
       149.0004        152.0004
 -22137001.65849 -16950937.64848  20222622.730    20222622.8954   20222628.3034
       216.0004        215.0004
 -15392364.19649 -11964354.93847  21532779.475    21532779.9494   21532786.9014
       197.0004        199.0004
 21  2  3  0  4 30.0000000  0  9G03G16G07G08G22G27G21G04G09
  -2518148.67648  -1941880.33946  23703875.316    23703875.1174   23703882.0664
       185.0004        186.0004
  -5096115.45147  -3947535.22745  23581029.736    23581029.3704   23581035.2424
       139.0004        144.0004
  -1969528.47847  -1499361.09845  24401883.925    24401885.1364   24401890.6224
       159.0004        161.0004
 -24293432.69249 -18889017.70347  20181444.573    20181444.5754   20181452.1604
       212.0004        212.0004
  -2611485.91947  -2007491.39045  24430277.876    24430276.3524   24430285.8264
       144.0004        148.0004
 -18967202.62949 -14739472.14747  21232926.113    21232926.3084   21232932.9574
       199.0004        200.0004
  -6476954.67547  -5034375.08345  23173531.770    23173532.6224   23173538.7124
       149.0004        152.0004
 -22132354.15349 -16947316.22648  20223506.615    20223507.1024   20223512.6964
       216.0004        215.0004
 -15455410.92449 -12013482.25247  21520782.646    21520782.8254   21520789.5954
       199.0004        199.0004
 21  2  3  0  5  0.0000000  0  9G03G16G07G08G22G27G21G04G09
  -2454834.92048  -1892544.94646  23715919.420    23715920.9364   23715931.3704
       184.0004        185.0004
  -5011680.96447  -3881742.11645  23597096.394    23597096.4704   23597102.2934
       139.0004        143.0004
  -2031249.38347  -1547455.24445  24390140.948    24390141.1334   24390145.2274
       160.0004        162.0004
 -24308295.45349 -18900599.06847  20178615.776    20178616.2504   20178623.6334
       211.0004        212.0004
  -2558497.94747  -1966202.30645  24440360.732    24440360.8694   24440369.2844
       144.0004        147.0004
 -18910723.90149 -14695462.73747  21243673.871    21243674.0044   21243680.7044
       199.0004        200.0004
  -6528752.66347  -5074737.05745  23163676.594    23163675.8314   23163681.5254
       151.0004        153.0004
 -22127132.85349 -16943247.68348  20224500.273    20224500.6764   20224506.2234
       216.0004        215.0004
 -15518018.33349 -12062267.23247  21508869.283    21508869.5214   21508875.5674
       199.0004        200.0004
 21  2  3  0  5 30.0000000  0  9G03G16G07G08G22G27G21G04G09
  -2391606.06848  -1843275.73646  23727954.628    23727955.6104   23727962.7654
       186.0004        187.0004
  -4927339.26547  -3816021.32245  23613149.287    23613148.0144   23613152.8114
       139.0004        144.0004
  -2093136.81147  -1595679.19145  24378363.240    24378363.6064   24378368.0454
       158.0004        158.0004
 -24322553.38149 -18911709.12047  20175902.117    20175902.7174   20175910.5494
       211.0004        212.0004
  -2505714.87447  -1925072.86645  24450407.847    24450405.5484   24450412.9764
       144.0004        149.0004
 -18853713.80949 -14651039.27747  21254521.853    21254522.3924   21254529.0214
       199.0004        199.0004
  -6580568.67547  -5115113.08645  23153817.264    23153815.7024   23153820.9484
       151.0004        154.0004
 -22121338.40449 -16938732.52148  20225603.127    20225603.4834   20225608.9594
       216.0004        215.0004
 -15580184.93649 -12110708.71747  21497039.570    21497039.4914   21497045.8554
       200.0004        200.0004
 21  2  3  0  6  0.0000000  0  9G03G16G07G08G22G27G21G04G09
  -2328463.81248  -1794073.96846  23739969.633    23739970.2994   23739979.2924
       186.0004        187.0004
  -4843091.13747  -3750373.43745  23629178.893    23629179.2644   23629184.2984
       139.0004        144.0004
  -2155189.47947  -1644031.87545  24366555.267    24366555.5724   24366559.1434
       156.0004        158.0004
 -24336205.47549 -18922347.09547  20173304.820    20173305.1564   20173313.0354
       212.0004        212.0004
  -2453138.03747  -1884104.12245  24460409.391    24460409.1984   24460419.2454
       144.0004        147.0004
 -18796173.71749 -14606202.81047  21265471.998    21265472.2174   21265478.7004
       199.0004        199.0004
  -6632400.01047  -5155501.03345  23143953.172    23143951.5964   23143958.8554
       152.0004        156.0004
 -22114969.91249 -16933770.05348  20226814.368    20226814.6794   20226820.7484
       216.0004        214.0004
 -15641907.74649 -12158804.40747  21485293.436    21485293.2344   21485300.4154
       200.0004        200.0004
 21  2  3  0  6 30.0000000  0  9G03G16G07G08G22G27G21G04G09
  -2265411.69348  -1744942.47646  23751967.969    23751968.4574   23751977.0644
       186.0004        187.0004
  -4758939.11547  -3684800.43745  23645194.126    23645193.8204   23645196.7024
       140.0004        144.0004
  -2217408.08547  -1692513.87145  24354716.125    24354715.4504   24354719.5794
       157.0004        160.0004
 -24349251.95349 -18932513.15947  20170821.781    20170822.5424   20170830.4094
       212.0004        212.0004
  -2400769.61347  -1843297.78145  24470375.626    24470376.2834   24470384.7174
       143.0004        146.0004
 -18738106.81349 -14560955.85047  21276521.872    21276521.8054   21276528.5504
       199.0004        200.0004
  -6684245.24647  -5195899.80145  23134086.113    23134085.6804   23134091.9074
       153.0004        156.0004
 -22108028.38349 -16928361.06248  20228135.593    20228136.1474   20228141.6734
       216.0004        214.0004
 -15703185.67549 -12206553.43347  21473631.992    21473632.6754   21473639.6074
       200.0004        200.0004
 21  2  3  0  7  0.0000000  0  9G03G16G07G08G22G27G21G04G09
  -2202450.01748  -1695881.46446  23763949.232    23763949.2294   23763958.2064
       186.0004        187.0004
  -4674882.53447  -3619301.83045  23661187.163    23661187.6234   23661194.0644
       139.0004        144.0004
  -2279790.47547  -1741123.48746  24342844.218    24342844.8124   24342848.8104
       160.0004        163.0004
 -24361690.43549 -18942205.46947  20168455.009    20168455.4764   20168463.0454
       212.0004        212.0004
  -2348609.48047  -1802653.77845  24480302.298    24480302.8024   24480308.8044
       141.0004        145.0004
 -18679513.09249 -14515298.38947  21287671.830    21287671.8124   21287678.9734
       199.0004        200.0004
  -6736099.84347  -5236305.90645  23124217.830    23124217.8834   23124224.8994
       153.0004        155.0004
 -22100511.61049 -16922503.83548  20229566.438    20229566.6654   20229572.2014
       216.0004        215.0004
 -15764014.37649 -12253952.41147  21462057.519    21462057.3534   21462064.7184
       201.0004        202.0004
 21  2  3  0  7 30.0000000  0  9G03G16G07G08G22G27G21G04G09
  -2139581.46048  -1646892.98446  23775912.382    23775913.1504   23775921.6504
       186.0004        186.0004
  -4590923.25147  -3553878.97345  23677166.750    23677165.1124   23677171.0264
       140.0004        144.0004
  -2342335.94747  -1789860.17645  24330942.285    24330942.4594   24330946.6874
       161.0004        162.0004
 -24373520.86049 -18951423.97248  20166204.714    20166204.8224   20166212.0174
       212.0004        213.0004
  -2296658.95947  -1762173.11045  24490187.661    24490188.4104   24490195.4784
       138.0004        143.0004
 -18620395.00849 -14469232.33647  21298921.626    21298921.7734   21298928.4464
       199.0004        199.0004
  -6787961.63747  -5276717.59145  23114349.901    23114349.0924   23114355.1994
       153.0004        155.0004
 -22092419.83649 -16916198.56348  20231105.921    20231106.2174   20231112.0134
       216.0004        214.0004
 -15824391.96249 -12300999.88047  21450567.469    21450567.6204   21450574.8124
       201.0004        201.0004
 21  2  3  0  8  0.0000000  0  9G03G16G07G08G22G27G21G04G09
  -2076809.35948  -1597979.66747  23787858.521    23787858.8104   23787866.7954
       187.0004        188.0004
  -4507063.51047  -3488533.75645  23693124.178    23693123.8794   23693129.0394
       140.0004        144.0004
  -2405045.34147  -1838724.58345  24319007.707    24319008.7334   24319014.5334
       160.0004        162.0004
 -24384743.47549 -18960168.85148  20164068.542    20164068.7744   20164076.3624
       212.0004        213.0004
  -2244920.23847  -1721857.48745  24500036.987    24500034.6344   24500041.4344
       140.0004        145.0004
 -18560755.71149 -14422760.14347  21310270.214    21310270.4514   21310277.2744
       199.0004        199.0004
  -6839828.28847  -5317133.06545  23104478.575    23104477.9434   23104485.0584
       150.0004        152.0004
 -22083753.97749 -16909445.93948  20232754.728    20232755.2384   20232761.3154
       216.0004        215.0004
 -15884317.22849 -12347694.88347  21439164.289    21439164.2224   21439171.1994
       201.0004        201.0004
 21  2  3  0  8 30.0000000  0  9G03G16G07G08G22G27G21G04G09
  -2014136.84548  -1549143.96547  23799784.508    23799784.9524   23799793.7904
       187.0004        188.0004
  -4423305.73347  -3423267.93345  23709061.702    23709061.4534   23709067.6734
       137.0004        142.0004
  -2467919.08347  -1887717.09546  24307045.496    24307045.0614   24307048.8854
       161.0004        163.0004
 -24395358.47749 -18968440.27048  20162048.688    20162049.0904   20162056.4764
       212.0004        213.0004
  -2193396.10147  -1681709.07445  24509840.325    24509838.1734   24509846.7324
       141.0004        146.0004
 -18500598.02149 -14375884.02147  21321717.458    21321718.3314   21321725.5884
       199.0004        199.0004
  -6891698.52347  -5357551.35545  23094609.530    23094608.9384   23094614.8944
       151.0004        155.0004
 -22074514.81649 -16902246.60048  20234512.968    20234513.5954   20234519.2304
       216.0004        214.0004
 -15943788.62449 -12394036.24447  21427847.364    21427847.5784   21427854.4854
       201.0004        202.0004
 21  2  3  0  9  0.0000000  0  9G03G16G07G08G22G27G21G04G09
  -1951564.61748  -1500386.41647  23811691.539    23811692.0524   23811701.1554
       189.0004        190.0004
  -4339649.54547  -3358081.26245  23724982.288    23724982.2034   23724984.6804
       136.0004        141.0004
  -2530954.81347  -1936835.80945  24295049.651    24295049.3164   24295053.4914
       159.0004        160.0004
 -24405364.12349 -18976236.85148  20160145.269    20160145.2324   20160152.6964
       213.0004        214.0004
  -2142086.13147  -1641727.51945  24519604.164    24519604.6484   24519613.1774
       143.0004        147.0004
 -18439922.51849 -14328604.37747  21333263.676    21333264.0254   21333270.9964
       198.0004        198.0004
  -6943568.82047  -5397969.65045  23084737.647    23084737.2144   23084744.1854
       150.0004        153.0004
 -22064700.65249 -16894599.19148  20236380.404    20236380.9214   20236386.5054
       215.0004        214.0004
 -16002802.41949 -12440020.99647  21416616.888    21416617.5144   21416624.3564
       201.0004        202.0004
 21  2  3  0  9 30.0000000  0  9G03G16G07G08G22G27G21G04G09
  -1889095.56248  -1451709.23147  23823578.901    23823579.5244   23823587.9194
       190.0004        191.0004
  -4256096.81347  -3292975.24345  23740879.145    23740880.3494   23740886.5964
       136.0004        140.0004
  -2594152.55647  -1986080.73445  24283022.327    24283023.1414   24283028.0304
       158.0004        159.0004
 -24414760.57949 -18983558.74248  20158356.318    20158356.7894   20158364.4304
       213.0004        213.0004
  -2090992.11447  -1601914.22145  24529324.962    24529325.6464   24529333.1894
       141.0004        144.0004
 -18378731.95449 -14280923.40047  21344907.915    21344908.4064   21344914.9634
       198.0004        198.0004
  -6995436.64747  -5438386.04245  23074867.550    23074867.2184   23074873.1314
       152.0004        156.0004
 -22054312.10649 -16886504.20848  20238357.211    20238357.6794   20238363.5984
       215.0004        214.0004
 -16061356.98149 -12485647.90847  21405474.836    21405475.0184   21405481.6044
       202.0004        202.0004
 21  2  3  0 10  0.0000000  0  9G03G16G07G08G22G27G21G04G09
  -1826732.19548  -1403114.44147  23835446.547    23835447.0904   23835455.0724
       189.0004        189.0004
  -4172649.22147  -3227951.18445  23756759.348    23756759.6844   23756765.3584
       136.0004        141.0004
  -2657511.83147  -2035451.54945  24270964.867    24270966.6084   24270971.0764
       156.0004        158.0004
 -24423547.25649 -18990405.48347  20156683.997    20156684.5104   20156692.0534
       212.0004        212.0004
  -2040115.57647  -1562270.44745  24539009.045    24539006.8084   24539015.8414
       139.0004        143.0004
 -18317028.76949 -14232842.98147  21356650.259    21356650.5134   21356657.0874
       198.0004        198.0004
  -7047299.39047  -5478798.45745  23064998.940    23064999.1204   23065005.7124
       154.0004        156.0004
 -22043349.46949 -16877961.89048  20240443.719    20240444.0624   20240449.8084
       215.0004        214.0004
 -16119450.44349 -12530915.53747  21394419.604    21394420.3064   21394426.4034
       201.0004        201.0004
 21  2  3  0 10 30.0000000  0  9G03G16G07G08G22G27G21G04G09
  -1764477.29848  -1354604.14347  23847292.872    23847293.4504   23847301.8774
       189.0004        189.0004
  -4089308.63347  -3163010.44945  23772620.785    23772620.8244   23772623.8994
       136.0004        142.0004
  -2721032.80247  -2084948.35445  24258878.079    24258878.7214   24258881.7654
       157.0004        159.0004
 -24431724.59349 -18996777.39748  20155128.008    20155128.3804   20155136.1674
       212.0004        213.0004
  -1989458.85247  -1522797.90645  24548647.475    24548647.2864   24548653.0434
       137.0004        142.0004
 -18254815.53349 -14184365.10347  21368488.996    21368489.4964   21368495.6744
       198.0004        198.0004
  -7099155.23547  -5519205.48945  23055129.968    23055130.4684   23055137.1294
       153.0004        155.0004
 -22031813.15049 -16868972.53548  20242638.578    20242639.0334   20242645.1844
       215.0004        214.0004
 -16177080.95649 -12575822.41447  21383452.790    21383452.9134   21383459.4374
       201.0004        200.0004
 21  2  3  0 11  0.0000000  0 10G03G16G07G08G01G22G27G21G04G09
  -1702331.98348  -1306179.24947  23859118.918    23859119.8454   23859127.8384
       188.0004        188.0004
  -4006075.29847  -3098153.31345  23788460.466    23788459.2394   23788463.0034
       138.0004        144.0004
  -2784713.72347  -2134569.83845  24246760.003    24246760.9704   24246764.7034
       158.0004        161.0004
 -24439291.21049 -19002673.45248  20153688.500    20153688.7664   20153696.1844
       212.0004        213.0004
   -927193.01454
        74.0004
  -1939021.75547  -1483496.52545  24558246.306    24558245.2704   24558252.9874
       138.0004        144.0004
 -18192093.43549 -14135490.73347  21380424.576    21380424.4134   21380431.4764
       197.0004        197.0004
  -7151000.16647  -5559604.05945  23045264.994    23045265.0294   23045272.0734
       153.0004        155.0004
 -22019702.19549 -16859535.43348  20244943.441    20244943.8114   20244949.4794
       215.0004        214.0004
 -16234245.30849 -12620366.06447  21372574.782    21372575.2444   21372581.6514
       200.0004        201.0004
 21  2  3  0 11 30.0000000  0 10G03G16G07G08G01G22G27G21G04G09
  -1640300.28348  -1257842.87746  23870922.494    23870922.9454   23870931.9534
       186.0004        185.0004
  -3922952.13347  -3033382.00845  23804274.504    23804275.5554   23804279.5194
       138.0004        142.0004
  -2848555.71947  -2184316.81345  24234611.920    24234611.4624   24234617.1214
       158.0004        160.0004
 -24446248.60849 -19008094.76748  20152364.109    20152364.4144   20152372.0474
       212.0004        213.0004
   -990662.22044   -762131.02544  24477041.104
        74.0004        131.0004
  -1888807.43947  -1444368.76345  24567799.031    24567800.0654   24567809.2484
       138.0004        142.0004
 -18128866.41549 -14086222.90747  21392455.848    21392456.3654   21392463.0504
       197.0004        198.0004
  -7202833.50947  -5599993.55045  23035400.989    23035399.9644   23035406.6854
       151.0004        153.0004
 -22007018.44849 -16849651.97748  20247357.037    20247357.6614   20247363.0074
       215.0004        214.0004
 -16290943.15249 -12664546.18247  21361785.888    21361786.1444   21361792.6074
       201.0004        202.0004
 21  2  3  0 12  0.0000000  0 10G03G16G07G08G01G22G27G21G04G09
  -1578383.18648  -1209595.83346  23882705.406    23882706.1374   23882714.3584
       185.0004        185.0004
  -3839938.84047  -2968696.33545  23820076.188    23820073.6964   23820077.3234
       140.0004        145.0004
  -2912557.08447  -2234187.97445  24222432.330    24222433.2444   24222437.5264
       157.0004        159.0004
 -24452595.14849 -19013040.11648  20151156.335    20151157.0944   20151164.4364
       212.0004        213.0004
  -1047199.60744   -806185.801 5                                  24466292.748
        74.0004        142.000
  -1838816.10247  -1405414.78645  24577315.245    24577314.3324   24577321.7044
       136.0004        140.0004
 -18065135.41549 -14036562.38247  21404583.524    21404584.0064   21404590.3224
       197.0004        197.0004
  -7254651.61047  -5640371.20645  23025539.799    23025540.9084   23025546.6984
       150.0004        153.0004
 -21993760.73949 -16839321.30148  20249880.279    20249880.7224   20249886.0734
       215.0004        214.0004
 -16347171.02349 -12708360.11047  21351086.331    21351086.7574   21351092.8904
       202.0004        203.0004
 21  2  3  0 12 30.0000000  0 10G03G16G07G08G01G22G27G21G04G09
  -1516583.70148  -1161440.44146  23894464.608    23894466.2084   23894473.9574
       183.0004        182.0004
  -3757037.88847  -2904098.23545  23835851.149    23835850.9204   23835853.1604
       142.0004        147.0004
  -2976717.78347  -2284183.31945  24210223.485    24210223.7124   24210226.8914
       156.0004        158.0004
 -24458331.20449 -19017509.76548  20150065.466    20150065.5954   20150072.9194
       212.0004        213.0004
  -1114299.68246   -858471.11345  24453510.526                    24453524.1194
       123.0004        141.0004
  -1789049.99546  -1366636.30645  24586783.464    24586783.9744   24586793.3424
       134.0004        138.0004
 -18000903.56249 -13986511.58847  21416806.644    21416806.8094   21416813.3674
       211.0004        212.0004
  -7306452.77947  -5680735.63845  23015683.603    23015682.7644   23015687.7994
       151.0004        154.0004
 -21979930.00249 -16828544.11348  20252512.158    20252512.4844   20252518.2054
       215.0004        214.0004
 -16402927.65149 -12751806.82947  21340476.527    21340476.2814   21340483.5184
       203.0004        203.0004
 21  2  3  0 13  0.0000000  0 10G03G16G07G08G01G22G27G21G04G09
  -1454903.75648  -1113378.13746  23906201.953    23906203.2434   23906211.8474
       182.0004        183.0004
  -3674250.10747  -2839588.24945  23851602.752    23851602.8534   23851607.1084
       141.0004        145.0004
  -3041036.80547  -2334301.99145  24197984.134    24197983.7934   24197989.0664
       156.0004        158.0004
 -24463456.19949 -19021503.23448  20149089.610    20149090.3084   20149097.5914
       212.0004        213.0004
  -1176507.91746   -906944.63845  24441670.942    24441672.8004   24441684.4824
       132.0004        140.0004
  -1739509.45047  -1328033.54945  24596214.021    24596212.7414   24596219.7364
       136.0004        143.0004
 -17936172.76949 -13936071.98747  21429124.129    21429124.5044   21429131.1724
       213.0004        212.0004
  -7358233.28847  -5721083.97045  23005830.428    23005829.0644   23005835.7924
       150.0004        153.0004
 -21965526.11949 -16817320.29048  20255252.398    20255253.0764   20255259.0484
       214.0004        213.0004
 -16458210.60749 -12794884.44747  21329955.523    21329956.2494   21329963.0364
       203.0004        203.0004
 21  2  3  0 13 30.0000000  0 10G03G16G07G08G01G22G27G21G04G09
  -1393347.15848  -1065411.99046  23917916.256    23917916.6974   23917925.6114
       181.0004        181.0004
  -3591578.37047  -2775168.69245  23867333.576    23867332.8374   23867338.8544
       137.0004        141.0004
  -3105515.53547  -2384545.10545  24185714.382    24185714.1554   24185719.6764
       157.0004        158.0004
 -24467971.70349 -19025021.78848  20148230.641    20148231.2354   20148238.3294
       212.0004        213.0004
  -1238975.07646   -955619.92845  24429785.665    24429786.2334   24429797.7204
       134.0004        140.0004
  -1690197.75947  -1289609.09745  24605597.156    24605596.4834   24605605.2884
       138.0004        143.0004
 -17870946.92949 -13885246.64748  21441536.328    21441536.8294   21441543.4734
       221.0004        226.0004
  -7409992.71347  -5761415.85745  22995979.751    22995979.7644   22995984.6284
       150.0004        151.0004
 -21950550.93149 -16805651.31848  20258102.662    20258103.0964   20258108.5664
       214.0004        213.0004
 -16513019.42749 -12837592.61047  21319525.781    21319526.5184   21319532.9604
       203.0004        202.0004
 21  2  3  0 14  0.0000000  0 10G03G16G07G08G01G22G27G21G04G09
  -1331913.49748  -1017541.63846  23929605.621    23929606.5154   23929615.9374
       178.0004        178.0004
  -3509021.28947  -2710838.52045  23883045.400    23883045.9944   23883049.4974
       138.0004        142.0004
  -3170150.53647  -2434909.97545  24173414.083    24173414.1634   24173419.1094
       155.0004        156.0004
 -24471874.97849 -19028063.26548  20147487.697    20147488.3384   20147495.5774
       212.0004        213.0004
  -1301696.77447  -1004493.53045  24417849.860    24417850.6434   24417863.3994
       138.0004        144.0004
  -1641113.55847  -1251361.95345  24614939.257    24614937.8574   24614945.5194
       141.0004        146.0004
 -17805225.82449 -13834035.36548  21454043.284    21454043.1644   21454049.8884
       225.0004        226.0004
  -7461725.51447  -5801727.02745  22986135.779    22986134.1104   22986140.8274
       149.0004        152.0004
 -21935002.04249 -16793535.28348  20261060.926    20261061.5904   20261067.5884
       214.0004        213.0004
 -16567349.49349 -12879927.69947  21309187.837    21309187.9654   21309194.2654
       202.0004        203.0004
 21  2  3  0 14 30.0000000  0 10G03G16G07G08G01G22G27G21G04G09
  -1270606.14748   -969769.71146  23941272.962    23941274.0784   23941282.5264
       179.0004        180.0004
  -3426581.18047  -2646599.49045  23898732.130    23898732.2864   23898737.6934
       138.0004        143.0004
  -3234942.27147  -2485397.02245  24161084.708    24161084.6114   24161087.6404
       152.0004        153.0004
 -24475167.03149 -19030628.50248  20146861.400    20146861.8424   20146868.8434
       212.0004        213.0004
  -1364672.41047  -1053565.06945  24405864.951    24405866.4164   24405877.6274
       140.0004        144.0004
  -1592259.42147  -1213294.14245  24624234.531    24624233.2344   24624242.9734
       140.0004        143.0004
 -17739012.94249 -13782440.92848  21466642.310    21466642.7324   21466650.0904
       225.0004        225.0004
  -7513430.45647  -5842016.51145  22976297.922    22976297.4924   22976301.4474
       149.0004        152.0004
 -21918880.91649 -16780973.38348  20264129.162    20264129.6004   20264135.4354
       214.0004        213.0004
 -16621199.89049 -12921889.05947  21298940.183    21298940.5724   21298946.5844
       202.0004        203.0004
 21  2  3  0 15  0.0000000  0 10G03G16G07G08G01G22G27G21G04G09
  -1209427.29548   -922097.88146  23952915.801    23952916.6644   23952925.6054
       182.0004        184.0004
  -3344259.25247  -2582452.54545  23914399.216    23914397.1054   23914404.3614
       139.0004        144.0004
  -3299890.17647  -2536005.76045  24148725.198    24148725.2974   24148728.9034
       150.0004        152.0004
 -24477847.82249 -19032717.39248  20146351.472    20146351.7374   20146358.8184
       212.0004        213.0004
  -1427900.18447  -1102833.05745  24393828.634    24393830.0554   24393846.0174
       135.0004        139.0004
  -1543636.38647  -1175406.33445  24633485.643    24633485.7514   24633495.5554
       136.0004        140.0004
 -17672310.52549 -13730464.99848  21479335.289    21479335.8324   21479342.6214
       225.0004        225.0004
  -7565104.91447  -5882282.21145  22966464.843    22966463.9384   22966467.7424
       149.0004        151.0004
 -21902187.72749 -16767965.69147  20267305.498    20267306.0204   20267311.7834
       214.0004        212.0004
 -16674568.52849 -12963474.99547  21288784.350    21288785.1494   21288791.0564
       203.0004        203.0004
 21  2  3  0 15 30.0000000  0 10G03G16G07G08G01G22G27G21G04G09
  -1148378.50648   -874527.43946  23964531.823    23964533.4544   23964542.6474
       183.0004        183.0004
  -3262056.23047  -2518398.24245  23930039.596    23930040.0064   23930045.0254
       137.0004        141.0004
  -3364992.54747  -2586734.86945  24136335.513    24136336.9804   24136341.0654
       150.0004        155.0004
 -24479916.57449 -19034329.39048  20145957.746    20145958.0794   20145965.4644
       213.0004        213.0004
  -1491377.57946  -1152295.57745  24381751.957    24381753.8834   24381766.6664
       134.0004        140.0004
  -1495245.18046  -1137699.15645  24642694.842    24642694.2764   24642704.2044
       134.0004        140.0004
 -17605120.44349 -13678109.08548  21492121.483    21492121.6234   21492128.4724
       224.0004        224.0004
  -7616745.28747  -5922521.38045  22956634.882    22956635.2704   22956640.3134
       147.0004        151.0004
 -21884922.27549 -16754512.09547  20270591.156    20270591.5184   20270597.3844
       214.0004        212.0004
 -16727452.85449 -13004683.56347  21278721.402    21278721.4744   21278727.6884
       203.0004        204.0004
 21  2  3  0 16  0.0000000  0 10G03G16G07G08G01G22G27G21G04G09
  -1087462.42148   -827060.41746  23976122.710    23976124.1734   23976133.5184
       179.0004        177.0004
  -3179973.64047  -2454437.77345  23945661.355    23945661.2574   23945665.3504
       138.0004        143.0004
  -3430249.33647  -2637584.27145  24123919.192    24123919.2284   24123923.8614
       153.0004        156.0004
 -24481374.06649 -19035465.08248  20145680.291    20145680.5334   20145688.0734
       213.0004        213.0004
  -1555103.35147  -1201951.71745  24369627.265    24369628.2724   24369640.1744
       138.0004        144.0004
  -1447086.90446  -1100173.55445  24651860.111    24651858.9304   24651870.7744
       134.0004        141.0004
 -17537445.45149 -13625375.33048  21504999.252    21504999.5714   21505006.7804
       224.0004        224.0004
  -7668349.29347  -5962732.17945  22946815.165    22946815.1304   22946821.4984
       147.0004        151.0004
 -21867085.32849 -16740613.18448  20273985.370    20273986.1094   20273991.3484
       214.0004        213.0004
 -16779851.37049 -13045513.56947  21268750.276    21268750.1464   21268756.5844
       203.0004        203.0004
 21  2  3  0 16 30.0000000  0 10G03G16G07G08G01G22G27G21G04G09
  -1026682.52948   -779699.46846  23987690.413    23987691.4684   23987698.8814
       176.0004        176.0004
  -3098014.13347  -2390573.22245  23961258.408    23961257.8644   23961260.9774
       139.0004        145.0004
  -3495661.24147  -2688554.52345  24111470.303    24111470.9544   24111475.9614
       154.0004        157.0004
 -24482221.33349 -19036125.25448  20145518.772    20145519.2834   20145526.6694
       213.0004        213.0004
  -1619076.97447  -1251800.92045  24357452.899    24357455.1034   24357464.9034
       139.0004        145.0004
  -1399164.61747  -1062831.81245  24660979.251    24660980.4874   24660988.8734
       137.0004        143.0004
 -17469289.39049 -13572266.69048  21517967.649    21517969.0644   21517976.1604
       224.0004        223.0004
  -7719915.52147  -6002913.55645  22937004.308    22937002.9974   22937008.6064
       148.0004        153.0004
 -21848678.64849 -16726270.29848  20277488.175    20277488.5024   20277494.2214
       214.0004        213.0004
 -16831763.39349 -13085964.47047  21258870.186    21258870.5034   21258878.4494
       201.0004        201.0004
 21  2  3  0 17  0.0000000  0 10G03G16G07G08G01G22G27G21G04G09
   -966040.57348   -732446.01846  23999231.109    23999231.5854   23999238.5064
       175.0004        176.0004
  -3016178.17447  -2326804.95745  23976831.001    23976830.4054   23976832.8364
       139.0004        144.0004
  -3561227.27547  -2739644.91945  24098994.351    24098995.0644   24098998.6474
       155.0004        157.0004
 -24482457.72249 -19036309.43848  20145473.776    20145474.2024   20145481.5134
       212.0004        213.0004
  -1683296.31447  -1301841.61345  24345230.091    24345232.4844   24345243.8024
       135.0004        140.0004
  -1351479.27847  -1025674.75345  24670055.351    24670054.1464   24670063.3714
       141.0004        146.0004
 -17400654.20749 -13518784.73248  21531030.474    21531030.4294   21531036.9644
       223.0004        223.0004
  -7771441.50247  -6043063.58045  22927198.879    22927198.3764   22927202.9004
       149.0004        152.0004
 -21829702.20249 -16711483.45947  20281099.207    20281099.4714   20281105.5654
       214.0004        212.0004
 -16883186.59049 -13126034.47547  21249083.303    21249083.9264   21249092.7614
       200.0004        200.0004
 21  2  3  0 17 30.0000000  0 10G03G16G07G08G01G22G27G21G04G09
   -905538.00948   -685301.19046  24010742.966    24010743.1794   24010753.3594
       175.0004        177.0004
  -2934466.30047  -2263133.34445  23992379.695    23992379.6494   23992383.2794
       140.0004        145.0004
  -3626946.19047  -2790854.42545  24086486.799    24086487.6894   24086492.5984
       154.0004        157.0004
 -24482082.94749 -19036017.38148  20145545.234    20145545.8114   20145552.7224
       212.0004        213.0004
  -1747758.64746  -1352071.66345  24332964.271    24332965.4634   24332978.1154
       134.0004        139.0004
  -1304031.29347   -988702.61045  24679085.350    24679083.9594   24679090.9594
       140.0004        144.0004
 -17331541.67149 -13464930.78248  21544182.301    21544182.0804   21544188.9314
       223.0004        223.0004
  -7822923.82847  -6083179.57345  22917401.838    22917401.9674   22917407.2094
       149.0004        154.0004
 -21810155.73349 -16696252.43347  20284819.113    20284819.3934   20284825.0094
       214.0004        212.0004
 -16934118.38949 -13165721.56647  21239391.894    21239392.3544   21239400.5684
       199.0004        200.0004
 21  2  3  0 18  0.0000000  0 10G03G16G07G08G01G22G27G21G04G09
   -845177.09448   -638266.74346  24022230.033    24022230.7464   24022239.7824
       177.0004        179.0004
  -2852879.88147  -2199559.52645  24007904.882    24007904.0904   24007908.2534
       140.0004        144.0004
  -3692817.04047  -2842182.33645  24073953.595    24073953.6624   24073958.7424
       155.0004        157.0004
 -24481097.06449 -19035249.14847  20145733.062    20145733.4494   20145740.2364
       212.0004        212.0004
  -1812462.29946  -1402489.76945  24320652.349    24320652.2804   24320665.8154
       133.0004        138.0004
  -1256822.06247   -951916.51945  24688069.074    24688067.1284   24688075.9834
       139.0004        144.0004
 -17261954.33849 -13410706.88248  21557423.864    21557423.7764   21557431.1524
       223.0004        223.0004
  -7874359.61047  -6123259.34345  22907613.108    22907612.3054   22907618.5064
       151.0004        155.0004
 -21790039.83749 -16680577.70947  20288647.166    20288647.3244   20288653.1224
       214.0004        212.0004
 -16984556.90849 -13205024.30247  21229794.484    21229794.6864   21229802.8784
       201.0004        202.0004
 21  2  3  0 18 30.0000000  0 10G03G16G07G08G01G22G27G21G04G09
   -784961.35048   -591345.40946  24033688.732    24033688.9144   24033697.2864
       177.0004        178.0004
  -2771421.38247  -2136085.37145  24023405.046    24023405.8804   24023409.5544
       139.0004        143.0004
  -3758840.43447  -2893629.10545  24061390.076    24061390.4874   24061394.1704
       156.0004        160.0004
 -24479501.61849 -19034005.91848  20146036.406    20146036.8274   20146043.6254
       212.0004        213.0004
  -1877406.83946  -1453095.62445  24308289.416    24308290.8214   24308304.3744
       128.0004        135.0004
  -1209853.86647   -915318.26045  24697005.638    24697005.2074   24697014.0974
       141.0004        146.0004
 -17191896.05549 -13356116.00048  21570754.719    21570755.1654   21570762.3314
       222.0004        222.0004
  -7925747.45147  -6163301.70045  22897833.211    22897833.8284   22897840.1654
       152.0004        156.0004
 -21769356.33249 -16664460.68047  20292582.602    20292582.9924   20292588.8064
       214.0004        212.0004
 -17034501.66149 -13243942.27647  21220290.935    21220291.7924   21220298.6114
       202.0004        204.0004
 21  2  3  0 19  0.0000000  0 10G03G16G07G08G01G22G27G21G04G09
   -724890.47548   -544537.00146  24045120.292    24045120.5854   24045128.4634
       176.0004        177.0004
  -2690089.52247  -2072709.93145  24038882.581    24038882.6074   24038886.3354
       139.0004        143.0004
  -3825013.54847  -2945192.55245  24048797.627    24048797.4734   24048802.3414
       156.0004        158.0004
 -24477294.60849 -19032286.16647  20146456.496    20146456.6154   20146463.6944
       212.0004        212.0004
  -1942588.03946  -1503885.84345  24295888.633    24295891.6064   24295902.0574
       131.0004        140.0004
  -1163125.48447   -878906.84045  24705896.820    24705897.0014   24705907.4754
       140.0004        144.0004
 -17121367.02749 -13301158.32448  21584175.391    21584176.5544   21584183.7744
       222.0004        222.0004
  -7977082.53847  -6203303.00245  22888066.565    22888065.3644   22888070.7004
       152.0004        155.0004
 -21748103.44149 -16647900.00147  20296626.867    20296627.3034   20296632.9584
       213.0004        212.0004
 -17083948.46449 -13282472.25847  21210882.051    21210882.3884   21210889.0094
       204.0004        205.0004
 21  2  3  0 19 30.0000000  0 10G03G16G07G08G01G22G27G21G04G09
   -664969.10748   -497845.05046  24056522.296    24056523.3554   24056532.2434
       176.0004        177.0004
  -2608887.81847  -2009435.88345  24054335.916    24054335.9784   24054339.5034
       139.0004        144.0004
  -3891337.84947  -2996873.78845  24036176.991    24036176.7414   24036181.5504
       156.0004        159.0004
 -24474478.35449 -19030091.67047  20146992.045    20146992.5954   20146999.8184
       212.0004        212.0004
  -2008006.28347  -1554860.82145  24283441.913    24283443.9894   24283453.0084
       138.0004        143.0004
  -1116640.72447   -842685.21945  24714743.212    24714742.2874   24714751.6454
       138.0004        141.0004
 -17050372.09249 -13245837.59448  21597687.253    21597687.0394   21597693.8104
       222.0004        222.0004
  -8028364.56947  -6243262.97245  22878307.577    22878305.9424   22878312.1834
       152.0004        154.0004
 -21726284.09049 -16630897.91247  20300779.485    20300779.9474   20300785.4924
       213.0004        212.0004
 -17132897.85349 -13320614.64347  21201568.106    21201568.6534   21201574.0904
       205.0004        206.0004
 21  2  3  0 20  0.0000000  0 10G03G16G07G08G01G22G27G21G04G09
   -605199.15348   -451271.06346  24067895.999    24067896.8414   24067906.0234
       178.0004        179.0004
  -2527817.38147  -1946264.13245  24069760.205    24069760.5124   24069767.0364
       136.0004        140.0004
  -3957812.42847  -3048672.14845  24023527.544    24023526.7534   24023531.1554
       156.0004        158.0004
 -24471053.14349 -19027422.64347  20147643.797    20147644.1984   20147651.6424
       212.0004        212.0004
  -2073659.58946  -1606018.93545  24270945.505    24270947.2974   24270959.1164
       134.0004        138.0004
  -1070400.48347   -806654.17045  24723543.467    24723543.5234   24723552.6474
       136.0004        142.0004
 -16978913.71949 -13190155.71348  21611283.911    21611284.5724   21611291.6534
       222.0004        222.0004
  -8079590.27747  -6283179.00845  22868557.644    22868558.4504   22868564.8074
       152.0004        155.0004
 -21703898.76149 -16613454.77547  20305039.315    20305039.5914   20305045.1774
       213.0004        212.0004
 -17181347.88849 -13358367.90347  21192349.197    21192349.2884   21192354.5084
       207.0004        208.0004
 21  2  3  0 20 30.0000000  0 10G03G16G07G08G01G22G27G21G04G09
   -545580.88548   -404815.31546  24079242.104    24079242.4714   24079251.7364
       181.0004        182.0004
  -2446877.27147  -1883193.91545  24085163.890    24085163.1094   24085169.5724
       136.0004        142.0004
  -4024435.01547  -3100585.84045  24010846.669    24010848.5604   24010853.7124
       154.0004        155.0004
 -24467017.41349 -19024277.90447  20148411.685    20148412.2244   20148419.5934
       212.0004        212.0004
  -2139544.23246  -1657357.24345  24258406.804    24258410.1584   24258420.6544
       131.0004        138.0004
  -1024404.08647   -770813.15445  24732298.345    24732296.6344   24732305.2834
       139.0004        144.0004
 -16906992.59049 -13134113.27448  21624970.101    21624970.5824   21624977.7224
       221.0004        221.0004
  -8130756.05947  -6323048.38845  22858820.913    22858821.6064   22858827.5444
       153.0004        156.0004
 -21680946.25949 -16595569.70947  20309407.141    20309407.5314   20309412.7204
       213.0004        212.0004
 -17229294.99349 -13395729.28047  21183224.580    21183224.4504   21183230.3874
       207.0004        206.0004
 21  2  3  0 21  0.0000000  0 10G03G16G07G08G01G22G27G21G04G09
   -486116.81248   -358479.73646  24090556.627    24090557.1464   24090567.0144
       180.0004        180.0004
  -2366069.05847  -1820226.52945  24100542.620    24100542.7724   24100544.8334
       135.0004        141.0004
  -4091204.71947  -3152614.16745  23998142.497    23998143.3464   23998147.0434
       155.0004        158.0004
 -24462371.98449 -19020658.09548  20149295.807    20149296.2124   20149303.5754
       212.0004        213.0004
  -2205658.75846  -1708874.74745  24245826.825    24245826.2184   24245838.1924
       132.0004        138.0004
   -978652.88447   -735163.17845  24741003.706    24741001.7844   24741010.8324
       139.0004        144.0004
 -16834611.67449 -13077712.57548  21638744.533    21638744.8124   21638751.4384
       221.0004        221.0004
  -8181859.32647  -6362869.06745  22849097.798    22849096.6554   22849102.7734
       154.0004        156.0004
 -21657427.55149 -16577243.45647  20313882.108    20313882.3414   20313888.3044
       213.0004        212.0004
 -17276737.76349 -13432697.68447  21174195.141    21174195.2114   21174201.6854
       205.0004        203.0004
 21  2  3  0 21 30.0000000  0 10G03G16G07G08G01G22G27G21G04G09
   -426810.20648   -312266.83746  24101842.165    24101842.7214   24101852.1804
       178.0004        178.0004
  -2285395.03147  -1757363.65345  24115893.432    24115894.6784   24115897.1814
       135.0004        141.0004
  -4158121.72547  -3204757.25645  23985409.406    23985408.8734   23985413.1494
       155.0004        158.0004
 -24457118.00549 -19016564.06248  20150295.641    20150296.0714   20150303.3424
       212.0004        213.0004
  -2272002.29246  -1760570.74445  24233202.160    24233203.3104   24233214.0374
       134.0004        141.0004
   -933149.21247   -699706.06745  24749661.844    24749661.3564   24749670.4214
       138.0004        143.0004
 -16761774.70149 -13020956.47448  21652605.079    21652604.9524   21652611.6274
       221.0004        221.0004
  -8232898.20947  -6402639.54945  22839386.118    22839385.6674   22839389.8924
       154.0004        156.0004
 -21633344.52149 -16558477.44847  20318465.041    20318465.4354   20318471.1894
       213.0004        211.0004
 -17323675.62349 -13469272.61647  21165261.280    21165262.2444   21165269.9344
       202.0004        202.0004
 21  2  3  0 22  0.0000000  0 10G03G16G07G08G01G22G27G21G04G09
   -367663.15048   -266178.26146  24113099.530    24113099.3834   24113107.7664
       177.0004        178.0004
  -2204856.09347  -1694606.03145  24131221.567    24131220.4734   24131223.7014
       138.0004        145.0004
  -4225186.19747  -3257015.28145  23972644.871    23972645.8874   23972650.4514
       154.0004        157.0004
 -24451255.75649 -19011996.08048  20151411.202    20151411.6424   20151419.0524
       212.0004        213.0004
  -2338573.04547  -1812443.78645  24220534.873    24220535.5454   24220546.6334
       138.0004        144.0004
   -887894.79947   -664443.17045  24758276.209    24758274.7824   24758284.1574
       140.0004        146.0004
 -16688484.29349 -12963847.07548  21666550.502    21666551.3064   21666558.3764
       220.0004        220.0004
  -8283870.17547  -6442357.91045  22829685.173    22829685.4374   22829690.4414
       154.0004        157.0004
 -21608697.88949 -16539272.30647  20323155.095    20323155.6224   20323161.0824
       213.0004        211.0004
 -17370106.85449 -13505452.79547  21156425.390    21156426.1244   21156434.6684
       201.0004        202.0004
 21  2  3  0 22 30.0000000  0 10G03G16G07G08G01G22G27G21G04G09
   -308677.68548   -220215.56946  24124322.861    24124323.5774   24124330.4864
       175.0004        176.0004
  -2124453.55247  -1631954.69645  24146519.384    24146518.2424   24146523.8774
       137.0004        142.0004
  -4292396.85447  -3309387.17645  23959857.048    23959857.7474   23959861.3344
       154.0004        158.0004
 -24444785.87749 -19006954.57348  20152642.129    20152642.5974   20152650.1074
       212.0004        213.0004
  -2405369.12147  -1864492.40645  24207823.049    24207824.1374   24207835.4564
       138.0004        143.0004
   -842890.21047   -629374.92045  24766837.901    24766837.0374   24766848.6274
       141.0004        145.0004
 -16614743.15449 -12906386.41248  21680583.514    21680583.7024   21680590.7344
       220.0004        220.0004
  -8334772.38747  -6482021.88045  22820000.462    22819999.2154   22820003.8184
       152.0004        155.0004
 -21583488.43949 -16519628.54747  20327951.957    20327952.3894   20327958.0404
       212.0004        210.0004
 -17416029.78649 -13541236.86147  21147687.154    21147687.8064   21147695.9004
       202.0004        203.0004
 21  2  3  0 23  0.0000000  0 10G03G16G07G08G01G22G27G21G04G09
   -249854.20548   -174379.11646  24135516.462    24135517.0184   24135525.3854
       176.0004        177.0004
  -2044186.43247  -1569408.88445  24161793.149    24161793.5014   24161797.2364
       136.0004        142.0004
  -4359750.72847  -3361870.70645  23947040.822    23947040.4074   23947045.0844
       156.0004        159.0004
 -24437707.25049 -19001438.74948  20153989.277    20153989.6684   20153997.4084
       212.0004        213.0004
  -2472386.76747  -1916713.69845  24195069.923    24195070.1364   24195082.6904
       138.0004        143.0004
   -798134.73247   -594500.82745  24775355.475    24775355.1974   24775364.4514
       138.0004        142.0004
 -16540552.13049 -12848575.22148  21694701.387    21694701.7944   21694709.1704
       220.0004        220.0004
  -8385600.75147  -6521628.35445  22810327.889    22810326.7724   22810332.6724
       155.0004        158.0004
 -21557715.13849 -16499545.46147  20332856.711    20332857.1614   20332862.8624
       212.0004        210.0004
 -17461440.97449 -13576622.18847  21139046.186    21139046.2544   21139054.4804
       203.0004        203.0004
 21  2  3  0 23 30.0000000  0  9G03G16G07G08G01G27G21G04G09
   -191193.80048   -128669.75546  24146678.236    24146679.6734   24146689.0634
       178.0004        179.0004
  -1964055.05246  -1506968.86045  24177041.587    24177039.2074   24177045.6444
       134.0004        139.0004
  -4427246.40247  -3414464.69045  23934197.294    23934196.9404   23934201.5554
       158.0004        162.0004
 -24430018.75449 -18995447.71348  20155452.553    20155452.9714   20155460.1384
       213.0004        213.0004
  -2539623.08447  -1969105.39845  24182275.627    24182275.0934   24182287.0814
       137.0004        142.0004
 -16465912.92049 -12790414.80748  21708904.845    21708905.4014   21708912.4644
       220.0004        220.0004
  -8436351.23247  -6561174.12945  22800669.755    22800669.0064   22800674.4694
       155.0004        157.0004
 -21531377.88949 -16479022.94147  20337868.203    20337868.7674   20337874.2654
       212.0004        210.0004
 -17506337.86349 -13611606.78347  21130504.002    21130503.6874   21130510.6644
       203.0004        204.0004
 21  2  3  0 24  0.0000000  0  9G03G16G07G08G01G27G21G04G09
   -132701.05548    -83091.04746  24157810.594    24157811.1814   24157819.8334
       179.0004        180.0004
  -1884062.80146  -1444637.28045  24192265.682    24192264.6484   24192268.0884
       133.0004        139.0004
  -4494885.86647  -3467170.71445  23921323.446    23921324.4734   23921330.0054
       159.0004        162.0004
 -24421724.07949 -18988984.31548  20157031.128    20157031.5744   20157038.5334
       213.0004        213.0004
  -2607078.60747  -2021667.88845  24169437.654    24169439.2594   24169449.7144
       138.0004        143.0004
 -16390830.73049 -12731909.18448  21723191.889    21723193.1134   21723200.0134
       220.0004        219.0004
  -8487023.89547  -6600659.26645  22791024.851    22791025.1234   22791030.3074
       153.0004        155.0004
 -21504480.01249 -16458063.54847  20342987.022    20342987.5584   20342992.9234
       211.0004        210.0004
 -17550721.29749 -13646191.26147  21122058.505    21122058.6054   21122064.7424
       204.0004        205.0004
 21  2  3  0 24 30.0000000  0  9G03G16G07G08G01G27G21G04G09
    -74378.97748    -37645.27846  24168907.670    24168908.6044   24168917.4974
       177.0004        177.0004
  -1804211.77347  -1382415.69945  24207461.614    24207461.0324   24207464.9704
       136.0004        143.0004
  -4562668.94847  -3519988.69145  23908426.899    23908426.6194   23908430.5844
       159.0004        161.0004
 -24412824.69249 -18982049.73948  20158724.487    20158724.8374   20158731.9934
       212.0004        213.0004
  -2674752.27147  -2074400.38845  24156561.319    24156562.2674   24156571.8404
       139.0004        145.0004
 -16315309.16349 -12673061.22148  21737563.973    21737564.2554   21737571.3684
       219.0004        219.0004
  -8537617.10347  -6640082.53245  22781399.338    22781399.1294   22781403.5304
       153.0004        157.0004
 -21477023.27949 -16436668.71447  20348211.848    20348212.2684   20348217.9194
       211.0004        210.0004
 -17594590.63549 -13680375.17947  21113709.947    21113710.5274   21113716.7204
       205.0004        207.0004
 21  2  3  0 25  0.0000000  0  9G03G16G07G08G01G27G21G04G09
    -16229.04048      7666.28946  24179973.699    24179974.5414   24179983.2154
       177.0004        178.0004
  -1724502.48147  -1320304.64145  24222629.224    24222628.7604   24222631.6324
       138.0004        144.0004
  -4630594.51047  -3572917.69045  23895501.289    23895501.3744   23895503.7894
       159.0004        160.0004
 -24403320.27349 -18974643.68748  20160533.117    20160533.5884   20160540.8824
       212.0004        213.0004
  -2742641.63547  -2127300.97345  24143642.018    24143643.4294   24143654.5554
       143.0004        147.0004
 -16239350.43149 -12613872.59948  21752018.341    21752018.9794   21752025.8384
       219.0004        219.0004
  -8588127.99747  -6679441.59345  22771787.595    22771787.2074   22771792.4234
       156.0004        159.0004
 -21449008.11349 -16414838.71847  20353542.926    20353543.6854   20353549.1454
       211.0004        210.0004
 -17637943.80449 -13714156.86147  21105460.051    21105460.5574   21105467.0034
       206.0004        207.0004
 21  2  3  0 25 30.0000000  0  9G03G16G07G08G01G27G21G04G09
     41746.23248     52841.83246  24191006.594    24191007.3514   24191016.7974
       178.0004        180.0004
  -1644936.32447  -1258305.01345  24237769.011    24237768.5384   24237772.8744
       138.0004        143.0004
  -4698661.66247  -3625956.99046  23882546.839    23882548.1774   23882551.5334
       160.0004        163.0004
 -24393212.00749 -18966767.07248  20162456.531    20162456.9594   20162464.2294
       212.0004        213.0004
  -2810745.09447  -2180368.33745  24130680.685    24130682.4974   24130693.1614
       143.0004        147.0004
 -16162957.71249 -12554345.75948  21766555.024    21766555.3794   21766562.8314
       219.0004        218.0004
  -8638553.43247  -6718734.06145  22762190.735    22762189.9464   22762196.2244
       156.0004        158.0004
 -21420435.82049 -16392574.56447  20358980.106    20358980.5334   20358986.4194
       211.0004        210.0004
 -17680779.68649 -13747535.44047  21097308.460    21097308.9564   21097315.2824
       207.0004        208.0004
 21  2  3  0 26  0.0000000  0  9G03G16G07G08G01G27G21G04G09
     99547.54648     97881.78346  24202004.372    24202006.1284   24202015.3474
       179.0004        180.0004
  -1565511.63747  -1196415.68445  24252883.429    24252882.7844   24252887.5174
       139.0004        144.0004
  -4766867.01947  -3679103.98446  23869569.155    23869569.4534   23869573.1054
       162.0004        165.0004
 -24382497.96249 -18958418.47448  20164495.417    20164495.8764   20164502.8654
       212.0004        213.0004
  -2879057.95547  -2233598.91745  24117679.962    24117681.7994   24117693.7244
       142.0004        147.0004
 -16086131.00249 -12494480.80448  21781175.048    21781175.5934   21781182.9574
       219.0004        219.0004
  -8688888.70247  -6757956.33145  22752613.882    22752613.1234   22752618.5004
       157.0004        160.0004
 -21391304.69249 -16369875.00947  20364523.547    20364524.2124   20364529.8944
       211.0004        210.0004
 -17723094.01249 -13780507.65947  21089256.079    21089256.4324   21089263.4144
       207.0004        208.0004
 21  2  3  0 26 30.0000000  0  9G03G16G07G08G01G27G21G04G09
    157170.73648    142782.92946  24212971.761    24212972.4234   24212979.6654
       180.0004        181.0004
  -1486231.21747  -1134638.73845  24267967.851    24267969.0954   24267973.3804
       136.0004        140.0004
  -4835211.97047  -3732359.74046  23856562.708    23856562.4824   23856566.5964
       162.0004        163.0004
 -24371180.88449 -18949599.93447  20166648.463    20166649.1464   20166656.4784
       212.0004        212.0004
  -2947580.29547  -2286992.73145  24104642.707    24104643.2714   24104653.5874
       142.0004        146.0004
 -16008875.24149 -12434281.48948  21795876.626    21795876.9744   21795883.3514
       219.0004        218.0004
  -8739132.99547  -6797107.66945  22743051.996    22743051.1464   22743056.5214
       156.0004        159.0004
 -21361617.83749 -16346742.37747  20370173.159    20370173.2624   20370179.1124
       211.0004        210.0004
 -17764887.49349 -13813073.97847  21081303.237    21081303.4914   21081310.2744
       207.0004        208.0004
 21  2  3  0 27  0.0000000  0  9G03G16G07G08G01G27G21G04G09
    214613.86448    187543.78346  24223902.961    24223903.2914   24223911.6074
       181.0004        182.0004
  -1407096.31447  -1072975.15845  24283029.335    24283027.3114   24283032.7734
       135.0004        142.0004
  -4903695.39147  -3785723.43346  23843531.936    23843531.3154   23843535.7094
       162.0004        164.0004
 -24359260.95349 -18940311.65648  20168917.191    20168917.5474   20168924.5764
       212.0004        213.0004
  -3016310.08847  -2340548.15045  24091563.592    24091564.4084   24091574.9754
       145.0004        150.0004
 -15931193.04449 -12373749.88348  21810658.873    21810659.4994   21810665.5384
       218.0004        217.0004
  -8789283.29447  -6836185.74945  22733507.270    22733507.8174   22733512.9974
       156.0004        159.0004
 -21331376.16449 -16323177.43447  20375927.010    20375927.8414   20375934.0344
       211.0004        209.0004
 -17806158.50549 -13845233.19047  21073450.116    21073450.0784   21073456.6564
       207.0004        208.0004
 21  2  3  0 27 30.0000000  0  9G03G16G07G08G01G27G21G04G09
    271875.95448    232163.51546  24234797.750    24234798.8324   24234807.9044
       179.0004        178.0004
  -1328106.53546  -1011424.72445  24298059.152    24298059.3334   24298063.7684
       134.0004        139.0004
  -4972315.72147  -3839193.81446  23830472.444    23830473.1104   23830477.2964
       162.0004        164.0004
 -24346738.34649 -18930553.78948  20171300.176    20171300.7774   20171307.7644
       212.0004        213.0004
  -3085244.29847  -2394262.87945  24078446.036    24078446.7024   24078456.6534
       147.0004        151.0004
 -15853086.22149 -12312887.43248  21825522.527    21825522.5714   21825529.2564
       218.0004        217.0004
  -8839336.29147  -6875188.03645  22723982.605    22723982.4724   22723987.7784
       156.0004        157.0004
 -21300579.72449 -16299180.23247  20381787.756    20381788.1944   20381794.3034
       211.0004        209.0004
 -17846904.62649 -13876983.42747  21065696.262    21065696.7244   21065703.1354
       208.0004        209.0004
 21  2  3  0 28  0.0000000  0  9G03G16G07G08G01G27G21G04G09
    328954.60548    276640.34946  24245659.539    24245660.1914   24245669.7374
       175.0004        174.0004
  -1249263.46247   -949988.56445  24313065.022    24313067.6774   24313062.2814
       136.0004        141.0004
  -5041072.23847  -3892770.27646  23817387.557    23817388.7374   23817393.2674
       162.0004        165.0004
 -24333614.31349 -18920327.25048  20173797.675    20173798.1774   20173804.9494
       212.0004        213.0004
  -3154381.25747  -2448135.57345  24065289.850    24065289.7174   24065300.3394
       147.0004        150.0004
 -15774557.96649 -12251696.57348  21840466.012    21840466.1534   21840473.0464
       218.0004        218.0004
  -8889289.56447  -6914112.60045  22714476.682    22714476.9264   22714483.3984
       156.0004        158.0004
 -21269229.93349 -16274751.81747  20387753.547    20387754.0504   20387759.8974
       211.0004        209.0004
 -17887124.81249 -13908323.82247  21058042.616    21058042.7714   21058049.6094
       208.0004        209.0004
 21  2  3  0 28 30.0000000  0  9G03G16G07G08G01G27G21G04G09
    385848.28448    320973.05346  24256486.495    24256487.2354   24256496.0704
       173.0004        173.0004
  -1170567.67947   -888667.20345  24328037.478    24328037.0744   24328043.9554
       136.0004        141.0004
  -5109963.84347  -3946452.01046  23804279.278    23804280.0934   23804283.9664
       163.0004        165.0004
 -24319888.92749 -18909632.12747  20176408.917    20176409.7304   20176416.7754
       212.0004        212.0004
  -3223718.42647  -2502164.27545  24052095.514    24052095.9424   24052104.2274
       144.0004        148.0004
 -15695610.63249 -12190179.15948  21855488.685    21855489.2694   21855495.9934
       218.0004        218.0004
  -8939140.46147  -6952957.39745  22704990.476    22704989.8404   22704996.7704
       155.0004        157.0004
 -21237327.46249 -16249892.75047  20393824.672    20393824.9794   20393830.8314
       210.0004        209.0004
 -17926817.15949 -13939252.92047  21050489.445    21050489.9744   21050496.3544
       209.0004        209.0004
 21  2  3  0 29  0.0000000  0  9G03G16G07G08G01G27G21G04G09
    442554.63448    365159.77046  24267279.272    24267279.5424   24267286.8034
       175.0004        176.0004
  -1092020.37846   -827461.56445  24342985.395    24342985.3164   24342989.5224
       134.0004        140.0004
  -5178989.34447  -4000238.10746  23791143.909    23791144.7964   23791147.0284
       163.0004        163.0004
 -24305563.47349 -18898469.41848  20179135.507    20179135.8574   20179143.0544
       212.0004        213.0004
  -3293254.04047  -2556347.65145  24038862.306    24038863.4604   24038873.5544
       144.0004        148.0004
 -15616247.36849 -12128337.64848  21870591.954    21870591.5644   21870597.9514
       218.0004        217.0004
  -8988885.99547  -6991720.08245  22695525.208    22695524.8234   22695527.8874
       156.0004        158.0004
 -21204873.69149 -16224604.09947  20400000.514    20400000.6724   20400006.4214
       210.0004        209.0004
 -17965980.68149 -13969769.93447  21043037.521    21043037.2084   21043043.4214
       209.0004        209.0004
 21  2  3  0 29 30.0000000  0  9G03G16G07G08G01G27G21G04G09
    499070.75448    409198.28546  24278032.945    24278033.6984   24278042.1334
       175.0004        176.0004
  -1013623.56646   -766373.08445  24357904.598    24357904.7344   24357907.3524
       130.0004        137.0004
  -5248149.36447  -4054128.98046  23777982.034    23777983.2324   23777986.5124
       161.0004        163.0004
 -24290639.71749 -18886840.50048  20181975.441    20181975.9944   20181982.7534
       212.0004        213.0004
  -3362987.12547  -2610684.83245  24025591.524    24025593.1684   24025602.1274
       144.0004        148.0004
 -15536471.98349 -12066175.00648  21885771.580    21885772.2724   21885778.8894
       218.0004        218.0004
  -9038524.28147  -7030399.19945  22686079.487    22686079.3044   22686083.9214
       157.0004        159.0004
 -21171870.85349 -16198887.60047  20406279.985    20406280.5054   20406286.6984
       210.0004        208.0004
 -18004615.01949 -13999874.60247  21035684.724    21035684.7614   21035691.4934
       208.0004        208.0004
 21  2  3  0 30  0.0000000  0  9G03G16G07G08G01G27G21G04G09
    555396.11148    453088.07746  24288749.998    24288751.2574   24288759.9994
       174.0004        174.0004
   -935376.45046   -705401.31145  24372793.196    24372793.3534   24372800.6314
       131.0004        138.0004
  -5317441.40047  -4108122.75246  23764797.945    23764798.9304   23764801.3974
       162.0004        165.0004
 -24275116.83849 -18874744.72647  20184929.097    20184929.4534   20184936.7224
       212.0004        212.0004
  -3432914.19347  -2665173.17145  24012287.802    24012286.6554   24012296.1684
       146.0004        150.0004
 -15456285.89049 -12003692.33048  21901030.939    21901031.3304   21901037.7894
       218.0004        218.0004
  -9088051.71747  -7068991.95845  22676654.318    22676654.2554   22676658.8604
       158.0004        159.0004
 -21138318.62149 -16172743.00247  20412665.531    20412665.9274   20412671.2044
       210.0004        209.0004
 -18042717.37149 -14029564.73947  21028433.712    21028434.1544   21028440.6024
       208.0004        208.0004
 21  2  3  0 30 30.0000000  0  9G03G16G07G08G01G27G21G04G09
    611528.39148    496827.44946  24299431.642    24299432.9104   24299442.6864
       173.0004        174.0004
   -857280.33646   -644547.22645  24387655.377    24387653.7494   24387658.9044
       129.0004        136.0004
  -5386864.88047  -4162218.96346  23751586.865    23751587.5064   23751590.6084
       163.0004        165.0004
 -24258996.27749 -18862183.24648  20187996.915    20187997.3854   20188004.1504
       212.0004        213.0004
  -3503033.49247  -2719811.30645  23998941.652    23998941.8194   23998952.1614
       145.0004        149.0004
 -15375692.31249 -11940892.14448  21916368.190    21916368.4274   21916373.9804
       218.0004        217.0004
  -9137466.14247  -7107496.65645  22667250.805    22667249.6494   22667256.0114
       157.0004        157.0004
 -21104218.64149 -16146171.60547  20419154.467    20419155.0154   20419160.0304
       210.0004        208.0004
 -18080286.81449 -14058839.63547  21021284.570    21021284.9494   21021291.6154
       208.0004        209.0004
 21  2  3  0 31  0.0000000  0  9G03G16G07G08G01G27G21G04G09
    667466.04848    540415.18646  24310077.932    24310078.0884   24310087.1864
       174.0004        175.0004
   -779335.69346   -583811.12545  24402488.478    24402487.3494   24402489.3244
       127.0004        134.0004
  -5456418.06447  -4216416.22746  23738349.873    23738350.9374   23738355.5774
       163.0004        163.0004
 -24242278.50949 -18849156.39448  20191178.617    20191178.7234   20191185.7194
       212.0004        213.0004
  -3573342.45347  -2774597.24345  23985564.463    23985562.7724   23985573.9094
       145.0004        148.0004
 -15294693.72949 -11877776.35648  21931781.069    21931781.7964   21931787.5904
       218.0004        217.0004
  -9186764.12447  -7145910.61745  22657869.190    22657868.1714   22657873.6994
       155.0004        157.0004
 -21069571.65749 -16119173.94947  20425747.232    20425747.6974   20425753.2364
       209.0004        208.0004
 -18117321.65249 -14087697.94947  21014236.942    21014237.3534   21014244.2894
       208.0004        208.0004
 21  2  3  0 31 30.0000000  0  9G03G16G07G08G01G27G21G04G09
    723206.63648    583849.37546  24320683.208    24320684.3344   24320694.2114
       172.0004        172.0004
   -701544.14046   -523194.33845  24417289.257    24417288.7134   24417293.8764
       129.0004        138.0004
  -5526101.07847  -4270714.66846  23725089.323    23725090.2014   23725094.0544
       161.0004        163.0004
 -24224965.31949 -18835665.57948  20194472.891    20194473.0284   20194480.5714
       212.0004        213.0004
  -3643839.50147  -2829529.76045  23972148.340    23972148.3804   23972157.2684
       144.0004        149.0004
 -15213293.48749 -11814347.59248  21947272.125    21947271.8264   21947277.8414
       217.0004        216.0004
  -9235943.24547  -7184231.94545  22648510.196    22648509.6104   22648515.7814
       155.0004        157.0004
 -21034379.40949 -16091751.42347  20432444.491    20432444.9224   20432450.0584
       209.0004        208.0004
 -18153821.11649 -14116139.08247  21007291.197    21007291.5454   21007298.6744
       208.0004        209.0004
 21  2  3  0 32  0.0000000  0  9G03G16G07G08G01G27G21G04G09
    778748.72148    627128.89046  24331253.334    24331254.5514   24331263.2634
       172.0004        173.0004
   -623905.91446   -462697.04745  24432063.826    24432065.1924   24432069.7004
       131.0004        138.0004
  -5595912.60047  -4325113.20846  23711804.929    23711806.1844   23711810.2494
       160.0004        163.0004
 -24207057.18549 -18821711.15647  20197880.172    20197880.6864   20197888.2864
       212.0004        212.0004
  -3714522.11147  -2884606.85345  23958696.905    23958696.4664   23958705.7364
       144.0004        148.0004
 -15131494.04349 -11750607.73848  21962837.281    21962837.4314   21962843.5164
       217.0004        216.0004
  -9285001.25547  -7222458.89345  22639175.566    22639175.2624   22639181.1344
       156.0004        159.0004
 -20998642.78449 -16063904.69047  20439244.572    20439244.8874   20439250.6244
       209.0004        208.0004
 -18189783.53349 -14144161.72347  21000448.661    21000448.8494   21000455.4934
       209.0004        211.0004
 21  2  3  0 32 30.0000000  0  9G03G16G07G08G01G27G21G04G09
    834090.35948    670252.12746  24341786.115    24341786.7504   24341794.8704
       172.0004        174.0004
   -546421.78146   -402319.84245  24446809.892    24446809.6044   24446816.8734
       127.0004        132.0004
  -5665850.88947  -4379610.58946  23698498.120    23698498.2414   23698502.5154
       163.0004        167.0004
 -24188555.06849 -18807293.93747  20201401.437    20201401.5944   20201408.8624
       212.0004        212.0004
  -3785388.06847  -2939826.82145  23945212.470    23945213.7414   23945220.7714
       146.0004        149.0004
 -15049298.30449 -11686559.14448  21978478.342    21978478.1884   21978484.7074
       216.0004        215.0004
  -9333934.53047  -7260588.70345  22629864.667    22629864.7144   22629869.4644
       157.0004        159.0004
 -20962363.06549 -16035634.81547  20446149.041    20446149.4704   20446154.6984
       209.0004        208.0004
 -18225207.71949 -14171765.01747  20993707.720    20993707.6994   20993714.5164
       210.0004        210.0004
 21  2  3  0 33  0.0000000  0  9G03G16G07G08G01G27G21G04G09
    889228.92348    713217.17546  24352275.792    24352277.0764   24352286.5904
       171.0004        171.0004
   -469093.62446   -342064.15845  24461524.951    24461524.4334   24461528.8324
       127.0004        136.0004
  -5735916.10948  -4434206.83846  23685164.989    23685165.3084   23685168.5804
       166.0004        168.0004
 -24169460.34749 -18792414.90147  20205035.315    20205035.4934   20205042.4974
       212.0004        212.0004
  -3856436.00547  -2995188.59245  23931692.314    23931692.3164   23931701.1484
       146.0004        150.0004
 -14966709.84349 -11622204.48248  21994194.015    21994194.4984   21994201.0904
       215.0004        215.0004
  -9382741.56347  -7298620.07845  22620575.754    22620575.4094   22620580.6154
       157.0004        158.0004
 -20925542.26949 -16006943.26747  20453155.680    20453156.0754   20453161.7414
       209.0004        208.0004
 -18260093.14149 -14198948.45347  20987068.721    20987069.4364   20987075.9814
       210.0004        210.0004
 21  2  3  0 33 30.0000000  0  9G03G16G07G08G01G27G21G04G09
    944163.12748    756022.96346  24362731.241    24362731.9214   24362740.3944
       172.0004        173.0004
   -391921.83746   -281930.27145  24476208.241    24476209.2624   24476213.0464
       125.0004        133.0004
  -5806106.37748  -4488900.54346  23671808.183    23671807.9054   23671812.5154
       165.0004        165.0004
 -24149774.04349 -18777074.90547  20208781.062    20208781.2624   20208788.7064
       212.0004        212.0004
  -3927663.23647  -3050690.07245  23918137.735    23918137.4434   23918146.6374
       146.0004        149.0004
 -14883731.07749 -11557545.69748  22009985.376    22009985.0614   22009991.0524
       215.0004        215.0004
  -9431418.82847  -7336550.36345  22611311.796    22611312.2284   22611317.4664
       155.0004        156.0004
 -20888181.23149 -15977830.77047  20460265.340    20460265.9324   20460270.7924
       209.0004        208.0004
 -18294438.13349 -14225710.77647  20980533.958    20980533.8834   20980540.7074
       210.0004        211.0004
 21  2  3  0 34  0.0000000  0  9G03G16G07G08G01G27G21G04G09
    998891.24948    798668.19446  24373145.290    24373146.4584   24373154.0724
       172.0004        174.0004
   -314906.07046   -221918.03144  24490861.063    24490863.1834   24490869.4884
       122.0004        131.0004
  -5876421.13147  -4543691.23945  23658425.488    23658426.3184   23658430.7254
       162.0004        162.0004
 -24129496.88749 -18761274.51347  20212638.937    20212639.6754   20212647.4024
       211.0004        212.0004
  -3999067.28647  -3106329.32245  23904549.037    23904548.4884   23904558.7704
       144.0004        147.0004
 -14800364.69649 -11492584.87248  22025848.844    22025848.8994   22025855.4064
       215.0004        214.0004
  -9479963.51347  -7374377.33345  22602075.802    22602074.8314   22602079.5244
       154.0004        156.0004
 -20850281.09649 -15948298.20047  20467477.067    20467477.5724   20467483.2644
       209.0004        208.0004
 -18328241.33649 -14252050.93547  20974100.547    20974100.7474   20974107.7314
       210.0004        210.0004
 21  2  3  0 34 30.0000000  0  9G03G16G07G08G01G27G21G04G09
   1053412.74648    841152.39546  24383519.645    24383520.8954   24383531.8724
       174.0004        176.0004
   -238046.74246   -162027.67445  24505492.286    24505491.1794   24505495.0054
       126.0004        135.0004
  -5946857.48547  -4598576.68446  23645022.921    23645023.3364   23645027.3344
       161.0004        164.0004
 -24108628.95849 -18745013.77747  20216610.326    20216610.8884   20216618.2114
       211.0004        211.0004
  -4070644.69847  -3162103.72445  23890928.745    23890928.6964   23890937.2524
       142.0004        145.0004
 -14716612.34349 -11427323.30948  22041785.868    22041786.2594   22041792.9664
       214.0004        214.0004
  -9528371.76647  -7412098.00445  22592863.779    22592864.0344   22592868.6524
       155.0004        158.0004
 -20811841.97749 -15918345.63847  20474791.154    20474791.7634   20474798.3074
       209.0004        207.0004
 -18361500.35849 -14277967.06447  20967771.409    20967771.8934   20967778.5844
       210.0004        210.0004
 21  2  3  0 35  0.0000000  0  9G03G16G07G08G01G27G21G04G09
   1107723.82748    883472.62346  24393854.856    24393855.7794   24393867.1444
       175.0004        177.0004
   -161346.33346   -102261.07445  24520089.189    24520089.8904   24520086.4434
       126.0004        133.0004
  -6017416.55047  -4653557.75346  23631597.713    23631596.9564   23631600.2254
       163.0004        165.0004
 -24087172.95549 -18728294.79547  20220693.381    20220693.7644   20220701.2674
       211.0004        211.0004
  -4142395.31547  -3218013.05745  23877274.586    23877273.6964   23877284.0694
       141.0004        146.0004
 -14632478.88949 -11361764.76448  22057795.877    22057796.4864   22057802.8364
       214.0004        213.0004
  -9576642.96847  -7449711.86645  22583676.870    22583676.8114   22583682.7914
       157.0004        159.0004
 -20772867.26649 -15887975.73547  20482208.256    20482208.8084   20482214.8234
       208.0004        207.0004
 -18394216.02049 -14303459.78447  20961545.793    20961546.1034   20961553.3464
       210.0004        210.0004
 21  2  3  0 35 30.0000000  0  9G03G16G07G08G01G27G21G04G09
   1161822.26948    925627.12546  24404151.091    24404151.9064   24404159.9544
       173.0004        173.0004
    -84805.97246    -42619.23145  24534649.417    24534650.6604   24534655.9144
       127.0004        135.0004
  -6088097.48247  -4708633.77246  23618145.990    23618146.4644   23618151.3604
       163.0004        165.0004
 -24065130.55249 -18711118.88147  20224887.968    20224888.3284   20224895.7814
       211.0004        212.0004
  -4214317.21847  -3274055.88045  23863587.596    23863589.4814   23863596.5894
       143.0004        147.0004
 -14547967.71249 -11295911.89548  22073878.407    22073878.4284   22073884.9674
       213.0004        213.0004
  -9624774.59947  -7487216.98545  22574518.213    22574517.7084   22574523.3484
       157.0004        160.0004
 -20733358.77449 -15857189.89647  20489726.863    20489727.1024   20489732.9054
       208.0004        207.0004
 -18426387.66549 -14328528.59447  20955424.023    20955424.6354   20955431.0894
       210.0004        211.0004
 21  2  3  0 36  0.0000000  0  9G03G16G07G08G01G27G21G04G09
   1215708.13448    967615.96646  24414402.965    24414404.7244   24414414.4894
       169.0004        169.0004
     -8424.33746     16898.87445  24549189.391    24549187.2004   24549192.1774
       128.0004        135.0004
  -6158897.63947  -4763802.71746  23604674.477    23604673.6944   23604677.9934
       163.0004        165.0004
 -24042501.17949 -18693485.59447  20229193.434    20229194.0384   20229201.8884
       211.0004        211.0004
  -4286406.31247  -3330229.01545  23849867.696    23849868.4774   23849879.3594
       142.0004        145.0004
 -14463079.83349 -11229765.49547  22090030.215    22090031.4574   22090038.4354
       212.0004        212.0004
  -9672762.11847  -7524609.82945  22565387.825    22565386.5124   22565391.7094
       158.0004        161.0004
 -20693316.07849 -15825987.80047  20497346.213    20497346.9724   20497352.7994
       208.0004        207.0004
 -18458012.29749 -14353171.17247  20949406.196    20949406.4954   20949413.0084
       210.0004        211.0004
 21  2  3  0 36 30.0000000  0  9G03G16G07G08G01G27G21G04G09
   1269378.42548   1009436.85046  24424618.114    24424618.6364   24424627.0624
       168.0004        169.0004
     67795.99046     76291.31145  24563691.129    24563690.6714   24563695.8524
       128.0004        136.0004
  -6229816.69547  -4819064.29146  23591177.870    23591177.8864   23591182.2294
       163.0004        165.0004
 -24019287.61449 -18675397.10047  20233611.234    20233611.7644   20233618.8614
       210.0004        211.0004
  -4358661.59347  -3386531.64045  23836117.023    23836117.8764   23836129.3044
       138.0004        142.0004
 -14377819.42149 -11163328.81447  22106255.298    22106256.1184   22106262.9934
       211.0004        211.0004
  -9720603.91447  -7561889.08845  22556283.185    22556282.3934   22556287.6504
       159.0004        161.0004
 -20652741.85849 -15794371.53247  20505067.687    20505067.9424   20505073.6204
       208.0004        207.0004
 -18489090.17149 -14377387.70547  20943492.445    20943492.9734   20943499.1774
       211.0004        211.0004
 21  2  3  0 37  0.0000000  0  9G03G16G07G08G01G27G21G04G09
   1322832.41348   1051089.23446  24434790.720    24434791.2984   24434799.0764
       171.0004        173.0004
    143856.05146    135558.88845  24578166.073    24578162.8254   24578170.1564
       128.0004        135.0004
  -6300852.41847  -4874416.77446  23577660.138    23577660.1584   23577664.4924
       164.0004        165.0004
 -23995489.27949 -18656852.93047  20238140.255    20238140.6124   20238147.9424
       210.0004        211.0004
  -4431079.64447  -3442961.11145  23822333.203    23822336.4764   23822348.8004
       138.0004        142.0004
 -14292188.29249 -11096603.25847  22122549.696    22122550.9774   22122558.5124
       211.0004        211.0004
  -9768295.88747  -7599051.65245  22547207.509    22547206.4124   22547211.6794
       159.0004        161.0004
 -20611636.52349 -15762341.39947  20512889.436    20512889.7804   20512895.8054
       208.0004        206.0004
 -18519619.08749 -14401176.48247  20937683.282    20937683.3154   20937689.5224
       210.0004        210.0004
 21  2  3  0 37 30.0000000  0  9G03G16G07G08G01G27G21G04G09
   1376068.15548   1092571.53946  24444921.185    24444922.0344   24444930.1684
       175.0004        177.0004
    219754.94046    194700.85745  24592606.603    24592606.9084   24592612.9874
       129.0004        137.0004
  -6372004.58347  -4929859.99246  23564118.824    23564120.0054   23564125.1394
       164.0004        165.0004
 -23971108.12849 -18637854.61147  20242779.986    20242780.0454   20242787.8864
       210.0004        211.0004
  -4503658.39947  -3499515.82145  23808525.417    23808527.3484   23808536.4944
       141.0004        147.0004
 -14206189.61449 -11029591.29447  22138915.929    22138916.4384   22138923.4424
       211.0004        211.0004
  -9815836.32647  -7636096.08345  22538159.753    22538159.9454   22538165.3294
       160.0004        162.0004
 -20570001.83149 -15729898.77347  20520812.172    20520812.6514   20520818.7154
       208.0004        206.0004
 -18549598.30349 -14424536.89147  20931978.295    20931977.9934   20931984.4164
       209.0004        209.0004
 21  2  3  0 38  0.0000000  0  9G03G16G07G08G01G27G21G04G09
   1429083.70548   1133882.23446  24455008.788    24455009.7934   24455018.1274
       173.0004        173.0004
    295491.52946    253716.37445  24607020.512    24607019.5294   24607023.9704
       126.0004        133.0004
  -6443271.65448  -4985392.75846  23550558.468    23550559.5004   23550563.2694
       165.0004        168.0004
 -23946145.53949 -18618403.22947  20247529.904    20247530.1554   20247537.7884
       210.0004        211.0004
  -4576395.79747  -3556194.16245  23794686.397    23794686.4954   23794695.5384
       143.0004        148.0004
 -14119826.57349 -10962295.40747  22155350.867    22155350.7484   22155357.5294
       211.0004        211.0004
  -9863222.39447  -7673020.25746  22529144.442    22529143.2924   22529148.6134
       161.0004        163.0004
 -20527839.45849 -15697044.97547  20528835.841    20528836.2514   20528841.5914
       207.0004        206.0004
 -18579027.00949 -14447468.34147  20926377.388    20926377.8944   20926384.6424
       209.0004        210.0004
 21  2  3  0 38 30.0000000  0  9G03G16G07G08G01G27G21G04G09
   1481876.53648   1175019.39046  24465056.253    24465056.0684   24465066.0024
       171.0004        171.0004
    371064.14246    312604.09345  24621399.038    24621404.0044   24621404.0614
       125.0004        133.0004
  -6514652.86848  -5041014.47246  23536975.297    23536975.7404   23536979.7494
       167.0004        169.0004
 -23920603.71749 -18598500.49947  20252390.293    20252390.6664   20252397.9944
       210.0004        211.0004
  -4649290.27447  -3612994.89945  23780813.178    23780815.0034   23780824.5784
       144.0004        147.0004
 -14033102.88049 -10894718.48947  22171853.556    22171853.5694   22171860.5594
       211.0004        211.0004
  -9910451.85847  -7709822.37246  22520156.906    22520156.3534   22520160.2134
       162.0004        163.0004
 -20485151.77549 -15663781.84047  20536958.705    20536959.0744   20536965.2334
       207.0004        206.0004
 -18607905.03149 -14469970.69047  20920882.710    20920882.7634   20920889.6684
       210.0004        211.0004
 21  2  3  0 39  0.0000000  0  9G03G16G07G08G01G27G21G04G09
   1534445.20148   1215981.84846  24475057.829    24475058.8704   24475069.3054
       170.0004        170.0004
    446472.99746    371364.21345  24635748.854    24635749.5834   24635756.7484
       124.0004        132.0004
  -6586147.36848  -5096724.46246  23523369.158    23523369.7394   23523374.5074
       167.0004        167.0004
 -23894483.54249 -18578147.11747  20257361.023    20257361.5444   20257368.4154
       210.0004        211.0004
  -4722339.22347  -3669916.02745  23766911.377    23766912.9714   23766922.4634
       144.0004        147.0004
 -13946021.22849 -10826862.67147  22188423.976    22188424.3094   22188431.6584
       211.0004        211.0004
  -9957521.83447  -7746500.25446  22511199.701    22511199.3614   22511203.4964
       162.0004        163.0004
 -20441940.07249 -15630110.39147  20545182.005    20545182.4124   20545187.7964
       207.0004        206.0004
 -18636231.20949 -14492043.03847  20915491.636    20915491.8754   20915499.2784
       210.0004        210.0004
 21  2  3  0 39 30.0000000  0  9G03G16G07G08G01G27G21G04G09
   1586789.18248   1256769.21146  24485020.090    24485020.5414   24485029.9914
       169.0004        170.0004
    521718.06846    429996.74145  24650070.466    24650071.1384   24650073.8004
       124.0004        132.0004
  -6657752.83848  -5152520.88446  23509743.720    23509744.1704   23509748.7624
       166.0004        167.0004
 -23867785.09349 -18557343.11947  20262442.090    20262442.1234   20262448.7874
       210.0004        211.0004
  -4795539.10047  -3726954.75345  23752982.425    23752983.4504   23752993.3644
       143.0004        147.0004
 -13858583.35949 -10758729.27247  22205063.334    22205063.9114   22205070.1764
       210.0004        211.0004
 -10004428.52647  -7783050.88646  22502272.880    22502272.6274   22502277.9764
       162.0004        164.0004
 -20398204.76649 -15596030.93347  20553504.131    20553504.6754   20553510.7414
       207.0004        205.0004
 -18664003.39249 -14513683.69847  20910207.324    20910207.5674   20910214.2404
       210.0004        210.0004
 21  2  3  0 40  0.0000000  0  9G03G16G07G08G01G27G21G04G09
   1638906.15748   1297379.67846  24494937.922    24494938.4274   24494945.8644
       169.0004        170.0004
    596798.18446    488500.72745  24664356.985    24664357.8544   24664361.4794
       128.0004        136.0004
  -6729468.79348  -5208403.42846  23496097.463    23496097.7554   23496102.8344
       167.0004        170.0004
 -23840510.93549 -18536090.51547  20267631.250    20267631.7664   20267639.1364
       210.0004        210.0004
  -4868888.14647  -3784109.73845  23739024.116    23739025.5034   23739036.0094
       144.0004        149.0004
 -13770792.87349 -10690321.09947  22221770.035    22221769.9964   22221775.9134
       211.0004        210.0004
 -10051169.74347  -7819472.56446  22493376.634    22493376.8094   22493382.6024
       162.0004        164.0004
 -20353948.06849 -15561545.19147  20561926.189    20561926.5354   20561932.6054
       207.0004        206.0004
 -18691221.33449 -14534892.48347  20905028.058    20905027.9454   20905034.6884
       210.0004        210.0004
 21  2  3  0 40 30.0000000  0  9G03G16G07G08G01G27G21G04G09
   1690793.19848   1337811.00146  24504811.446    24504812.0724   24504821.2174
       169.0004        170.0004
    671711.83946    546874.99745  24678614.393    24678612.3304   24678619.2674
       130.0004        138.0004
  -6801294.69148  -5264371.64146  23482429.971    23482430.5714   23482433.6614
       169.0004        171.0004
 -23812663.17749 -18514390.94247  20272930.406    20272930.9344   20272938.5904
       210.0004        211.0004
  -4942385.24947  -3841380.05245  23725037.528    23725039.3454   23725048.4684
       144.0004        149.0004
 -13682653.98749 -10621641.44547  22238542.253    22238542.4474   22238548.4384
       210.0004        210.0004
 -10097743.91447  -7855764.07046  22484514.232    22484514.2674   22484520.6144
       162.0004        165.0004
 -20309172.84249 -15526655.39847  20570446.442    20570446.8134   20570452.9034
       206.0004        205.0004
 -18717885.36249 -14555669.64147  20899953.071    20899953.5844   20899960.6134
       210.0004        210.0004
 21  2  3  0 41  0.0000000  0  9G03G16G07G08G01G27G21G04G09
   1742450.00748   1378062.93246  24514640.014    24514641.7264   24514652.6774
       169.0004        171.0004
    746459.03146    605119.54245  24692836.228    24692836.2184   24692840.9394
       131.0004        138.0004
  -6873228.15148  -5320423.69246  23468740.309    23468740.1894   23468745.0364
       169.0004        169.0004
 -23784242.20549 -18492244.72547  20278338.967    20278339.5724   20278346.6864
       210.0004        211.0004
  -5016026.75147  -3898762.91945  23711024.618    23711026.6904   23711036.4194
       146.0004        151.0004
 -13594168.36749 -10552691.60847  22255380.209    22255380.2134   22255387.2794
       211.0004        210.0004
 -10144147.20847  -7891922.45846  22475684.887    22475684.4244   22475691.3854
       163.0004        165.0004
 -20263879.47449 -15491361.88147  20579065.495    20579066.2114   20579071.4024
       206.0004        204.0004
 -18743993.35149 -14576013.53647  20894985.297    20894985.9214   20894992.5384
       210.0004        211.0004
 21  2  3  0 41 30.0000000  0  9G03G16G07G08G01G27G21G04G09
   1793874.55248   1418133.81846  24524427.326    24524428.3614   24524438.2764
       168.0004        169.0004
    821039.77746    663234.43045  24707029.667    24707028.2834   24707033.9024
       131.0004        137.0004
  -6945268.34648  -5376558.90846  23455032.220    23455032.8114   23455036.5594
       169.0004        170.0004
 -23755249.35149 -18469652.89147  20283856.133    20283856.6004   20283863.9674
       210.0004        211.0004
  -5089810.52347  -3956256.69145  23696985.853    23696986.1604   23696995.8044
       147.0004        150.0004
 -13505339.31649 -10483474.18747  22272282.916    22272283.8934   22272290.6864
       211.0004        211.0004
 -10190377.09747  -7927945.72646  22466886.621    22466887.0324   22466893.9534
       163.0004        164.0004
 -20218069.98649 -15455666.19147  20587783.532    20587783.3114   20587789.0054
       206.0004        204.0004
 -18769544.83749 -14595923.79647  20890123.773    20890123.8464   20890130.3874
       211.0004        211.0004
 21  2  3  0 42  0.0000000  0  8G03G07G08G01G27G21G04G09
   1845067.15248   1458023.99446  24534169.490    24534169.5884   24534178.9314
       166.0004        167.0004
  -7017411.76248  -5432774.52246  23441302.303    23441302.2654   23441307.9924
       168.0004        169.0004
 -23725684.84949 -18446615.59947  20289482.039    20289482.5044   20289489.8544
       210.0004        211.0004
  -5163732.07147  -4013857.76945  23682918.299    23682918.2784   23682928.2984
       147.0004        150.0004
 -13416167.82949 -10413989.90547  22289251.827    22289253.0144   22289259.5224
       210.0004        210.0004
 -10236428.98747  -7963830.26746  22458123.363    22458123.8564   22458129.0954
       163.0004        164.0004
 -20171744.07049 -15419568.07047  20596597.596    20596598.2854   20596604.8054
       205.0004        204.0004
 -18794537.03049 -14615398.22447  20885368.007    20885367.8914   20885374.5034
       210.0004        210.0004
 21  2  3  0 42 30.0000000  0  8G03G07G08G01G27G21G04G09
   1896023.03948   1497729.70046  24543866.853    24543867.3004   24543877.0364
       168.0004        170.0004
  -7089660.97648  -5489072.57246  23427554.085    23427555.1274   23427559.6704
       167.0004        170.0004
 -23695552.70949 -18423135.99347  20295216.043    20295216.9334   20295223.8864
       211.0004        211.0004
  -5237792.40547  -4071566.99045  23668824.501    23668825.2574   23668834.4914
       147.0004        151.0004
 -13326660.09249 -10344243.60147  22306285.684    22306285.7484   22306292.2884
       211.0004        211.0004
 -10282302.97647  -7999576.19546  22449394.957    22449393.5074   22449399.5044
       163.0004        165.0004
 -20124906.64349 -15383071.36847  20605511.062    20605511.3204   20605517.6294
       205.0004        203.0004
 -18818972.33649 -14634438.71747  20880718.129    20880717.9364   20880724.6544
       210.0004        210.0004
 21  2  3  0 43  0.0000000  0  8G03G07G08G01G27G21G04G09
   1946742.13048   1537250.90246  24553517.829    24553518.3764   24553528.6854
       169.0004        170.0004
  -7162012.49648  -5545450.36146  23413787.472    23413787.6014   23413791.9464
       171.0004        174.0004
 -23664853.25249 -18399214.33247  20301058.384    20301058.9214   20301065.5804
       211.0004        211.0004
  -5311987.36547  -4129381.16245  23654706.370    23654706.8164   23654715.1254
       148.0004        151.0004
 -13236817.47849 -10274236.37847  22323381.342    22323382.0874   22323388.4664
       211.0004        210.0004
 -10327994.67347  -8035180.06346  22440699.360    22440699.5424   22440705.5674
       164.0004        166.0004
 -20077557.79649 -15346176.16947  20614521.760    20614521.9434   20614527.7704
       205.0004        204.0004
 -18842848.42649 -14653043.47147  20876173.646    20876174.5654   20876180.5684
       210.0004        210.0004
 21  2  3  0 43 30.0000000  0  8G03G07G08G01G27G21G04G09
   1997222.01348   1576585.64446  24563122.580    24563123.3734   24563134.0674
       167.0004        167.0004
  -7234466.19248  -5601907.78546  23399999.846    23400000.2044   23400004.5014
       173.0004        175.0004
 -23633588.59349 -18374852.23747  20307007.359    20307007.8424   20307014.6044
       210.0004        210.0004
  -5386315.44747  -4187299.07245  23640562.456    23640563.4794   23640570.4374
       149.0004        152.0004
 -13146643.89749 -10203971.23847  22340540.828    22340541.2244   22340548.4214
       210.0004        210.0004
 -10373502.94048  -8070640.99946  22432040.145    22432039.0894   22432043.6794
       165.0004        165.0004
 -20029700.26949 -15308884.58247  20623628.552    20623628.9904   20623634.2894
       204.0004        203.0004
 -18866165.45449 -14671212.56847  20871737.484    20871737.5344   20871743.6454
       210.0004        211.0004
 21  2  3  0 44  0.0000000  0  8G03G07G08G01G27G21G04G09
   2047461.70748   1615733.27546  24572683.748    24572684.4964   24572692.7924
       165.0004        166.0004
  -7307019.60048  -5658442.87946  23386192.154    23386193.5714   23386196.6204
       172.0004        172.0004
 -23601760.13949 -18350050.83647  20313064.437    20313064.7244   20313071.8164
       210.0004        211.0004
  -5460773.44947  -4245318.18745  23626394.852    23626394.7274   23626401.4264
       149.0004        152.0004
 -13056141.64549 -10133450.01047  22357762.930    22357763.3064   22357769.4934
       209.0004        208.0004
 -10418824.00647  -8105956.08346  22423415.553    22423415.2664   22423419.4694
       164.0004        166.0004
 -19981335.13449 -15271197.47047  20632832.383    20632832.5274   20632837.8524
       204.0004        203.0004
 -18888922.07349 -14688944.99447  20867406.680    20867406.8654   20867413.3664
       211.0004        211.0004
 21  2  3  0 44 30.0000000  0  8G03G07G08G01G27G21G04G09
   2097459.04148   1654692.03646  24582198.438    24582199.3974   24582208.2754
       167.0004        169.0004
  -7379672.48448  -5715055.54846  23372369.395    23372368.9034   23372371.7704
       173.0004        174.0004
 -23569369.80649 -18324811.62147  20319227.738    20319228.9034   20319235.3214
       210.0004        211.0004
  -5535359.56147  -4303437.15445  23612200.626    23612201.0884   23612208.5304
       150.0004        153.0004
 -12965314.36449 -10062675.51647  22375046.386    22375047.4144   22375053.2554
       208.0004        208.0004
 -10463955.27047  -8141123.29746  22414828.684    22414827.5424   22414831.7074
       164.0004        167.0004
 -19932464.86649 -15233116.76247  20642131.645    20642132.3234   20642137.6084
       204.0004        204.0004
 -18911118.26449 -14706240.74047  20863182.797    20863183.0754   20863189.7094
       211.0004        211.0004
 21  2  3  0 45  0.0000000  0  8G03G07G08G01G27G21G04G09
   2147212.06148   1693460.42246  24591666.468    24591667.5504   24591675.9844
       170.0004        173.0004
  -7452424.05048  -5771745.05646  23358523.074    23358522.7684   23358527.4824
       171.0004        169.0004
 -23536419.63249 -18299136.13547  20325498.574    20325498.4024   20325506.2424
       210.0004        210.0004
  -5610071.59147  -4361654.16445  23597983.500    23597983.7574   23597991.4644
       152.0004        156.0004
 -12874165.44649  -9991650.35847  22392392.081    22392392.5534   22392398.5234
       208.0004        208.0004
 -10508895.27448  -8176141.42646  22406276.828    22406275.5804   22406281.1054
       165.0004        167.0004
 -19883091.59649 -15194644.07047  20651527.089    20651527.5164   20651533.4934
       205.0004        203.0004
 -18932753.69549 -14723099.50347  20859065.328    20859065.6614   20859072.7534
       210.0004        210.0004
 21  2  3  0 45 30.0000000  0  8G03G07G08G01G27G21G04G09
   2196720.39048   1732038.15846  24601087.767    24601088.3684   24601098.1594
       171.0004        173.0004
  -7525271.69548  -5828509.44146  23344661.032    23344661.1564   23344665.0614
       169.0004        171.0004
 -23502909.95649 -18273024.68047  20331875.265    20331875.4144   20331881.8084
       210.0004        211.0004
  -5684905.91347  -4419966.51745  23583742.358    23583742.6944   23583751.1944
       153.0004        156.0004
 -12782696.61949  -9920375.94447  22409797.780    22409797.8424   22409804.4774
       207.0004        207.0004
 -10553639.84248  -8211007.26946  22397762.030    22397761.3194   22397766.4994
       165.0004        167.0004
 -19833215.96449 -15155779.93747  20661018.030    20661018.1914   20661024.5544
       204.0004        203.0004
 -18953826.57449 -14739519.92247  20855055.462    20855055.8104   20855062.6794
       210.0004        211.0004
 21  2  3  0 46  0.0000000  0  8G03G07G08G01G27G21G04G09
   2245983.42948   1770424.71746  24610461.419    24610462.4184   24610472.2234
       170.0004        170.0004
  -7598212.74548  -5885346.65146  23330780.028    23330781.1364   23330785.7544
       170.0004        171.0004
 -23468841.53749 -18246477.87647  20338357.874    20338358.2494   20338365.0394
       210.0004        211.0004
  -5759859.09447  -4478371.50045  23569478.152    23569479.8124   23569487.9084
       153.0004        156.0004
 -12690910.03749  -9848853.95647  22427263.544    22427264.6034   22427270.9814
       207.0004        207.0004
 -10598184.88548  -8245717.69146  22389285.341    22389285.0174   22389288.7164
       166.0004        167.0004
 -19782838.93049 -15116525.13647  20670604.389    20670605.0014   20670610.8334
       204.0004        202.0004
 -18974335.36149 -14755500.82147  20851152.505    20851152.8504   20851159.7144
       210.0004        211.0004
 21  2  3  0 46 30.0000000  0  8G03G07G08G01G27G21G04G09
   2294998.10348   1808617.75846  24619789.695    24619790.6634   24619799.6054
       169.0004        169.0004
  -7671247.02848  -5942256.43346  23316881.801    23316882.5294   23316887.6024
       171.0004        173.0004
 -23434217.77849 -18219498.29147  20344946.124    20344946.8344   20344953.6334
       210.0004        210.0004
  -5834930.18347  -4536868.33045  23555192.703    23555193.3874   23555201.2534
       152.0004        154.0004
 -12598810.27249  -9777087.87247  22444790.260    22444790.7814   22444796.5564
       207.0004        206.0004
 -10642529.26848  -8280271.69246  22380845.540    22380845.1994   22380850.3724
       165.0004        166.0004
 -19731963.93749 -15076882.26347  20680285.421    20680285.8344   20680291.7484
       203.0004        201.0004
 -18994281.07749 -14771042.90847  20847357.274    20847357.5374   20847364.9084
       211.0004        212.0004
 21  2  3  0 47  0.0000000  0  8G03G07G08G01G27G21G04G09
   2343764.20548   1846617.08746  24629068.582    24629069.5674   24629079.8304
       168.0004        169.0004
  -7744372.65348  -5999237.40446  23302967.131    23302967.8184   23302971.8734
       171.0004        173.0004
 -23399038.91349 -18192086.16847  20351640.924    20351641.1064   20351648.1804
       210.0004        210.0004
  -5910115.31347  -4595454.03745  23540885.877    23540886.7364   23540894.5484
       152.0004        154.0004
 -12506399.01549  -9705079.09147  22462375.732    22462375.8304   22462382.2144
       207.0004        207.0004
 -10686669.20547  -8314666.40046  22372446.031    22372446.6614   22372451.6494
       164.0004        165.0004
 -19680591.59949 -15036851.86747  20690061.561    20690062.2274   20690067.6214
       203.0004        202.0004
 -19013661.86149 -14786144.81247  20843668.924    20843669.3604   20843676.5864
       211.0004        212.0004
 21  2  3  0 47 30.0000000  0  8G03G07G08G01G27G21G04G09
   2392279.91548   1884421.29146  24638301.726    24638302.2444   24638312.8204
       167.0004        169.0004
  -7817588.46648  -6056288.70946  23289033.972    23289034.9394   23289038.1784
       170.0004        169.0004
 -23363307.29249 -18164243.35147  20358440.008    20358440.4554   20358448.0234
       210.0004        210.0004
  -5985412.26347  -4654126.91845  23526556.382    23526556.9014   23526566.1454
       153.0004        155.0004
 -12413679.56949  -9632830.18247  22480020.258    22480020.1334   22480026.4204
       207.0004        206.0004
 -10730602.40948  -8348900.06646  22364086.435    22364084.9364   22364090.5044
       165.0004        166.0004
 -19628724.15349 -14996435.69947  20699931.288    20699931.9144   20699937.9554
       203.0004        201.0004
 -19032477.52049 -14800806.38247  20840088.769    20840088.9944   20840096.2284
       211.0004        212.0004
 21  2  3  0 48  0.0000000  0  8G03G07G08G01G27G21G04G09
   2440541.17748   1922027.23046  24647486.211    24647487.2984   24647496.5054
       168.0004        170.0004
  -7890895.40348  -6113410.98646  23275085.221    23275085.2334   23275089.0674
       170.0004        172.0004
 -23327026.86449 -18135972.87147  20365344.317    20365344.5014   20365351.9864
       209.0004        210.0004
  -6060821.09147  -4712886.94345  23512207.101    23512207.8844   23512217.6394
       154.0004        157.0004
 -12320657.58149  -9560345.51747  22497722.218    22497721.9264   22497728.4284
       207.0004        207.0004
 -10774328.82548  -8382972.56446  22355765.508    22355764.7094   22355769.8074
       165.0004        167.0004
 -19576366.14749 -14955637.24247  20709894.047    20709894.9534   20709901.1034
       202.0004        201.0004
 -19050730.12549 -14815029.19647  20836615.527    20836615.7784   20836622.7444
       211.0004        212.0004
 21  2  3  0 48 30.0000000  0  8G03G07G08G01G27G21G04G09
   2488548.61348   1959435.37446  24656621.692    24656622.6304   24656633.6284
       169.0004        170.0004
  -7964289.59348  -6170601.22846  23261117.846    23261119.1884   23261123.8474
       172.0004        174.0004
 -23290197.50849 -18107274.67147  20372353.238    20372353.2334   20372360.3244
       209.0004        210.0004
  -6136337.02547  -4771730.45845  23497836.873    23497837.4814   23497846.4284
       154.0004        157.0004
 -12227333.91949  -9487625.77847  22515480.464    22515480.6634   22515486.8994
       207.0004        206.0004
 -10817843.44248  -8416880.03146  22347485.063    22347484.3204   22347488.8704
       165.0004        167.0004
 -19523517.33249 -14914456.36047  20719952.248    20719952.3494   20719958.2434
       202.0004        201.0004
 -19068417.10449 -14828811.25947  20833249.947    20833250.0904   20833256.5464
       211.0004        212.0004
 21  2  3  0 49  0.0000000  0  8G03G07G08G01G27G21G04G09
   2536301.17648   1996644.91646  24665709.627    24665710.3574   24665719.8664
       169.0004        171.0004
  -8037769.31148  -6227858.15146  23247135.380    23247135.8214   23247139.3394
       170.0004        169.0004
 -23252820.77949 -18078149.93747  20379465.344    20379465.5774   20379472.7604
       209.0004        210.0004
  -6211957.15647  -4830655.15145  23483445.995    23483447.0874   23483454.8974
       154.0004        156.0004
 -12133711.24249  -9414673.03247  22533295.637    22533296.3624   22533302.8314
       206.0004        205.0004
 -10861142.82648  -8450619.78246  22339245.346    22339244.3994   22339249.9544
       166.0004        168.0004
 -19470179.36549 -14872894.30747  20730102.151    20730102.5004   20730108.1444
       203.0004        202.0004
 -19085537.63949 -14842151.93547  20829991.597    20829992.2144   20829998.6154
       211.0004        212.0004
 21  2  3  0 49 30.0000000  0  8G03G07G08G01G27G21G04G09
   2583798.04748   2033655.20646  24674747.131    24674747.8794   24674758.1054
       168.0004        169.0004
  -8111332.87348  -6285180.40846  23233136.977    23233136.6024   23233141.6874
       168.0004        170.0004
 -23214897.57149 -18048599.38847  20386681.993    20386682.1934   20386689.3194
       209.0004        210.0004
  -6287678.23447  -4889658.50145  23469035.766    23469036.8494   23469046.7974
       153.0004        155.0004
 -12039791.86749  -9341489.11547  22551168.144    22551168.1874   22551174.7424
       204.0004        204.0004
 -10904224.07148  -8484189.56846  22331047.173    22331046.0744   22331051.5404
       166.0004        168.0004
 -19416353.59749 -14830952.15647  20740344.041    20740344.6914   20740350.6354
       202.0004        201.0004
 -19102090.59249 -14855050.35247  20826842.286    20826842.5654   20826849.1034
       212.0004        212.0004
 21  2  3  0 50  0.0000000  0  8G03G07G08G01G27G21G04G09
   2631035.33748   2070463.22846  24683735.503    24683736.5744   24683746.2874
       167.0004        167.0004
  -8184980.95648  -6342568.50946  23219123.328    23219123.1284   23219126.6144
       170.0004        173.0004
 -23176432.29949 -18018626.43747  20394001.402    20394001.6694   20394008.8014
       209.0004        210.0004
  -6363500.09647  -4948740.39245  23454608.466    23454610.1664   23454618.2624
       154.0004        158.0004
 -11945581.24849  -9268078.24147  22569095.627    22569096.1514   22569102.6394
       204.0004        204.0004
 -10947086.78048  -8517589.04546  22322890.135    22322889.2564   22322895.4364
       166.0004        166.0004
 -19362044.45549 -14788633.34847  20750678.815    20750679.5184   20750685.2724
       202.0004        201.0004
 -19118078.05349 -14867508.10747  20823799.895    20823799.8084   20823806.5304
       212.0004        212.0004
 21  2  3  0 50 30.0000000  0  8G03G07G08G01G27G21G04G09
   2678012.92948   2107068.91346  24692676.595    24692677.0934   24692687.4814
       167.0004        169.0004
  -8258710.80548  -6400020.34446  23205091.411    23205092.0224   23205096.0404
       169.0004        169.0004
 -23137425.80149 -17988231.76947  20401423.662    20401424.3404   20401431.5674
       209.0004        209.0004
  -6439418.87547  -5007897.82145  23440162.452    23440162.5704   23440171.7014
       154.0004        157.0004
 -11851081.28749  -9194441.91747  22587078.076    22587078.8284   22587085.4104
       204.0004        204.0004
 -10989727.10248  -8550815.24346  22314776.366    22314776.2094   22314781.0464
       166.0004        167.0004
 -19307252.81949 -14745938.58347  20761105.724    20761105.8434   20761111.7644
       202.0004        201.0004
 -19133498.47949 -14879524.04247  20820865.249    20820865.7104   20820872.1964
       211.0004        212.0004
 21  2  3  0 51  0.0000000  0  8G03G07G08G01G27G21G04G09
   2724729.02748   2143470.83146  24701567.155    24701567.0614   24701578.3694
       171.0004        172.0004
  -8332521.50948  -6457535.13546  23191044.968    23191046.0244   23191051.1454
       169.0004        172.0004
 -23097879.72149 -17957416.61447  20408949.572    20408949.7814   20408956.9034
       209.0004        210.0004
  -6515432.30847  -5067128.95945  23425695.749    23425697.5204   23425706.5154
       154.0004        156.0004
 -11756295.25949  -9120582.65547  22605115.696    22605115.5274   22605122.5184
       203.0004        203.0004
 -11032142.66648  -8583866.31146  22306706.011    22306706.4034   22306709.5914
       166.0004        168.0004
 -19251981.00849 -14702869.62647  20771623.144    20771623.8614   20771629.6934
       201.0004        200.0004
 -19148351.82449 -14891098.05747  20818038.485    20818038.5674   20818045.7534
       211.0004        212.0004
 21  2  3  0 51 30.0000000  0  8G03G07G08G01G27G21G04G09
   2771183.35948   2179668.76246  24710405.653    24710406.3474   24710418.3334
       169.0004        169.0004
  -8406410.31448  -6515110.81546  23176985.480    23176985.9294   23176990.4304
       172.0004        173.0004
 -23057795.21549 -17926181.92047  20416577.010    20416577.5624   20416584.7884
       209.0004        210.0004
  -6591536.55447  -5126430.88145  23411213.507    23411215.3984   23411224.3054
       153.0004        155.0004
 -11661225.03349  -9046501.95847  22623207.036    22623207.0474   22623213.7044
       203.0004        204.0004
 -11074329.64747  -8616739.27246  22298675.986    22298675.0254   22298681.3264
       164.0004        164.0004
 -19196229.94449 -14659427.23547  20782232.169    20782232.6624   20782239.1034
       201.0004        200.0004
 -19162636.61849 -14902229.06247  20815320.357    20815320.7474   20815327.5464
       211.0004        212.0004
 21  2  3  0 52  0.0000000  0  8G03G07G08G01G27G21G04G09
   2817374.54648   2215661.60746  24719196.668    24719196.9444   24719207.8774
       167.0004        168.0004
  -8480375.36948  -6572745.94146  23162909.800    23162910.3894   23162914.5294
       170.0004        170.0004
 -23017174.03849 -17894529.07847  20424307.419    20424307.8474   20424314.8554
       209.0004        210.0004
  -6667728.91747  -5185801.51845  23396714.863    23396716.3394   23396725.3384
       152.0004        155.0004
 -11565873.62349  -8972202.19147  22641352.580    22641352.1234   22641358.7384
       203.0004        203.0004
 -11116285.37647  -8649432.01546  22290689.136    22290690.0184   22290696.9994
       161.0004        163.0004
 -19140001.72849 -14615613.06247  20792932.303    20792932.7734   20792938.5144
       201.0004        200.0004
 -19176352.54349 -14912916.82147  20812709.990    20812710.1734   20812717.4964
       212.0004        212.0004
 21  2  3  0 52 30.0000000  0  8G03G07G08G01G27G21G04G09
   2863299.18948   2251446.77046  24727937.366    24727937.8274   24727947.9034
       170.0004        172.0004
  -8554417.54748  -6630441.13746  23148821.274    23148821.6314   23148825.2174
       170.0004        172.0004
 -22976020.61249 -17862461.45147  20432138.182    20432138.6844   20432146.1794
       209.0004        209.0004
  -6744008.95447  -5245240.41145  23382198.328    23382200.0474   23382209.4234
       151.0004        153.0004
 -11470246.23349  -8897687.34147  22659548.104    22659548.9754   22659556.0034
       202.0004        201.0004
 -11158008.86148  -8681943.78546  22282755.919    22282754.9344   22282757.8604
       165.0004        169.0004
 -19083300.56949 -14571430.34447  20803722.269    20803722.6464   20803728.1384
       201.0004        200.0004
 -19189501.52949 -14923162.77447  20810207.592    20810208.1404   20810215.1164
       211.0004        212.0004
 21  2  3  0 53  0.0000000  0  8G03G07G08G01G27G21G04G09
   2908957.34248   2287024.24746  24736625.143    24736625.7664   24736635.1754
       169.0004        168.0004
  -8628533.59848  -6688193.88246  23134716.144    23134717.1524   23134721.7214
       171.0004        173.0004
 -22934335.07049 -17829979.21147  20440070.951    20440071.5574   20440078.6694
       209.0004        210.0004
  -6820372.43247  -5304744.34945  23367669.553    23367669.7014   23367678.6094
       151.0004        154.0004
 -11374344.33849  -8822958.61047  22677798.417    22677798.5174   22677805.0324
       201.0004        201.0004
 -11199496.14648  -8714271.55346  22274860.347    22274859.3194   22274863.1104
       169.0004        171.0004
 -19026127.14649 -14526879.63347  20814601.912    20814602.4454   20814608.2714
       201.0004        200.0004
 -19202081.79649 -14932965.58848  20807814.102    20807814.6014   20807821.5044
       212.0004        213.0004
 21  2  3  0 53 30.0000000  0  8G03G07G08G01G27G21G04G09
   2954346.35248   2322392.03646  24745261.405    24745261.7334   24745272.3214
       166.0004        167.0004
  -8702723.35748  -6746004.03346  23120599.061    23120599.4854   23120603.2944
       171.0004        172.0004
 -22892120.95949 -17797085.06247  20448104.193    20448104.6474   20448111.7354
       209.0004        209.0004
  -6896818.01747  -5364312.22445  23353121.747    23353121.9534   23353131.1594
       152.0004        155.0004
 -11278172.31749  -8748019.33647  22696097.157    22696099.5164   22696106.0164
       200.0004        201.0004
 -11240746.05448  -8746414.29346  22267007.655    22267007.9734   22267012.3244
       167.0004        166.0004
 -18968484.91949 -14481963.58247  20825570.611    20825571.0954   20825577.3744
       201.0004        200.0004
 -19214094.43149 -14942326.05548  20805528.232    20805528.4974   20805535.2464
       212.0004        213.0004
 21  2  3  0 54  0.0000000  0  8G03G07G08G01G27G21G04G09
   2999467.24448   2357550.88946  24753848.602    24753848.8314   24753860.0904
       167.0004        169.0004
  -8776982.96548  -6803868.67146  23106468.102    23106468.4514   23106471.9754
       172.0004        173.0004
 -22849377.93049 -17763778.80947  20456237.812    20456238.1124   20456245.4154
       209.0004        209.0004
  -6973340.58347  -5423940.10445  23338559.375    23338560.2604   23338568.0594
       152.0004        155.0004
 -11181730.83349  -8672870.13047  22714451.104    22714452.0804   22714457.8164
       201.0004        201.0004
 -11281753.60547  -8778368.20246  22259203.068    22259202.8354   22259209.1384
       163.0004        163.0004
 -18910373.66049 -14436682.10247  20836629.509    20836629.7044   20836635.2084
       201.0004        200.0004
 -19225536.93949 -14951242.31048  20803351.385    20803351.4014   20803357.6764
       212.0004        213.0004
 21  2  3  0 54 30.0000000  0  8G03G07G08G01G27G21G04G09
   3044316.87048   2392498.37846  24762384.077    24762384.1784   24762395.9534
       169.0004        170.0004
  -8851312.66948  -6861787.91246  23092324.735    23092323.8594   23092327.6614
       173.0004        174.0004
 -22806109.51149 -17730063.14847  20464471.593    20464471.9274   20464478.7804
       209.0004        209.0004
  -7049939.41147  -5483627.41445  23323984.053    23323983.6944   23323991.8724
       151.0004        154.0004
 -11085024.73449  -8597514.72247  22732854.371    22732854.6624   22732860.7244
       201.0004        202.0004
 -11322517.80247  -8810132.46646  22251447.334    22251447.0844   22251452.3974
       163.0004        165.0004
 -18851797.41749 -14391038.27347  20847776.095    20847776.1764   20847782.2694
       201.0004        200.0004
 -19236411.03749 -14959715.62647  20801281.609    20801281.9904   20801288.3034
       212.0004        212.0004
 21  2  3  0 55  0.0000000  0  8G03G07G08G01G27G21G04G09
   3088894.01248   2427233.55246  24770864.468    24770866.1394   24770879.0424
       168.0004        170.0004
  -8925710.84148  -6919760.48946  23078165.132    23078166.0014   23078170.4934
       173.0004        173.0004
 -22762317.82649 -17695939.74347  20472804.809    20472805.1854   20472812.2834
       209.0004        209.0004
  -7126611.56047  -5543371.86545  23309392.375    23309393.4924   23309400.8064
       151.0004        155.0004
 -10988056.93849  -8521955.40147  22751306.767    22751306.9914   22751313.0814
       201.0004        200.0004
 -11363035.70747  -8841704.82746  22243737.173    22243737.2104   22243743.3234
       164.0004        167.0004
 -18792758.24849 -14345033.72147  20859010.354    20859010.8934   20859016.6484
       201.0004        199.0004
 -19246716.46049 -14967745.81247  20799320.763    20799320.7054   20799327.0464
       212.0004        212.0004
 21  2  3  0 55 30.0000000  0  8G03G07G08G01G27G21G04G09
   3133198.29448   2461756.06246  24779298.122    24779298.2984   24779308.3604
       170.0004        172.0004
  -9000174.75348  -6977784.29846  23063994.947    23063995.9644   23064000.6554
       174.0004        176.0004
 -22718004.11049 -17661409.55747  20481237.535    20481237.8304   20481244.9614
       208.0004        208.0004
  -7203353.43147  -5603170.65045  23294789.777    23294789.6784   23294798.0874
       152.0004        154.0004
 -10890829.57049  -8446193.80647  22769808.384    22769808.0534   22769814.6194
       200.0004        199.0004
 -11403303.73148  -8873082.46546  22236074.668    22236074.8124   22236079.4684
       166.0004        168.0004
 -18733257.43349 -14298669.44147  20870332.816    20870333.4354   20870339.0044
       200.0004        198.0004
 -19256452.16249 -14975332.06547  20797467.911    20797468.2414   20797475.0784
       212.0004        212.0004
 21  2  3  0 56  0.0000000  0  8G03G07G08G01G27G21G04G09
   3177227.19148   2496063.98946  24787675.127    24787675.9154   24787687.4424
       170.0004        170.0004
  -9074704.32148  -7035859.29046  23049813.509    23049814.0534   23049817.6584
       176.0004        178.0004
 -22673171.70649 -17626475.23047  20489768.947    20489769.2334   20489776.3014
       208.0004        208.0004
  -7280163.45647  -5663022.53945  23280171.852    23280173.3124   23280181.4914
       152.0004        154.0004
 -10793346.88249  -8370233.27847  22788358.645    22788358.6154   22788364.8944
       199.0004        199.0004
 -11443320.67548  -8904264.52346  22228461.562    22228460.6294   22228463.9064
       169.0004        171.0004
 -18673298.50249 -14251948.21447  20881742.813    20881743.6434   20881749.5464
       200.0004        199.0004
 -19265619.32549 -14982475.32948  20795723.289    20795723.7844   20795730.5774
       212.0004        213.0004
 21  2  3  0 56 30.0000000  0  7G07G08G01G27G21G04G09
  -9149287.43948  -7093975.98346  23035621.318    23035621.7974   23035625.2424
       177.0004        178.0004
 -22627812.53649 -17591130.39447  20498400.872    20498400.9554   20498407.8104
       208.0004        209.0004
  -7357028.67647  -5722917.43945  23265545.732    23265546.4234   23265554.2974
       152.0004        155.0004
 -10695601.62849  -8294068.14347  22806958.668    22806959.4324   22806965.4044
       200.0004        201.0004
 -11483074.10848  -8935241.20346  22220894.040    22220894.8814   22220900.3554
       170.0004        171.0004
 -18612873.41249 -14204863.71647  20893241.767    20893241.9904   20893248.0924
       201.0004        199.0004
 -19274207.66349 -14989167.52048  20794089.491    20794089.4694   20794095.8214
       212.0004        213.0004
 21  2  3  0 57  0.0000000  0  7G07G08G01G27G21G04G09
  -9223934.20848  -7152142.28746  23021416.061    23021416.4284   23021420.2814
       176.0004        176.0004
 -22581940.26149 -17555385.76647  20507129.824    20507130.1464   20507137.1074
       208.0004        209.0004
  -7433957.98747  -5782862.28845  23250905.532    23250907.1874   23250915.5804
       153.0004        156.0004
 -10597608.53249  -8217709.89347  22825605.624    22825606.8454   22825612.2794
       200.0004        199.0004
 -11522572.52648  -8966019.17946  22213378.237    22213378.4784   22213384.2214
       169.0004        169.0004
 -18551996.13449 -14157426.88247  20904826.710    20904826.9244   20904831.8294
       201.0004        199.0004
 -19282228.78749 -14995417.75248  20792562.340    20792562.7364   20792569.8564
       212.0004        213.0004
 21  2  3  0 57 30.0000000  0  7G07G08G01G27G21G04G09
  -9298643.54048  -7210357.34946  23007199.356    23007199.4354   23007203.7204
       177.0004        178.0004
 -22535557.35949 -17519243.23647  20515955.985    20515956.4314   20515963.2704
       208.0004        208.0004
  -7510949.29947  -5842855.41945  23236255.370    23236256.3524   23236264.3984
       154.0004        156.0004
 -10499371.24649  -8141161.34547  22844301.545    22844301.0164   22844306.4864
       200.0004        200.0004
 -11561814.48848  -8996597.30346  22205911.224    22205911.2904   22205915.7624
       168.0004        168.0004
 -18490669.53349 -14109639.91947  20916496.834    20916497.0054   20916502.5024
       201.0004        199.0004
 -19289683.38649 -15001226.53248  20791144.364    20791144.6874   20791151.1704
       212.0004        213.0004
 21  2  3  0 58  0.0000000  0  7G07G08G01G27G21G04G09
  -9373412.49948  -7268618.85846  22992970.347    22992971.2134   22992975.8354
       178.0004        180.0004
 -22488665.21649 -17482703.89647  20524879.056    20524879.8344   20524886.4924
       208.0004        208.0004
  -7587998.69747  -5902893.85945  23221592.503    23221593.5884   23221602.6294
       154.0004        157.0004
 -10400891.74549  -8064424.07947  22863041.559    22863041.5184   22863047.0934
       201.0004        201.0004
 -11600795.29548  -9026971.94546  22198493.381    22198492.6004   22198497.4124
       167.0004        168.0004
 -18428894.84749 -14061503.81047  20928251.371    20928251.9034   20928257.4134
       200.0004        198.0004
 -19296570.40349 -15006593.04248  20789833.967    20789833.8834   20789840.5564
       213.0004        213.0004
 21  2  3  0 58 30.0000000  0  7G07G08G01G27G21G04G09
  -9448238.65848  -7326924.93746  22978731.937    22978732.4494   22978736.5704
       179.0004        180.0004
 -22441264.98149 -17445768.62647  20533898.421    20533899.4824   20533906.4524
       207.0004        208.0004
  -7665102.42947  -5962974.62645  23206921.921    23206923.2784   23206931.2174
       157.0004        160.0004
 -10302171.98849  -7987499.59447  22881825.731    22881826.9024   22881833.2764
       201.0004        202.0004
 -11639511.91048  -9057140.71346  22191125.191    22191124.4074   22191130.2864
       166.0004        166.0004
 -18366673.42049 -14013019.56547  20940091.870    20940092.6104   20940097.9864
       200.0004        198.0004
 -19302888.90649 -15011516.54148  20788630.814    20788631.3524   20788638.5174
       213.0004        213.0004
 21  2  3  0 59  0.0000000  0  7G07G08G01G27G21G04G09
  -9523119.80748  -7385273.89746  22964482.615    22964483.3254   22964487.5954
       179.0004        178.0004
 -22393358.33049 -17408438.76747  20543015.431    20543015.9744   20543022.8094
       207.0004        208.0004
  -7742257.19647  -6023095.16845  23192238.503    23192239.6314   23192247.6324
       157.0004        158.0004
 -10203214.53749  -7910389.88247  22900656.665    22900657.1344   22900663.8854
       201.0004        200.0004
 -11677961.45948  -9087101.37946  22183807.897    22183807.7494   22183813.9044
       166.0004        168.0004
 -18304007.04149 -13964188.63947  20952017.633    20952017.8484   20952023.0594
       200.0004        199.0004
 -19308638.47549 -15015996.72948  20787537.459    20787537.5584   20787544.2804
       213.0004        213.0004
 21  2  3  0 59 30.0000000  0  7G07G08G01G27G21G04G09
  -9598054.13248  -7443664.26846  22950223.131    22950223.7574   22950228.3154
       179.0004        181.0004
 -22344947.64549 -17370716.14247  20552227.776    20552228.1384   20552234.9034
       207.0004        208.0004
  -7819460.20947  -6083253.31445  23177549.327    23177549.2774   23177557.2054
       157.0004        161.0004
 -10104022.44849  -7833097.34947  22919531.755    22919532.7954   22919539.3944
       200.0004        199.0004
 -11716140.98648  -9116851.62246  22176542.531    22176543.1454   22176548.4854
       167.0004        169.0004
 -18240898.13349 -13915012.86247  20964025.812    20964026.3184   20964031.9704
       200.0004        198.0004
 -19313819.29849 -15020033.72748  20786550.988    20786551.5364   20786558.0834
       212.0004        213.0004
 21  2  3  1  0  0.0000000  0  7G07G08G01G27G21G04G09
  -9673040.18248  -7502094.94046  22935953.544    22935954.4624   22935958.0074
       180.0004        180.0004
 -22296035.69349 -17332602.92047  20561535.666    20561536.1214   20561542.7064
       208.0004        208.0004
  -7896708.94547  -6143447.06445  23162847.196    23162848.3934   23162856.9304
       159.0004        162.0004
 -10004599.00949  -7755624.53847  22938452.111    22938452.5244   22938458.8344
       200.0004        199.0004
 -11754048.03148  -9146389.55546  22169330.027    22169330.1794   22169335.3104
       168.0004        170.0004
 -18177349.30949 -13865494.29747  20976118.741    20976119.4704   20976125.1224
       200.0004        198.0004
 -19318431.74849 -15023627.84648  20785673.394    20785673.8984   20785680.5264
       212.0004        213.0004
 21  2  3  1  0 30.0000000  0  7G07G08G01G27G21G04G09
  -9748075.86148  -7560564.30546  22921675.701    22921675.2024   22921679.5104
       180.0004        181.0004
 -22246623.63649 -17294100.01047  20570939.115    20570939.2644   20570945.3064
       208.0004        208.0004
  -7973999.97647  -6203673.80446  23148141.126    23148141.4934   23148148.9564
       160.0004        163.0004
  -9904946.67549  -7677973.38447  22957414.987    22957415.9814   22957421.8344
       199.0004        199.0004
 -11791679.65248  -9175712.87946  22162169.541    22162168.5524   22162173.9384
       170.0004        172.0004
 -18113362.39349 -13815634.37547  20988295.673    20988296.0814   20988301.1804
       200.0004        198.0004
 -19322475.44949 -15026778.78248  20784903.906    20784904.3364   20784911.2284
       213.0004        214.0004
 21  2  3  1  1  0.0000000  0  7G07G08G01G27G21G04G09
  -9823160.03148  -7619071.42946  22907386.076    22907387.1994   22907390.8564
       180.0004        179.0004
 -22196714.97449 -17255210.11847  20580436.482    20580436.5914   20580442.6604
       208.0004        208.0004
  -8051331.18847  -6263931.81946  23133424.486    23133425.6264   23133433.2344
       161.0004        163.0004
  -9805069.17249  -7600146.74747  22976422.084    22976422.0224   22976427.8284
       199.0004        198.0004
 -11829033.79948  -9204819.97346  22155060.680    22155060.2984   22155065.1754
       171.0004        171.0004
 -18048940.46949 -13765435.46947  21000554.719    21000555.1214   21000560.5544
       199.0004        198.0004
 -19325951.29449 -15029487.21748  20784242.459    20784243.0154   20784249.7454
       213.0004        213.0004
 21  2  3  1  1 30.0000000  0  7G07G08G01G27G21G04G09
  -9898289.40848  -7677613.81646  22893090.335    22893091.1024   22893094.7084
       180.0004        181.0004
 -22146309.54949 -17215933.17747  20590027.672    20590027.7154   20590034.4634
       207.0004        207.0004
  -8128698.04447  -6324217.64745  23118701.506    23118702.1654   23118710.4524
       161.0004        161.0004
  -9704967.72949  -7522145.64747  22995470.387    22995470.8634   22995477.2284
       200.0004        200.0004
 -11866106.91348  -9233708.13646  22148007.167    22148006.2694   22148009.3014
       171.0004        172.0004
 -17984084.24149 -13714898.18147  21012896.430    21012896.8184   21012902.4124
       199.0004        198.0004
 -19328857.77349 -15031752.03048  20783689.654    20783689.9844   20783696.7454
       213.0004        214.0004
 21  2  3  1  2  0.0000000  0  7G07G08G01G27G21G04G09
  -9973463.62148  -7736191.13146  22878786.152    22878785.7464   22878789.5554
       181.0004        182.0004
 -22095411.83449 -17176272.61247  20599711.777    20599712.4934   20599719.9164
       206.0004        206.0004
  -8206099.27947  -6384530.25545  23103972.277    23103973.2274   23103980.1014
       159.0004        160.0004
  -9604647.10549  -7443973.72847  23014560.083    23014560.9024   23014567.7294
       198.0004        198.0004
 -11902896.97748  -9262375.70846  22141006.234    22141006.1534   22141009.5644
       172.0004        173.0004
 -17918797.77449 -13664025.61047  21025319.159    21025319.8844   21025326.3254
       199.0004        197.0004
 -19331196.77649 -15033574.63348  20783244.929    20783245.0224   20783251.5764
       213.0004        214.0004
 21  2  3  1  2 30.0000000  0  7G07G08G01G27G21G04G09
 -10048681.71148  -7794802.59146  22864471.865    22864471.3294   22864476.3664
       180.0004        179.0004
 -22044024.95449 -17136230.85947  20609490.910    20609491.5204   20609498.3304
       206.0004        206.0004
  -8283533.02747  -6444868.21745  23089238.658    23089238.5524   23089246.0264
       159.0004        162.0004
  -9504111.30049  -7365634.13047  23033690.926    23033692.0264   23033698.7154
       196.0004        195.0004
 -11939403.23748  -9290822.09646  22134058.546    22134057.7684   22134063.8114
       172.0004        173.0004
 -17853084.52749 -13612820.46847  21037824.609    21037825.2424   21037830.4054
       199.0004        197.0004
 -19332969.68349 -15034956.09348  20782907.375    20782907.5914   20782913.7004
       213.0004        213.0004
 21  2  3  1  3  0.0000000  0  7G07G08G01G27G21G04G09
 -10123940.33048  -7853445.67946  22850150.121    22850150.6154   22850155.2424
       178.0004        177.0004
 -21992149.74949 -17095808.62547  20619362.844    20619362.9654   20619370.1334
       206.0004        206.0004
  -8360994.97747  -6505228.15946  23074498.273    23074498.1074   23074505.7224
       161.0004        164.0004
  -9403361.79949  -7287128.02547  23052864.791    23052864.6644   23052870.9264
       196.0004        195.0004
 -11975621.61348  -9319044.22046  22127165.831    22127165.6094   22127171.0364
       172.0004        171.0004
 -17786945.49549 -13561283.58547  21050411.013    21050411.6274   21050416.9374
       199.0004        198.0004
 -19334175.27349 -15035895.53248  20782677.567    20782677.7924   20782684.4494
       213.0004        213.0004
 21  2  3  1  3 30.0000000  0  7G07G08G01G27G21G04G09
 -10199238.08348  -7912119.24346  22835822.423    22835822.7284   22835826.0794
       179.0004        180.0004
 -21939788.40049 -17055007.56347  20629326.957    20629327.3234   20629334.2574
       206.0004        207.0004
  -8438481.87847  -6565607.53546  23059752.564    23059752.5014   23059760.9264
       162.0004        163.0004
  -9302401.28649  -7208457.49647  23072075.582    23072075.4634   23072083.3474
       195.0004        194.0004
 -12011549.25348  -9347039.77346  22120329.644    22120328.8584   22120334.1644
       170.0004        171.0004
 -17720382.76849 -13509416.53447  21063076.564    21063077.7944   21063082.5084
       198.0004        196.0004
 -19334813.52849 -15036392.86648  20782556.640    20782556.8274   20782563.1804
       213.0004        214.0004
 21  2  3  1  4  0.0000000  0  7G07G08G01G27G21G04G09
 -10274572.40648  -7970821.30346  22821486.030    22821487.0124   22821489.8654
       179.0004        180.0004
 -21886942.97549 -17013829.29547  20639383.174    20639383.6784   20639390.6744
       207.0004        207.0004
  -8515990.41747  -6626003.75246  23045002.725    23045003.6464   23045010.8514
       163.0004        164.0004
  -9201232.34549  -7129624.56347  23091326.987    23091327.4154   23091334.9644
       195.0004        194.0004
 -12047182.84048  -9374806.16746  22113548.170    22113547.6324   22113552.3024
       170.0004        171.0004
 -17653398.42149 -13457220.93647  21075824.167    21075824.4694   21075829.6254
       198.0004        197.0004
 -19334884.40649 -15036448.09548  20782543.522    20782543.5914   20782549.6784
       214.0004        215.0004
 21  2  3  1  4 30.0000000  0  7G07G08G01G27G21G04G09
 -10349941.62748  -8029550.56446  22807144.143    22807144.5094   22807147.4754
       180.0004        181.0004
 -21833616.03549 -16972275.81647  20649531.113    20649531.1644   20649538.0074
       206.0004        206.0004
  -8593518.09947  -6686414.88546  23030248.357    23030249.6484   23030258.6394
       162.0004        164.0004
  -9099858.40649  -7050631.89147  23110617.899    23110619.0604   23110625.5844
       195.0004        195.0004
 -12082519.95248  -9402341.56746  22106824.165    22106824.5184   22106828.5694
       170.0004        172.0004
 -17585995.34049 -13404699.05747  21088650.294    21088650.8534   21088656.2134
       198.0004        197.0004
 -19334388.68149 -15036061.81548  20782637.459    20782637.6354   20782644.4384
       214.0004        215.0004
 21  2  3  1  5  0.0000000  0  7G07G08G01G27G21G04G09
 -10425342.83548  -8088304.76446  22792796.157    22792795.7994   22792799.5624
       179.0004        179.0004
 -21779808.98549 -16930348.25447  20659769.632    20659770.2684   20659777.0244
       205.0004        205.0004
  -8671060.80147  -6746837.75646  23015492.010    23015493.5254   23015501.2614
       161.0004        163.0004
  -8998281.18648  -6971480.83047  23129947.560    23129948.6464   23129954.6934
       193.0004        193.0004
 -12117557.37748  -9429643.46246  22100156.668    22100156.2334   22100160.4214
       171.0004        172.0004
 -17518174.88149 -13351851.96847  21101555.544    21101556.2924   21101562.2694
       198.0004        197.0004
 -19333325.59549 -15035233.44548  20782839.180    20782839.6564   20782846.8184
       214.0004        215.0004
 21  2  3  1  5 30.0000000  0  7G07G08G01G27G21G04G09
 -10500776.25548  -8147084.03546  22778439.814    22778441.0844   22778444.3384
       178.0004        178.0004
 -21725526.74849 -16888050.38047  20670098.878    20670099.0634   20670106.8264
       205.0004        205.0004
  -8748618.02847  -6807271.91145  23000733.783    23000734.4604   23000743.0964
       161.0004        162.0004
  -8896506.19348  -6892175.62347  23149315.188    23149316.0214   23149322.2594
       192.0004        193.0004
 -12152295.36248  -9456711.98646  22093544.990    22093544.9224   22093551.0804
       171.0004        171.0004
 -17449941.95749 -13298683.45047  21114540.181    21114540.5974   21114547.0044
       198.0004        196.0004
 -19331698.02149 -15033965.18748  20783149.546    20783149.9014   20783156.1814
       215.0004        215.0004
 21  2  3  1  6  0.0000000  0  7G07G08G01G27G21G04G09
 -10576240.52548  -8205887.36046  22764080.377    22764080.9224   22764084.7194
       178.0004        178.0004
 -21670771.33749 -16845383.83747  20680517.348    20680518.6014   20680526.6204
       204.0004        205.0004
  -8826186.78347  -6867715.07046  22985975.201    22985974.5494   22985982.6744
       161.0004        163.0004
  -8794536.30748  -6812718.58247  23168719.355    23168720.0854   23168726.7124
       192.0004        192.0004
 -12186730.94648  -9483544.89446  22086992.912    22086992.4804   22086997.3564
       171.0004        172.0004
 -17381299.02649 -13245195.47147  21127602.489    21127602.6254   21127608.5594
       197.0004        195.0004
 -19329506.30149 -15032257.36748  20783566.578    20783566.7484   20783573.4434
       215.0004        215.0004
 21  2  3  1  6 30.0000000  0  7G07G08G01G27G21G04G09
 -10651733.71848  -8264713.19846  22749714.814    22749715.7254   22749719.4844
       178.0004        179.0004
 -21615545.51249 -16802350.69447  20691027.508    20691027.9994   20691035.9684
       205.0004        206.0004
  -8903764.21947  -6928164.95546  22971211.468    22971211.4794   22971220.6814
       161.0004        163.0004
  -8692374.66148  -6733112.06347  23188160.453    23188160.8574   23188168.0054
       192.0004        193.0004
 -12220861.22748  -9510139.89446  22080499.094    22080497.9124   22080503.2734
       171.0004        172.0004
 -17312248.75649 -13191390.04447  21140742.151    21140742.7404   21140748.9034
       197.0004        195.0004
 -19326751.06849 -15030110.41048  20784090.682    20784090.9784   20784097.4784
       214.0004        214.0004
 21  2  3  1  7  0.0000000  0  7G07G08G01G27G21G04G09
 -10727253.21748  -8323559.58646  22735344.109    22735343.7504   22735347.7854
       178.0004        178.0004
 -21559850.42649 -16758951.94447  20701626.770    20701627.1974   20701634.0064
       206.0004        206.0004
  -8981346.40247  -6988618.60445  22956448.711    22956448.3974   22956456.1964
       160.0004        162.0004
  -8590023.18548  -6653357.72747  23207638.046    23207637.6814   23207644.1064
       191.0004        190.0004
 -12254683.74048  -9536495.11046  22074062.431    22074061.4184   22074065.8334
       171.0004        173.0004
 -17242792.72949 -13137268.49647  21153959.217    21153960.0944   21153965.5074
       196.0004        196.0004
 -19323431.89849 -15027524.06748  20784721.884    20784722.4354   20784728.9014
       214.0004        214.0004
 21  2  3  1  7 30.0000000  0  7G07G08G01G27G21G04G09
 -10802796.29148  -8382424.29846  22720967.565    22720967.9564   22720972.2174
       177.0004        177.0004
 -21503688.27649 -16715189.20647  20712313.982    20712314.5274   20712321.5764
       206.0004        206.0004
  -9058929.76447  -7049073.13245  22941683.565    22941684.9414   22941692.9154
       160.0004        161.0004
  -8487484.25848  -6573457.25247  23227151.356    23227150.4884   23227157.3484
       191.0004        192.0004
 -12288195.09848  -9562607.81646  22067684.719    22067684.9924   22067689.2474
       172.0004        174.0004
 -17172932.89449 -13082832.26047  21167253.102    21167253.3924   21167259.1224
       197.0004        195.0004
 -19319548.65249 -15024498.16048  20785460.944    20785461.3124   20785467.7674
       213.0004        213.0004
 21  2  3  1  8  0.0000000  0  7G07G08G01G27G21G04G09
 -10878360.24648  -8441305.30646  22706588.207    22706589.0654   22706593.4144
       178.0004        180.0004
 -21447061.26049 -16671064.25947  20723089.413    20723090.0224   20723097.3544
       206.0004        205.0004
  -9136510.66047  -7109525.74145  22926919.663    22926921.4394   22926929.1464
       159.0004        161.0004
  -8384760.19648  -6493412.53047  23246696.862    23246697.8484   23246704.7064
       190.0004        190.0004
 -12321391.74548  -9588475.33846  22061368.202    22061367.7764   22061373.3014
       173.0004        175.0004
 -17102671.18449 -13028082.89147  21180623.549    21180624.1494   21180630.1324
       196.0004        195.0004
 -19315101.26449 -15021032.66948  20786307.224    20786307.7154   20786314.1994
       213.0004        213.0004
 21  2  3  1  8 30.0000000  0  7G07G08G01G27G21G04G09
 -10953944.04248  -8500201.76246  22692206.309    22692206.4744   22692210.1964
       179.0004        181.0004
 -21389972.28449 -16626579.31947  20733952.992    20733952.9824   20733960.3364
       204.0004        203.0004
  -9214087.05447  -7169974.84845  22912158.662    22912158.7544   22912167.1824
       160.0004        162.0004
  -8281854.96248  -6413226.64447  23266279.613    23266279.4824   23266286.6354
       190.0004        189.0004
 -12354272.46348  -9614096.66146  22055110.386    22055110.8844   22055115.4484
       174.0004        175.0004
 -17032011.15849 -12973023.12347  21194070.265    21194070.3134   21194076.5454
       197.0004        196.0004
 -19310091.31549 -15017128.79148  20787260.565    20787260.9224   20787267.8264
       213.0004        214.0004
 21  2  3  1  9  0.0000000  0  7G07G08G01G27G21G04G09
 -11029546.08648  -8559112.43046  22677818.700    22677819.2924   22677823.9404
       180.0004        180.0004
 -21332423.97249 -16581736.47847  20744904.342    20744904.7214   20744911.5984
       203.0004        204.0004
  -9291656.26447  -7230418.35046  22897398.689    22897398.7284   22897406.2674
       161.0004        163.0004
  -8178771.77448  -6332902.07347  23285894.960    23285895.2634   23285902.3154
       189.0004        189.0004
 -12386835.44748  -9639470.38046  22048914.946    22048914.7084   22048918.9804
       174.0004        174.0004
 -16960955.68849 -12917655.23847  21207591.184    21207591.7004   21207597.7304
       197.0004        196.0004
 -19304519.67649 -15012787.25048  20788321.824    20788321.7604   20788328.0654
       214.0004        215.0004
 21  2  3  1  9 30.0000000  0  7G07G08G01G27G21G04G09
 -11105165.40648  -8618036.59146  22663428.937    22663429.9604   22663433.5584
       179.0004        179.0004
 -21274420.27649 -16536538.80847  20755941.821    20755942.2054   20755949.6154
       204.0004        205.0004
  -9369216.23547  -7290854.68045  22882638.553    22882639.5434   22882647.1464
       161.0004        162.0004
  -8075514.53348  -6252441.92747  23305543.924    23305544.6244   23305552.0564
       189.0004        190.0004
 -12419078.94048  -9664595.20246  22042779.144    22042779.3474   22042782.8804
       174.0004        175.0004
 -16889508.35049 -12861982.01347  21221187.116    21221187.5944   21221193.2904
       196.0004        195.0004
 -19298387.98049 -15008009.33748  20789487.747    20789487.9724   20789494.7764
       214.0004        214.0004
 21  2  3  1 10  0.0000000  0  7G07G08G01G27G21G04G09
 -11180799.52348  -8676972.24646  22649036.190    22649037.3514   22649040.0604
       179.0004        179.0004
 -21215962.80949 -16490987.51447  20767065.445    20767066.0674   20767073.3704
       204.0004        204.0004
  -9446763.23647  -7351280.85245  22867881.561    22867882.5254   22867890.2324
       160.0004        162.0004
  -7972085.43748  -6171847.81347  23325227.214    23325227.3144   23325234.1234
       190.0004        192.0004
 -12450999.47348  -9689468.31246  22036704.993    22036704.8574   22036709.2424
       174.0004        174.0004
 -16817671.05349 -12806004.88347  21234856.727    21234857.3934   21234863.4994
       196.0004        195.0004
 -19291696.19549 -15002794.94448  20790760.781    20790761.1064   20790768.1024
       213.0004        213.0004
 21  2  3  1 10 30.0000000  0  7G07G08G01G27G21G04G09
 -11256445.61948  -8735917.25346  22634641.197    22634642.3134   22634645.5984
       179.0004        180.0004
 -21157053.55649 -16445084.19947  20778276.346    20778276.5144   20778283.7784
       204.0004        204.0004
  -9524293.63347  -7411694.12646  22853128.776    22853129.3514   22853136.4724
       161.0004        163.0004
  -7868486.89448  -6091121.68647  23344940.524    23344941.1874   23344947.4944
       189.0004        188.0004
 -12482593.79248  -9714087.25246  22030693.026    22030691.9224   22030696.6574
       173.0004        174.0004
 -16745445.81049 -12749725.47947  21248601.425    21248601.5724   21248607.3614
       195.0004        194.0004
 -19284444.35549 -14997144.15748  20792140.775    20792141.4014   20792147.7794
       213.0004        213.0004
 21  2  3  1 11  0.0000000  0  7G07G08G01G27G21G04G09
 -11332103.32448  -8794871.28946  22620243.609    22620244.5694   22620249.0224
       180.0004        182.0004
 -21097696.54449 -16398831.96347  20789571.435    20789571.8274   20789578.8414
       204.0004        204.0004
  -9601805.96347  -7472093.29546  22838378.066    22838378.7024   22838387.2394
       161.0004        163.0004
  -7764723.31948  -6010266.95847  23364686.168    23364686.3934   23364694.3774
       190.0004        191.0004
 -12513861.76548  -9738451.89146  22024742.639    22024742.3564   22024747.2574
       173.0004        174.0004
 -16672836.85549 -12693147.07047  21262418.295    21262418.6254   21262424.7354
       195.0004        194.0004
 -19276634.78049 -14991058.76648  20793627.774    20793627.8604   20793633.8314
       213.0004        213.0004
 21  2  3  1 11 30.0000000  0  7G07G08G01G27G21G04G09
 -11407769.16948  -8853831.69246  22605846.211    22605845.8124   22605849.4624
       181.0004        183.0004
 -21037893.62849 -16352232.27947  20800951.341    20800951.6774   20800959.1664
       204.0004        204.0004
  -9679295.72747  -7532474.91446  22823632.686    22823632.5674   22823641.4304
       161.0004        163.0004
  -7660796.29148  -5929284.85747  23384464.135    23384463.7834   23384470.2254
       192.0004        192.0004
 -12544799.52748  -9762559.22046  22018854.892    22018855.1694   22018858.6534
       173.0004        174.0004
 -16599845.42449 -12636270.63647  21276307.846    21276308.3924   21276314.6944
       195.0004        194.0004
 -19268266.77749 -14984538.24048  20795219.416    20795219.8414   20795226.3944
       213.0004        213.0004
 21  2  3  1 12  0.0000000  0  7G07G08G01G27G21G04G09
 -11483442.10348  -8912797.63346  22591446.113    22591446.1844   22591449.3104
       182.0004        182.0004
 -20977647.63949 -16305287.35147  20812415.946    20812416.0394   20812423.5484
       203.0004        203.0004
  -9756761.02247  -7592837.45546  22808892.470    22808891.7854   22808900.1904
       161.0004        163.0004
  -7556709.79748  -5848178.52447  23404270.404    23404270.4374   23404277.4244
       192.0004        192.0004
 -12575405.68948  -9786408.15746  22013031.606    22013030.4914   22013035.7904
       172.0004        172.0004
 -16526475.23848 -12579099.06847  21290269.717    21290270.2964   21290276.2894
       194.0004        193.0004
 -19259342.23449 -14977584.05148  20796918.241    20796918.2144   20796925.0834
       213.0004        214.0004
 21  2  3  1 12 30.0000000  0  7G07G08G01G27G21G04G09
 -11559120.85448  -8971768.07246  22577045.226    22577045.3424   22577049.7184
       183.0004        184.0004
 -20916961.57849 -16257999.49647  20823964.150    20823964.5404   20823971.7834
       203.0004        203.0004
  -9834199.14147  -7653178.79146  22794155.261    22794155.7824   22794163.4294
       162.0004        164.0004
  -7452467.13448  -5766950.45647  23424106.107    23424106.3334   23424114.0834
       191.0004        191.0004
 -12605678.31148  -9809997.19546  22007269.801    22007269.4184   22007274.6124
       172.0004        173.0004
 -16452729.41648 -12521634.78447  21304303.843    21304304.1564   21304309.9444
       194.0004        194.0004
 -19249862.32549 -14970197.09748  20798721.806    20798722.2554   20798729.0054
       213.0004        214.0004
 21  2  3  1 13  0.0000000  0  7G07G08G01G27G21G04G09
 -11634800.88048  -9030739.51646  22562643.305    22562643.7654   22562647.8944
       184.0004        185.0004
 -20855835.78149 -16210369.01247  20835595.623    20835595.8904   20835603.5484
       203.0004        204.0004
  -9911604.65847  -7713494.75646  22779425.119    22779425.8324   22779434.0664
       163.0004        166.0004
  -7348068.81448  -5685601.14147  23443972.718    23443973.1094   23443980.2304
       191.0004        191.0004
 -12635612.36448  -9833322.42646  22001573.238    22001573.2774   22001579.2844
       173.0004        175.0004
 -16378608.21849 -12463878.01147  21318408.995    21318409.0404   21318414.7184
       195.0004        194.0004
 -19239825.46549 -14962376.17048  20800631.926    20800632.0724   20800638.9944
       213.0004        213.0004
 21  2  3  1 13 30.0000000  0  7G07G08G01G27G21G04G09
 -11710481.26948  -9089711.25146  22548241.491    22548242.2284   22548245.7994
       184.0004        185.0004
 -20794274.41949 -16162399.12047  20847309.670    20847310.3204   20847317.9274
       202.0004        202.0004
  -9988975.66048  -7773783.82146  22764702.960    22764702.9744   22764711.0234
       166.0004        168.0004
  -7243519.03548  -5604133.77247  23463867.294    23463868.0624   23463876.0024
       192.0004        192.0004
 -12665206.92948  -9856383.13046  21995941.164    21995941.3974   21995945.9184
       172.0004        173.0004
 -16304115.58349 -12405831.80947  21332583.104    21332584.2584   21332589.9784
       195.0004        194.0004
 -19229233.76249 -14954122.89648  20802647.002    20802647.5844   20802654.7374
       213.0004        214.0004
 21  2  3  1 14  0.0000000  0  7G07G08G01G27G21G04G09
 -11786160.46048  -9148682.03746  22533841.008    22533840.7374   22533844.4744
       184.0004        184.0004
 -20732280.32449 -16114092.01047  20859106.610    20859107.4644   20859114.9604
       201.0004        202.0004
 -10066309.50848  -7834043.93646  22749987.144    22749986.9704   22749994.6884
       167.0004        168.0004
  -7138821.03248  -5522550.93247  23483791.629    23483792.0314   23483798.3634
       190.0004        190.0004
 -12694459.94348  -9879177.65246  21990374.836    21990374.1894   21990379.4684
       171.0004        172.0004
 -16229254.60149 -12347498.56247  21346829.041    21346830.0774   21346835.9314
       195.0004        194.0004
 -19218088.46349 -14945438.23848  20804769.014    20804768.8804   20804774.9654
       213.0004        213.0004
 21  2  3  1 14 30.0000000  0  7G07G08G01G27G21G04G09
 -11861837.38348  -9207651.06146  22519440.179    22519440.0844   22519444.1814
       184.0004        186.0004
 -20669856.87149 -16065450.34747  20870985.499    20870986.4334   20870993.8014
       201.0004        202.0004
 -10143603.98448  -7894273.38246  22735278.207    22735278.7204   22735286.2814
       167.0004        168.0004
  -7033978.60848  -5440855.52547  23503742.493    23503743.0384   23503749.3454
       191.0004        190.0004
 -12723370.09848  -9901705.02946  21984873.322    21984873.1354   21984878.3464
       171.0004        171.0004
 -16154028.87649 -12288881.12347  21361144.878    21361144.8294   21361150.1834
       195.0004        193.0004
 -19206391.37049 -14936323.60948  20806993.897    20806994.2224   20807001.0144
       213.0004        213.0004
 21  2  3  1 15  0.0000000  0  7G07G08G01G27G21G04G09
 -11937508.05648  -9266615.22846  22505039.538    22505040.4364   22505043.7124
       186.0004        186.0004
 -20607005.54349 -16016475.30547  20882946.586    20882946.8474   20882954.1904
       202.0004        202.0004
 -10220854.49848  -7954468.56846  22720577.990    22720578.3234   22720585.7004
       167.0004        168.0004
  -6928993.16148  -5359048.72347  23523722.157    23523721.6484   23523726.3524
       189.0004        189.0004
 -12751933.30048  -9923962.05946  21979437.704    21979437.8284   21979442.6124
       171.0004        172.0004
 -16078439.66448 -12229980.45447  21375527.909    21375528.5764   21375534.5324
       194.0004        193.0004
 -19194141.93649 -14926778.60948  20809324.922    20809325.3134   20809332.3434
       213.0004        213.0004
 21  2  3  1 15 30.0000000  0  7G07G08G01G27G21G04G09
 -12013171.41348  -9325573.66546  22490641.471    22490641.8244   22490645.2854
       185.0004        185.0004
 -20543729.46349 -15967169.23447  20894987.956    20894988.0324   20894994.8464
       201.0004        202.0004
 -10298058.88448  -8014627.76746  22705884.811    22705885.9084   22705894.9984
       167.0004        168.0004
  -6823868.44748  -5277133.34447  23543726.644    23543726.0164   23543731.6534
       189.0004        190.0004
 -12780148.20648  -9945947.65246  21974069.624    21974068.5944   21974074.0504
       172.0004        174.0004
 -16002490.57248 -12170799.31547  21389980.970    21389981.6224   21389987.4514
       193.0004        192.0004
 -19181341.97449 -14916804.57848  20811761.226    20811761.1104   20811767.9804
       213.0004        214.0004
 21  2  3  1 16  0.0000000  0  7G07G08G01G27G21G04G09
 -12088822.38548  -9384522.47446  22476245.880    22476245.9864   22476249.9634
       185.0004        186.0004
 -20480028.62549 -15917532.21847  20907109.293    20907109.3404   20907116.6304
       201.0004        202.0004
 -10375210.93748  -8074746.23446  22691203.164    22691204.4484   22691212.8134
       167.0004        169.0004
  -6718604.34948  -5195109.40447  23563756.920    23563757.1684   23563762.6314
       190.0004        189.0004
 -12808009.67848  -9967657.87746  21968766.926    21968766.8254   21968772.5684
       173.0004        174.0004
 -15926181.31148 -12111337.56547  21404501.669    21404502.5494   21404508.8654
       193.0004        192.0004
 -19167989.42649 -14906400.00548  20814301.576    20814302.1194   20814308.7524
       213.0004        214.0004
 21  2  3  1 16 30.0000000  0  7G07G08G01G27G21G04G09
 -12164461.56848  -9443462.10046  22461852.111    22461852.8654   22461856.0984
       186.0004        187.0004
 -20415908.20049 -15867568.25847  20919309.925    20919310.9594   20919318.5164
       201.0004        201.0004
 -10452310.22548  -8134823.58646  22676532.661    22676532.7554   22676540.5894
       168.0004        170.0004
  -6613206.40848  -5112981.14147  23583813.495    23583813.9834   23583819.7134
       191.0004        191.0004
 -12835517.96848  -9989092.90546  21963532.712    21963532.3034   21963537.7894
       174.0004        175.0004
 -15849517.26048 -12051599.35547  21419091.053    21419091.0904   21419096.9774
       192.0004        191.0004
 -19154087.95349 -14895567.69248  20816947.521    20816947.6314   20816954.4914
       213.0004        214.0004
 21  2  3  1 17  0.0000000  0  8G07G08G01G30G27G21G04G09
 -12240088.32248  -9502392.05246  22447460.807    22447461.6834   22447464.7484
       187.0004        187.0004
 -20351372.43649 -15817280.64347  20931591.864    20931591.9274   20931599.6524
       200.0004        201.0004
 -10529355.36248  -8194858.73146  22661870.943    22661871.3224   22661878.7434
       168.0004        169.0004
  -1442616.18757  -1106836.82445  24336088.249    24336089.8025   24336096.9054
       135.0004        143.0004
  -6507679.19148  -5030752.16146  23603893.830    23603894.4274   23603900.0634
       188.0004        187.0004
 -12862672.63548 -10010252.36746  21958364.252    21958364.9364   21958369.6334
       174.0004        175.0004
 -15772503.03448 -11991588.27047  21433745.542    21433746.3814   21433752.6254
       192.0004        191.0004
 -19139640.39649 -14884309.85448  20819696.237    20819696.8354   20819703.7134
       213.0004        214.0004
 21  2  3  1 17 30.0000000  0  8G07G08G01G30G27G21G04G09
 -12315696.50848  -9561307.53146  22433072.976    22433072.6664   22433077.1204
       187.0004        186.0004
 -20286420.89949 -15766669.05847  20943951.834    20943952.0224   20943959.1614
       200.0004        200.0004
 -10606339.26548  -8254846.18546  22647221.151    22647221.8294   22647228.6444
       168.0004        169.0004
  -1525948.28247  -1171770.91845  24320231.509    24320232.3094   24320239.1164
       139.0004        145.0004
  -6402021.62748  -4948421.60546  23623998.814    23624000.1904   23624007.1154
       186.0004        185.0004
 -12889467.31548 -10031131.33246  21953266.740    21953266.4234   21953271.6374
       174.0004        176.0004
 -15695137.39748 -11931303.36547  21448467.545    21448468.3034   21448474.7254
       192.0004        190.0004
 -19124643.80749 -14872624.20648  20822550.840    20822550.8144   20822557.3424
       213.0004        214.0004
 21  2  3  1 18  0.0000000  0  8G07G08G01G30G27G21G04G09
 -12391288.24648  -9620210.17347  22418688.483    22418688.1344   22418692.7354
       187.0004        188.0004
 -20221059.06349 -15715737.74547  20956389.581    20956389.9844   20956397.0504
       200.0004        201.0004
 -10683262.30248  -8314786.17346  22632584.677    22632584.5134   22632593.3584
       169.0004        171.0004
  -1609394.26147  -1236793.75745  24304354.489    24304355.1244   24304359.0644
       142.0004        147.0004
  -6296240.11148  -4865994.44946  23644130.830    23644130.7104   23644136.2224
       185.0004        185.0004
 -12915903.72748 -10051731.11746  21948236.802    21948236.0314   21948240.8134
       175.0004        176.0004
 -15617426.63348 -11870749.52447  21463256.218    21463256.8754   21463262.7984
       192.0004        191.0004
 -19109102.77649 -14860514.30947  20825507.065    20825507.5174   20825514.2024
       213.0004        212.0004
 21  2  3  1 18 30.0000000  0  8G07G08G01G30G27G21G04G09
 -12466862.24048  -9679098.98146  22404307.470    22404307.4354   22404311.8244
       187.0004        187.0004
 -20155291.23349 -15664490.08147  20968905.069    20968905.4464   20968912.7154
       201.0004        201.0004
 -10760122.51748  -8374677.22146  22617958.260    22617958.6734   22617966.8534
       170.0004        171.0004
  -1692954.04947  -1301905.26745  24288453.003    24288453.5814   24288460.0754
       144.0004        148.0004
  -6190338.68248  -4783473.85246  23664283.573    23664283.0434   23664288.8914
       184.0004        185.0004
 -12941980.71848 -10072050.83346  21943273.476    21943274.0694   21943278.0234
       175.0004        175.0004
 -15539374.73448 -11809929.86047  21478109.194    21478109.5154   21478115.4424
       192.0004        191.0004
 -19093019.60449 -14847981.96148  20828568.453    20828568.6144   20828575.1004
       213.0004        214.0004
 21  2  3  1 19  0.0000000  0  8G07G08G01G30G27G21G04G09
 -12542413.66748  -9737970.20546  22389930.307    22389930.5244   22389933.9724
       186.0004        186.0004
 -20089117.26549 -15612925.93847  20981497.531    20981497.5244   20981504.9634
       200.0004        200.0004
 -10836914.28448  -8434514.91946  22603344.377    22603344.8694   22603353.7674
       170.0004        171.0004
  -1776623.85747  -1367102.47845  24272531.497    24272531.8324   24272538.1894
       147.0004        152.0004
  -6084317.66848  -4700860.09846  23684459.508    23684458.4804   23684463.2574
       186.0004        187.0004
 -12967693.18848 -10092086.49746  21938381.141    21938381.0454   21938385.3054
       176.0004        177.0004
 -15460982.06348 -11748844.65647  21493026.449    21493027.3114   21493032.6744
       192.0004        191.0004
 -19076392.94449 -14835026.11748  20831732.461    20831732.7374   20831739.2904
       214.0004        214.0004
 21  2  3  1 19 30.0000000  0  8G07G08G01G30G27G21G04G09
 -12617939.70048  -9796821.65746  22375558.408    22375558.3734   22375562.1334
       186.0004        187.0004
 -20022539.20449 -15561046.92247  20994165.450    20994166.6474   20994174.4834
       199.0004        199.0004
 -10913633.95448  -8494296.45546  22588744.426    22588745.2834   22588753.2844
       169.0004        170.0004
  -1860401.91647  -1432384.09045  24256589.230    24256588.5064   24256596.9154
       151.0004        154.0004
  -5978179.43248  -4618154.98847  23704655.961    23704656.4104   23704662.1184
       188.0004        189.0004
 -12993038.63848 -10111836.19946  21933557.985    21933557.0714   21933561.8824
       177.0004        177.0004
 -15382250.89748 -11687495.70647  21508008.789    21508009.0844   21508014.5294
       192.0004        191.0004
 -19059223.51949 -14821647.33848  20834999.024    20834999.6794   20835006.2714
       214.0004        214.0004
 21  2  3  1 20  0.0000000  0  8G07G08G01G30G27G21G04G09
 -12693437.87248  -9855651.40246  22361190.818    22361191.3364   22361195.1664
       186.0004        186.0004
 -19955560.15649 -15508855.45447  21006911.203    21006911.7564   21006920.2484
       199.0004        199.0004
 -10990277.89748  -8554018.98246  22574159.117    22574159.8484   22574169.0684
       168.0004        169.0004
  -1944286.47047  -1497748.67645  24240627.440    24240626.4374   24240632.5484
       151.0004        153.0004
  -5871926.35348  -4535360.37746  23724876.440    23724875.5464   23724881.0384
       188.0004        187.0004
 -13018014.47648 -10131297.88246  21928805.076    21928805.2274   21928810.2764
       177.0004        178.0004
 -15303183.55948 -11625884.78647  21523054.393    21523054.7024   21523061.1624
       191.0004        190.0004
 -19041511.94349 -14807846.11048  20838369.746    20838370.1794   20838376.5954
       213.0004        214.0004
 21  2  3  1 20 30.0000000  0  8G07G08G01G30G27G21G04G09
 -12768906.77448  -9914458.32246  22346830.002    22346830.3174   22346833.6654
       186.0004        186.0004
 -19888183.10549 -15456353.85247  21019733.726    21019733.7944   21019741.1594
       198.0004        199.0004
 -11066843.85148  -8613680.73746  22559591.132    22559591.0534   22559598.1424
       168.0004        169.0004
  -2028277.09847  -1563195.91245  24224643.584    24224642.7504   24224649.4414
       150.0004        152.0004
  -5765562.11748  -4452479.16547  23745116.087    23745115.7694   23745121.3094
       188.0004        188.0004
 -13042619.45448 -10150470.57246  21924122.014    21924122.3704   21924127.5504
       176.0004        176.0004
 -15223783.82448 -11564014.86947  21538163.636    21538164.2484   21538170.6314
       191.0004        190.0004
 -19023260.37549 -14793624.10848  20841843.699    20841843.7314   20841849.7444
       213.0004        214.0004
 21  2  3  1 21  0.0000000  0  8G07G08G01G30G27G21G04G09
 -12844343.74248  -9973240.37246  22332474.568    22332474.7834   22332478.7564
       186.0004        186.0004
 -19820410.76149 -15403544.22347  21032631.072    21032630.7644   21032637.9314
       199.0004        200.0004
 -11143328.15548  -8673278.88246  22545035.556    22545036.0604   22545044.4654
       168.0004        169.0004
  -2112372.01247  -1628724.39245  24208639.988    24208639.6124   24208647.0134
       149.0004        152.0004
  -5659089.11048  -4369513.20346  23765376.527    23765375.9604   23765382.5004
       186.0004        185.0004
 -13066850.94648 -10169352.23246  21919511.114    21919511.5564   21919515.8394
       176.0004        177.0004
 -15144054.03148 -11501887.76247  21553336.506    21553336.5854   21553342.9354
       192.0004        191.0004
 -19004469.56549 -14778981.92248  20845418.279    20845418.5704   20845425.4904
       213.0004        213.0004
 21  2  3  1 21 30.0000000  0  8G07G08G01G30G27G21G04G09
 -12919745.30848 -10031994.85346  22318125.417    22318126.1274   22318131.1104
       186.0004        187.0004
 -19752244.40549 -15350427.60547  21045601.196    21045601.9154   21045610.0234
       199.0004        199.0004
 -11219726.16648  -8732809.80546  22530497.424    22530498.1484   22530506.0334
       168.0004        169.0004
  -2196568.38847  -1694331.96545  24192617.866    24192618.4904   24192625.1724
       151.0004        155.0004
  -5552508.64748  -4286463.51146  23785656.979    23785657.1814   23785664.1284
       185.0004        185.0004
 -13090705.11048 -10187939.90246  21914972.879    21914972.2604   21914976.1104
       177.0004        178.0004
 -15063995.56148 -11439504.56247  21568571.302    21568571.6174   21568576.9094
       192.0004        191.0004
 -18985139.34649 -14763919.44448  20849097.594    20849097.6914   20849103.9754
       213.0004        213.0004
 21  2  3  1 22  0.0000000  0  8G07G08G01G30G27G21G04G09
 -12995111.65948 -10090721.84347  22303784.497    22303785.1934   22303788.9264
       187.0004        188.0004
 -19683689.00349 -15297007.78847  21058646.443    21058647.3404   21058655.4374
       198.0004        198.0004
 -11296037.21848  -8792272.90546  22515975.017    22515976.2744   22515985.5974
       168.0004        169.0004
  -2280867.41847  -1760019.50145  24176575.849    24176576.5604   24176584.4294
       153.0004        156.0004
  -5445826.10248  -4203334.26246  23805957.874    23805958.3804   23805964.5174
       184.0004        183.0004
 -13114182.46348 -10206233.91746  21910505.035    21910504.3484   21910509.2454
       177.0004        178.0004
 -14983613.78848 -11376869.40947  21583867.016    21583867.6684   21583873.3014
       191.0004        190.0004
 -18965273.46549 -14748439.51948  20852877.231    20852877.5614   20852884.0934
       213.0004        213.0004
 21  2  3  1 22 30.0000000  0  8G07G08G01G30G27G21G04G09
 -13070439.57148 -10149418.91546  22289450.981    22289450.9304   22289453.7434
       187.0004        187.0004
 -19614746.70849 -15243286.51247  21071766.362    21071766.4924   21071774.7874
       197.0004        198.0004
 -11372257.20948  -8851665.06946  22501471.949    22501472.5314   22501480.9904
       168.0004        170.0004
  -2365266.84147  -1825785.28045  24160516.438    24160517.0434   24160523.4624
       154.0004        158.0004
  -5339043.35448  -4120126.89946  23826277.751    23826278.3934   23826284.4554
       182.0004        182.0004
 -13137280.12248 -10224232.07446  21906108.860    21906108.8434   21906113.9254
       176.0004        177.0004
 -14902910.66148 -11313983.84747  21599223.851    21599224.5574   21599230.1194
       191.0004        190.0004
 -18944872.33549 -14732542.52648  20856759.663    20856759.7294   20856766.6554
       213.0004        213.0004
 21  2  3  1 23  0.0000000  0  8G07G08G01G30G27G21G04G09
 -13145727.66348 -10208084.97246  22275122.928    22275123.4804   22275127.4844
       186.0004        186.0004
 -19545421.19749 -15189266.64747  21084959.276    21084959.4204   21084966.8274
       197.0004        197.0004
 -11448383.68648  -8910984.37846  22486985.389    22486986.2924   22486994.4124
       168.0004        169.0004
  -2449766.04547  -1891628.81145  24144437.189    24144437.0924   24144444.3954
       156.0004        159.0004
  -5232163.87748  -4036844.25646  23846616.970    23846617.6534   23846622.6554
       183.0004        184.0004
 -13159996.76148 -10241933.34446  21901786.976    21901786.0954   21901791.3394
       177.0004        179.0004
 -14821889.77448 -11250850.69747  21614641.596    21614641.6934   21614647.7464
       191.0004        189.0004
 -18923938.06249 -14716230.12048  20860742.741    20860743.4494   20860750.2884
       213.0004        213.0004
 21  2  3  1 23 30.0000000  0  8G07G08G01G30G27G21G04G09
 -13220972.94948 -10266717.65846  22260803.490    22260804.4754   22260808.7554
       186.0004        186.0004
 -19475713.95349 -15134949.31547  21098223.894    21098224.0524   21098231.7224
       197.0004        197.0004
 -11524412.61548  -8970227.68146  22472517.577    22472518.9994   22472525.6904
       169.0004        171.0004
  -2534362.80747  -1957548.38345  24128338.409    24128338.3604   24128346.3494
       156.0004        158.0004
  -5125189.68748  -3953487.72846  23866973.868    23866973.3164   23866979.9384
       182.0004        182.0004
 -13182329.58048 -10259335.52046  21897535.563    21897535.8034   21897541.8964
       178.0004        178.0004
 -14740553.20748 -11187471.56047  21630119.675    21630120.2754   21630125.6234
       190.0004        189.0004
 -18902471.14049 -14699502.65248  20864828.609    20864828.6294   20864835.3834
       213.0004        213.0004
 21  2  3  1 24  0.0000000  0  8G07G08G01G30G27G21G04G09
 -13296174.30248 -10325316.12347  22246494.781    22246494.9734   22246498.0434
       187.0004        188.0004
 -19405629.80449 -15080338.29047  21111560.845    21111560.8854   21111567.7154
       197.0004        197.0004
 -11600342.37848  -9029393.70046  22458068.303    22458068.8044   22458076.1564
       170.0004        171.0004
  -2619057.29947  -2023544.07045  24112221.404    24112221.8944   24112228.8304
       156.0004        157.0004
  -5018125.08448  -3870060.78646  23887348.337    23887348.4344   23887353.8784
       184.0004        186.0004
 -13204277.88048 -10276438.08346  21893360.262    21893359.0974   21893365.4594
       177.0004        177.0004
 -14658905.34548 -11123849.85747  21645656.620    21645657.4474   21645663.3254
       190.0004        189.0004
 -18880474.50149 -14682362.42348  20869013.534    20869014.3454   20869020.9544
       212.0004        213.0004
 21  2  3  1 24 30.0000000  0  8G07G08G01G30G27G21G04G09
 -13371327.48948 -10383877.03346  22232193.302    22232193.0894   22232197.4434
       187.0004        187.0004
 -19335169.85149 -15025434.41847  21124968.463    21124968.6534   21124976.1684
       197.0004        197.0004
 -11676167.90648  -9088478.50346  22443640.012    22443640.0204   22443647.8004
       169.0004        169.0004
  -2703846.35347  -2089613.46845  24096086.839    24096086.8944   24096093.7194
       155.0004        157.0004
  -4910971.09248  -3786564.18946  23907737.830    23907738.0804   23907745.2354
       184.0004        183.0004
 -13225837.43748 -10293237.70946  21889256.987    21889257.0434   21889262.3184
       177.0004        178.0004
 -14576947.29748 -11059986.44547  21661253.151    21661253.2314   21661258.6434
       190.0004        190.0004
 -18857947.80449 -14664809.14548  20873301.207    20873301.1564   20873307.7054
       213.0004        213.0004
 21  2  3  1 25  0.0000000  0  8G07G08G01G30G27G21G04G09
 -13446432.38748 -10442400.31147  22217899.445    22217900.7884   22217904.6784
       187.0004        188.0004
 -19264337.86749 -14970240.65847  21138446.115    21138446.9974   21138455.3994
       196.0004        196.0004
 -11751887.26048  -9147480.56446  22429231.485    22429231.9474   22429239.2174
       170.0004        172.0004
  -2788729.74347  -2155756.35245  24079935.017    24079934.5324   24079940.7074
       154.0004        156.0004
  -4803731.63848  -3703000.96446  23928144.107    23928144.7044   23928151.1604
       181.0004        181.0004
 -13247007.94148 -10309734.18046  21885228.213    21885227.9564   21885232.1384
       177.0004        177.0004
 -14494683.19348 -10995884.54947  21676907.327    21676907.6944   21676913.2214
       190.0004        189.0004
 -18834893.65749 -14646844.87148  20877687.522    20877688.1644   20877694.8144
       213.0004        213.0004
 21  2  3  1 25 30.0000000  0  8G07G08G01G30G27G21G04G09
 -13521485.85848 -10500883.52747  22203617.679    22203618.6254   22203623.1334
       188.0004        189.0004
 -19193136.46449 -14914759.03947  21151995.742    21151996.3434   21152004.2034
       195.0004        195.0004
 -11827496.99148  -9206397.20446  22414843.474    22414843.5764   22414851.6034
       170.0004        171.0004
  -2873705.85247  -2221971.49145  24063764.668    24063763.0494   24063770.0804
       155.0004        157.0004
  -4696409.29548  -3619373.20946  23948568.149    23948567.7474   23948574.0214
       180.0004        181.0004
 -13267787.31848 -10325925.88646  21881273.723    21881273.8294   21881278.3994
       176.0004        177.0004
 -14412115.69648 -10931546.23847  21692619.396    21692620.0334   21692625.4094
       190.0004        190.0004
 -18811313.31849 -14628470.58548  20882175.495    20882175.6304   20882182.1644
       213.0004        213.0004
 21  2  3  1 26  0.0000000  0  8G07G08G01G30G27G21G04G09
 -13596486.22548 -10559325.37447  22189347.023    22189347.2894   22189351.3584
       189.0004        190.0004
 -19121569.67049 -14858992.71647  21165613.972    21165615.0194   21165623.4044
       195.0004        196.0004
 -11902994.97848  -9265226.77546  22400476.446    22400475.9284   22400483.7314
       170.0004        171.0004
  -2958774.36447  -2288258.59945  24047575.224    24047575.1624   24047582.8364
       154.0004        157.0004
  -4589007.95248  -3535683.85246  23969007.478    23969005.6274   23969012.5054
       181.0004        181.0004
 -13288174.11748 -10341811.69746  21877394.893    21877394.5224   21877399.6844
       177.0004        178.0004
 -14329248.82948 -10866974.66247  21708388.257    21708388.6574   21708394.9894
       190.0004        189.0004
 -18787209.36249 -14609688.28747  20886761.687    20886761.9254   20886768.7094
       212.0004        212.0004
 21  2  3  1 26 30.0000000  0  8G07G08G01G30G27G21G04G09
 -13671429.83448 -10617723.00647  22175086.101    22175086.0314   22175089.9944
       189.0004        190.0004
 -19049638.28049 -14802942.29347  21179303.520    21179303.6754   21179311.6124
       196.0004        197.0004
 -11978375.88748  -9323965.11446  22386129.951    22386131.3824   22386138.7774
       170.0004        171.0004
  -3043931.68147  -2354614.95345  24031370.016    24031370.4554   24031378.4084
       157.0004        161.0004
  -4481528.16648  -3451933.42046  23989457.208    23989457.8384   23989464.7054
       177.0004        177.0004
 -13308164.53748 -10357388.63646  21873590.261    21873590.4934   21873595.8834
       177.0004        178.0004
 -14246083.43048 -10802170.48047  21724214.258    21724214.7324   21724221.1814
       190.0004        189.0004
 -18762581.18749 -14590497.51647  20891448.338    20891448.7474   20891455.6294
       212.0004        212.0004
 21  2  3  1 27  0.0000000  0  8G07G08G01G30G27G21G04G09
 -13746312.90848 -10676073.45247  22160836.320    22160836.4464   22160839.5094
       189.0004        189.0004
 -18977343.57749 -14746608.74447  21193061.195    21193061.0534   21193068.7034
       196.0004        197.0004
 -12053634.86948  -9382608.44846  22371810.158    22371810.3394   22371818.1254
       171.0004        173.0004
  -3129174.77547  -2421038.11645  24015149.272    24015150.2254   24015156.8464
       159.0004        162.0004
  -4373971.15248  -3368122.76046  24009924.866    24009924.9714   24009931.2184
       175.0004        175.0004
 -13327754.90848 -10372653.82346  21869864.620    21869862.9654   21869868.0834
       178.0004        179.0004
 -14162620.77248 -10737134.62747  21740096.406    21740096.6854   21740103.4004
       189.0004        188.0004
 -18737428.73249 -14570898.19047  20896234.328    20896234.5874   20896241.7524
       211.0004        212.0004
 21  2  3  1 27 30.0000000  0  8G07G08G01G30G27G21G04G09
 -13821136.19748 -10734377.32147  22146596.938    22146597.5664   22146600.9044
       188.0004        188.0004
 -18904691.63049 -14689996.84647  21206885.541    21206885.5504   21206893.7344
       196.0004        196.0004
 -12128772.05248  -9441156.89446  22357512.393    22357512.8994   22357520.8114
       172.0004        174.0004
  -3214505.55747  -2487529.64845  23998911.602    23998911.7114   23998917.8844
       157.0004        158.0004
  -4266342.92348  -3284256.65346  24030406.703    24030406.0974   24030413.6854
       175.0004        176.0004
 -13346946.81148 -10387608.54946  21866211.894    21866211.0874   21866215.5624
       178.0004        178.0004
 -14078867.16948 -10671872.08346  21756034.064    21756034.5094   21756040.8124
       189.0004        187.0004
 -18711756.88549 -14550894.16847  20901120.168    20901120.2104   20901126.9634
       211.0004        212.0004
 21  2  3  1 28  0.0000000  0  8G07G08G01G30G27G21G04G09
 -13895896.24648 -10792631.87947  22132370.870    22132371.5204   22132374.9984
       189.0004        191.0004
 -18831684.58448 -14633108.21947  21220776.617    21220777.6514   21220786.5334
       194.0004        193.0004
 -12203783.26848  -9499607.14946  22343238.146    22343238.5644   22343245.9744
       173.0004        173.0004
  -3299921.61547  -2554087.60145  23982657.144    23982656.9994   23982662.2264
       153.0004        152.0004
  -4158645.30848  -3200336.43346  24050899.474    24050899.6674   24050906.3134
       174.0004        174.0004
 -13365737.17248 -10402250.35446  21862635.641    21862635.2164   21862639.2154
       178.0004        178.0004
 -13994824.52748 -10606384.31346  21772027.157    21772027.3644   21772033.5184
       188.0004        186.0004
 -18685566.28549 -14530485.89748  20906104.016    20906104.1994   20906110.7834
       212.0004        213.0004
 21  2  3  1 28 30.0000000  0  8G07G08G01G30G27G21G04G09
 -13970590.72048 -10850835.36047  22118157.150    22118157.1584   22118161.0204
       191.0004        191.0004
 -18758325.29048 -14575945.14147  21234737.052    21234737.6944   21234746.9964
       194.0004        195.0004
 -12278665.29248  -9557956.74646  22328989.344    22328989.3784   22328996.7124
       174.0004        174.0004
  -3385421.45947  -2620710.86945  23966387.658    23966387.3644   23966392.8974
       151.0004        154.0004
  -4050881.02948  -3116364.29746  24071405.546    24071406.5994   24071414.2844
       175.0004        176.0004
 -13384124.30748 -10416577.97046  21859135.060    21859135.2034   21859140.6394
       177.0004        177.0004
 -13910495.91048 -10540673.69946  21788074.649    21788074.9474   21788080.8274
       188.0004        187.0004
 -18658858.57049 -14509674.69548  20911186.190    20911186.6474   20911193.5364
       212.0004        213.0004
 21  2  3  1 29  0.0000000  0  8G07G08G01G30G27G21G04G09
 -14045218.22248 -10908986.65947  22103956.069    22103956.2364   22103959.7604
       191.0004        191.0004
 -18684617.28149 -14518510.33147  21248765.157    21248764.8704   21248772.6274
       195.0004        195.0004
 -12353415.72948  -9616203.81446  22314763.305    22314763.4454   22314771.9124
       173.0004        174.0004
  -3471004.43647  -2687398.91145  23950101.975    23950101.3474   23950108.0894
       152.0004        156.0004
  -3943053.68848  -3032342.99446  24091925.506    24091926.2604   24091932.3314
       176.0004        177.0004
 -13402107.19948 -10430590.59446  21855713.129    21855714.3594   21855718.7914
       177.0004        177.0004
 -13825885.04048 -10474743.14346  21804175.394    21804176.0484   21804181.5314
       188.0004        186.0004
 -18631636.17749 -14488462.44147  20916366.559    20916367.0414   20916373.5244
       212.0004        212.0004
 21  2  3  1 29 30.0000000  0  8G07G08G01G30G27G21G04G09
 -14119773.88948 -10967081.98947  22089768.164    22089768.6414   22089772.5194
       190.0004        190.0004
 -18610561.23649 -14460804.32947  21262856.940    21262857.0964   21262864.7414
       195.0004        194.0004
 -12428028.84948  -9674343.90146  22300564.810    22300565.3004   22300573.0284
       173.0004        174.0004
  -3556666.63447  -2754148.65545  23933799.899    23933799.4844   23933807.0474
       153.0004        156.0004
  -3835163.48448  -2948272.72346  24112455.437    24112456.8654   24112463.9914
       175.0004        176.0004
 -13419681.38748 -10444284.75746  21852370.907    21852369.8954   21852374.5304
       178.0004        178.0004
 -13740992.46048 -10408593.09146  21820329.616    21820330.4364   21820336.0484
       187.0004        185.0004
 -18603898.32649 -14466848.53847  20921644.666    20921644.8224   20921651.9954
       212.0004        212.0004
 21  2  3  1 30  0.0000000  0  8G07G08G01G30G27G21G04G09
 -14194256.00848 -11025120.01347  22075595.341    22075595.5944   22075599.1744
       191.0004        192.0004
 -18536160.28248 -14402829.56047  21277014.647    21277015.0124   21277022.4094
       194.0004        194.0004
 -12502501.99548  -9732374.90346  22286394.295    22286394.1764   22286401.3554
       173.0004        174.0004
  -3642407.06647  -2820959.34845  23917482.698    23917483.4894   23917490.4324
       152.0004        154.0004
  -3727213.63448  -2864155.94846  24132997.405    24132998.9974   24133005.7914
       176.0004        177.0004
 -13436845.49848 -10457659.37446  21849104.919    21849104.1264   21849107.7374
       179.0004        179.0004
 -13655821.62848 -10342226.21146  21836537.062    21836538.3544   21836543.6404
       187.0004        186.0004
 -18575647.20449 -14444834.68447  20927020.202    20927020.9694   20927027.8114
       211.0004        212.0004
 21  2  3  1 30 30.0000000  0  8G07G08G01G30G27G21G04G09
 -14268663.86248 -11083100.15247  22061435.385    22061435.7584   22061439.9244
       191.0004        191.0004
 -18461419.67148 -14344590.11847  21291237.039    21291237.6444   21291245.0354
       193.0004        193.0004
 -12576833.70448  -9790295.67146  22272248.659    22272248.6424   22272257.7454
       174.0004        175.0004
  -3728225.99947  -2887831.23545  23901153.439    23901153.2654   23901159.3454
       154.0004        157.0004
  -3619208.68348  -2779996.27446  24153551.533    24153552.3844   24153559.0404
       177.0004        178.0004
 -13453599.75048 -10470714.62546  21845915.535    21845914.8754   21845919.9434
       178.0004        178.0004
 -13570377.39248 -10275646.29346  21852797.349    21852797.3734   21852803.1954
       187.0004        187.0004
 -18546886.37549 -14422423.65047  20932493.853    20932493.9754   20932501.0854
       211.0004        212.0004
 21  2  3  1 31  0.0000000  0  8G07G08G01G30G27G21G04G09
 -14342994.93148 -11141020.44747  22047290.222    22047291.0554   22047295.4334
       192.0004        193.0004
 -18386341.06048 -14286087.30347  21305523.943    21305524.6754   21305532.4074
       193.0004        194.0004
 -12651019.93948  -9848103.09946  22258130.750    22258131.5454   22258139.9784
       175.0004        176.0004
  -3814121.04447  -2954762.43645  23884809.033    23884809.0944   23884815.4314
       155.0004        158.0004
  -3511150.45248  -2695795.07146  24174113.489    24174114.4124   24174120.9594
       176.0004        177.0004
 -13469941.44548 -10483448.39446  21842806.463    21842805.7714   21842809.9914
       178.0004        179.0004
 -13484661.86648 -10208854.97746  21869107.796    21869108.2564   21869113.7704
       186.0004        184.0004
 -18517616.68349 -14399616.09447  20938063.552    20938063.9254   20938070.5514
       211.0004        211.0004
 21  2  3  1 31 30.0000000  0  8G07G08G01G30G27G21G04G09
 -14417245.06548 -11198877.70747  22033162.118    22033162.8164   22033165.3424
       192.0004        193.0004
 -18310926.78748 -14227322.93847  21319875.254    21319875.4964   21319882.9674
       193.0004        193.0004
 -12725056.93248  -9905794.24446  22244041.701    22244041.8584   22244050.4314
       175.0004        174.0004
  -3900090.30147  -3021751.45945  23868448.866    23868449.1864   23868455.1274
       155.0004        157.0004
  -3403041.20848  -2611554.14046  24194686.472    24194687.3334   24194694.0414
       178.0004        179.0004
 -13485868.18948 -10495858.83646  21839775.569    21839774.7574   21839779.9914
       179.0004        179.0004
 -13398677.53848 -10141854.20946  21885469.746    21885470.4914   21885475.6514
       185.0004        184.0004
 -18487839.44249 -14376413.05347  20943730.453    20943730.3904   20943737.1854
       211.0004        212.0004
 21  2  3  1 32  0.0000000  0  8G07G08G01G30G27G21G04G09
 -14491413.42148 -11256671.23947  22019047.450    22019047.9084   22019051.6444
       192.0004        191.0004
 -18235181.34548 -14168300.52347  21334289.117    21334289.4534   21334297.3794
       194.0004        194.0004
 -12798942.12648  -9963367.10146  22229982.826    22229983.1344   22229990.0354
       174.0004        176.0004
  -3986132.82847  -3088797.57645  23852076.180    23852075.3144   23852083.2334
       153.0004        155.0004
  -3294884.25248  -2527276.00846  24215268.178    24215269.3014   24215275.1634
       178.0004        180.0004
 -13501378.84448 -10507945.05946  21836823.962    21836824.0094   21836828.5944
       179.0004        179.0004
 -13312428.03848 -10074646.81746  21901882.421    21901883.0024   21901889.3214
       185.0004        185.0004
 -18457557.09049 -14352816.42847  20949492.849    20949492.8754   20949499.1854
       211.0004        211.0004
 21  2  3  1 32 30.0000000  0  8G07G08G01G30G27G21G04G09
 -14565497.78448 -11314399.30647  22004948.894    22004950.0624   22004954.1654
       192.0004        192.0004
 -18159106.91248 -14109021.73747  21348766.022    21348766.3684   21348774.3164
       194.0004        195.0004
 -12872672.47748 -10020819.28646  22215953.020    22215953.3224   22215960.4754
       175.0004        176.0004
  -4072247.30847  -3155899.77445  23835688.882    23835689.0194   23835696.0484
       151.0004        153.0004
  -3186682.47848  -2442962.94946  24235858.517    24235858.9074   24235865.4854
       179.0004        180.0004
 -13516471.75148 -10519705.75046  21833951.690    21833950.9384   21833955.9664
       179.0004        180.0004
 -13225916.62348 -10007235.33146  21918345.506    21918346.1634   21918352.2804
       185.0004        184.0004
 -18426771.61749 -14328827.75647  20955350.553    20955351.0604   20955357.6574
       211.0004        211.0004
 21  2  3  1 33  0.0000000  0  8G07G08G01G30G27G21G04G09
 -14639495.13348 -11372059.55647  21990869.044    21990868.8784   21990873.3784
       192.0004        193.0004
 -18082706.49448 -14049488.95247  21363303.508    21363304.3384   21363312.3614
       193.0004        193.0004
 -12946244.56848 -10078148.16546  22201951.766    22201951.9204   22201960.7274
       175.0004        177.0004
  -4158431.93847  -3223056.61945  23819288.100    23819288.4894   23819294.3164
       151.0004        154.0004
  -3078438.39848  -2358616.90946  24256457.006    24256457.8064   24256463.5984
       181.0004        182.0004
 -13531145.49248 -10531139.81146  21831159.319    21831158.8534   21831164.4334
       179.0004        180.0004
 -13139146.09448  -9939621.92746  21934857.348    21934857.9904   21934863.4254
       184.0004        184.0004
 -18395484.67649 -14304448.31747  20961304.578    20961304.9694   20961311.9614
       211.0004        212.0004
 21  2  3  1 33 30.0000000  0  8G07G08G01G30G27G21G04G09
 -14713402.87948 -11429649.99947  21976804.218    21976804.8254   21976808.3654
       193.0004        193.0004
 -18005982.41448 -13989703.95347  21377904.045    21377905.0474   21377911.9404
       192.0004        193.0004
 -13019654.59448 -10135350.75946  22187982.179    22187982.8074   22187990.8164
       176.0004        178.0004
  -4244684.70647  -3290266.52845  23802872.963    23802874.6964   23802881.6624
       152.0004        155.0004
  -2970154.10748  -2274239.56546  24277063.262    24277063.6554   24277069.9004
       182.0004        183.0004
 -13545397.40048 -10542245.16446  21828445.482    21828446.3764   21828452.1074
       179.0004        179.0004
 -13052118.91048  -9871808.53246  21951417.973    21951418.6394   21951424.5954
       184.0004        185.0004
 -18363697.56449 -14279679.13847  20967353.440    20967353.4094   20967360.4514
       211.0004        211.0004
 21  2  3  1 34  0.0000000  0  8G07G08G01G30G27G21G04G09
 -14787217.10248 -11487167.59747  21962757.127    21962758.3074   21962761.4084
       192.0004        192.0004
 -17928936.55548 -13929668.23947  21392566.376    21392566.4114   21392573.3634
       193.0004        194.0004
 -13092898.19548 -10192423.69346  22174044.023    22174045.3094   22174051.8604
       177.0004        177.0004
  -4331002.82747  -3357527.42745  23786448.704    23786448.9054   23786455.9974
       154.0004        157.0004
  -2861831.06948  -2189832.05446  24297677.137    24297676.5584   24297682.6644
       179.0004        178.0004
 -13559224.37848 -10553019.45246  21825815.461    21825814.8624   21825819.7044
       179.0004        179.0004
 -12964836.97348  -9803796.66446  21968027.359    21968027.8414   21968033.5984
       185.0004        185.0004
 -18331411.02649 -14254520.82947  20973497.214    20973497.2584   20973504.5524
       210.0004        211.0004
 21  2  3  1 34 30.0000000  0  8G07G08G01G30G27G21G04G09
 -14860938.07048 -11544612.51047  21948729.855    21948730.2314   21948733.1374
       192.0004        192.0004
 -17851574.57148 -13869386.15847  21407287.099    21407287.7064   21407295.2374
       193.0004        193.0004
 -13165974.40448 -10249366.15246  22160136.958    22160138.6154   22160147.2404
       177.0004        177.0004
  -4417386.98047  -3424839.75945  23770011.395    23770011.1774   23770016.8154
       155.0004        158.0004
  -2753474.29048  -2105398.17046  24318297.105    24318296.7394   24318300.9424
       176.0004        176.0004
 -13572627.71348 -10563463.58346  21823265.835    21823265.0124   21823268.9994
       179.0004        179.0004
 -12877305.54848  -9735590.34946  21984684.431    21984684.1754   21984691.0784
       184.0004        183.0004
 -18298629.26149 -14228976.58447  20979734.878    20979735.9084   20979742.6584
       210.0004        211.0004
 21  2  3  1 35  0.0000000  0  8G07G08G01G30G27G21G04G09
 -14934562.59048 -11601982.29247  21934719.474    21934719.3464   21934723.1654
       192.0004        193.0004
 -17773898.07648 -13808859.03847  21422067.738    21422068.6034   21422076.7214
       192.0004        193.0004
 -13238879.11548 -10306175.01246  22146263.089    22146265.1584   22146273.8574
       176.0004        176.0004
  -4503834.77247  -3492201.68345  23753559.560    23753559.6614   23753567.4444
       157.0004        159.0004
  -2645085.47648  -2020939.36346  24338921.773    24338922.0184   24338928.1294
       174.0004        174.0004
 -13585604.68648 -10573575.51546  21820796.123    21820795.8174   21820800.0714
       179.0004        179.0004
 -12789526.81848  -9667191.35846  22001387.648    22001388.2704   22001394.4204
       184.0004        184.0004
 -18265353.29349 -14203047.28347  20986068.135    20986068.6784   20986074.7784
       210.0004        211.0004
 21  2  3  1 35 30.0000000  0  8G07G08G01G30G27G21G04G09
 -15008086.57148 -11659273.70447  21920728.447    21920728.7024   21920732.5364
       193.0004        194.0004
 -17695909.08648 -13748088.41047  21436909.688    21436909.6884   21436917.7574
       192.0004        192.0004
 -13311607.59748 -10362846.55746  22132424.815    22132425.5594   22132434.0384
       176.0004        177.0004
  -4590343.14647  -3559610.78145  23737097.397    23737097.2684   23737105.9954
       156.0004        159.0004
  -2536665.82148  -1936456.51546  24359553.701    24359554.3204   24359558.6414
       172.0004        173.0004
 -13598151.99448 -10583352.64046  21818408.089    21818407.9094   21818412.3274
       179.0004        179.0004
 -12701502.34848  -9598600.87146  22018138.142    22018138.8804   22018144.5924
       185.0004        184.0004
 -18231583.58249 -14176733.23847  20992493.587    20992493.8724   20992501.8224
       210.0004        209.0004
 21  2  3  1 36  0.0000000  0  8G07G08G01G30G27G21G04G09
 -15081508.93248 -11716485.91747  21906757.089    21906757.2944   21906760.8094
       194.0004        195.0004
 -17617611.19248 -13687077.04647  21451808.227    21451809.1734   21451816.9884
       191.0004        192.0004
 -13384157.93048 -10419379.23546  22118619.348    22118620.1454   22118627.4704
       177.0004        178.0004
  -4676911.66847  -3627066.74845  23720624.572    23720624.6754   23720630.6884
       156.0004        158.0004
  -2428219.28548  -1851952.68946  24380190.168    24380190.4774   24380195.2554
       173.0004        174.0004
 -13610269.74648 -10592795.00246  21816103.254    21816101.9924   21816107.3474
       179.0004        180.0004
 -12613236.41448  -9529822.21646  22034934.112    22034935.2214   22034941.2044
       184.0004        184.0004
 -18197323.40649 -14150036.97947  20999012.398    20999013.4674   20999020.4744
       209.0004        209.0004
 21  2  3  1 36 30.0000000  0  8G07G08G01G30G27G21G04G09
 -15154826.46349 -11773616.46747  21892804.129    21892804.8134   21892808.8854
       195.0004        194.0004
 -17539007.84749 -13625827.69647  21466766.700    21466766.9404   21466775.0914
       208.0004        210.0004
 -13456526.76248 -10475770.52346  22104848.912    22104848.9574   22104855.8684
       177.0004        178.0004
  -4763538.73147  -3694568.37745  23704140.808    23704140.2224   23704147.2434
       155.0004        157.0004
  -2319748.32348  -1767429.92546  24400831.534    24400831.9574   24400837.9264
       173.0004        174.0004
 -13621956.09948 -10601901.23346  21813878.643    21813878.4734   21813883.5444
       180.0004        181.0004
 -12524732.07148  -9460857.80546  22051777.812    22051777.6964   22051782.0764
       184.0004        183.0004
 -18162574.69549 -14122960.07047  21005625.697    21005625.5074   21005633.0124
       209.0004        210.0004
 21  2  3  1 37  0.0000000  0  9G17G07G08G01G30G27G21G04G09
  -1651043.28054  -1255221.95945  24235630.320
        74.0004        142.0004
 -15228038.23448 -11830664.58747  21878872.223    21878872.7434   21878877.0364
       194.0004        194.0004
 -17460102.30849 -13564342.85247  21481781.994    21481782.1654   21481789.8114
       211.0004        210.0004
 -13528711.34348 -10532018.20246  22091111.602    22091112.7784   22091120.1524
       177.0004        178.0004
  -4850223.19447  -3762114.66845  23687644.345    23687644.5804   23687651.9894
       155.0004        158.0004
  -2211256.15448  -1682890.56546  24421476.032    24421476.9494   24421481.8124
       172.0004        171.0004
 -13633209.79648 -10610670.31746  21811737.037    21811736.7584   21811742.2964
       180.0004        181.0004
 -12435992.79348  -9391710.30046  22068662.947    22068663.6814   22068669.7234
       184.0004        183.0004
 -18127339.90349 -14095504.38547  21012330.725    21012331.0764   21012337.8804
       209.0004        210.0004
 21  2  3  1 37 30.0000000  0  9G17G07G08G01G30G27G21G04G09
  -1747535.91246  -1330410.79845  24217266.465                    24217272.6794
       131.0004        146.0004
 -15301140.18748 -11887627.14947  21864961.752    21864962.4994   21864966.3184
       194.0004        195.0004
 -17380896.44249 -13502623.98248  21496853.569    21496854.4624   21496862.1434
       220.0004        223.0004
 -13600707.39248 -10588118.99746  22077412.117    22077412.2684   22077420.0784
       178.0004        178.0004
  -4936962.31747  -3829703.60045  23671138.713    23671138.8264   23671145.3754
       156.0004        158.0004
  -2102744.18448  -1598335.76346  24442124.444    24442126.0474   24442131.5924
       169.0004        169.0004
 -13644028.27448 -10619100.28646  21809678.394    21809677.8614   21809682.6454
       180.0004        180.0004
 -12347020.58848  -9322381.30746  22085593.596    22085594.3604   22085600.0654
       183.0004        183.0004
 -18091620.04749 -14067670.72447  21019128.181    21019128.1744   21019135.1524
       209.0004        210.0004
 21  2  3  1 38  0.0000000  0  9G17G07G08G01G30G27G21G04G09
  -1843805.24747  -1405425.63045  24198946.482    24198946.9514   24198953.4564
       138.0004        144.0004
 -15374131.80748 -11944503.75547  21851071.306    21851071.9184   21851076.4814
       194.0004        194.0004
 -17301395.12949 -13440674.94048  21511982.548    21511983.2114   21511990.7004
       222.0004        222.0004
 -13672513.50548 -10644071.82446  22063748.131    22063748.8054   22063756.4164
       178.0004        179.0004
  -5023756.33847  -3897335.33245  23654622.383    23654622.3234   23654629.2594
       157.0004        159.0004
  -1994216.97048  -1513769.17746  24462776.220    24462777.8644   24462783.9754
       169.0004        170.0004
 -13654411.79348 -10627191.35046  21807702.712    21807702.4684   21807706.5184
       180.0004        180.0004
 -12257820.35448  -9252874.66146  22102567.828    22102568.0214   22102574.7494
       182.0004        182.0004
 -18055419.04649 -14039462.16847  21026016.784    21026017.1204   21026023.8894
       209.0004        209.0004
 21  2  3  1 38 30.0000000  0  9G17G07G08G01G30G27G21G04G09
  -1939848.58447  -1480264.35145  24180670.096    24180671.0614   24180677.4874
       140.0004        146.0004
 -15447010.12248 -12001292.04547  21837203.756    21837204.2654   21837208.0754
       194.0004        194.0004
 -17221601.08249 -13378497.75948  21527167.194    21527167.7034   21527174.9134
       222.0004        222.0004
 -13744126.07748 -10699873.80946  22050120.105    22050121.1574   22050127.4894
       177.0004        178.0004
  -5110603.17247  -3965008.18145  23638095.279    23638095.6014   23638102.7914
       158.0004        160.0004
  -1885676.64248  -1429192.27346  24483430.465    24483432.0514   24483438.1734
       169.0004        170.0004
 -13664358.56248 -10634942.05946  21805809.171    21805808.7684   21805812.6364
       179.0004        178.0004
 -12168394.75548  -9183192.37346  22119585.205    22119585.3874   22119591.4824
       182.0004        182.0004
 -18018738.54149 -14010879.96447  21032997.708    21032997.3774   21033003.8524
       209.0004        209.0004
 21  2  3  1 39  0.0000000  0  9G17G07G08G01G30G27G21G04G09
  -2035662.69547  -1554924.50245  24162436.534    24162437.4994   24162443.2004
       141.0004        145.0004
 -15519771.44948 -12057989.18647  21823357.970    21823357.7834   21823361.5284
       194.0004        193.0004
 -17141516.08049 -13316093.86248  21542407.245    21542407.2804   21542414.4124
       223.0004        222.0004
 -13815540.50348 -10755521.39246  22036529.232    22036530.0494   22036537.8644
       177.0004        177.0004
  -5197499.90447  -4032719.89945  23621558.723    23621559.3404   23621566.2644
       157.0004        159.0004
  -1777124.57548  -1344606.29346  24504087.621    24504088.7774   24504095.7664
       169.0004        170.0004
 -13673865.77948 -10642350.26746  21804000.634    21804000.3094   21804004.0844
       178.0004        178.0004
 -12078745.51448  -9113335.82346  22136645.647    22136645.9904   22136651.3624
       183.0004        183.0004
 -17981579.33649 -13981924.73447  21040068.031    21040068.1524   21040075.1294
       209.0004        209.0004
 21  2  3  1 39 30.0000000  0  9G17G07G08G01G30G27G21G04G09
  -2131244.23147  -1629403.43245  24144249.547    24144250.4744   24144254.4704
       142.0004        145.0004
 -15592412.35148 -12114592.47747  21809534.622    21809534.8864   21809539.4354
       194.0004        194.0004
 -17061141.99249 -13253464.70548  21557701.837    21557702.0124   21557709.3084
       222.0004        222.0004
 -13886752.56148 -10811011.29346  22022978.337    22022979.1314   22022988.0044
       177.0004        178.0004
  -5284443.82947  -4100468.40745  23605013.847    23605014.2304   23605022.7724
       157.0004        159.0004
  -1668562.20848  -1260012.25446  24524747.853    24524748.4834   24524753.8254
       170.0004        172.0004
 -13682931.54648 -10649414.49946  21802274.318    21802274.4864   21802277.4014
       178.0004        178.0004
 -11988874.76148  -9043306.66246  22153746.958    22153747.6104   22153753.3174
       183.0004        183.0004
 -17943942.57149 -13952597.38547  21047230.633    21047230.7444   21047237.7854
       210.0004        210.0004
 21  2  3  1 40  0.0000000  0  9G17G07G08G01G30G27G21G04G09
  -2226590.35847  -1703698.93045  24126106.441    24126106.3824   24126110.4984
       143.0004        147.0004
 -15664929.51548 -12171099.36847  21795734.277    21795735.2304   21795739.4364
       194.0004        195.0004
 -16980481.37649 -13190612.28748  21573050.763    21573051.3134   21573059.2694
       223.0004        223.0004
 -13957758.37648 -10866340.49046  22009465.370    22009467.0154   22009475.3474
       177.0004        178.0004
  -5371432.54547  -4168251.81145  23588461.642    23588461.9324   23588469.9964
       158.0004        161.0004
  -1559991.52648  -1175411.70946  24545406.002    24545407.7204   24545415.5644
       170.0004        170.0004
 -13691552.88748 -10656132.42646  21800635.247    21800634.5894   21800637.0794
       177.0004        178.0004
 -11898784.80248  -8973106.70946  22170890.610    22170890.5354   22170897.0564
       182.0004        182.0004
 -17905829.66949 -13922899.03647  21054482.370    21054483.1194   21054490.4854
       210.0004        210.0004
 21  2  3  1 40 30.0000000  0  9G17G07G08G01G30G27G21G04G09
  -2321700.01347  -1777810.18245  24108007.048    24108005.8494   24108011.3324
       143.0004        148.0004
 -15737321.65549 -12227508.82447  21781959.303    21781959.8434   21781963.7764
       195.0004        195.0004
 -16899537.63749 -13127539.23848  21588453.640    21588454.2464   21588462.0134
       222.0004        222.0004
 -14028555.61448 -10921507.13846  21995994.091    21995995.3704   21996002.7884
       178.0004        179.0004
  -5458465.36147  -4236069.57345  23571900.361    23571899.9834   23571906.8374
       159.0004        161.0004
  -1451415.99348  -1090807.44446  24566067.589    24566068.7854   24566075.7314
       168.0004        169.0004
 -13699729.67648 -10662503.92546  21799079.263    21799078.5204   21799081.7324
       178.0004        179.0004
 -11808479.68948  -8902739.09046  22188074.618    22188075.5074   22188081.6604
       181.0004        180.0004
 -17867243.77449 -13892832.08647  21061825.569    21061825.8444   21061832.7384
       210.0004        210.0004
 21  2  3  1 41  0.0000000  0  8G17G07G08G01G30G21G04G09
  -2416570.32047  -1851734.93745  24089952.605    24089953.8714   24089957.4934
       144.0004        148.0004
 -15809585.61749 -12283818.41047  21768207.901    21768208.0964   21768212.0994
       195.0004        195.0004
 -16818313.53249 -13064247.74648  21603910.355    21603911.2094   21603918.0854
       222.0004        222.0004
 -14099140.49148 -10976508.32746  21982562.985    21982563.5914   21982570.3824
       178.0004        180.0004
  -5545539.91947  -4303919.87345  23555330.546    23555330.0504   23555337.1994
       159.0004        162.0004
 -13707459.90448 -10668527.47946  21797607.146    21797606.7044   21797611.5944
       179.0004        180.0004
 -11717961.92848  -8832205.78146  22205300.622    22205300.3924   22205305.7404
       181.0004        181.0004
 -17828186.43749 -13862397.81647  21069258.141    21069258.3054   21069265.3514
       209.0004        210.0004
 21  2  3  1 41 30.0000000  0  8G17G07G08G01G30G21G04G09
  -2511199.95347  -1925472.13945  24071946.144    24071945.9034   24071951.4204
       143.0004        147.0004
 -15881719.56448 -12340026.66647  21754480.555    21754481.2424   21754485.2664
       194.0004        194.0004
 -16736812.85949 -13000740.70748  21619419.979    21619420.4114   21619427.1814
       222.0004        222.0004
 -14169510.33448 -11031341.92846  21969171.539    21969171.9934   21969179.5434
       179.0004        179.0004
  -5632655.04647  -4371801.78946  23538752.767    23538753.0654   23538759.4304
       161.0004        164.0004
 -13714742.95748 -10674202.56146  21796220.691    21796220.8594   21796226.1974
       180.0004        182.0004
 -11627235.19448  -8761509.59746  22222564.608    22222565.2674   22222571.3624
       181.0004        180.0004
 -17788660.51149 -13831598.37447  21076779.300    21076779.7994   21076786.6094
       209.0004        208.0004
 21  2  3  1 42  0.0000000  0  8G17G07G08G01G30G21G04G09
  -2605586.23847  -1999019.80745  24053985.296    24053985.2134   24053989.1464
       146.0004        152.0004
 -15953720.58148 -12396131.38347  21740779.136    21740780.0274   21740784.1324
       194.0004        195.0004
 -16655038.09449 -12937020.13748  21634981.664    21634981.5474   21634988.0434
       222.0004        221.0004
 -14239661.66948 -11086005.30446  21955821.298    21955822.8164   21955830.8414
       179.0004        180.0004
  -5719808.98647  -4439713.96846  23522168.551    23522167.7754   23522175.1044
       162.0004        164.0004
 -13721577.34348 -10679528.06646  21794920.594    21794920.3314   21794926.2874
       181.0004        181.0004
 -11536302.24548  -8690652.78546  22239867.609    22239868.4824   22239875.6144
       180.0004        179.0004
 -17748667.87849 -13800435.31847  21084388.710    21084389.8164   21084396.7274
       208.0004        208.0004
 21  2  3  1 42 30.0000000  0  8G17G07G08G01G30G21G04G09
  -2699728.72847  -2072377.43245  24036068.651    24036068.9384   24036074.4914
       149.0004        152.0004
 -16025587.25849 -12452131.36947  21727104.074    21727104.0224   21727108.3794
       195.0004        195.0004
 -16572993.56949 -12873089.32948  21650594.065    21650594.2414   21650600.8084
       222.0004        221.0004
 -14309592.54248 -11140496.86546  21942515.337    21942516.4044   21942523.1614
       179.0004        180.0004
  -5807001.13847  -4507655.85646  23505576.475    23505575.8904   23505583.2164
       163.0004        165.0004
 -13727962.52548 -10684503.49746  21793706.410    21793705.7064   21793710.8354
       181.0004        182.0004
 -11445167.45348  -8619638.65646  22257211.658    22257211.2834   22257216.7954
       179.0004        178.0004
 -17708212.13949 -13768911.34747  21092088.679    21092088.6804   21092095.2334
       208.0004        209.0004
 21  2  3  1 43  0.0000000  0  8G17G07G08G01G30G21G04G09
  -2793624.56247  -2145542.87245  24018201.143    24018201.8944   24018207.7084
       151.0004        154.0004
 -16097315.99549 -12508023.91247  21713454.407    21713454.7654   21713459.0644
       195.0004        196.0004
 -16490680.94549 -12808949.64148  21666257.057    21666257.4694   21666263.9464
       221.0004        220.0004
 -14379298.56948 -11194813.25246  21929250.185    21929250.4924   21929257.7334
       179.0004        180.0004
  -5894228.60947  -4575625.32746  23488977.792    23488977.2454   23488983.7104
       164.0004        166.0004
 -13733896.48648 -10689127.36946  21792577.574    21792576.5824   21792581.0964
       181.0004        182.0004
 -11353832.74248  -8548468.77946  22274590.712    22274591.4134   22274596.9704
       178.0004        177.0004
 -17667294.30949 -13737027.35247  21099874.725    21099875.1804   21099881.7124
       209.0004        209.0004
 21  2  3  1 43 30.0000000  0  8G17G07G08G01G30G21G04G09
  -2887271.22947  -2218514.11545  24000381.294    24000381.2764   24000387.4344
       154.0004        158.0004
 -16168904.41849 -12563807.06647  21699831.992    21699832.1014   21699836.2804
       196.0004        196.0004
 -16408103.34449 -12744603.43648  21681971.406    21681971.8804   21681978.0674
       221.0004        221.0004
 -14448776.44648 -11248951.81346  21916028.905    21916029.5114   21916037.6304
       180.0004        181.0004
  -5981489.61747  -4643620.90446  23472372.250    23472372.8244   23472379.5524
       164.0004        166.0004
 -13739377.71548 -10693398.41446  21791533.452    21791532.8254   21791537.7694
       181.0004        180.0004
 -11262301.09948  -8477145.39746  22292008.868    22292009.0964   22292014.7384
       178.0004        177.0004
 -17625916.67849 -13704785.01547  21107748.330    21107748.6484   21107755.3794
       209.0004        208.0004
 21  2  3  1 44  0.0000000  0  8G17G07G08G01G30G21G04G09
  -2980666.06547  -2291289.17645  23982608.964    23982609.4984   23982614.0434
       156.0004        157.0004
 -16240349.24149 -12619478.35947  21686237.206    21686237.1844   21686240.0194
       196.0004        196.0004
 -16325263.73649 -12680053.09348  21697735.700    21697735.6184   21697742.6484
       222.0004        222.0004
 -14518022.36248 -11302909.64546  21902852.588    21902853.0214   21902860.9824
       181.0004        182.0004
  -6068781.77547  -4711640.76446  23455760.403    23455760.3084   23455766.9944
       164.0004        164.0004
 -13744404.48948 -10697315.38246  21790576.032    21790576.8464   21790580.4414
       180.0004        180.0004
 -11170575.10648  -8405670.59846  22309463.855    22309464.7804   22309471.0254
       176.0004        176.0004
 -17584080.93449 -13672185.73447  21115710.032    21115710.0084   21115716.3764
       208.0004        208.0004
 21  2  3  1 44 30.0000000  0  8G17G07G08G01G30G21G04G09
  -3073807.63347  -2363866.90345  23964884.582    23964885.1274   23964890.2414
       155.0004        156.0004
 -16311648.42249 -12675036.17047  21672668.047    21672668.6604   21672672.7994
       196.0004        196.0004
 -16242164.88849 -12615300.75948  21713548.512    21713548.5724   21713555.9324
       222.0004        221.0004
 -14587033.50448 -11356684.53846  21889719.048    21889719.4934   21889728.3624
       181.0004        181.0004
  -6156103.69947  -4779683.84045  23439142.337    23439143.1914   23439149.6264
       161.0004        162.0004
 -13748975.75148 -10700877.41546  21789707.099    21789707.0134   21789710.6594
       180.0004        180.0004
 -11078658.19348  -8334047.04046  22326955.887    22326955.7834   22326961.7474
       177.0004        177.0004
 -17541789.74149 -13639231.57847  21123758.045    21123758.2554   21123764.2864
       208.0004        209.0004
 21  2  3  1 45  0.0000000  0  8G17G07G08G01G30G21G04G09
  -3166693.21647  -2436245.15245  23947207.853    23947207.7594   23947212.9384
       153.0004        154.0004
 -16382798.78349 -12730478.00747  21659128.692    21659129.9664   21659133.7314
       196.0004        197.0004
 -16158809.31749 -12550348.36948  21729410.801    21729410.9784   21729417.7824
       221.0004        221.0004
 -14655806.02548 -11410273.50146  21876632.745    21876632.6784   21876640.7044
       181.0004        180.0004
  -6243453.02147  -4847748.24745  23422520.204    23422520.6864   23422526.9624
       160.0004        161.0004
 -13753089.83448 -10704083.19046  21788923.871    21788924.1074   21788927.6794
       181.0004        182.0004
 -10986552.78648  -8262276.61746  22344482.452    22344483.3254   22344488.1974
       177.0004        176.0004
 -17499044.85849 -13605923.87047  21131891.595    21131891.7044   21131898.6574
       209.0004        209.0004
 21  2  3  1 45 30.0000000  0  8G17G07G08G01G30G21G04G09
  -3259321.23647  -2508422.67645  23929581.512    23929582.5834   23929586.7104
       154.0004        156.0004
 -16453798.39649 -12785802.37647  21645618.737    21645618.7324   21645622.5424
       197.0004        197.0004
 -16075200.32549 -12485198.50048  21745321.225    21745321.0404   21745328.1334
       221.0004        220.0004
 -14724337.17548 -11463674.37246  21863591.465    21863591.7864   21863600.0734
       181.0004        182.0004
  -6330828.45847  -4915832.97546  23405893.877    23405895.3104   23405901.5794
       161.0004        163.0004
 -13756746.11048 -10706932.21646  21788227.922    21788228.1874   21788232.6094
       182.0004        182.0004
 -10894262.48048  -8190362.08046  22362043.909    22362044.5974   22362049.6474
       176.0004        175.0004
 -17455849.15449 -13572264.87547  21140111.045    21140111.4874   21140118.7504
       209.0004        209.0004
 21  2  3  1 46  0.0000000  0  8G17G07G08G01G30G21G04G09
  -3351689.66747  -2580397.97445  23912006.316    23912006.1234   23912011.0234
       155.0004        159.0004
 -16524644.52249 -12841007.15847  21632136.806    21632136.5024   21632140.5254
       196.0004        196.0004
 -15991341.22649 -12419853.76748  21761277.837    21761278.8184   21761285.6394
       220.0004        220.0004
 -14792623.81348 -11516884.74246  21850596.916    21850597.4844   21850604.6014
       181.0004        181.0004
  -6418228.15247  -4983936.63746  23389263.317    23389263.6804   23389270.2754
       163.0004        166.0004
 -13759943.12048 -10709423.40546  21787619.926    21787619.9244   21787625.2454
       183.0004        183.0004
 -10801790.42148  -8118305.95446  22379641.106    22379641.3924   22379647.0824
       175.0004        176.0004
 -17412204.99749 -13538256.46047  21148417.249    21148417.4334   21148423.5784
       209.0004        210.0004
 21  2  3  1 46 30.0000000  0  8G17G07G08G01G30G21G04G09
  -3443797.84847  -2652170.44045  23894478.182    23894477.7184   23894482.4384
       155.0004        157.0004
 -16595335.83349 -12896091.28247  21618684.234    21618685.1074   21618689.1584
       197.0004        197.0004
 -15907236.39549 -12354317.52748  21777283.503    21777283.7174   21777290.3694
       221.0004        221.0004
 -14860663.88748 -11569902.93746  21837649.110    21837650.2314   21837657.8514
       181.0004        182.0004
  -6505651.53547  -5052058.74146  23372627.362    23372627.1994   23372633.5974
       163.0004        163.0004
 -13762681.08548 -10711556.85746  21787099.196    21787098.7984   21787104.2994
       184.0004        185.0004
 -10709140.89048  -8046111.48946  22397271.998    22397273.1964   22397278.4374
       176.0004        176.0004
 -17368115.96649 -13503901.36047  21156806.491    21156806.9504   21156813.4264
       209.0004        209.0004
 21  2  3  1 47  0.0000000  0  8G17G07G08G01G30G21G04G09
  -3535643.33847  -2723738.28145  23876998.984    23876999.1424   23877003.7504
       154.0004        157.0004
 -16665869.12649 -12951052.29847  21605262.541    21605262.6894   21605266.8684
       197.0004        197.0004
 -15822887.50149 -12288591.12548  21793334.406    21793334.5454   21793341.4884
       221.0004        220.0004
 -14928453.45348 -11622725.98046  21824748.571    21824749.8214   21824758.1314
       182.0004        183.0004
  -6593096.08647  -5120197.38545  23355986.141    23355986.8524   23355994.1964
       161.0004        162.0004
 -13764958.07448 -10713331.12546  21786666.319    21786666.2184   21786672.1854
       185.0004        187.0004
 -10616316.18348  -7973780.57246  22414936.800    22414937.5214   22414942.4294
       176.0004        176.0004
 -17323583.73149 -13469200.92747  21165280.721    21165280.7344   21165287.7114
       209.0004        208.0004
 21  2  3  1 47 30.0000000  0  8G17G07G08G01G30G21G04G09
  -3627223.04247  -2795098.99645  23859570.816    23859571.3794   23859578.2744
       156.0004        158.0004
 -16736240.73049 -13005887.33347  21591870.926    21591871.0684   21591875.1974
       196.0004        196.0004
 -15738297.15949 -12222676.59548  21809431.628    21809431.6954   21809438.3944
       220.0004        219.0004
 -14995988.47348 -11675350.67246  21811897.790    21811898.7524   21811906.0804
       182.0004        183.0004
  -6680559.14447  -5188350.41346  23339342.915    23339343.1504   23339350.3734
       161.0004        164.0004
 -13766772.09048 -10714744.65146  21786321.660    21786320.8504   21786326.9204
       186.0004        187.0004
 -10523318.55748  -7901314.92446  22432632.670    22432633.6494   22432639.0464
       175.0004        175.0004
 -17278609.89349 -13434156.40147  21173839.095    21173839.3834   21173846.0464
       208.0004        209.0004
 21  2  3  1 48  0.0000000  0  8G17G07G08G01G30G21G04G09
  -3718534.84247  -2866250.88445  23842194.324    23842194.8294   23842201.0664
       153.0004        153.0004
 -16806448.26849 -13060594.48247  21578510.812    21578511.5134   21578516.0534
       197.0004        198.0004
 -15653468.35449 -12156576.20548  21825574.018    21825574.2284   21825580.8184
       219.0004        219.0004
 -15063265.68748 -11727774.42846  21799095.504    21799096.0154   21799103.9274
       182.0004        183.0004
  -6768038.77547  -5256516.31146  23322697.042    23322696.3794   23322704.0574
       164.0004        166.0004
 -13768122.00548 -10715796.49646  21786063.408    21786063.3134   21786070.2834
       186.0004        186.0004
 -10430151.09148  -7828716.86846  22450362.539    22450362.5174   22450368.3464
       175.0004        176.0004
 -17233196.82149 -13398769.56647  21182480.415    21182480.6834   21182487.6034
       208.0004        207.0004
 21  2  3  1 48 30.0000000  0  8G17G07G08G01G30G21G04G09
  -3809576.38747  -2937192.21945  23824871.890    23824870.8504   23824876.1664
       150.0004        152.0004
 -16876488.50749 -13115171.28747  21565183.045    21565183.3654   21565187.5364
       198.0004        198.0004
 -15568403.55749 -12090291.96448  21841760.971    21841761.1444   21841768.1374
       219.0004        219.0004
 -15130281.42248 -11779994.46946  21786342.440    21786343.2084   21786351.1304
       183.0004        183.0004
  -6855532.60747  -5324693.31546  23306046.347    23306046.7974   23306054.0624
       164.0004        165.0004
 -13769006.36148 -10716485.58246  21785894.767    21785895.0894   21785901.4624
       186.0004        187.0004
 -10336816.36948  -7755988.51746  22468121.825    22468123.5124   22468128.7094
       175.0004        175.0004
 -17187346.46949 -13363042.02547  21191205.859    21191206.4514   21191212.5774
       208.0004        208.0004
 21  2  3  1 49  0.0000000  0  8G17G07G08G01G30G21G04G09
  -3900346.52647  -3007922.09745  23807597.732    23807598.1714   23807602.9974
       152.0004        155.0004
 -16946359.43349 -13169616.16547  21551886.964    21551887.5904   21551891.1754
       198.0004        198.0004
 -15483106.17849 -12023826.47348  21857992.231    21857992.7634   21857999.8064
       219.0004        218.0004
 -15197032.82548 -11832008.52946  21773639.772    21773640.3944   21773648.7224
       183.0004        184.0004
  -6943039.23247  -5392880.27246  23289395.707    23289394.8254   23289401.8764
       164.0004        165.0004
 -13769424.58148 -10716811.44346  21785815.936    21785815.2724   21785821.2414
       186.0004        186.0004
 -10243317.80948  -7683132.48546  22485916.766    22485915.9704   22485921.2004
       176.0004        176.0004
 -17141061.71649 -13326975.98447  21200013.735    21200013.9074   21200019.9964
       207.0004        207.0004
 21  2  3  1 49 30.0000000  0  8G17G07G08G01G30G21G04G09
  -3990843.29947  -3078438.95245  23790377.501    23790377.5624   23790384.0364
       154.0004        157.0004
 -17016058.65649 -13223927.25647  21538623.911    21538624.3264   21538628.2384
       198.0004        198.0004
 -15397579.61949 -11957182.41048  21874267.949    21874268.2104   21874274.8544
       218.0004        218.0004
 -15263517.02448 -11883814.38646  21760988.519    21760989.7684   21760997.6154
       183.0004        184.0004
  -7030557.05947  -5461075.97046  23272739.012    23272739.4884   23272747.6064
       162.0004        164.0004
 -13769376.02148 -10716773.58646  21785824.493    21785824.3704   21785830.2164
       185.0004        185.0004
 -10149658.82948  -7610151.47146  22503737.771    22503738.8394   22503744.9284
       176.0004        177.0004
 -17094345.35349 -13290573.62547  21208902.576    21208903.2154   21208910.8004
       207.0004        208.0004
 21  2  3  1 50  0.0000000  0  8G17G07G08G01G30G21G04G09
  -4081064.20647  -3148740.82245  23773207.450    23773208.6004   23773215.0254
       154.0004        156.0004
 -17085583.00949 -13278102.08847  21525393.640    21525394.0754   21525398.1034
       198.0004        198.0004
 -15311826.26149 -11890361.61848  21890585.839    21890586.3264   21890593.1484
       218.0004        217.0004
 -15329730.14848 -11935409.02046  21748389.621    21748390.0024   21748397.8014
       184.0004        184.0004
  -7118083.48347  -5529278.38846  23256085.704    23256085.3914   23256091.7374
       164.0004        168.0004
 -13768858.66548 -10716370.45946  21785922.303    21785923.1844   21785928.4524
       184.0004        183.0004
 -10055841.80848  -7537047.32646  22521590.783    22521591.4314   22521597.4144
       177.0004        176.0004
 -17047199.17649 -13253836.36347  21217874.713    21217875.5074   21217881.7934
       207.0004        207.0004
 21  2  3  1 50 30.0000000  0  8G17G07G08G01G30G21G04G09
  -4171007.35747  -3218826.31145  23756093.417    23756093.8524   23756099.2324
       155.0004        157.0004
 -17154930.03849 -13332138.71847  21512197.033    21512197.6154   21512202.1584
       198.0004        199.0004
 -15225848.73949 -11823366.14848  21906946.925    21906947.2334   21906954.3674
       218.0004        218.0004
 -15395669.17848 -11986790.06946  21735840.698    21735840.9194   21735848.8384
       184.0004        184.0004
  -7205616.81848  -5597486.16346  23239427.944    23239428.1244   23239435.1784
       167.0004        169.0004
 -13767872.08148 -10715601.66646  21786110.644    21786110.6804   21786115.6854
       183.0004        182.0004
  -9961870.03248  -7463822.56746  22539473.429    22539473.8624   22539479.3114
       177.0004        177.0004
 -16999625.92449 -13216766.29347  21226927.623    21226927.8704   21226934.6044
       207.0004        207.0004
 21  2  3  1 51  0.0000000  0  8G17G07G08G01G30G21G04G09
  -4260671.60647  -3288694.49845  23739031.308    23739031.1664   23739035.6164
       154.0004        157.0004
 -17224097.42449 -13386035.39947  21499035.458    21499035.8944   21499039.9684
       199.0004        199.0004
 -15139651.05749 -11756199.14548  21923350.461    21923350.7104   21923357.4994
       218.0004        218.0004
 -15461331.41148 -12037955.43246  21723345.533    21723346.2594   21723354.0904
       184.0004        185.0004
  -7293155.67848  -5665698.24246  23222769.157    23222769.2534   23222776.2634
       165.0004        165.0004
 -13766415.55248 -10714466.70346  21786387.606    21786388.2834   21786392.2854
       182.0004        181.0004
  -9867747.06748  -7390480.00146  22557384.425    22557384.4664   22557390.6194
       176.0004        175.0004
 -16951628.54649 -13179365.75747  21236061.529    21236061.8914   21236068.8734
       207.0004        208.0004
 21  2  3  1 51 30.0000000  0  8G17G07G08G01G30G21G04G09
  -4350053.46947  -3358342.59345  23722020.119    23722020.7004   23722027.7284
       153.0004        154.0004
 -17293081.11349 -13439788.91947  21485907.456    21485908.4014   21485912.5074
       198.0004        199.0004
 -15053234.52049 -11688861.58748  21939795.221    21939795.3774   21939801.9114
       219.0004        218.0004
 -15526712.20748 -12088901.49146  21710905.051    21710905.6354   21710912.3704
       184.0004        185.0004
  -7380696.64148  -5733911.99046  23206110.811    23206111.4694   23206117.5494
       165.0004        166.0004
 -13764486.85448 -10712963.81846  21786755.147    21786754.7364   21786758.2824
       181.0004        180.0004
  -9773474.51648  -7317020.88046  22575323.949    22575324.1434   22575329.8374
       175.0004        175.0004
 -16903208.22949 -13141635.63547  21245275.252    21245275.6604   21245282.9544
       207.0004        207.0004
 21  2  3  1 52  0.0000000  0  8G17G07G08G01G30G21G04G09
  -4439151.67447  -3427769.71345  23705065.331    23705066.2194   23705071.0504
       152.0004        154.0004
 -17361879.37149 -13493397.93947  21472817.150    21472816.7784   21472821.0134
       199.0004        199.0004
 -14966603.22849 -11621356.67248  21956279.728    21956280.4494   21956286.8554
       218.0004        217.0004
 -15591809.06748 -12139626.30746  21698517.972    21698517.6034   21698525.6624
       185.0004        185.0004
  -7468238.51748  -5802126.43246  23189452.097    23189452.6264   23189459.1574
       167.0004        169.0004
 -13762085.70348 -10711092.78146  21787213.724    21787212.6604   21787216.1174
       181.0004        181.0004
  -9679056.11148  -7243448.09246  22593290.250    22593290.6654   22593297.2064
       174.0004        174.0004
 -16854368.16249 -13103578.44247  21254570.683    21254570.6094   21254576.1744
       207.0004        207.0004
 21  2  3  1 52 30.0000000  0  8G17G07G08G01G30G21G04G09
  -4527962.77847  -3496973.11645  23688165.786    23688166.4044   23688170.8484
       154.0004        157.0004
 -17430487.83749 -13546859.09847  21459760.818    21459760.8364   21459764.9664
       199.0004        199.0004
 -14879757.77949 -11553684.90348  21972805.720    21972806.5704   21972812.7264
       217.0004        216.0004
 -15656616.99548 -12190125.97946  21686184.053    21686184.6204   21686192.3454
       185.0004        185.0004
  -7555777.51348  -5870338.63946  23172794.168    23172794.6644   23172801.1524
       168.0004        169.0004
 -13759209.18948 -10708851.33246  21787760.898    21787759.4324   21787763.3714
       181.0004        180.0004
  -9584493.14048  -7169762.67046  22611285.396    22611285.7464   22611291.7734
       175.0004        175.0004
 -16805109.08449 -13065194.75947  21263943.519    21263943.6864   21263950.2534
       207.0004        207.0004
 21  2  3  1 53  0.0000000  0  8G17G07G08G01G30G21G04G09
  -4616487.21647  -3565953.12545  23671321.417    23671321.5444   23671325.6214
       157.0004        159.0004
 -17498906.43149 -13600172.29147  21446740.003    21446740.7214   21446745.1054
       199.0004        199.0004
 -14792704.07549 -11485850.86448  21989372.255    21989372.2444   21989379.1884
       217.0004        217.0004
 -15721135.39848 -12240400.05346  21673905.991    21673907.4304   21673915.1124
       184.0004        184.0004
  -7643314.25048  -5938549.09346  23156136.273    23156136.9674   23156143.8704
       168.0004        170.0004
 -13755859.19548 -10706240.95546  21788397.453    21788396.9274   21788400.6354
       180.0004        180.0004
  -9489791.18048  -7095968.95646  22629306.392    22629306.6504   22629313.0494
       174.0004        175.0004
 -16755436.17649 -13026488.60547  21273395.638    21273396.0624   21273402.3774
       207.0004        206.0004
 21  2  3  1 53 30.0000000  0  8G17G07G08G01G30G21G04G09
  -4704723.58547  -3634708.69245  23654529.422    23654530.0704   23654533.8044
       155.0004        156.0004
 -17567132.24349 -13653335.27247  21433757.554    21433758.3414   21433762.0484
       199.0004        199.0004
 -14705444.84449 -11417856.67748  22005977.194    22005976.9344   22005984.3274
       217.0004        217.0004
 -15785361.06948 -12290446.02246  21661685.604    21661686.4684   21661693.9054
       185.0004        185.0004
  -7730846.74648  -6006756.23846  23139480.598    23139480.3994   23139487.2044
       170.0004        171.0004
 -13752034.85248 -10703260.95046  21789124.721    21789124.7334   21789127.8374
       179.0004        179.0004
  -9394953.29948  -7022069.31246  22647353.823    22647354.5094   22647360.6514
       174.0004        175.0004
 -16705352.00749 -12987461.99547  21282926.155    21282926.4304   21282933.2794
       206.0004        206.0004
 21  2  3  1 54  0.0000000  0  8G17G07G08G01G30G21G04G09
  -4792669.60747  -3703237.99445  23637795.552    23637795.2654   23637798.4724
       155.0004        157.0004
 -17635162.42149 -13706345.77347  21420812.349    21420812.0624   21420816.6644
       199.0004        199.0004
 -14617982.97249 -11349704.55848  22022619.874    22022620.2884   22022627.3714
       217.0004        217.0004
 -15849290.62848 -12340261.23246  21649520.065    21649520.4414   21649528.6334
       185.0004        186.0004
  -7818372.85648  -6074958.36546  23122824.264    23122823.9594   23122831.6064
       170.0004        172.0004
 -13747735.16648 -10699910.51446  21789942.150    21789942.1674   21789946.2474
       179.0004        179.0004
  -9299982.35348  -6948065.97646  22665426.543    22665427.3994   22665433.0514
       174.0004        175.0004
 -16654858.99649 -12948116.77747  21292534.290    21292534.7864   21292541.6654
       205.0004        205.0004
 21  2  3  1 54 30.0000000  0  8G17G07G08G01G30G21G04G09
  -4880321.78347  -3771538.33245  23621114.525    23621114.9304   23621119.3634
       156.0004        159.0004
 -17702992.95049 -13759200.73147  21407904.425    21407904.5714   21407908.8214
       199.0004        199.0004
 -14530320.12749 -11281395.85548  22039301.920    22039302.1894   22039309.3034
       217.0004        216.0004
 -15912919.44148 -12389842.10846  21637410.939    21637411.5024   21637419.9124
       185.0004        185.0004
  -7905889.06848  -6143152.81946  23106171.077    23106170.9384   23106178.1514
       171.0004        171.0004
 -13742958.08048 -10696188.11146  21790851.947    21790851.1284   21790855.9684
       179.0004        179.0004
  -9204879.87148  -6873960.16546  22683524.019    22683524.8784   22683530.2174
       174.0004        174.0004
 -16603958.24649 -12908453.86047  21302221.184    21302221.1814   21302227.8584
       205.0004        206.0004
 21  2  3  1 55  0.0000000  0  8G17G07G08G01G30G21G04G09
  -4967678.61447  -3839608.52145  23604490.104    23604490.5654   23604496.5384
       157.0004        159.0004
 -17770621.60249 -13811898.38147  21395034.493    21395035.2984   21395038.9524
       199.0004        199.0004
 -14442458.80249 -11212932.49448  22056021.865    22056021.9664   22056028.3384
       216.0004        216.0004
 -15976244.48048 -12439186.29746  21625361.661    21625362.3804   21625368.9034
       185.0004        186.0004
  -7993393.57348  -6211338.14646  23089518.757    23089518.7254   23089525.0234
       169.0004        168.0004
 -13737702.58248 -10692092.92946  21791851.375    21791851.4914   21791854.8444
       179.0004        179.0004
  -9109649.15848  -6799754.42346  22701645.282    22701645.7484   22701651.6134
       173.0004        173.0004
 -16552652.59749 -12868475.44947  21311984.096    21311984.5934   21311991.1274
       205.0004        206.0004
 21  2  3  1 55 30.0000000  0  8G17G07G08G01G30G21G04G09
  -5054738.39547  -3907447.24445  23587923.488    23587924.3014   23587929.1964
       156.0004        158.0004
 -17838045.36549 -13864436.40247  21382204.536    21382205.3564   21382209.0564
       199.0004        200.0004
 -14354402.76449 -11144317.41848  22072777.836    22072778.3024   22072784.7554
       216.0004        215.0004
 -16039262.71348 -12488291.41046  21613369.476    21613369.7584   21613377.6964
       185.0004        186.0004
  -8080884.37648  -6279512.83746  23072869.013    23072869.9714   23072876.3174
       167.0004        168.0004
 -13731967.85848 -10687624.32246  21792943.002    21792942.2824   21792946.8614
       179.0004        179.0004
  -9014293.23048  -6725451.12146  22719791.401    22719790.7064   22719797.1634
       172.0004        172.0004
 -16500944.76349 -12828183.65447  21321822.996    21321823.8004   21321830.7284
       205.0004        205.0004
 21  2  3  1 56  0.0000000  0  8G17G07G08G01G30G21G04G09
  -5141498.93147  -3975052.79945  23571413.781    23571414.4104   23571420.8454
       156.0004        158.0004
 -17905261.09649 -13916812.29847  21369414.717    21369414.4464   21369418.4204
       200.0004        200.0004
 -14266154.03149 -11075552.17548  22089570.539    22089571.3704   22089578.5034
       215.0004        215.0004
 -16101970.37048 -12537154.51246  21601436.174    21601436.9364   21601445.0754
       186.0004        187.0004
  -8168359.03048  -6347674.89546  23056224.508    23056223.9724   23056231.1594
       169.0004        171.0004
 -13725753.20048 -10682781.72746  21794125.536    21794125.7724   21794129.6104
       180.0004        181.0004
  -8918814.61948  -6651052.22546  22737959.446    22737960.3604   22737966.4754
       171.0004        171.0004
 -16448836.82049 -12787580.07247  21331740.100    21331740.2034   21331746.7384
       205.0004        205.0004
 21  2  3  1 56 30.0000000  0  8G17G07G08G01G30G21G04G09
  -5227958.39647  -4042423.72045  23554960.431    23554961.1544   23554965.5804
       154.0004        156.0004
 -17972266.13149 -13969023.98547  21356662.526    21356663.4264   21356667.5614
       199.0004        200.0004
 -14177715.74749 -11006639.20748  22106400.509    22106400.4974   22106407.3694
       216.0004        215.0004
 -16164364.19548 -12585773.03346  21589564.180    21589564.4714   21589571.1084
       187.0004        187.0004
  -8255815.32148  -6415822.62446  23039582.448    23039582.4124   23039588.6044
       170.0004        171.0004
 -13719057.18348 -10677564.01746  21795400.461    21795399.9504   21795404.8734
       181.0004        182.0004
  -8823216.17748  -6576559.94046  22756151.916    22756152.9254   22756157.8984
       169.0004        168.0004
 -16396331.32649 -12746666.67947  21341731.021    21341731.3674   21341737.8814
       205.0004        205.0004
 21  2  3  1 57  0.0000000  0  8G17G07G08G01G30G21G04G09
  -5314116.07047  -4109559.54045  23538565.996    23538565.5004   23538569.8244
       153.0004        156.0004
 -18039059.12549 -14021070.49247  21343953.707    21343954.1164   21343957.5424
       200.0004        201.0004
 -14089091.51449 -10937581.37648  22123265.047    22123265.1484   22123272.1984
       215.0004        215.0004
 -16226442.30048 -12634145.57946  21577750.684    21577751.3064   21577758.1224
       187.0004        187.0004
  -8343252.45448  -6483955.46946  23022944.163    23022943.4774   23022950.1674
       170.0004        171.0004
 -13711880.51948 -10671971.81746  21796765.269    21796765.4404   21796770.6454
       181.0004        181.0004
  -8727502.26648  -6501977.70146  22774365.541    22774365.5154   22774372.1634
       167.0004        168.0004
 -16343432.23449 -12705446.61047  21351797.722    21351797.8934   21351804.3944
       204.0004        204.0004
 21  2  3  1 57 30.0000000  0  8G17G07G08G01G30G21G04G09
  -5399970.38847  -4176458.95945  23522227.369    23522227.9454   23522231.1204
       152.0004        155.0004
 -18105637.54049 -14072949.79347  21331283.968    21331284.0514   21331287.8044
       201.0004        201.0004
 -14000284.93849 -10868381.46948  22140164.479    22140164.6424   22140171.2904
       215.0004        214.0004
 -16288201.71548 -12682269.80846  21565997.431    21565997.6534   21566005.4914
       186.0004        185.0004
  -8430668.46848  -6552071.86346  23006308.982    23006308.6274   23006314.7264
       171.0004        172.0004
 -13704222.67048 -10666004.66146  21798223.676    21798222.9484   21798227.3294
       182.0004        182.0004
  -8631676.03148  -6427307.91146  22792600.907    22792600.8904   22792606.5644
       168.0004        169.0004
 -16290142.36849 -12663922.05747  21361938.006    21361938.4394   21361944.7534
       204.0004        204.0004
 21  2  3  1 58  0.0000000  0  8G17G07G08G01G30G21G04G09
  -5485518.81447  -4243120.01145  23505949.488    23505948.7094   23505952.5254
       152.0004        155.0004
 -18171997.81449 -14124659.10647  21318655.393    21318655.9404   21318660.3874
       201.0004        201.0004
 -13911297.76949 -10799040.82548  22157098.218    22157098.2174   22157104.9014
       214.0004        213.0004
 -16349638.26548 -12730142.43446  21554306.365    21554307.3864   21554315.0304
       186.0004        187.0004
  -8518060.36848  -6620169.45346  22989678.569    22989678.8364   22989684.9534
       171.0004        171.0004
 -13696082.43748 -10659661.61646  21799772.644    21799771.5864   21799776.7254
       182.0004        182.0004
  -8535739.45748  -6352552.15346  22810857.835    22810857.6004   22810863.1034
       168.0004        169.0004
 -16236463.42449 -12622094.30947  21372153.380    21372153.4434   21372159.9304
       204.0004        204.0004
 21  2  3  1 58 30.0000000  0  8G17G07G08G01G30G21G04G09
  -5570758.46847  -4309540.48945  23489729.876    23489730.2954   23489732.2344
       155.0004        158.0004
 -18238136.43349 -14176195.70547  21306070.099    21306070.6534   21306073.9864
       201.0004        201.0004
 -13822132.50249 -10729561.40948  22174065.739    22174065.9194   22174072.7664
       214.0004        213.0004
 -16410748.30348 -12777760.64247  21542679.072    21542679.6364   21542686.1394
       187.0004        188.0004
  -8605425.54048  -6688246.21946  22973053.181    22973053.5414   22973060.8494
       170.0004        172.0004
 -13687458.37948 -10652941.56946  21801413.545    21801412.8024   21801418.2404
       182.0004        182.0004
  -8439695.06048  -6277712.39846  22829133.745    22829134.3294   22829139.4864
       168.0004        169.0004
 -16182397.62649 -12579965.13947  21382442.054    21382441.8364   21382448.5764
       204.0004        204.0004
 21  2  3  1 59  0.0000000  0  8G17G07G08G01G30G21G04G09
  -5655688.25947  -4375719.49145  23473567.181    23473567.1724   23473570.9544
       157.0004        160.0004
 -18304050.94449 -14227557.65747  21293527.340    21293527.2494   21293531.3424
       201.0004        201.0004
 -13732792.13549 -10659945.53248  22191065.401    22191066.4634   22191073.6084
       213.0004        213.0004
 -16471529.06848 -12825122.27346  21531112.154    21531112.9014   21531119.8204
       186.0004        186.0004
  -8692762.25948  -6756300.77046  22956432.917    22956432.5264   22956441.2084
       171.0004        171.0004
 -13678349.72848 -10645843.90546  21803146.719    21803146.3654   21803151.3824
       183.0004        183.0004
  -8343546.15648  -6202791.18446  22847429.786    22847430.1844   22847436.1584
       168.0004        168.0004
 -16127948.04449 -12537536.88447  21392802.502    21392802.4404   21392809.4094
       203.0004        203.0004
 21  2  3  1 59 30.0000000  0  8G17G07G08G01G30G21G04G09
  -5740305.13547  -4441654.70545  23457462.954    23457464.7924   23457470.5494
       159.0004        161.0004
 -18369737.28849 -14278741.82547  21281026.827    21281027.5244   21281032.0214
       201.0004        202.0004
 -13643278.19349 -10590194.42048  22208100.324    22208101.1964   22208107.3914
       213.0004        213.0004
 -16531976.04048 -12872223.80046  21519608.250    21519608.2874   21519617.5974
       185.0004        185.0004
  -8780067.02848  -6824330.46146  22939819.042    22939819.1124   22939826.6364
       168.0004        167.0004
 -13668754.73048 -10638367.27746  21804972.079    21804971.8214   21804977.5254
       183.0004        184.0004
  -8247294.42548  -6127789.85046  22865746.026    22865746.0074   22865752.6194
       166.0004        166.0004
 -16073116.00749 -12494810.62947  21403237.097    21403237.6034   21403243.9474
       203.0004        204.0004
 21  2  3  2  0  0.0000000  0  8G17G07G08G01G30G21G04G09
  -5824608.23147  -4507345.37146  23441422.404    23441422.5144   23441428.0924
       161.0004        164.0004
 -18435194.06449 -14329747.10147  21268571.093    21268571.2394   21268575.6924
       201.0004        201.0004
 -13553594.69049 -10520311.18247  22225166.734    22225166.7334   22225173.7324
       213.0004        212.0004
 -16592086.98048 -12919063.46346  21508168.954    21508169.9434   21508178.7134
       185.0004        186.0004
  -8867338.58648  -6892334.27746  22923211.360    22923212.0154   22923219.3844
       167.0004        169.0004
 -13658673.85748 -10630512.04646  21806890.450    21806890.4264   21806895.3264
       183.0004        183.0004
  -8150943.67048  -6052711.35446  22884081.113    22884081.6024   22884087.8634
       167.0004        169.0004
 -16017905.07049 -12451789.13347  21413743.382    21413743.4394   21413750.7644
       204.0004        204.0004
 21  2  3  2  0 30.0000000  0  8G17G07G08G01G30G21G04G09
  -5908596.30447  -4572790.55645  23425440.024    23425440.5704   23425445.6144
       162.0004        162.0004
 -18500418.62849 -14380571.43247  21256158.806    21256159.4334   21256163.6764
       201.0004        201.0004
 -13463744.84849 -10450298.30547  22242264.096    22242264.5304   22242271.7904
       212.0004        212.0004
 -16651859.12548 -12965639.14347  21496796.474    21496796.9324   21496804.9794
       187.0004        190.0004
  -8954575.23048  -6960310.85546  22906612.351    22906612.5134   22906619.0604
       168.0004        170.0004
 -13648107.18548 -10622278.25146  21808901.831    21808901.4704   21808906.4264
       183.0004        183.0004
  -8054497.36548  -5977558.38346  22902435.225    22902434.8684   22902441.8994
       168.0004        169.0004
 -15962318.49849 -12408474.90747  21424321.202    21424321.3494   21424328.0274
       204.0004        204.0004
 21  2  3  2  1  0.0000000  0  8G17G07G08G01G30G21G04G09
  -5992268.64047  -4637989.71746  23409517.603    23409517.9284   23409523.5674
       162.0004        165.0004
 -18565408.85149 -14431213.18847  21243792.130    21243792.7374   21243796.2484
       201.0004        202.0004
 -13373731.80749 -10380158.30447  22259393.154    22259393.5484   22259400.4044
       212.0004        212.0004
 -16711289.99948 -13011948.92947  21485488.861    21485489.3644   21485494.9284
       191.0004        193.0004
  -9041775.41348  -7028259.07646  22890018.117    22890019.1454   22890024.4174
       168.0004        170.0004
 -13637054.44548 -10613665.74346  21811005.317    21811004.7174   21811009.5144
       183.0004        183.0004
  -7957959.05748  -5902333.75146  22920805.146    22920805.3784   22920811.2774
       168.0004        168.0004
 -15906359.58949 -12364870.57547  21434969.731    21434969.6874   21434977.0124
       203.0004        203.0004
 21  2  3  2  1 30.0000000  0  8G17G07G08G01G30G21G04G09
  -6075622.16447  -4702940.47046  23393654.021    23393654.7974   23393661.3974
       163.0004        166.0004
 -18630161.45049 -14481669.75647  21231470.413    21231470.4004   21231474.3944
       202.0004        202.0004
 -13283558.08049 -10309893.06047  22276553.218    22276553.2264   22276559.9624
       212.0004        212.0004
 -16770375.61448 -13057989.67347  21474243.962    21474244.3444   21474250.3114
       191.0004        190.0004
  -9128936.09748  -7096176.46446  22873432.274    22873432.0694   22873439.7764
       169.0004        171.0004
 -13625514.31648 -10604673.41846  21813201.262    21813200.0294   21813205.5034
       183.0004        184.0004
  -7861330.76848  -5827038.99946  22939191.898    22939192.6954   22939198.9774
       167.0004        168.0004
 -15850030.20049 -12320977.54447  21445687.934    21445688.6654   21445695.5964
       202.0004        202.0004
 21  2  3  2  2  0.0000000  0  8G17G07G08G01G30G21G04G09
  -6158655.15248  -4767641.43746  23377853.431    23377854.9434   23377861.4914
       165.0004        167.0004
 -18694673.41849 -14531938.83647  21219193.477    21219194.1834   21219198.1544
       202.0004        202.0004
 -13193226.17749 -10239504.58547  22293743.032    22293742.9024   22293749.3594
       212.0004        211.0004
 -16829112.87248 -13103758.97746  21463065.416    21463065.5024   21463073.5784
       188.0004        187.0004
  -9216055.10948  -7164061.41746  22856855.329    22856854.4744   22856860.8174
       170.0004        171.0004
 -13613486.31848 -10595300.97246  21815489.840    21815489.8034   21815494.3434
       184.0004        185.0004
  -7764615.49048  -5751676.49646  22957596.748    22957597.1114   22957602.7844
       167.0004        168.0004
 -15793333.11649 -12276798.02247  21456477.510    21456478.0474   21456484.9424
       202.0004        202.0004
 21  2  3  2  2 30.0000000  0  8G17G07G08G01G30G21G04G09
  -6241367.15548  -4832092.30246  23362116.098    23362116.1234   23362121.4934
       167.0004        168.0004
 -18758942.58649 -14582018.69347  21206964.729    21206964.9204   21206968.1854
       202.0004        203.0004
 -13102739.86949 -10168995.75647  22310960.479    22310961.1454   22310968.8274
       211.0004        210.0004
 -16887499.34248 -13149254.88446  21451953.281    21451954.4014   21451963.1154
       186.0004        186.0004
  -9303130.96048  -7231912.70946  22840284.000    22840284.6834   22840291.0034
       170.0004        172.0004
 -13600970.69648 -10585548.51246  21817871.375    21817870.8244   21817876.0154
       184.0004        184.0004
  -7667816.86548  -5676248.99146  22976016.670    22976017.5214   22976022.8554
       167.0004        167.0004
 -15736271.80249 -12232334.65347  21467336.531    21467336.7404   21467343.6534
       202.0004        202.0004
 21  2  3  2  3  0.0000000  0  8G17G07G08G01G30G21G04G09
  -6323754.52848  -4896290.20846  23346436.671    23346437.6034   23346443.6904
       165.0004        166.0004
 -18822964.77049 -14631906.09747  21194780.814    21194781.2074   21194785.3744
       202.0004        202.0004
 -13012100.16349 -10098367.41247  22328209.126    22328209.3244   22328216.7584
       210.0004        209.0004
 -16945530.25748 -13194473.73447  21440911.693    21440912.3664   21440920.7014
       187.0004        188.0004
  -9390159.76448  -7299727.34546  22823722.310    22823722.6354   22823729.4004
       169.0004        169.0004
 -13587965.21048 -10575414.34546  21820345.322    21820345.4594   21820351.0564
       184.0004        185.0004
  -7570936.15048  -5600757.51346  22994452.919    22994453.9454   22994458.9124
       167.0004        168.0004
 -15678847.34649 -12187588.30947  21478263.225    21478263.8924   21478270.7524
       202.0004        202.0004
 21  2  3  2  3 30.0000000  0  8G17G07G08G01G30G21G04G09
  -6405816.15848  -4960234.29846  23330823.152    23330822.8624   23330826.9194
       166.0004        168.0004
 -18886738.33849 -14681599.78547  21182644.237    21182645.1834   21182649.4824
       202.0004        202.0004
 -12921310.82349 -10027622.48147  22345485.282    22345486.0084   22345493.4904
       209.0004        209.0004
 -17003203.56248 -13239413.97647  21429937.590    21429938.2844   21429945.8674
       189.0004        190.0004
  -9477140.37748  -7367504.45446  22807171.243    22807171.7504   22807178.2374
       171.0004        175.0004
 -13574470.48948 -10564898.98146  21822914.467    21822913.9474   21822918.7654
       184.0004        185.0004
  -7473977.35348  -5525205.22346  23012904.708    23012904.8754   23012909.8554
       168.0004        169.0004
 -15621063.60949 -12142562.03847  21489259.314    21489259.9504   21489266.8934
       201.0004        201.0004
 21  2  3  2  4  0.0000000  0  8G17G07G08G01G30G21G04G09
  -6487551.96447  -5023924.48446  23315267.132    23315268.2284   23315272.6824
       164.0004        163.0004
 -18950261.25549 -14731098.16047  21170557.419    21170557.9164   21170561.6244
       202.0004        203.0004
 -12830375.51349  -9956763.79747  22362791.661    22362791.0614   22362798.1714
       210.0004        210.0004
 -17060516.93648 -13284073.75047  21419032.124    21419032.3044   21419039.0334
       191.0004        192.0004
  -9564071.37248  -7435242.85946  22790628.819    22790628.5384   22790635.2454
       175.0004        176.0004
 -13560486.76048 -10554002.55646  21825575.153    21825574.9464   21825579.6454
       184.0004        184.0004
  -7376944.16748  -5449594.94846  23031368.233    23031368.5204   23031374.9154
       168.0004        169.0004
 -15562924.16649 -12097258.57347  21500322.658    21500322.9264   21500330.4784
       201.0004        201.0004
 21  2  3  2  4 30.0000000  0  8G17G07G08G01G30G21G04G09
  -6568959.97047  -5087359.27246  23299777.302    23299777.6504   23299780.1264
       163.0004        164.0004
 -19013530.37849 -14780398.80147  21158517.076    21158517.8254   21158521.7714
       202.0004        202.0004
 -12739296.73749  -9885793.34447  22380122.669    22380122.7584   22380129.6804
       210.0004        210.0004
 -17117467.00048 -13328450.43647  21408194.592    21408195.3244   21408202.1684
       192.0004        193.0004
  -9650950.13748  -7502940.62846  22774097.797    22774096.8094   22774103.0194
       176.0004        177.0004
 -13546013.26648 -10542724.52346  21828329.219    21828329.3184   21828333.8424
       184.0004        183.0004
  -7279839.16348  -5373928.75546  23049847.213    23049847.2534   23049853.8984
       168.0004        169.0004
 -15504431.47549 -12051679.86947  21511453.237    21511453.9254   21511461.4534
       200.0004        201.0004
 21  2  3  2  5  0.0000000  0  8G17G07G08G01G30G21G04G09
  -6650037.47547  -5150536.57546  23284348.291    23284348.3664   23284351.2904
       161.0004        163.0004
 -19076541.91149 -14829498.72147  21146526.573    21146526.8404   21146531.0194
       202.0004        202.0004
 -12648076.43649  -9814712.60747  22397478.534    22397479.9594   22397488.3174
       209.0004        208.0004
 -17174049.67348 -13372540.85747  21397427.532    21397427.4134   21397434.4764
       192.0004        192.0004
  -9737773.46748  -7570595.16946  22757574.594    22757573.9574   22757581.4724
       175.0004        176.0004
 -13531048.96948 -10531064.06046  21831176.666    21831177.0504   21831181.3254
       183.0004        183.0004
  -7182664.28848  -5298208.13246  23068338.482    23068338.9054   23068345.4734
       167.0004        168.0004
 -15445587.34049 -12005827.33647  21522652.399    21522651.7664   21522658.5434
       201.0004        201.0004
 21  2  3  2  5 30.0000000  0  8G17G07G08G01G30G21G04G09
  -6730781.57447  -5213453.99546  23268982.527    23268982.9694   23268986.7464
       162.0004        164.0004
 -19139291.99949 -14878394.86347  21134586.309    21134586.2594   21134589.9794
       202.0004        203.0004
 -12556716.05049  -9743522.68347  22414865.985    22414866.2594   22414872.9624
       207.0004        206.0004
 -17230260.70348 -13416341.62247  21386729.598    21386730.8584   21386737.6334
       192.0004        192.0004
  -9824537.92348  -7638203.80046  22741064.677    22741064.3404   22741070.4604
       177.0004        179.0004
 -13515592.24648 -10519019.82746  21834118.026    21834117.6144   21834122.0824
       183.0004        183.0004
  -7085421.22748  -5222434.30846  23086843.484    23086844.2844   23086849.9414
       167.0004        167.0004
 -15386393.39549 -11959702.16647  21533916.463    21533916.4044   21533922.8734
       201.0004        201.0004
 21  2  3  2  6  0.0000000  0  9G28G17G07G08G01G30G21G04G09
  -1053721.36954   -814323.45645  23685095.951
        74.0004        140.0004
  -6811191.91947  -5276111.36246  23253680.710    23253680.9484   23253685.0494
       162.0004        164.0004
 -19201779.40749 -14927086.35247  21122694.581    21122695.1704   21122699.6544
       203.0004        203.0004
 -12465220.27249  -9672227.28647  22432277.768    22432277.5154   22432284.6224
       207.0004        208.0004
 -17286098.62848 -13459851.68047  21376104.016    21376104.8484   21376112.0924
       190.0004        190.0004
  -9911242.83648  -7705766.07446  22724564.546    22724564.4724   22724570.8584
       178.0004        180.0004
 -13499644.15348 -10506592.74046  21837152.754    21837152.6254   21837157.6504
       183.0004        183.0004
  -6988114.50848  -5146610.89746  23105359.582    23105360.6164   23105366.5344
       166.0004        166.0004
 -15326854.08849 -11913307.90547  21545245.534    21545245.8504   21545253.1324
       201.0004        200.0004
 21  2  3  2  6 30.0000000  0  9G28G17G07G08G01G30G21G04G09
  -1068629.77946   -825940.32745  23682258.972                    23682262.5834
       131.0004        144.0004
  -6891266.96647  -5338507.47645  23238443.461    23238443.8004   23238446.2084
       161.0004        161.0004
 -19264001.17149 -14975570.84247  21110854.507    21110854.9524   21110858.9344
       203.0004        203.0004
 -12373591.57349  -9600828.29447  22449713.588    22449713.5454   22449720.9704
       208.0004        208.0004
 -17341560.25848 -13503068.53047  21365549.534    21365550.4714   21365558.0904
       189.0004        188.0004
  -9997885.79348  -7773280.06646  22708076.890    22708076.5514   22708083.7374
       179.0004        179.0004
 -13483204.32848 -10493782.47546  21840281.429    21840280.8634   21840286.3384
       183.0004        183.0004
  -6890746.86347  -5070740.02546  23123889.159    23123888.7254   23123894.0924
       164.0004        163.0004
 -15266972.06849 -11866646.58547  21556640.687    21556641.0934   21556647.8624
       200.0004        201.0004
 21  2  3  2  7  0.0000000  0  9G28G17G07G08G01G30G21G04G09
  -1083526.82947   -837548.42245  23679423.751    23679422.3554   23679428.4884
       138.0004        144.0004
  -6971007.64947  -5400643.07846  23223269.228    23223269.8264   23223273.8714
       161.0004        164.0004
 -19325956.66349 -15023847.85247  21099064.753    21099065.1504   21099068.7624
       203.0004        203.0004
 -12281834.34049  -9529329.16247  22467173.624    22467174.1484   22467182.3174
       208.0004        208.0004
 -17396644.53748 -13545991.33447  21355066.976    21355067.6554   21355076.0014
       188.0004        188.0004
 -10084466.48248  -7840745.53546  22691600.066    22691600.1084   22691607.8814
       176.0004        176.0004
 -13466274.52348 -10480590.42246  21843502.659    21843502.7154   21843507.2424
       183.0004        184.0004
  -6793323.11747  -4994825.45346  23142427.401    23142427.5244   23142433.5334
       162.0004        163.0004
 -15206752.16449 -11819722.00447  21568101.153    21568101.3684   21568107.4384
       201.0004        202.0004
 21  2  3  2  7 30.0000000  0  9G28G17G07G08G01G30G21G04G09
  -1098412.80247   -849147.88045  23676590.451    23676590.2824   23676596.1894
       141.0004        147.0004
  -7050411.12247  -5462515.88546  23208159.424    23208160.2014   23208164.6214
       163.0004        165.0004
 -19387641.95349 -15071914.31047  21087326.017    21087326.4174   21087330.5814
       203.0004        203.0004
 -12189950.64549  -9457731.48547  22484659.720    22484659.8154   22484666.8774
       207.0004        207.0004
 -17451347.42948 -13588616.95147  21344657.382    21344658.2704   21344666.4784
       188.0004        189.0004
 -10170981.58848  -7908159.90746  22675138.083    22675137.4614   22675143.5264
       175.0004        176.0004
 -13448853.24448 -10467015.38946  21846818.144    21846817.9544   21846822.7564
       184.0004        184.0004
  -6695845.18147  -4918868.63745  23160975.933    23160977.1514   23160983.5984
       161.0004        162.0004
 -15146196.24849 -11772535.56747  21579623.497    21579624.0014   21579630.8484
       201.0004        202.0004
 21  2  3  2  8  0.0000000  0  9G28G17G07G08G01G30G21G04G09
  -1113288.98047   -860739.71045  23673759.695    23673759.1814   23673764.2044
       142.0004        146.0004
  -7129475.77547  -5524124.67246  23193112.734    23193114.2144   23193119.5524
       163.0004        165.0004
 -19449054.10949 -15119767.95447  21075639.471    21075640.1574   21075644.3254
       203.0004        203.0004
 -12097942.92649  -9386037.17947  22502167.852    22502167.8124   22502175.3134
       207.0004        207.0004
 -17505665.56048 -13630942.75647  21334321.328    21334321.7444   21334330.0724
       188.0004        189.0004
 -10257428.50248  -7975521.16346  22658688.051    22658687.4124   22658693.9894
       176.0004        178.0004
 -13430940.29948 -10453057.26446  21850227.775    21850227.2144   21850231.3304
       184.0004        184.0004
  -6598315.62247  -4842871.60846  23179536.212    23179536.1464   23179544.1834
       162.0004        163.0004
 -15085306.78349 -11725089.25447  21591211.672    21591211.5634   21591217.9444
       202.0004        202.0004
 21  2  3  2  8 30.0000000  0  9G28G17G07G08G01G30G21G04G09
  -1128155.07347   -872323.64445  23670932.299    23670931.6714   23670935.0214
       143.0004        147.0004
  -7208197.93548  -5585466.58046  23178133.994    23178134.1324   23178138.5854
       165.0004        167.0004
 -19510188.35549 -15167405.00747  21064005.734    21064006.5744   21064010.7264
       202.0004        203.0004
 -12005812.02649  -9314246.84947  22519698.941    22519699.2214   22519707.7694
       207.0004        206.0004
 -17559594.00048 -13672964.88847  21324060.061    21324060.4494   21324067.7754
       190.0004        191.0004
 -10343802.96048  -8042825.90646  22642251.435    22642250.8844   22642258.7574
       179.0004        180.0004
 -13412533.44548 -10438714.22046  21853728.975    21853728.9274   21853733.9044
       183.0004        184.0004
  -6500735.32947  -4766835.02646  23198105.863    23198105.4834   23198113.0624
       162.0004        163.0004
 -15024084.75649 -11677383.76247  21602860.945    21602861.5854   21602868.0874
       201.0004        201.0004
 21  2  3  2  9  0.0000000  0  9G28G17G07G08G01G30G21G04G09
  -1143012.65947   -883900.96345  23668103.473    23668102.9374   23668108.3374
       146.0004        150.0004
  -7286575.76148  -5646540.18046  23163218.125    23163218.3104   23163225.0374
       165.0004        166.0004
 -19571041.95449 -15214823.41047  21052427.347    21052427.1114   21052430.5524
       203.0004        203.0004
 -11913560.27749  -9242362.36947  22537253.918    22537254.2074   22537262.0334
       206.0004        205.0004
 -17613129.90648 -13714681.17847  21313872.482    21313872.3964   21313879.9914
       191.0004        191.0004
 -10430102.77848  -8110072.50546  22625828.300    22625829.0184   22625835.5734
       179.0004        180.0004
 -13393632.37348 -10423986.12046  21857326.788    21857326.0324   21857330.5574
       183.0004        183.0004
  -6403107.35047  -4690761.30645  23216682.605    23216684.4464   23216690.6244
       161.0004        161.0004
 -14962533.14749 -11629421.47347  21614574.440    21614574.6584   21614580.9374
       202.0004        202.0004
 21  2  3  2  9 30.0000000  0  9G28G17G07G08G01G30G21G04G09
  -1157863.27047   -895472.86445  23665277.339    23665277.6264   23665282.8104
       147.0004        151.0004
  -7364607.83848  -5707344.39046  23148369.800    23148370.2984   23148374.9734
       165.0004        166.0004
 -19631612.27249 -15262021.07547  21040900.353    21040900.7874   21040904.6814
       203.0004        203.0004
 -11821190.87249  -9170386.23447  22554831.497    22554831.7974   22554838.8254
       205.0004        204.0004
 -17666270.13448 -13756089.15647  21303759.459    21303760.2574   21303768.0504
       191.0004        192.0004
 -10516325.49248  -8177259.05246  22609420.946    22609421.3324   22609427.8324
       180.0004        181.0004
 -13374236.54348 -10408872.49346  21861018.082    21861017.1764   21861021.7874
       183.0004        183.0004
  -6305434.33047  -4614652.50345  23235271.188    23235270.7324   23235276.1544
       161.0004        162.0004
 -14900654.70749 -11581204.52247  21626349.461    21626349.7944   21626356.0144
       202.0004        201.0004
 21  2  3  2 10  0.0000000  0  9G28G17G07G08G01G30G21G04G09
  -1172708.38747   -907040.46245  23662452.058    23662451.6804   23662456.1414
       147.0004        150.0004
  -7442293.18148  -5767878.39746  23133586.835    23133586.2204   23133591.5674
       165.0004        165.0004
 -19691896.05649 -15308995.46747  21029428.956    21029429.8504   21029433.2044
       204.0004        204.0004
 -11728706.37549  -9098320.40547  22572430.696    22572430.5864   22572438.5884
       205.0004        205.0004
 -17719011.63648 -13797186.42647  21293722.835    21293723.8094   21293732.0184
       192.0004        193.0004
 -10602468.67648  -8244383.61346  22593029.755    22593029.4104   22593035.7574
       181.0004        181.0004
 -13354346.13948 -10393373.48746  21864802.831    21864802.1394   21864806.5464
       183.0004        182.0004
  -6207719.09447  -4538510.79045  23253864.885    23253865.4344   23253872.0864
       161.0004        162.0004
 -14838452.23649 -11532735.07347  21638185.287    21638186.0354   21638192.9944
       201.0004        201.0004
 21  2  3  2 10 30.0000000  0  9G28G17G07G08G01G30G21G04G09
  -1187551.07347   -918606.20145  23659628.014    23659628.0264   23659632.0324
       148.0004        151.0004
  -7519631.01247  -5828141.60346  23118868.856    23118869.0604   23118875.0384
       164.0004        165.0004
 -19751892.42049 -15355745.87347  21018012.411    21018012.4774   21018015.9194
       204.0004        204.0004
 -11636110.89249  -9026168.07647  22590050.564    22590050.6544   22590059.2974
       205.0004        205.0004
 -17771352.88348 -13837971.79347  21283763.445    21283764.3274   21283772.3774
       193.0004        195.0004
 -10688531.50648  -8311445.54846  22576651.639    22576651.7594   22576657.9714
       179.0004        179.0004
 -13333962.43548 -10377490.06346  21868681.519    21868680.1284   21868685.1694
       183.0004        183.0004
  -6109965.96847  -4462339.54745  23272466.225    23272466.6194   23272473.3434
       160.0004        161.0004
 -14775930.09349 -11484016.51647  21650082.625    21650083.2734   21650090.4854
       200.0004        200.0004
 21  2  3  2 11  0.0000000  0  9G28G17G07G08G01G30G21G04G09
  -1202391.28247   -930169.98845  23656803.873    23656803.2354   23656808.1614
       149.0004        152.0004
  -7596619.30247  -5888132.45046  23104218.717    23104219.7604   23104223.7574
       163.0004        164.0004
 -19811597.06049 -15402268.97147  21006650.874    21006651.1224   21006654.9334
       204.0004        204.0004
 -11543405.87949  -8953930.43047  22607692.095    22607692.5294   22607700.2904
       204.0004        204.0004
 -17823289.95148 -13878442.23747  21273879.961    21273880.6404   21273888.0184
       193.0004        193.0004
 -10774510.54748  -8378442.21446  22560289.440    22560290.0284   22560295.4934
       178.0004        177.0004
 -13313083.98948 -10361221.13746  21872654.470    21872653.8414   21872658.7824
       183.0004        183.0004
  -6012176.69547  -4386140.16645  23291075.665    23291075.7104   23291081.0144
       159.0004        161.0004
 -14713090.12449 -11435050.30947  21662040.768    21662041.0484   21662048.1504
       200.0004        199.0004
 21  2  3  2 11 30.0000000  0  9G28G17G07G08G01G30G21G04G09
  -1217231.78847   -941734.01345  23653979.896    23653980.2404   23653983.3434
       149.0004        153.0004
  -7673257.46147  -5947850.50146  23089636.115    23089635.7734   23089640.6174
       164.0004        167.0004
 -19871008.25349 -15448563.41447  20995344.825    20995345.3494   20995349.5184
       204.0004        205.0004
 -11450595.40649  -8881610.59447  22625353.980    22625353.7514   22625361.7224
       204.0004        203.0004
 -17874820.68648 -13918596.05347  21264074.144    21264074.5424   21264081.9064
       193.0004        193.0004
 -10860404.23448  -8445372.37946  22543944.648    22543944.9074   22543951.3064
       176.0004        177.0004
 -13291711.65048 -10344567.37346  21876721.204    21876720.7794   21876725.4244
       183.0004        183.0004
  -5914354.96947  -4309915.47045  23309689.515    23309689.9454   23309696.1604
       160.0004        161.0004
 -14649936.08749 -11385839.38947  21674059.121    21674059.2584   21674066.4854
       199.0004        200.0004
 21  2  3  2 12  0.0000000  0  9G28G17G07G08G01G30G21G04G09
  -1232074.26347   -953299.54745  23651155.827    23651155.7204   23651160.2384
       151.0004        155.0004
  -7749544.12147  -6007294.62646  23075117.519    23075118.0054   23075122.1354
       163.0004        164.0004
 -19930123.50349 -15494627.23947  20984095.790    20984096.1114   20984099.8824
       204.0004        204.0004
 -11357681.60849  -8809210.23147  22643034.462    22643034.8654   22643042.1074
       203.0004        203.0004
 -17925942.22748 -13958431.00747  21254346.625    21254346.6814   21254354.1444
       193.0004        194.0004
 -10946210.28548  -8512234.20446  22527616.084    22527615.9754   22527623.6494
       176.0004        176.0004
 -13269845.70548 -10327528.96746  21880882.216    21880881.8324   21880886.9514
       183.0004        183.0004
  -5816503.66047  -4233667.70445  23328309.798    23328310.3704   23328317.1574
       160.0004        161.0004
 -14586470.93449 -11336386.03047  21686135.543    21686136.2314   21686143.8884
       199.0004        200.0004
 21  2  3  2 12 30.0000000  0  9G28G17G07G08G01G30G21G04G09
  -1246918.50347   -964866.50345  23648330.817    23648330.6704   23648333.6014
       151.0004        154.0004
  -7825476.57147  -6066462.75446  23060670.054    23060670.3194   23060673.4794
       164.0004        166.0004
 -19988938.47149 -15540457.10047  20972903.280    20972903.8774   20972907.5504
       204.0004        204.0004
 -11264665.83749  -8736730.41547  22660734.760    22660735.5014   22660742.5914
       204.0004        204.0004
 -17976650.18648 -13997943.70347  21244696.531    21244696.7224   21244704.8264
       193.0004        193.0004
 -11031924.82148  -8579024.77246  22511305.044    22511304.6464   22511312.1984
       175.0004        176.0004
 -13247484.40448 -10310104.56846  21885136.987    21885137.0284   21885141.8204
       183.0004        183.0004
  -5718624.10547  -4157397.95945  23346935.672    23346936.7174   23346943.3904
       160.0004        162.0004
 -14522696.13049 -11286691.39047  21698272.247    21698272.1714   21698279.6344
       199.0004        199.0004
 21  2  3  2 13  0.0000000  0  9G28G17G07G08G01G30G21G04G09
  -1261767.38047   -976437.00645  23645504.695    23645505.2914   23645509.5474
       151.0004        153.0004
  -7901054.77748  -6125354.84246  23046286.925    23046286.6394   23046290.9604
       165.0004        167.0004
 -20047452.16149 -15586052.17147  20961768.614    20961769.0044   20961772.7274
       204.0004        204.0004
 -11171552.52949  -8664174.58147  22678454.037    22678453.7664   22678462.3504
       203.0004        203.0004
 -18026943.17048 -14037133.02647  21235126.029    21235126.9614   21235133.9934
       192.0004        192.0004
 -11117546.99948  -8645743.33146  22495011.400    22495011.4304   22495018.5224
       176.0004        177.0004
 -13224629.42548 -10292295.47246  21889486.865    21889486.0374   21889491.3554
       183.0004        184.0004
  -5620720.63447  -4081109.55345  23365566.875    23365566.7924   23365573.6714
       160.0004        161.0004
 -14458616.11049 -11236758.89547  21710465.885    21710466.2604   21710472.5874
       198.0004        198.0004
 21  2  3  2 13 30.0000000  0  9G28G17G07G08G01G30G21G04G09
  -1276622.03347   -988012.04745  23642679.145    23642678.6614   23642682.7034
       151.0004        155.0004
  -7976276.92948  -6183969.48446  23031971.913    23031972.5374   23031976.5314
       165.0004        167.0004
 -20105660.96649 -15631409.69947  20950691.697    20950692.1994   20950695.8244
       204.0004        204.0004
 -11078343.87749  -8591544.48447  22696190.156    22696190.4714   22696199.0694
       203.0004        202.0004
 -18076817.85548 -14075996.41447  21225634.903    21225635.6054   21225643.4644
       192.0004        192.0004
 -11203073.91648  -8712387.71346  22478736.682    22478736.8864   22478744.0204
       177.0004        178.0004
 -13201280.47748 -10274101.50046  21893929.509    21893929.5324   21893934.6594
       184.0004        184.0004
  -5522795.60547  -4004804.38045  23384201.323    23384202.5534   23384206.9654
       159.0004        160.0004
 -14394233.36749 -11186590.54547  21722718.199    21722718.3104   21722724.7274
       198.0004        198.0004
 21  2  3  2 14  0.0000000  0  9G28G17G07G08G01G30G21G04G09
  -1291484.22447   -999592.97645  23639849.598    23639850.0564   23639854.1144
       150.0004        153.0004
  -8051141.84648  -6242305.76146  23017726.662    23017726.8404   23017730.8794
       166.0004        168.0004
 -20163562.46449 -15676527.76547  20939673.744    20939673.8994   20939677.6914
       204.0004        204.0004
 -10985042.14149  -8518841.86147  22713944.264    22713944.7494   22713954.2274
       201.0004        202.0004
 -18126271.50948 -14114531.73547  21216224.298    21216224.9524   21216232.3004
       192.0004        192.0004
 -11288503.41548  -8778956.14446  22462479.413    22462479.6504   22462487.5694
       177.0004        177.0004
 -13177437.45848 -10255522.52446  21898467.159    21898466.5904   21898470.7704
       184.0004        183.0004
  -5424851.97647  -3928484.71845  23402840.371    23402840.4024   23402846.0774
       159.0004        160.0004
 -14329550.99349 -11136188.72147  21735026.142    21735026.8494   21735033.5074
       198.0004        199.0004
 21  2  3  2 14 30.0000000  0  9G28G17G07G08G01G30G21G04G09
  -1306355.49547  -1011180.95145  23637019.534    23637020.7754   23637024.6734
       149.0004        151.0004
  -8125648.08648  -6300362.57646  23003548.039    23003548.0934   23003552.3544
       165.0004        166.0004
 -20221153.88649 -15721404.18747  20928713.649    20928714.2814   20928718.6364
       204.0004        204.0004
 -10891650.77149  -8446069.35847  22731716.966    22731716.8734   22731725.6964
       202.0004        202.0004
 -18175301.18748 -14152736.66247  21206894.214    21206894.7074   21206903.0354
       191.0004        192.0004
 -11373832.95748  -8845446.66246  22446242.054    22446241.9264   22446249.4234
       177.0004        179.0004
 -13153100.59348 -10236558.72346  21903098.276    21903097.9994   21903102.1874
       183.0004        183.0004
  -5326892.48447  -3852152.65445  23421481.160    23421481.2174   23421486.2504
       158.0004        159.0004
 -14264571.84149 -11085555.61247  21747392.273    21747392.0634   21747398.8934
       198.0004        199.0004
 21  2  3  2 15  0.0000000  0  9G28G17G07G08G01G30G21G04G09
  -1321236.60447  -1022776.65045  23634187.930    23634188.3074   23634192.8954
       148.0004        151.0004
  -8199793.23447  -6358138.01746  22989438.901    22989438.8364   22989442.9654
       164.0004        166.0004
 -20278432.14949 -15766036.61047  20917814.376    20917814.7244   20917819.1854
       204.0004        205.0004
 -10798171.57449  -8373228.44447  22749506.133    22749505.7384   22749513.7704
       202.0004        202.0004
 -18223903.47148 -14190608.56347  21197645.136    21197645.8714   21197654.1194
       192.0004        193.0004
 -11459059.51948  -8911856.98146  22430025.171    22430025.0644   22430032.3304
       179.0004        181.0004
 -13128269.09448 -10217209.49146  21907823.257    21907822.7634   21907828.0654
       183.0004        184.0004
  -5228919.27947  -3775809.95345  23440124.219    23440124.6844   23440130.7874
       156.0004        156.0004
 -14199298.31949 -11034693.12847  21759812.392    21759812.9434   21759820.3314
       198.0004        198.0004
 21  2  3  2 15 30.0000000  0  9G28G17G07G08G01G30G21G04G09
  -1336130.34647  -1034382.14845  23631353.685    23631353.9874   23631357.1894
       149.0004        153.0004
  -8273578.27048  -6415632.83746  22975398.094    22975398.2584   22975402.4124
       168.0004        171.0004
 -20335395.25049 -15810423.43747  20906974.575    20906975.1044   20906979.2004
       204.0004        205.0004
 -10704608.15849  -8300321.87347  22767309.712    22767310.1024   22767317.9964
       201.0004        201.0004
 -18272076.99348 -14228146.37447  21188476.994    21188478.6844   21188486.6984
       192.0004        193.0004
 -11544182.18848  -8978186.33146  22413826.455    22413826.1584   22413833.4304
       180.0004        181.0004
 -13102944.06248 -10197475.68946  21912643.292    21912642.8344   21912646.6894
       183.0004        183.0004
  -5130936.59547  -3699459.82245  23458769.511    23458769.4184   23458776.8404
       156.0004        158.0004
 -14133734.78549 -10983604.66247  21772288.965    21772289.4504   21772296.2074
       198.0004        198.0004
 21  2  3  2 16  0.0000000  0  9G28G17G07G08G01G30G21G04G09
  -1351036.71847  -1045997.51145  23628517.171    23628517.1774   23628520.0574
       150.0004        153.0004
  -8346999.88648  -6472844.46146  22961425.550    22961426.2294   22961431.1804
       169.0004        171.0004
 -20392039.10649 -15854561.51347  20896196.366    20896196.3324   20896200.1464
       204.0004        205.0004
 -10610961.37849  -8227350.37147  22785130.157    22785130.7194   22785138.8394
       200.0004        200.0004
 -18319817.12348 -14265346.46947  21179393.551    21179394.6414   21179402.0684
       193.0004        194.0004
 -11629196.68248  -9044431.37346  22397648.169    22397648.6324   22397656.1294
       180.0004        181.0004
 -13077124.45348 -10177356.51046  21917555.111    21917554.9854   21917560.2614
       183.0004        183.0004
  -5032945.44147  -3623103.11345  23477417.633    23477417.8194   23477423.4684
       156.0004        158.0004
 -14067882.43649 -10932291.15747  21784820.170    21784820.4714   21784827.1374
       197.0004        197.0004
 21  2  3  2 16 30.0000000  0  9G28G17G07G08G01G30G21G04G09
  -1365957.21047  -1057623.87445  23625679.702    23625679.4184   23625682.5094
       149.0004        152.0004
  -8420056.92248  -6529771.99746  22947523.855    22947523.6874   22947529.6304
       171.0004        173.0004
 -20448361.30549 -15898448.94747  20885478.021    20885478.6704   20885482.3524
       205.0004        205.0004
 -10517234.61749  -8154316.53847  22802965.778    22802965.6274   22802975.1394
       198.0004        198.0004
 -18367121.34248 -14302206.89547  21170393.624    21170393.5614   21170400.3944
       194.0004        195.0004
 -11714100.89948  -9110590.50646  22381491.962    22381491.5154   22381498.7644
       180.0004        180.0004
 -13050810.54948 -10156852.17146  21922562.916    21922562.8444   21922567.9074
       183.0004        184.0004
  -4934948.87347  -3546742.18145  23496064.768    23496065.7514   23496070.9344
       155.0004        156.0004
 -14001744.53149 -10880755.13347  21797405.259    21797406.1154   21797412.9074
       196.0004        196.0004
 21  2  3  2 17  0.0000000  0  9G28G17G07G08G01G30G21G04G09
  -1380894.06347  -1069262.97745  23622836.042    23622835.8004   23622840.3124
       149.0004        152.0004
  -8492749.08948  -6586415.24846  22933689.390    22933690.7194   22933696.8074
       171.0004        172.0004
 -20504359.79749 -15942084.15947  20874822.248    20874822.4464   20874826.3994
       205.0004        205.0004
 -10423431.01649  -8081222.86747  22820816.513    22820816.4614   22820824.5844
       198.0004        198.0004
 -18413987.68249 -14338726.14147  21161473.922    21161474.7464   21161482.3854
       195.0004        196.0004
 -11798893.17548  -9176662.43646  22365357.010    22365356.8254   22365363.6344
       181.0004        183.0004
 -13024003.76748 -10135963.77746  21927664.429    21927663.9864   21927668.8144
       183.0004        184.0004
  -4836950.44147  -3470379.83045  23514714.338    23514714.9274   23514719.8904
       155.0004        157.0004
 -13935324.85849 -10828999.55947  21810045.428    21810045.9444   21810052.6394
       196.0004        197.0004
 21  2  3  2 17 30.0000000  0  9G28G17G07G08G01G30G21G04G09
  -1395848.66547  -1080915.88945  23619989.532    23619989.5574   23619994.0674
       151.0004        155.0004
  -8565074.73648  -6642772.85946  22919929.186    22919928.7594   22919933.7074
       174.0004        177.0004
 -20560031.35949 -15985464.58547  20864228.079    20864228.4204   20864232.1244
       204.0004        205.0004
 -10329552.81249  -8008070.99147  22838680.293    22838681.0264   22838689.2534
       199.0004        200.0004
 -18460413.02149 -14374901.69847  21152639.362    21152640.3334   21152647.8084
       195.0004        196.0004
 -11883570.68448  -9242644.89246  22349242.154    22349242.4064   22349249.5734
       181.0004        182.0004
 -12996703.81548 -10114691.06046  21932858.194    21932858.4814   21932864.2024
       183.0004        183.0004
  -4738952.58147  -3394017.87345  23533363.320    23533363.1494   23533368.1344
       155.0004        158.0004
 -13868626.01649 -10777026.41747  21822737.268    21822737.5714   21822744.8274
       197.0004        197.0004
 21  2  3  2 18  0.0000000  0  9G28G17G07G08G01G30G21G04G09
  -1410821.82247  -1092583.27345  23617140.976    23617141.9934   23617145.4364
       152.0004        155.0004
  -8637032.25948  -6698843.64346  22906234.884    22906235.1914   22906240.7184
       175.0004        175.0004
 -20615373.12349 -16028588.04747  20853697.076    20853697.4014   20853701.4174
       205.0004        205.0004
 -10235602.80849  -7934863.20447  22856558.817    22856559.4184   22856567.5144
       200.0004        200.0004
 -18506394.37449 -14410731.32847  21143889.485    21143890.2134   21143897.1724
       195.0004        195.0004
 -11968130.81348  -9308535.88646  22333150.849    22333151.2214   22333158.3784
       183.0004        183.0004
 -12968909.97848 -10093033.52846  21938148.585    21938148.3274   21938153.6104
       183.0004        184.0004
  -4640957.78447  -3317658.34445  23552010.464    23552010.6054   23552016.5694
       154.0004        156.0004
 -13801650.81549 -10724837.96747  21835482.730    21835482.4014   21835489.2694
       196.0004        196.0004
 21  2  3  2 18 30.0000000  0  9G28G17G07G08G01G30G21G04G09
  -1425814.27947  -1104265.71045  23614288.399    23614288.1144   23614291.7294
       153.0004        156.0004
  -8708619.44148  -6754625.85946  22892612.876    22892613.2944   22892616.9354
       174.0004        174.0004
 -20670381.46649 -16071451.70747  20843229.000    20843229.2434   20843233.5874
       205.0004        205.0004
 -10141582.04049  -7861600.29447  22874451.081    22874450.4704   22874458.3884
       199.0004        198.0004
 -18551927.96449 -14446212.06947  21135224.839    21135225.6394   21135232.6734
       196.0004        196.0004
 -12052569.99848  -9374332.67746  22317083.438    22317083.3494   22317090.3464
       184.0004        185.0004
 -12940622.12548 -10070991.05646  21943531.623    21943531.0594   21943536.7524
       184.0004        183.0004
  -4542967.76247  -3241302.51945  23570654.674    23570656.3364   23570663.4324
       152.0004        153.0004
 -13734401.18849 -10672435.68147  21848279.313    21848279.9894   21848286.5654
       195.0004        196.0004
 21  2  3  2 19  0.0000000  0  9G28G17G07G08G01G30G21G04G09
  -1440829.19447  -1115965.59845  23611430.903    23611430.5734   23611434.6134
       153.0004        156.0004
  -8779836.62248  -6810119.72246  22879060.229    22879060.8034   22879064.6514
       174.0004        173.0004
 -20725055.26549 -16114054.66747  20832825.533    20832825.7974   20832829.4304
       205.0004        205.0004
 -10047494.78049  -7788285.53047  22892354.124    22892354.2264   22892362.6884
       196.0004        196.0004
 -18597012.71349 -14481343.02047  21126645.457    21126646.1534   21126654.0034
       196.0004        196.0004
 -12136887.39548  -9440034.52446  22301037.992    22301038.0814   22301045.0824
       185.0004        185.0004
 -12911841.82748 -10048564.81246  21949008.361    21949007.4684   21949012.5224
       184.0004        183.0004
  -4444986.84447  -3164953.78845  23589301.783    23589301.7674   23589308.6704
       152.0004        155.0004
 -13666881.74049 -10619823.11447  21861129.296    21861128.7974   21861135.2464
       196.0004        196.0004
 21  2  3  2 19 30.0000000  0  9G28G17G07G08G01G30G21G04G09
  -1455866.36347  -1127682.88345  23608569.043    23608569.3814   23608573.3404
       154.0004        156.0004
  -8850681.65548  -6865323.65746  22865578.783    22865579.2694   22865584.2974
       174.0004        177.0004
 -20779390.61649 -16156393.91347  20822485.436    20822485.5214   20822489.8784
       205.0004        206.0004
  -9953342.28549  -7714919.98647  22910270.987    22910271.3654   22910279.3404
       195.0004        196.0004
 -18641644.57149 -14516121.10347  21118150.825    21118152.2714   21118160.7784
       196.0004        197.0004
 -12221079.26048  -9505638.58646  22285016.968    22285016.9364   22285023.5644
       185.0004        185.0004
 -12882568.02948 -10025754.07346  21954577.970    21954578.0424   21954582.5434
       183.0004        183.0004
  -4347016.50547  -3088613.34545  23607945.056    23607945.8384   23607951.4974
       152.0004        154.0004
 -13599094.17549 -10567001.64147  21874028.582    21874028.5244   21874034.8664
       196.0004        195.0004
 21  2  3  2 20  0.0000000  0  9G28G17G07G08G01G30G21G04G09
  -1470927.64647  -1139418.91545  23605703.173    23605702.7424   23605707.3144
       154.0004        156.0004
  -8921153.86548  -6920237.01546  22852168.791    22852168.6484   22852173.4654
       176.0004        178.0004
 -20833384.92949 -16198467.38547  20812210.798    20812211.1974   20812215.1724
       206.0004        207.0004
  -9859127.63549  -7641505.95047  22928200.371    22928200.4114   22928207.8184
       196.0004        197.0004
 -18685821.27749 -14550544.48747  21109745.770    21109746.6104   21109754.1374
       197.0004        197.0004
 -12305143.48248  -9571143.15646  22269020.712    22269020.0134   22269026.7534
       185.0004        185.0004
 -12852802.50448 -10002560.13246  21960243.168    21960242.8094   21960247.8224
       183.0004        183.0004
  -4249059.85347  -3012283.50445  23626585.609    23626586.1844   23626593.2564
       152.0004        154.0004
 -13531041.92148 -10513973.89747  21886977.130    21886977.7804   21886984.7994
       194.0004        194.0004
 21  2  3  2 20 30.0000000  0  9G28G17G07G08G01G30G21G04G09
  -1486016.68747  -1151176.59245  23602833.451    23602832.6174   23602835.9034
       154.0004        156.0004
  -8991254.00848  -6974860.52646  22838829.024    22838829.6774   22838833.8964
       176.0004        176.0004
 -20887037.85149 -16240274.88047  20802001.122    20802001.7524   20802005.2534
       206.0004        207.0004
  -9764855.45249  -7568047.13747  22946140.907    22946139.7684   22946147.2954
       196.0004        196.0004
 -18729542.23349 -14584612.78747  21101427.169    21101427.0344   21101434.2264
       197.0004        198.0004
 -12389079.64648  -9636547.98446  22253047.461    22253047.4844   22253054.6274
       186.0004        186.0004
 -12822546.24748  -9978983.84346  21966000.461    21965999.8494   21966004.1474
       183.0004        182.0004
  -4151121.66347  -2935968.11545  23645222.419    23645222.6354   23645229.1694
       152.0004        154.0004
 -13462730.05748 -10460743.89447  21899975.929    21899976.5224   21899984.4304
       193.0004        192.0004
 21  2  3  2 21  0.0000000  0  9G28G17G07G08G01G30G21G04G09
  -1501132.75947  -1162955.31845  23599956.222    23599955.3954   23599958.5174
       153.0004        155.0004
  -9060978.75548  -7029191.49146  22825560.469    22825561.3204   22825565.1744
       174.0004        174.0004
 -20940344.33349 -16281812.39547  20791857.458    20791857.6514   20791861.4014
       206.0004        207.0004
  -9670526.21049  -7494543.83147  22964089.600    22964089.9034   22964097.7784
       197.0004        197.0004
 -18772802.59749 -14618322.14547  21093193.918    21093194.2884   21093201.5974
       197.0004        196.0004
 -12472883.07948  -9701849.35046  22237099.936    22237100.6534   22237106.4364
       187.0004        187.0004
 -12791797.70048  -9955023.91646  21971851.967    21971851.4774   21971855.5864
       183.0004        183.0004
  -4053202.45747  -2859667.49245  23663854.731    23663855.5634   23663862.4254
       151.0004        153.0004
 -13394159.36748 -10407312.18147  21913024.936    21913025.0814   21913033.1604
       191.0004        190.0004
 21  2  3  2 21 30.0000000  0  9G28G17G07G08G01G30G21G04G09
  -1516277.00147  -1174756.02545  23597073.422    23597072.9414   23597078.6364
       152.0004        155.0004
  -9130326.72648  -7083228.86546  22812364.737    22812364.1574   22812369.6984
       174.0004        175.0004
 -20993301.36549 -16323077.63847  20781779.687    20781780.0334   20781783.7944
       206.0004        207.0004
  -9576141.78849  -7420997.56347  22982050.195    22982050.4054   22982058.3474
       196.0004        196.0004
 -18815599.38549 -14651670.31047  21085049.981    21085050.4324   21085057.8264
       196.0004        196.0004
 -12556550.96148  -9767045.13747  22221178.744    22221179.2544   22221185.8684
       187.0004        188.0004
 -12760557.09148  -9930680.60146  21977796.688    21977796.0804   21977801.0404
       182.0004        182.0004
  -3955304.59347  -2783383.51745  23682484.597    23682486.0164   23682492.1014
       151.0004        154.0004
 -13325332.60148 -10353680.96247  21926121.116    21926121.8594   21926129.7864
       190.0004        190.0004
 21  2  3  2 22  0.0000000  0  9G28G17G07G08G01G30G21G04G09
  -1531451.08047  -1186579.98545  23594186.419    23594185.5724   23594189.8534
       152.0004        155.0004
  -9199296.91448  -7136971.85546  22799238.954    22799239.6844   22799243.9324
       173.0004        173.0004
 -21045906.78149 -16364068.88247  20771769.066    20771769.4754   20771773.6384
       206.0004        207.0004
  -9481705.30649  -7347410.70347  23000020.500    23000020.1744   23000029.8464
       195.0004        195.0004
 -18857930.37749 -14684655.50047  21076994.251    21076994.6624   21077002.5794
       196.0004        196.0004
 -12640081.15048  -9832133.58946  22205283.925    22205283.7724   22205290.5634
       188.0004        187.0004
 -12728825.34758  -9905954.55146  21983834.586    21983834.7845   21983839.7654
       182.0004        183.0004
  -3857431.19347  -2707118.56545  23701109.548    23701110.5824   23701116.5584
       153.0004        156.0004
 -13256253.11648 -10299852.82047  21939268.151    21939268.0874   21939275.4254
       190.0004        191.0004
 21  2  3  2 22 30.0000000  0  9G28G17G07G08G01G30G21G04G09
  -1546655.72347  -1198427.73945  23591293.020    23591292.7524   23591296.2264
       152.0004        155.0004
  -9267888.07148  -7190419.49246  22786187.178    22786186.8984   22786191.1764
       173.0004        175.0004
 -21098156.95749 -16404783.29347  20761826.222    20761826.5264   20761830.9644
       206.0004        207.0004
  -9387218.58348  -7273784.69647  23018000.665    23018001.2154   23018008.9664
       194.0004        195.0004
 -18899792.46449 -14717275.29247  21069028.248    21069028.7964   21069036.4744
       195.0004        196.0004
 -12723470.62348  -9897112.37646  22189414.717    22189414.4854   22189422.3194
       187.0004        187.0004
 -12696602.10348  -9880845.51646  21989966.642    21989966.5884   21989971.4554
       182.0004        183.0004
  -3759584.36147  -2630874.33945  23719729.797    23719730.5464   23719736.4924
       154.0004        158.0004
 -13186923.49248 -10245829.73847  21952460.469    21952461.2054   21952468.4614
       191.0004        192.0004
 21  2  3  2 23  0.0000000  0  9G28G17G07G08G01G30G21G04G09
  -1561893.06747  -1210300.96645  23588393.320    23588392.7404   23588397.3204
       152.0004        154.0004
  -9336099.61048  -7243571.31146  22773206.846    22773207.2894   22773210.8024
       173.0004        172.0004
 -21150049.96749 -16445219.40147  20751951.065    20751951.8284   20751955.9134
       207.0004        207.0004
  -9292684.79149  -7200121.99547  23035988.997    23035989.9084   23035998.3984
       195.0004        196.0004
 -18941183.45149 -14749527.99547  21061151.868    21061152.7424   21061160.3694
       196.0004        196.0004
 -12806717.27448  -9961979.89246  22173572.906    22173573.2234   22173580.4404
       186.0004        187.0004
 -12663888.50248  -9855354.37646  21996191.658    21996191.2824   21996195.6944
       182.0004        183.0004
  -3661767.24047  -2554653.24945  23738343.297    23738343.8844   23738351.1934
       155.0004        157.0004
 -13117347.11148 -10191614.37047  21965701.934    21965701.7434   21965708.5064
       194.0004        196.0004
 21  2  3  2 23 30.0000000  0  9G28G17G07G08G01G30G21G04G09
  -1577164.02647  -1222200.46445  23585486.846    23585486.2434   23585491.1504
       149.0004        150.0004
  -9403929.54548  -7296425.81946  22760298.939    22760299.8734   22760303.4804
       172.0004        174.0004
 -21201582.71349 -16485374.81747  20742144.765    20742145.5394   20742149.3014
       206.0004        207.0004
  -9198105.87549  -7126424.16547  23053989.314    23053989.2474   23053995.7584
       196.0004        197.0004
 -18982100.30949 -14781411.27647  21053365.488    21053365.5764   21053373.6434
       195.0004        195.0004
 -12889818.11748 -10026733.82247  22157760.101    22157760.2624   22157767.4204
       187.0004        188.0004
 -12630684.43148  -9829481.09246  22002510.768    22002509.9734   22002514.4264
       182.0004        183.0004
  -3563982.00547  -2478457.03545  23756952.896    23756952.0504   23756958.4204
       154.0004        155.0004
 -13047526.58949 -10137208.78447  21978988.902    21978989.0754   21978994.8654
       195.0004        196.0004
 21  2  3  2 24  0.0000000  0  9G28G17G07G08G01G30G21G04G09
  -1592471.11947  -1234128.04645  23582573.924    23582574.2294   23582577.3034
       146.0004        148.0004
  -9471378.56248  -7348983.45846  22747463.453    22747463.8124   22747468.5974
       171.0004        173.0004
 -21252753.56549 -16525248.20547  20732407.618    20732407.5924   20732411.8804
       206.0004        207.0004
  -9103485.56449  -7052694.05247  23071993.152    23071993.9174   23072001.3594
       195.0004        195.0004
 -19022541.69149 -14812924.01947  21045670.327    21045670.3464   21045677.8944
       195.0004        195.0004
 -12972771.81448 -10091373.03347  22141974.429    22141975.1054   22141981.6554
       187.0004        188.0004
 -12596991.75548  -9803227.02746  22008922.626    22008922.5344   22008926.0534
       182.0004        184.0004
  -3466232.54747  -2402288.65845  23775552.262    23775553.5344   23775560.0474
       153.0004        155.0004
 -12977466.13349 -10082616.20547  21992321.533    21992321.5244   21992326.8034
       197.0004        198.0004
 21  2  3  2 24 30.0000000  0  9G28G17G07G08G01G30G21G04G09
  -1607814.76147  -1246084.10045  23579653.345    23579653.2404   23579658.4364
       146.0004        150.0004
  -9538444.56348  -7401242.68046  22734702.044    22734701.6194   22734706.1054
       172.0004        173.0004
 -21303559.38349 -16564837.15547  20722739.265    20722739.8984   20722744.0334
       207.0004        208.0004
  -9008825.74148  -6978933.16847  23090005.059    23090006.3784   23090015.4834
       194.0004        194.0004
 -19062504.38849 -14844063.77447  21038064.221    21038065.4184   21038073.1064
       195.0004        195.0004
 -13055575.17248 -10155895.13747  22126218.567    22126218.3374   22126224.5874
       187.0004        188.0004
 -12562810.42848  -9776592.20946  22015426.457    22015425.3524   22015431.2704
       182.0004        183.0004
  -3368520.75847  -2326149.67645  23794147.474    23794147.3264   23794153.7994
       152.0004        154.0004
 -12907168.09049 -10027838.50547  22005697.786    22005698.0494   22005703.8544
       197.0004        197.0004
 21  2  3  2 25  0.0000000  0  9G28G17G07G08G01G30G21G04G09
  -1623196.49247  -1258069.88645  23576726.931    23576727.7094   23576731.1504
       146.0004        149.0004
  -9605127.24948  -7453203.19846  22722013.119    22722013.9884   22722016.8154
       172.0004        173.0004
 -21353997.16649 -16604139.32947  20713141.583    20713142.1144   20713145.9774
       207.0004        208.0004
  -8914128.25448  -6905142.93047  23108025.578    23108025.8434   23108035.8494
       194.0004        193.0004
 -19101985.68149 -14874828.41847  21030551.734    21030552.4894   21030560.3784
       195.0004        195.0004
 -13138225.41748 -10220297.93247  22110490.498    22110489.8984   22110496.7434
       187.0004        188.0004
 -12528140.45048  -9749576.64746  22022023.220    22022022.9024   22022028.4694
       183.0004        183.0004
  -3270849.23747  -2250042.05545  23812733.056    23812733.6034   23812740.4964
       153.0004        156.0004
 -12836635.31149  -9972877.89947  22019119.557    22019119.5464   22019125.8794
       196.0004        195.0004
 21  2  3  2 25 30.0000000  0  9G28G17G07G08G01G30G21G04G09
  -1638616.57047  -1270085.49345  23573792.306    23573792.5314   23573795.9624
       143.0004        146.0004
  -9671424.08148  -7504863.05946  22709395.687    22709396.1204   22709401.0794
       172.0004        172.0004
 -21404063.36349 -16643151.95547  20703614.384    20703614.8334   20703618.3394
       208.0004        208.0004
  -8819394.72148  -6831324.60447  23126054.690    23126054.5454   23126062.6664
       194.0004        194.0004
 -19140981.98949 -14905215.13947  21023130.990    21023131.4824   21023139.8264
       195.0004        195.0004
 -13220718.92648 -10284578.57546  22094791.283    22094791.7974   22094799.6784
       187.0004        186.0004
 -12492981.55548  -9722180.09546  22028714.897    22028714.4414   22028717.9474
       182.0004        183.0004
  -3173219.41347  -2173966.94045  23831310.371    23831311.5704   23831318.8214
       154.0004        157.0004
 -12765869.72048  -9917735.86647  22032584.715    22032585.2904   22032592.1924
       194.0004        193.0004
 21  2  3  2 26  0.0000000  0  9G28G17G07G08G01G30G21G04G09
  -1654077.79547  -1282133.17745  23570851.906    23570850.5914   23570854.9934
       144.0004        148.0004
  -9737335.46148  -7556222.57046  22696854.149    22696854.2654   22696858.5474
       172.0004        173.0004
 -21453756.79449 -16681874.10847  20694158.095    20694158.5334   20694162.5814
       208.0004        208.0004
  -8724629.47349  -6757481.55747  23144086.988    23144087.5344   23144096.6464
       195.0004        196.0004
 -19179492.40749 -14935223.24947  21015802.293    21015803.3184   21015811.1434
       195.0004        196.0004
 -13303054.72848 -10348736.34246  22079123.735    22079123.8274   22079131.2624
       186.0004        187.0004
 -12457335.57448  -9694403.98346  22035498.444    22035497.6404   22035501.8844
       183.0004        182.0004
  -3075635.44947  -2097927.55345  23849881.261    23849881.4244   23849888.2314
       154.0004        156.0004
 -12694875.94848  -9862416.04447  22046093.832    22046094.5734   22046102.0784
       192.0004        192.0004
 21  2  3  2 26 30.0000000  0 10G28G17G07G08G01G30G22G21G04G09
  -1669581.23447  -1294213.74045  23567900.472    23567900.7364   23567904.0964
       147.0004        151.0004
  -9802860.13848  -7607280.74946  22684385.733    22684385.3974   22684389.3594
       173.0004        175.0004
 -21503074.64449 -16720303.60247  20684773.503    20684773.7654   20684777.5034
       208.0004        208.0004
  -8629834.09948  -6683615.01847  23162125.093    23162126.2144   23162135.4444
       194.0004        195.0004
 -19217514.18749 -14964850.58947  21008568.671    21008568.6144   21008575.7604
       195.0004        196.0004
 -13385229.93548 -10412768.95946  22063486.578    22063486.7304   22063493.7754
       186.0004        187.0004
   -787728.26354   -586391.960 4                                  24777344.352
        74.0004        116.000
 -12421203.01348  -9666248.73946  22042372.725    22042373.2824   22042377.5344
       182.0004        182.0004
  -2978099.71847  -2021925.77245  23868442.518    23868442.9984   23868449.5464
       154.0004        156.0004
 -12623656.71148  -9806920.54847  22059646.714    22059646.7994   22059654.6914
       191.0004        191.0004
 21  2  3  2 27  0.0000000  0  9G28G17G07G08G01G30G21G04G09
  -1685128.37447  -1306328.41545  23564942.151    23564941.3254   23564945.6254
       149.0004        152.0004
  -9867997.27948  -7658036.95846  22671991.290    22671990.9694   22671995.2554
       175.0004        176.0004
 -21552014.13449 -16758438.28547  20675460.397    20675460.7084   20675464.4174
       208.0004        209.0004
  -8535011.01948  -6609726.91847  23180172.066    23180171.5894   23180179.3864
       194.0004        194.0004
 -19255044.88049 -14994095.28447  21001426.154    21001426.6024   21001433.7884
       195.0004        196.0004
 -13467241.98348 -10476674.44847  22047880.367    22047880.8534   22047887.3754
       187.0004        188.0004
 -12384584.36748  -9637714.72846  22049341.639    22049342.2014   22049346.1244
       182.0004        183.0004
  -2880614.88447  -1945963.65845  23886993.051    23886993.5014   23887000.5534
       153.0004        154.0004
 -12552215.14748  -9751251.80447  22073241.426    22073241.8814   22073249.8874
       190.0004        190.0004
 21  2  3  2 27 30.0000000  0  9G28G17G07G08G01G30G21G04G09
  -1700721.14647  -1318478.64045  23561975.140    23561974.8634   23561978.1744
       149.0004        152.0004
  -9932747.10248  -7708491.35046  22659668.667    22659669.5044   22659673.1584
       174.0004        175.0004
 -21600573.35049 -16796276.63747  20666220.050    20666220.5824   20666224.2924
       208.0004        209.0004
  -8440163.80248  -6535820.00247  23198219.866    23198220.4634   23198228.1564
       194.0004        194.0004
 -19292082.75449 -15022955.95547  20994377.596    20994378.7654   20994386.0104
       196.0004        196.0004
 -13549088.98948 -10540451.34846  22032305.042    22032305.9084   22032311.9724
       187.0004        187.0004
 -12347481.06648  -9608803.04746  22056403.194    22056401.9374   22056406.5524
       183.0004        183.0004
  -2783184.16547  -1870043.70145  23905534.065    23905534.0504   23905540.6724
       151.0004        153.0004
 -12480554.92248  -9695412.67147  22086878.926    22086879.2614   22086885.6374
       191.0004        191.0004
 21  2  3  2 28  0.0000000  0  9G28G17G07G08G01G30G21G04G09
  -1716359.37447  -1330664.23645  23558999.500    23558999.0704   23559003.2164
       148.0004        152.0004
  -9997106.94448  -7758641.86346  22647420.740    22647420.6594   22647426.3894
       174.0004        174.0004
 -21648748.47249 -16833815.69647  20657052.456    20657053.1014   20657056.7714
       209.0004        209.0004
  -8345293.08448  -6461894.79047  23216274.334    23216273.9934   23216280.7144
       192.0004        192.0004
 -19328623.85549 -15051429.53647  20987424.195    20987425.4064   20987432.0984
       196.0004        197.0004
 -13630766.83448 -10604096.42546  22016762.399    22016761.9564   22016768.6364
       186.0004        186.0004
 -12309892.27048  -9579513.07246  22063555.991    22063555.1314   22063559.1104
       182.0004        182.0004
  -2685808.61147  -1794166.71545  23924061.706    23924062.5794   23924070.2274
       148.0004        149.0004
 -12408677.52948  -9639404.31647  22100557.858    22100557.5854   22100563.7654
       191.0004        192.0004
 21  2  3  2 28 30.0000000  0  9G28G17G07G08G01G30G21G04G09
  -1732045.30247  -1342887.02045  23556014.587    23556014.1064   23556017.1614
       148.0004        150.0004
 -10061076.42948  -7808488.22146  22635247.738    22635247.8924   22635252.5964
       174.0004        175.0004
 -21696537.37549 -16871053.81347  20647958.378    20647958.8184   20647962.7474
       209.0004        209.0004
  -8250402.45048  -6387954.03947  23234330.698    23234330.3344   23234337.6704
       191.0004        191.0004
 -19364666.65449 -15079514.83247  20980566.502    20980566.7834   20980573.8154
       197.0004        198.0004
 -13712273.77048 -10667608.32446  22001252.569    22001252.1514   22001258.9544
       186.0004        187.0004
 -12271819.58448  -9549846.03546  22070800.268    22070799.3874   22070804.2494
       181.0004        181.0004
  -2588491.66847  -1718335.40245  23942582.092    23942583.3524   23942588.7694
       148.0004        151.0004
 -12336586.88248  -9583229.78547  22114275.590    22114275.8194   22114281.9244
       192.0004        192.0004
 21  2  3  2 29  0.0000000  0  9G28G17G07G08G01G30G21G04G09
  -1747779.17347  -1355147.17845  23553018.964    23553019.1534   23553023.1184
       146.0004        149.0004
 -10124654.09748  -7858029.25146  22623149.490    22623150.1544   22623154.4264
       174.0004        176.0004
 -21743936.55749 -16907988.25147  20638938.118    20638938.9654   20638942.9234
       208.0004        209.0004
  -8155492.87548  -6313998.54047  23252391.026    23252391.0874   23252398.9324
       191.0004        191.0004
 -19400208.01349 -15107209.38847  20973800.722    20973802.3604   20973810.4274
       197.0004        197.0004
 -13793606.42448 -10730984.40647  21985774.384    21985774.7194   21985781.8754
       187.0004        188.0004
 -12233262.99448  -9519801.93846  22078136.917    22078137.0574   22078141.6924
       181.0004        182.0004
  -2491235.13747  -1642551.17245  23961089.519    23961091.3714   23961096.5044
       148.0004        151.0004
 -12264285.22148  -9526890.83947  22128032.293    22128032.7304   22128040.7834
       190.0004        190.0004
