     2.11           OBSERVATION DATA    G (GPS)             RINEX VERSION / TYPE
teqc  2018Jun8                          20210202 03:10:47UTCPGM / RUN BY / DATE
Linux2.6.32-573.12.1.el6.x86_64|x86_64|gcc|Win64-MinGW64|=+ COMMENT
BIT 2 OF LLI FLAGS DATA COLLECTED UNDER A/S CONDITION       COMMENT
-Unknown-                                                   MARKER NAME
CRNO                                                        MARKER NUMBER
-Unknown-           -Unknown-                               OBSERVER / AGENCY
-Unknown-           ASHTECH             -Unknown-           REC # / TYPE / VERS
-Unknown-           -Unknown-                               ANT # / TYPE
   408077.3832 -6158372.1189  1605161.7892                  APPROX POSITION XYZ
        0.0000        0.0000        0.0000                  ANTENNA: DELTA H/E/N
     1     1                                                WAVELENGTH FACT L1/2
     7    L1    L2    C1    P1    P2    S1    S2            # / TYPES OF OBSERV
    30.0000                                                 INTERVAL
Forced Modulo Decimation to 30 seconds                      COMMENT
 SNR is mapped to RINEX snr flag value [1-9]                COMMENT
  L1: 1 -> 1;  90 -> 5; 210 -> 9                            COMMENT
  L2: 1 -> 1; 150 -> 5; 250 -> 9                            COMMENT
pseudorange smoothing corrections not applied               COMMENT
  2021     2     3     0     0   30.0000000     GPS         TIME OF FIRST OBS
                                                            END OF HEADER
 21  2  3  0  0 30.0000000  0  9G09G14G30G07G08G04G21G01G17
 -15915121.28149 -12370715.81447  21333153.130    21333153.3614   21333161.4234
       206.0004        207.0004
  -1944025.66048  -1499874.55746  23484444.720    23484445.1364   23484465.8354
       165.0004        165.0004
  -7947319.15148  -6177666.21146  23189477.865    23189477.5584   23189485.7824
       168.0004        171.0004
 -19026682.09549 -14805334.87847  21229518.841    21229519.1804   21229523.0274
       200.0004        201.0004
 -14556261.28249 -11326650.05748  21962855.333    21962855.2394   21962862.4464
       219.0004        218.0004
  -9603823.29448  -7469664.10346  22773531.567    22773531.7204   22773537.1694
       171.0004        171.0004
 -12179352.83748  -9276815.59446  21739986.953    21739986.8484   21739991.3244
       183.0004        183.0004
 -16763735.79748 -13049298.97046  21634916.445    21634917.0134   21634925.6114
       187.0004        187.0004
  -6085310.17547  -4700316.08745  23416072.269    23416072.3824   23416078.7574
       160.0004        162.0004
 21  2  3  0  1  0.0000000  0  9G09G14G30G07G08G04G21G01G17
 -15861594.81449 -12329006.86847  21343339.507    21343339.4944   21343346.7764
       206.0004        207.0004
  -1970343.28047  -1520381.75746  23479436.492    23479437.3394   23479456.9344
       164.0004        165.0004
  -8035449.62048  -6246339.29846  23172708.044    23172708.0954   23172713.9134
       170.0004        171.0004
 -19093123.53249 -14857107.39347  21216874.981    21216875.4054   21216879.9684
       201.0004        201.0004
 -14469356.11449 -11258931.72548  21979392.531    21979392.5174   21979400.0734
       219.0004        218.0004
  -9507703.96248  -7394765.93446  22791820.019    22791821.6584   22791828.0314
       169.0004        169.0004
 -12175153.33348  -9273543.21746  21740787.042    21740786.5524   21740791.0624
       184.0004        185.0004
 -16827290.50248 -13098822.08147  21622821.576    21622822.7994   21622831.6284
       187.0004        188.0004
  -6170743.70347  -4766887.62046  23399814.005    23399814.7704   23399819.9534
       161.0004        163.0004
 21  2  3  0  1 30.0000000  0  9G09G14G30G07G08G04G21G01G17
 -15807676.58949 -12286992.66947  21353598.409    21353599.5094   21353607.0424
       206.0004        207.0004
  -1996635.70247  -1540869.33946  23474433.095    23474434.2054   23474455.0734
       164.0004        165.0004
  -8123572.06148  -6315006.13146  23155938.658    23155938.0804   23155944.8124
       171.0004        172.0004
 -19159351.55949 -14908713.64147  21204272.337    21204273.1394   21204277.0964
       202.0004        202.0004
 -14382248.29049 -11191055.50148  21995967.883    21995968.2774   21995975.9554
       218.0004        218.0004
  -9411471.48848  -7319779.60646  22810133.694    22810133.7814   22810141.1794
       167.0004        168.0004
 -12170472.15648  -9269895.49646  21741678.468    21741677.7104   21741681.4984
       184.0004        184.0004
 -16890538.35948 -13148106.09346  21610786.060    21610787.4134   21610795.6304
       187.0004        186.0004
  -6255863.90747  -4833214.91946  23383615.949    23383617.1804   23383621.9794
       162.0004        165.0004
 21  2  3  0  2  0.0000000  0  9G09G14G30G07G08G04G21G01G17
 -15753370.29049 -12244676.06747  21363933.976    21363933.8894   21363941.3954
       206.0004        206.0004
  -2022905.17847  -1561339.02846  23469434.281    23469434.5994   23469454.8074
       164.0004        166.0004
  -8211685.45148  -6383665.87546  23139170.612    23139170.3774   23139177.9894
       171.0004        172.0004
 -19225364.38549 -14960152.19447  21191710.284    21191710.9404   21191714.9674
       201.0004        201.0004
 -14294941.72949 -11123024.39848  22012581.657    22012582.2834   22012589.2914
       218.0004        217.0004
  -9315129.90948  -7244708.26446  22828467.308    22828467.8914   22828473.8234
       167.0004        168.0004
 -12165309.69148  -9265872.77446  21742659.773    21742659.8024   21742663.2484
       184.0004        183.0004
 -16953477.07448 -13197149.21247  21598809.696    21598810.3954   21598819.3844
       187.0004        188.0004
  -6340670.32047  -4899297.75646  23367478.568    23367479.3734   23367484.4674
       164.0004        166.0004
 21  2  3  0  2 30.0000000  0  9G09G14G30G07G08G04G21G01G17
 -15698676.89049 -12202057.82947  21374341.737    21374342.1214   21374349.0074
       205.0004        205.0004
  -2049151.16748  -1581790.42446  23464440.088    23464440.6924   23464461.1294
       165.0004        166.0004
  -8299785.99548  -6452315.63646  23122405.751    23122405.8964   23122413.8974
       170.0004        172.0004
 -19291157.38849 -15011419.45647  21179190.227    21179190.4044   21179195.3274
       201.0004        201.0004
 -14207437.75549 -11054839.47648  22029232.963    22029233.3714   22029240.8644
       218.0004        217.0004
  -9218680.42648  -7169552.81846  22846821.276    22846822.1204   22846828.7224
       169.0004        170.0004
 -12159663.70948  -9261473.28646  21743733.499    21743733.0854   21743737.0434
       183.0004        183.0004
 -17016101.77348 -13245947.66147  21586893.088    21586893.6784   21586902.4974
       188.0004        189.0004
  -6425159.55547  -4965133.44146  23351400.278    23351401.3274   23351406.3944
       163.0004        165.0004
 21  2  3  0  3  0.0000000  0  9G09G14G30G07G08G04G21G01G17
 -15643600.34249 -12159141.03847  21384822.539    21384822.2834   21384829.4514
       205.0004        204.0004
  -2075376.16347  -1602225.48346  23459449.879    23459450.2104   23459470.2154
       164.0004        164.0004
  -8387872.90948  -6520954.76946  23105643.429    23105643.1864   23105650.2524
       171.0004        172.0004
 -19356729.84349 -15062514.86647  21166711.916    21166712.7124   21166717.0234
       201.0004        202.0004
 -14119740.23549 -10986503.73848  22045922.518    22045922.3014   22045929.0444
       217.0004        217.0004
  -9122127.24248  -7094316.59746  22865196.190    22865195.1774   22865201.3224
       169.0004        170.0004
 -12153534.69448  -9256697.40446  21744900.889    21744899.7524   21744903.6634
       182.0004        183.0004
 -17078410.52148 -13294499.90047  21575037.383    21575037.8074   21575045.0704
       189.0004        190.0004
  -6509330.87047  -5030721.42146  23335384.048    23335384.6254   23335388.6834
       164.0004        166.0004
 21  2  3  0  3 30.0000000  0  9G09G14G30G07G08G04G21G01G17
 -15588143.41349 -12115927.84647  21395375.005    21395375.3874   21395382.6414
       204.0004        204.0004
  -2101581.50647  -1622645.20646  23454461.763    23454463.5194   23454483.6624
       162.0004        163.0004
  -8475944.17148  -6589581.71346  23088883.757    23088883.6844   23088890.7454
       170.0004        170.0004
 -19422078.49349 -15113435.87547  21154276.939    21154277.3204   21154281.3354
       202.0004        202.0004
 -14031852.25749 -10918019.59448  22062646.240    22062646.6224   22062653.7214
       217.0004        216.0004
  -9025473.56048  -7019002.05046  22883586.871    22883587.7074   22883594.1254
       169.0004        169.0004
 -12146921.58948  -9251544.32246  21746158.964    21746158.2674   21746162.6384
       182.0004        183.0004
 -17140400.18348 -13342803.51547  21563240.685    21563240.7984   21563248.0154
       189.0004        189.0004
  -6593182.34948  -5096060.13846  23319427.589    23319427.5404   23319434.1364
       166.0004        168.0004
 21  2  3  0  4  0.0000000  0  9G09G14G30G07G08G04G21G01G17
 -15532307.53549 -12072419.37447  21406000.314    21406000.7134   21406008.1584
       204.0004        204.0004
  -2127767.09947  -1643049.53545  23449479.653    23449480.0284   23449501.2924
       161.0004        162.0004
  -8563996.40848  -6658193.84846  23072128.081    23072127.9614   23072135.5044
       169.0004        172.0004
 -19487199.27549 -15164179.32947  21141885.143    21141885.4074   21141889.6784
       202.0004        202.0004
 -13943775.30649 -10849388.20448  22079406.467    22079407.0064   22079414.2474
       216.0004        215.0004
  -8928720.95448  -6943610.41446  22901998.804    22901999.2654   22902005.6964
       170.0004        171.0004
 -12139822.49048  -9246012.53246  21747508.735    21747509.0634   21747513.6384
       183.0004        183.0004
 -17202066.30148 -13390855.01447  21551504.331    21551505.1044   21551513.6754
       188.0004        189.0004
  -6676711.55548  -5161147.74946  23303531.593    23303531.8524   23303538.3814
       166.0004        166.0004
 21  2  3  0  4 30.0000000  0  9G09G14G30G07G08G04G21G01G17
 -15476095.47449 -12028617.76847  21416697.899    21416697.7774   21416704.9044
       203.0004        204.0004
  -2153934.16647  -1663439.39745  23444498.844    23444500.6364   23444520.2584
       159.0004        161.0004
  -8652027.61948  -6726789.56346  23055376.046    23055375.7774   23055383.8714
       171.0004        174.0004
 -19552089.24149 -15214742.92747  21129536.704    21129537.1644   21129541.5574
       202.0004        202.0004
 -13855512.49049 -10780611.96948  22096202.595    22096202.7344   22096209.9814
       216.0004        215.0004
  -8831872.29648  -6868143.92646  22920427.181    22920428.4034   22920435.8744
       169.0004        169.0004
 -12132236.48448  -9240101.32946  21748953.449    21748953.1044   21748957.6404
       183.0004        184.0004
 -17263405.81948 -13438652.00447  21539833.166    21539833.8554   21539841.0124
       188.0004        188.0004
  -6759916.36648  -5225982.58646  23287698.436    23287697.8354   23287704.7514
       165.0004        166.0004
 21  2  3  0  5  0.0000000  0  9G09G14G30G07G08G04G21G01G17
 -15419509.31549 -11984524.65547  21427464.316    21427465.0034   21427473.3704
       203.0004        204.0004
  -2180083.22747  -1683815.29745  23439523.189    23439524.2014   23439545.3414
       159.0004        160.0004
  -8740034.98448  -6795366.70046  23038629.012    23038629.2284   23038636.6394
       172.0004        173.0004
 -19616745.70849 -15265124.58547  21117233.383    21117233.7284   21117237.8724
       203.0004        204.0004
 -13767065.95549 -10711692.58748  22113034.336    22113033.4294   22113040.6584
       215.0004        214.0004
  -8734929.99348  -6792604.49746  22938876.080    22938876.1354   22938881.7764
       168.0004        169.0004
 -12124162.30348  -9233809.73246  21750488.797    21750489.1724   21750493.5304
       183.0004        184.0004
 -17324414.77048 -13486191.42747  21528223.597    21528223.8804   21528231.6614
       188.0004        189.0004
  -6842794.67148  -5290562.96046  23271926.585    23271927.1074   23271933.4974
       166.0004        169.0004
 21  2  3  0  5 30.0000000  0  9G09G14G30G07G08G04G21G01G17
 -15362553.44049 -11940143.45347  21438303.473    21438304.2594   21438311.5304
       203.0004        204.0004
  -2206217.28647  -1704179.44445  23434550.430    23434551.9824   23434571.4864
       159.0004        161.0004
  -8828018.03248  -6863924.90646  23021886.367    23021886.1614   23021894.0504
       172.0004        173.0004
 -19681167.58749 -15315323.44147  21104973.940    21104974.5764   21104978.4484
       203.0004        203.0004
 -13678440.23949 -10642633.58348  22129898.590    22129898.5884   22129905.0814
       214.0004        213.0004
  -8637898.67948  -6716995.66146  22957340.006    22957341.1854   22957346.6154
       168.0004        169.0004
 -12115601.19548  -9227138.72646  21752118.753    21752118.0614   21752123.4614
       184.0004        185.0004
 -17385091.68748 -13533472.11547  21516677.502    21516677.4444   21516685.0434
       188.0004        189.0004
  -6925346.43148  -5354888.91846  23256218.645    23256218.2864   23256224.3574
       168.0004        171.0004
 21  2  3  0  6  0.0000000  0  9G09G14G30G07G08G04G21G01G17
 -15305231.48849 -11895476.99647  21449210.934    21449211.1624   21449219.3944
       203.0004        202.0004
  -2232338.22147  -1724533.38746  23429580.797    23429580.8154   23429601.2924
       160.0004        163.0004
  -8915975.48248  -6932463.16246  23005148.634    23005148.6144   23005155.7604
       172.0004        172.0004
 -19745352.76549 -15365337.84847  21092759.917    21092760.1804   21092764.4644
       203.0004        203.0004
 -13589638.84949 -10573437.69147  22146796.785    22146796.0154   22146803.4854
       213.0004        212.0004
  -8540782.08548  -6641320.38846  22975821.677    22975821.2814   22975827.0574
       169.0004        169.0004
 -12106553.21448  -9220088.32546  21753840.205    21753840.0114   21753845.4854
       185.0004        185.0004
 -17445434.27848 -13580492.28547  21505193.220    21505193.6594   21505201.9634
       188.0004        188.0004
  -7007570.63048  -5418959.61546  23240570.571    23240570.5794   23240577.9114
       167.0004        167.0004
 21  2  3  0  6 30.0000000  0  9G09G14G30G07G08G04G21G01G17
 -15247545.02049 -11850526.50847  21460188.629    21460189.5274   21460196.5264
       202.0004        203.0004
  -2258446.10747  -1744877.15045  23424611.153    23424612.0964   23424632.3604
       161.0004        162.0004
  -9003904.01848  -7000978.90646  22988416.857    22988416.5614   22988423.0374
       171.0004        173.0004
 -19809297.13449 -15415164.62247  21080591.055    21080592.1954   21080596.5284
       203.0004        204.0004
 -13500664.06749 -10504106.69647  22163726.425    22163726.9454   22163735.2914
       212.0004        212.0004
  -8443581.96848  -6565580.04746  22994316.047    22994317.1994   22994324.8854
       169.0004        169.0004
 -12097016.64448  -9212657.21546  21755656.738    21755655.2414   21755660.3824
       186.0004        186.0004
 -17505438.27748 -13627248.61647  21493774.422    21493774.8674   21493784.3324
       188.0004        189.0004
  -7089464.66348  -5482773.05146  23224986.383    23224987.5894   23224994.0504
       167.0004        168.0004
 21  2  3  0  7  0.0000000  0  9G09G14G30G07G08G04G21G01G17
 -15189495.17349 -11805292.87247  21471235.475    21471235.7374   21471243.5424
       202.0004        202.0004
  -2284540.50047  -1765210.42646  23419646.810    23419646.6264   23419667.3804
       161.0004        163.0004
  -9091799.96048  -7069469.22746  22971690.963    22971690.7384   22971698.0094
       172.0004        174.0004
 -19872996.51649 -15464800.49247  21068470.359    21068470.5334   21068474.3384
       203.0004        203.0004
 -13411516.88549 -10434641.36247  22180690.875    22180691.3384   22180698.9554
       212.0004        212.0004
  -8346299.69448  -6489775.71846  23012829.186    23012829.6794   23012837.2054
       167.0004        167.0004
 -12086989.30948  -9204843.68046  21757563.575    21757563.4504   21757568.2774
       186.0004        186.0004
 -17565098.79348 -13673737.31747  21482423.864    21482424.1424   21482431.2574
       191.0004        194.0004
  -7171025.36748  -5546326.79446  23209466.434    23209466.8714   23209472.6574
       167.0004        167.0004
 21  2  3  0  7 30.0000000  0  9G09G14G30G07G08G04G21G01G17
 -15131086.33149 -11759779.48647  21482350.301    21482350.3984   21482357.8304
       202.0004        202.0004
  -2310624.12247  -1785535.31845  23414683.704    23414683.4834   23414704.0474
       161.0004        162.0004
  -9179662.59248  -7137933.60246  22954971.390    22954971.0784   22954978.0444
       173.0004        173.0004
 -19936449.63049 -15514244.47847  21056395.552    21056395.9074   21056399.6994
       203.0004        203.0004
 -13322201.58049 -10365045.02448  22197688.230    22197688.1074   22197695.4564
       212.0004        213.0004
  -8248939.61448  -6413910.72246  23031356.442    23031356.4974   23031363.3984
       168.0004        168.0004
 -12076472.19948  -9196648.50546  21759565.148    21759564.2634   21759569.4734
       187.0004        187.0004
 -17624414.22948 -13719957.14247  21471137.552    21471137.9254   21471143.9784
       194.0004        195.0004
  -7252252.10948  -5609620.27446  23194009.423    23194009.8694   23194014.1614
       165.0004        164.0004
 21  2  3  0  8  0.0000000  0  9G09G14G30G07G08G04G21G01G17
 -15072321.28549 -11713988.55047  21493532.462    21493533.0774   21493540.6294
       202.0004        203.0004
  -2336698.22347  -1805852.78745  23409720.893    23409721.7224   23409742.3584
       159.0004        160.0004
  -9267489.88948  -7206370.43246  22938256.262    22938257.1664   22938265.2714
       170.0004        171.0004
 -19999653.78249 -15563494.45947  21044367.705    21044368.0094   21044372.7004
       203.0004        204.0004
 -13232721.00249 -10295319.88947  22214714.887    22214715.0084   22214723.5774
       212.0004        212.0004
  -8151504.80248  -6337987.49046  23049897.967    23049898.6974   23049904.2684
       167.0004        167.0004
 -12065464.52548  -9188071.06946  21761658.458    21761658.4104   21761664.5714
       186.0004        186.0004
 -17683381.62148 -13765905.74847  21459914.642    21459915.2864   21459922.5074
       194.0004        192.0004
  -7333143.77647  -5672652.66246  23178616.015    23178617.4564   23178619.8464
       162.0004        163.0004
 21  2  3  0  8 30.0000000  0  9G09G14G30G07G08G04G21G01G17
 -15013201.81849 -11667921.42247  21504783.254    21504783.0754   21504790.4304
       202.0004        202.0004
  -2362762.87947  -1826162.90845  23404761.240    23404760.9214   23404782.0254
       158.0004        160.0004
  -9355278.49748  -7274777.10646  22921551.239    22921551.2644   22921559.3434
       171.0004        172.0004
 -20062605.22949 -15612547.51947  21032388.521    21032388.9984   21032393.1884
       203.0004        203.0004
 -13143076.62249 -10225467.12647  22231773.835    22231774.2034   22231781.9834
       211.0004        210.0004
  -8053997.02148  -6262007.40546  23068452.687    23068453.8064   23068459.4434
       166.0004        167.0004
 -12053965.31348  -9179110.62146  21763846.716    21763847.0824   21763852.7164
       187.0004        187.0004
 -17741996.73548 -13811579.81047  21448757.884    21448758.7554   21448768.0474
       190.0004        188.0004
  -7413697.39647  -5735421.67246  23163288.686    23163288.4444   23163290.8044
       163.0004        164.0004
 21  2  3  0  9  0.0000000  0  9G09G14G30G07G08G04G21G01G17
 -14953731.39449 -11621580.83047  21516099.439    21516099.6384   21516107.5234
       202.0004        202.0004
  -2388819.94147  -1846467.10745  23399802.553    23399803.7584   23399823.7834
       158.0004        158.0004
  -9443026.97048  -7343152.52946  22904853.248    22904853.9644   22904860.6664
       170.0004        171.0004
 -20125301.48949 -15661401.74647  21020458.101    21020458.6174   21020462.3814
       204.0004        204.0004
 -13053273.07449 -10155490.34347  22248864.018    22248863.5724   22248870.7334
       211.0004        210.0004
  -7956419.89948  -6185973.29346  23087021.780    23087022.1984   23087027.5994
       166.0004        167.0004
 -12041974.15148  -9169766.83846  21766129.825    21766129.2054   21766134.5494
       187.0004        187.0004
 -17800257.09248 -13856977.45446  21437671.292    21437671.7564   21437681.6024
       188.0004        187.0004
  -7493912.14747  -5797926.63845  23148023.149    23148023.6914   23148025.8564
       160.0004        160.0004
 21  2  3  0  9 30.0000000  0  9G09G14G30G07G08G04G21G01G17
 -14893912.45049 -11574968.67047  21527482.806    21527483.2344   21527490.9404
       203.0004        204.0004
  -2414870.16547  -1866765.99145  23394846.600    23394846.6084   23394865.9824
       157.0004        159.0004
  -9530732.67648  -7411494.63846  22888162.853    22888163.1304   22888171.8814
       170.0004        172.0004
 -20187739.99049 -15710055.10947  21008576.482    21008576.5824   21008581.2554
       204.0004        204.0004
 -12963311.69449 -10085390.55347  22265982.451    22265982.5694   22265989.8494
       211.0004        211.0004
  -7858775.96048  -6109887.12646  23105601.731    23105602.3754   23105609.2554
       165.0004        164.0004
 -12029490.05948  -9160038.94346  21768505.807    21768505.1774   21768509.8384
       187.0004        187.0004
 -17858159.23648 -13902095.96947  21426653.476    21426654.6684   21426663.8674
       188.0004        190.0004
  -7573786.05447  -5860165.99745  23132823.577    23132823.9374   23132826.1054
       159.0004        161.0004
 21  2  3  0 10  0.0000000  0  9G09G14G30G07G08G04G21G01G17
 -14833748.25749 -11528087.48947  21538932.128    21538932.2734   21538939.2594
       203.0004        204.0004
  -2440915.25147  -1887060.84745  23389889.903    23389889.8874   23389910.3604
       157.0004        158.0004
  -9618393.92948  -7479802.08146  22871480.954    22871481.8214   22871489.4914
       171.0004        172.0004
 -20249918.27849 -15758505.72847  20996743.957    20996744.5234   20996748.7784
       204.0004        204.0004
 -12873195.95149 -10015170.50147  22283128.626    22283130.0184   22283138.6584
       210.0004        210.0004
  -7761068.58547  -6033751.53946  23124193.939    23124194.6524   23124202.1494
       162.0004        163.0004
 -12016513.28548  -9149927.15846  21770974.157    21770973.9004   21770979.6814
       187.0004        187.0004
 -17915700.51048 -13946933.32047  21415704.624    21415705.4054   21415713.2724
       190.0004        192.0004
  -7653318.23247  -5922139.10845  23117687.950    23117688.3604   23117693.6674
       158.0004        160.0004
 21  2  3  0 10 30.0000000  0  9G09G14G30G07G08G04G21G01G17
 -14773239.96449 -11480938.15547  21550446.708    21550446.8264   21550453.4484
       203.0004        203.0004
  -2466954.57947  -1907351.23345  23384932.868    23384934.4164   23384954.9264
       154.0004        156.0004
  -9706006.76048  -7548071.77646  22854810.040    22854809.9294   22854818.0804
       171.0004        172.0004
 -20311831.70049 -15806749.93547  20984962.198    20984962.8554   20984967.0994
       204.0004        205.0004
 -12782927.12949  -9944831.14447  22300308.392    22300308.2864   22300316.0094
       210.0004        209.0004
  -7663298.93847  -5957567.39446  23142799.611    23142799.9014   23142807.2604
       162.0004        163.0004
 -12003041.69848  -9139429.78446  21773538.286    21773537.6704   21773543.0394
       187.0004        187.0004
 -17972876.10848 -13991485.70147  21404825.714    21404826.2454   21404833.3004
       192.0004        194.0004
  -7732505.16547  -5983843.13046  23102618.983    23102619.8524   23102624.4184
       160.0004        164.0004
 21  2  3  0 11  0.0000000  0  9G09G14G30G07G08G04G21G01G17
 -14712391.77149 -11433523.99847  21562025.519    21562025.7604   21562032.9584
       204.0004        204.0004
  -2492990.61447  -1927639.03945  23379980.010    23379980.4314   23380000.0944
       154.0004        156.0004
  -9793570.28948  -7616303.07546  22838147.124    22838146.7634   22838155.0314
       172.0004        174.0004
 -20373478.91549 -15854786.73347  20973231.216    20973231.3674   20973236.5034
       204.0004        204.0004
 -12692509.64149  -9874375.97947  22317514.119    22317513.9514   22317521.6444
       208.0004        207.0004
  -7565471.16847  -5881338.01146  23161415.231    23161416.1624   23161423.5694
       162.0004        163.0004
 -11989076.45148  -9128547.77046  21776195.215    21776194.6484   21776200.7134
       187.0004        187.0004
 -18029684.29548 -14035751.81247  21394015.408    21394015.6004   21394023.0344
       193.0004        193.0004
  -7811346.94248  -6045278.23646  23087618.302    23087617.5754   23087623.3394
       165.0004        170.0004
 21  2  3  0 11 30.0000000  0  9G09G14G30G07G08G04G21G01G17
 -14651207.93849 -11385848.26747  21573668.325    21573668.6704   21573676.0214
       204.0004        204.0004
  -2519025.94747  -1947926.29145  23375025.171    23375025.7614   23375046.0114
       156.0004        158.0004
  -9881083.70148  -7684495.31046  22821492.846    22821493.5854   22821501.2614
       171.0004        172.0004
 -20434858.96649 -15902615.31347  20961550.346    20961551.0154   20961555.6804
       203.0004        204.0004
 -12601947.13249  -9803807.76247  22334747.463    22334747.2624   22334755.1394
       208.0004        207.0004
  -7467589.61947  -5805066.68446  23180042.799    23180043.3214   23180050.9084
       162.0004        164.0004
 -11974618.26348  -9117281.60946  21778947.034    21778947.1044   21778951.5994
       187.0004        187.0004
 -18086123.41348 -14079730.30647  21383274.820    21383274.9324   21383282.9324
       193.0004        194.0004
  -7889843.01248  -6106443.91246  23072679.320    23072679.5214   23072687.2174
       167.0004        169.0004
 21  2  3  0 12  0.0000000  0 10G09G14G30G28G07G08G04G21G01G17
 -14589690.32249 -11337912.47347  21585374.872    21585375.0584   21585382.0074
       203.0004        203.0004
  -2545060.71447  -1968213.08645  23370071.544    23370072.0304   23370091.6944
       157.0004        160.0004
  -9968543.70548  -7752645.96246  22804851.001    22804851.4834   22804858.5714
       174.0004        177.0004
  -1237143.48056   -955781.49145  23678849.306                    23678855.2564
       127.0004        143.0004
 -20495967.54749 -15950232.39947  20949922.629    20949923.0194   20949926.9354
       203.0004        204.0004
 -12511241.69349  -9733128.20447  22352008.315    22352008.2174   22352015.3774
       207.0004        207.0004
  -7369656.19747  -5728754.96246  23198678.429    23198679.2684   23198686.5694
       163.0004        164.0004
 -11959665.44848  -9105630.04246  21781792.503    21781791.5564   21781797.2584
       187.0004        187.0004
 -18142189.42948 -14123418.09847  21372605.544    21372606.2934   21372614.0004
       192.0004        192.0004
  -7967991.04248  -6167338.43946  23057806.347    23057808.1514   23057815.8764
       169.0004        172.0004
 21  2  3  0 12 30.0000000  0 10G09G14G30G28G07G08G04G21G01G17
 -14527841.75149 -11289718.79047  21597144.328    21597144.5094   21597151.3514
       203.0004        202.0004
  -2571096.00647  -1988500.31845  23365115.743    23365117.4594   23365138.2634
       159.0004        161.0004
 -10055948.09048  -7820753.24746  22788218.294    22788218.5624   22788226.3884
       176.0004        177.0004
  -1252120.79847   -967452.11945  23675999.393    23675998.8254   23676005.3284
       137.0004        144.0004
 -20556802.08749 -15997635.93247  20938346.002    20938346.3634   20938350.7264
       204.0004        204.0004
 -12420396.43149  -9662339.68947  22369296.451    22369295.9134   22369302.9394
       208.0004        208.0004
  -7271673.68947  -5652404.97046  23217324.123    23217324.4024   23217331.9514
       163.0004        164.0004
 -11944218.19748  -9093593.19646  21784732.165    21784731.5074   21784736.5814
       187.0004        187.0004
 -18197879.24248 -14166812.72847  21362007.755    21362008.4134   21362016.5854
       191.0004        191.0004
  -8045789.57248  -6227960.63146  23043003.623    23043003.6464   23043010.8614
       170.0004        173.0004
 21  2  3  0 13  0.0000000  0 10G09G14G30G28G07G08G04G21G01G17
 -14465666.87549 -11241270.83447  21608975.604    21608975.7604   21608983.8214
       203.0004        203.0004
  -2597134.71447  -2008790.20745  23360161.018    23360161.4624   23360183.1584
       160.0004        162.0004
 -10143296.31948  -7888816.78846  22771597.090    22771597.4494   22771603.9134
       177.0004        178.0004
  -1267087.47347   -979114.45145  23673151.924    23673150.8924   23673157.9384
       141.0004        147.0004
 -20617361.78249 -16044825.29547  20926820.845    20926822.1994   20926826.7624
       204.0004        203.0004
 -12329415.74349  -9591445.65147  22386608.300    22386608.1234   22386615.6964
       207.0004        206.0004
  -7173646.78747  -5576020.38545  23235977.590    23235977.6934   23235984.9414
       161.0004        161.0004
 -11928277.76648  -9081172.06046  21787764.914    21787764.4024   21787769.8384
       187.0004        187.0004
 -18253191.56148 -14209913.21147  21351481.425    21351482.2904   21351490.8874
       190.0004        190.0004
  -8123239.00148  -6288310.80646  23028266.535    23028266.8304   23028273.3964
       173.0004        175.0004
 21  2  3  0 13 30.0000000  0 10G09G14G30G28G07G08G04G21G01G17
 -14403167.83149 -11192570.28847  21620868.443    21620868.7944   21620877.0434
       203.0004        203.0004
  -2623177.17947  -2029083.03345  23355206.344    23355206.5464   23355226.5374
       159.0004        160.0004
 -10230585.38948  -7956834.22246  22754986.580    22754987.3494   22754993.3214
       177.0004        178.0004
  -1282044.29247   -990769.11145  23670305.197    23670305.0014   23670311.9194
       143.0004        147.0004
 -20677642.92749 -16091797.61547  20915351.133    20915351.2234   20915354.9914
       204.0004        204.0004
 -12238301.40549  -9520447.46747  22403945.540    22403946.2344   22403954.8814
       206.0004        206.0004
  -7075577.51947  -5499602.77345  23254639.259    23254639.8304   23254647.2624
       159.0004        160.0004
 -11911843.00048  -9068365.74446  21790891.962    21790892.2624   21790896.9214
       187.0004        187.0004
 -18308122.60748 -14252716.60147  21341028.469    21341029.4824   21341038.1704
       190.0004        191.0004
  -8200336.66348  -6348386.83746  23013594.665    23013595.3794   23013600.8424
       173.0004        174.0004
 21  2  3  0 14  0.0000000  0 10G09G14G30G28G07G08G04G21G01G17
 -14340345.48749 -11143617.81647  21632822.858    21632823.1534   21632830.9004
       202.0004        201.0004
  -2649222.51947  -2049378.07345  23350249.239    23350250.6274   23350269.6044
       158.0004        160.0004
 -10317810.89848  -8024802.14146  22738388.694    22738388.3024   22738395.7434
       180.0004        182.0004
  -1296990.84747  -1002415.74745  23667461.823    23667461.3944   23667466.7144
       144.0004        148.0004
 -20737640.64949 -16138549.09047  20903933.949    20903934.4194   20903938.0974
       204.0004        204.0004
 -12147054.20949  -9449345.76647  22421309.897    22421310.1144   22421318.7704
       206.0004        206.0004
  -6977466.74447  -5423152.83945  23273309.374    23273310.1904   23273316.7944
       160.0004        162.0004
 -11894911.59348  -9055172.42546  21794114.579    21794113.9124   21794118.7824
       187.0004        186.0004
 -18362667.33248 -14295218.94447  21330648.826    21330649.4704   21330658.5684
       190.0004        190.0004
  -8277078.93048  -6408185.92946  22998990.500    22998990.9164   22998997.0604
       173.0004        173.0004
 21  2  3  0 14 30.0000000  0 10G09G14G30G28G07G08G04G21G01G17
 -14277202.10249 -11094415.19747  21644838.450    21644839.0314   21644846.7244
       201.0004        200.0004
  -2675271.18747  -2069675.72946  23345292.600    23345293.2804   23345313.2144
       160.0004        163.0004
 -10404970.03548  -8092718.33446  22721802.956    22721802.7174   22721809.3694
       181.0004        182.0004
  -1311927.94147  -1014055.02745  23664619.550    23664618.6904   23664623.4894
       147.0004        152.0004
 -20797351.47049 -16185076.99547  20892570.749    20892571.3354   20892576.1784
       204.0004        205.0004
 -12055676.41649  -9378142.29747  22438699.966    22438699.0914   22438707.4754
       206.0004        206.0004
  -6879316.64647  -5346672.26146  23291987.383    23291987.5914   23291994.5334
       162.0004        164.0004
 -11877482.75748  -9041591.49246  21797430.694    21797429.9834   21797435.5954
       186.0004        187.0004
 -18416822.08248 -14337417.43347  21320344.116    21320344.7644   21320353.0374
       191.0004        191.0004
  -8353464.55948  -6467707.18146  22984454.501    22984455.9354   22984461.5064
       172.0004        173.0004
 21  2  3  0 15  0.0000000  0 10G09G14G30G28G07G08G04G21G01G17
 -14213741.45749 -11044965.34347  21656915.210    21656915.3544   21656922.8684
       200.0004        200.0004
  -2701325.14447  -2089977.48446  23340334.731    23340335.3824   23340354.9384
       161.0004        163.0004
 -10492061.29448  -8160581.62646  22705229.283    22705229.6674   22705236.6074
       180.0004        180.0004
  -1326858.07747  -1025688.86345  23661777.425    23661777.5914   23661784.2094
       149.0004        153.0004
 -20856773.95049 -16231380.21447  20881263.104    20881263.5634   20881267.8304
       204.0004        204.0004
 -11964171.20949  -9306839.52547  22456111.799    22456112.3514   22456120.0694
       206.0004        206.0004
  -6781130.92547  -5270163.92646  23310670.399    23310671.4744   23310679.0654
       162.0004        164.0004
 -11859557.04148  -9027623.37846  21800841.412    21800841.4204   21800846.4554
       186.0004        186.0004
 -18470584.69748 -14379310.35047  21310114.245    21310114.6564   21310121.8884
       191.0004        193.0004
  -8429492.42048  -6526949.60646  22969988.428    22969987.8874   22969994.1584
       172.0004        174.0004
 21  2  3  0 15 30.0000000  0 10G09G14G30G28G07G08G04G21G01G17
 -14149965.60549 -10995269.88147  21669051.012    21669051.8564   21669058.6444
       200.0004        199.0004
  -2727384.69647  -2110283.61146  23335377.071    23335377.1874   23335395.7644
       162.0004        163.0004
 -10579081.53048  -8228389.58146  22688669.436    22688670.0944   22688677.1864
       179.0004        181.0004
  -1341781.86147  -1037317.76545  23658937.590    23658937.4534   23658942.5794
       149.0004        152.0004
 -20915904.16849 -16277455.69547  20870010.545    20870011.2804   20870015.5474
       204.0004        204.0004
 -11872541.32749  -9235439.61347  22473547.935    22473548.1584   22473556.7944
       206.0004        206.0004
  -6682911.61247  -5193629.42246  23329361.777    23329362.1864   23329369.3434
       162.0004        163.0004
 -11841133.35448  -9013267.23846  21804347.849    21804347.2094   21804352.6374
       186.0004        185.0004
 -18523951.37848 -14420894.76047  21299958.368    21299959.0934   21299966.8864
       192.0004        193.0004
  -8505160.23548  -6585911.51646  22955588.957    22955589.1264   22955593.7824
       173.0004        174.0004
 21  2  3  0 16  0.0000000  0 10G09G14G30G28G07G08G04G21G01G17
 -14085878.77649 -10945332.08547  21681246.399    21681246.6654   21681254.3154
       199.0004        199.0004
  -2753452.12547  -2130595.88645  23330416.390    23330416.1454   23330435.7634
       161.0004        162.0004
 -10666029.70648  -8296141.39346  22672123.264    22672123.5534   22672129.8154
       178.0004        177.0004
  -1356701.96147  -1048943.80845  23656098.939    23656098.6064   23656103.7404
       150.0004        153.0004
 -20974740.78049 -16323302.39747  20858815.291    20858815.6004   20858819.6284
       204.0004        205.0004
 -11780789.93049  -9163945.02447  22491008.022    22491007.9324   22491016.2674
       205.0004        204.0004
  -6584662.76747  -5117071.90046  23348058.709    23348059.3814   23348064.8444
       162.0004        163.0004
 -11822212.95148  -8998524.04546  21807948.029    21807947.9924   21807952.9744
       186.0004        187.0004
 -18576920.40048 -14462169.29347  21289878.944    21289879.4454   21289887.0244
       193.0004        194.0004
  -8580468.20848  -6644593.02046  22941257.444    22941257.7334   22941262.7064
       173.0004        171.0004
 21  2  3  0 16 30.0000000  0 10G09G14G30G28G07G08G04G21G01G17
 -14021482.47749 -10895153.15647  21693501.078    21693501.4194   21693508.8104
       199.0004        200.0004
  -2779527.24947  -2150914.12845  23325453.453    23325453.4034   23325474.0824
       158.0004        158.0004
 -10752902.13748  -8363834.19346  22655593.236    22655592.8854   22655599.6624
       179.0004        181.0004
  -1371618.75447  -1060567.27245  23653260.338    23653260.1544   23653265.5614
       151.0004        154.0004
 -21033279.48949 -16368916.96147  20847675.287    20847675.8124   20847679.8994
       205.0004        205.0004
 -11688919.08849  -9092357.36447  22508490.933    22508490.2134   22508498.0424
       204.0004        203.0004
  -6486385.85047  -5040492.48146  23366760.750    23366760.9424   23366766.9364
       161.0004        163.0004
 -11802794.24048  -8983392.55046  21811643.782    21811642.8754   21811647.9164
       186.0004        187.0004
 -18629487.45348 -14503130.61047  21279875.175    21279876.4224   21279884.5624
       194.0004        195.0004
  -8655413.48048  -6702991.89546  22926995.291    22926996.1924   22927000.1204
       170.0004        170.0004
 21  2  3  0 17  0.0000000  0 10G09G14G30G28G07G08G04G21G01G17
 -13956781.36649 -10844736.72147  21705813.510    21705813.7204   21705820.9384
       199.0004        200.0004
  -2805612.78247  -2171240.49845  23320489.693    23320490.4524   23320510.6564
       158.0004        159.0004
 -10839698.14248  -8431467.42346  22639076.753    22639076.8784   22639083.4714
       181.0004        183.0004
  -1386535.27347  -1072190.50145  23650421.607    23650421.5114   23650425.7194
       151.0004        154.0004
 -21091519.71349 -16414298.95347  20836592.349    20836592.8984   20836597.3434
       204.0004        204.0004
 -11596932.94549  -9020679.86647  22525993.623    22525994.1674   22526002.7904
       202.0004        202.0004
  -6388085.34447  -4963894.70845  23385466.474    23385465.7624   23385472.8014
       160.0004        160.0004
 -11782878.90948  -8967874.09846  21815433.692    21815432.6804   21815437.7764
       186.0004        186.0004
 -18681651.24049 -14543777.69647  21269949.134    21269949.8744   21269958.0874
       195.0004        195.0004
  -8729996.00848  -6761108.14046  22912803.665    22912803.8604   22912808.1184
       171.0004        172.0004
 21  2  3  0 17 30.0000000  0 10G09G14G30G28G07G08G04G21G01G17
 -13891777.23949 -10794084.14047  21718183.156    21718183.4934   21718190.9024
       200.0004        200.0004
  -2831708.66947  -2191574.95245  23315523.843    23315524.7464   23315543.9314
       157.0004        159.0004
 -10926414.29648  -8499038.41646  22622575.015    22622573.7954   22622581.7324
       182.0004        181.0004
  -1401451.94847  -1083813.86645  23647583.064    23647582.7844   23647589.0244
       152.0004        155.0004
 -21149456.95449 -16459444.84047  20825567.446    20825568.1274   20825572.1994
       204.0004        205.0004
 -11504832.90149  -8948913.59847  22543519.388    22543520.4644   22543529.1394
       202.0004        202.0004
  -6289762.96747  -4887279.84845  23404175.155    23404175.3524   23404182.6494
       159.0004        160.0004
 -11762465.46648  -8951967.49146  21819317.070    21819317.1474   21819322.7204
       186.0004        186.0004
 -18733407.68049 -14584107.36547  21260100.398    21260101.2224   21260108.6814
       195.0004        196.0004
  -8804213.90648  -6818940.20646  22898681.142    22898680.7784   22898685.9294
       172.0004        175.0004
 21  2  3  0 18  0.0000000  0 10G09G14G30G28G07G08G04G21G01G17
 -13826472.88249 -10743197.64447  21730610.019    21730610.3884   21730617.7534
       200.0004        200.0004
  -2857815.81547  -2211918.15945  23310554.432    23310555.2694   23310577.0284
       157.0004        158.0004
 -11013048.03748  -8566545.21246  22606089.330    22606088.9494   22606096.3664
       181.0004        182.0004
  -1416370.12647  -1095438.40845  23644745.228    23644744.4154   23644748.5964
       153.0004        155.0004
 -21207088.19649 -16504352.31147  20814601.877    20814601.7394   20814605.4984
       205.0004        206.0004
 -11412621.56749  -8877060.60047  22561067.613    22561068.2524   22561076.9974
       203.0004        204.0004
  -6191421.24747  -4810649.95145  23422888.845    23422889.6824   23422895.4214
       158.0004        159.0004
 -11741553.74948  -8935672.62946  21823297.094    21823296.5814   21823302.1454
       186.0004        185.0004
 -18784753.72649 -14624117.25647  21250329.670    21250330.0774   21250337.7924
       195.0004        195.0004
  -8878065.01848  -6876486.48946  22884626.551    22884627.3634   22884632.2674
       172.0004        174.0004
 21  2  3  0 18 30.0000000  0 10G09G14G30G28G07G08G04G21G01G17
 -13760871.31549 -10692079.55147  21743093.129    21743093.7174   21743100.6394
       199.0004        199.0004
  -2883935.38147  -2232271.03545  23305585.582    23305586.1424   23305604.4914
       157.0004        160.0004
 -11099597.10448  -8633986.02446  22589618.965    22589619.1324   22589625.8814
       180.0004        181.0004
  -1431291.34747  -1107065.28245  23641904.209    23641904.6404   23641909.3714
       152.0004        155.0004
 -21264411.46949 -16549019.79047  20803692.440    20803692.9144   20803697.0884
       205.0004        205.0004
 -11320301.75449  -8805123.12847  22578635.878    22578636.0234   22578645.1694
       203.0004        204.0004
  -6093063.17947  -4734007.31545  23441606.747    23441606.7014   23441611.7594
       157.0004        159.0004
 -11720143.66248  -8918989.42746  21827371.478    21827370.8944   21827375.9564
       185.0004        185.0004
 -18835686.49849 -14663805.11547  21240637.615    21240638.0184   21240645.6234
       195.0004        195.0004
  -8951548.07248  -6933745.97646  22870643.255    22870643.8734   22870648.6124
       173.0004        174.0004
 21  2  3  0 19  0.0000000  0 10G09G14G30G28G07G08G04G21G01G17
 -13694976.66349 -10640733.07647  21755632.562    21755632.8464   21755640.6264
       199.0004        199.0004
  -2910069.53747  -2252635.30245  23300611.614    23300612.4124   23300632.6234
       158.0004        161.0004
 -11186060.23548  -8701359.86946  22573165.182    22573165.6314   22573172.3144
       181.0004        182.0004
  -1446218.23347  -1118696.57345  23639064.608    23639064.1784   23639069.1544
       153.0004        156.0004
 -21321424.81649 -16593445.77847  20792843.703    20792843.7874   20792848.0904
       206.0004        206.0004
 -11227877.35049  -8733104.08647  22596222.288    22596223.2354   22596232.1144
       203.0004        202.0004
  -5994692.60147  -4657354.93945  23460326.413    23460326.2294   23460332.4914
       157.0004        159.0004
 -11698236.36648  -8901918.78046  21831540.505    21831539.2804   21831544.9884
       185.0004        185.0004
 -18886204.27449 -14703169.59347  21231024.167    21231024.5574   21231032.8344
       195.0004        195.0004
  -9024663.88048  -6990719.28046  22856730.227    22856730.0834   22856734.8084
       172.0004        174.0004
 21  2  3  0 19 30.0000000  0 10G09G14G30G28G07G08G04G21G01G17
 -13628791.55349 -10589160.25147  21768227.760    21768228.2184   21768235.1274
       199.0004        199.0004
  -2936218.98647  -2273011.46845  23295635.892    23295636.0214   23295656.6034
       159.0004        162.0004
 -11272434.79248  -8768664.68946  22556728.451    22556729.0364   22556735.7124
       180.0004        180.0004
  -1461151.94347  -1130333.18245  23636222.044    23636221.8974   23636227.4174
       151.0004        153.0004
 -21378124.68049 -16637627.47547  20782053.750    20782054.1624   20782058.0484
       206.0004        206.0004
 -11135350.75349  -8661005.45047  22613828.692    22613829.6714   22613839.8834
       201.0004        200.0004
  -5896312.01947  -4580694.75345  23479047.280    23479047.4484   23479053.3574
       157.0004        158.0004
 -11675831.42848  -8884460.34846  21835803.265    21835802.6804   21835808.9504
       186.0004        186.0004
 -18936303.79748 -14742208.14647  21221490.701    21221490.9494   21221498.8624
       194.0004        195.0004
  -9097410.26348  -7047404.72946  22842886.287    22842886.3414   22842892.1994
       173.0004        175.0004
 21  2  3  0 20  0.0000000  0 10G09G14G30G28G07G08G04G21G01G17
 -13562317.32749 -10537362.15647  21780877.499    21780877.9974   21780885.1154
       199.0004        199.0004
  -2962383.16647  -2293399.11945  23290655.598    23290657.9004   23290678.3974
       160.0004        162.0004
 -11358716.72148  -8835897.33846  22540309.745    22540309.6174   22540317.6934
       180.0004        181.0004
  -1476092.06547  -1141974.82245  23633378.016    23633378.4104   23633384.4434
       149.0004        152.0004
 -21434507.27249 -16681561.97147  20771324.383    20771325.1304   20771328.7664
       206.0004        206.0004
 -11042722.96649  -8588827.97847  22631456.229    22631456.7094   22631466.0914
       200.0004        200.0004
  -5797922.54747  -4504027.64545  23497768.796    23497769.9174   23497776.1174
       155.0004        156.0004
 -11652927.29748  -8866612.95746  21840161.883    21840161.5364   21840166.8004
       186.0004        186.0004
 -18985980.57348 -14780917.29147  21212037.040    21212037.3034   21212045.8444
       194.0004        194.0004
  -9169783.56648  -7103799.48346  22829113.755    22829114.7474   22829120.1264
       174.0004        175.0004
 21  2  3  0 20 30.0000000  0 10G09G14G30G28G07G08G04G21G01G17
 -13495558.26449 -10485342.10547  21793580.982    21793581.7974   21793588.4924
       199.0004        199.0004
  -2988564.53147  -2313800.13746  23285675.257    23285675.2524   23285695.5614
       162.0004        164.0004
 -11444904.95148  -8903056.96446  22523908.765    22523909.0194   22523916.1654
       179.0004        178.0004
  -1491041.93647  -1153624.04445  23630533.958    23630533.8714   23630540.4214
       149.0004        153.0004
 -21490571.31349 -16725248.22147  20760655.176    20760655.7474   20760660.3834
       206.0004        206.0004
 -10949997.80549  -8516574.60347  22649102.562    22649102.6304   22649111.4354
       201.0004        202.0004
  -5699528.27247  -4427356.77745  23516493.572    23516494.0934   23516501.0864
       154.0004        155.0004
 -11629525.44548  -8848377.71646  21844615.352    21844615.0214   21844620.0794
       185.0004        185.0004
 -19035233.02848 -14819295.80547  21202663.586    21202664.1174   21202672.6254
       193.0004        192.0004
  -9241784.96948  -7159904.42446  22815412.703    22815413.4214   22815419.1584
       174.0004        177.0004
 21  2  3  0 21  0.0000000  0 10G09G14G30G28G07G08G04G21G01G17
 -13428518.04349 -10433102.96947  21806339.356    21806339.3984   21806345.3714
       198.0004        198.0004
  -3014764.68847  -2334215.77846  23280688.376    23280689.5784   23280709.3324
       162.0004        164.0004
 -11530997.75348  -8970142.24846  22507525.913    22507525.8714   22507532.8844
       178.0004        179.0004
  -1506003.37447  -1165282.27745  23627687.643    23627687.6794   23627691.6164
       151.0004        154.0004
 -21546314.39049 -16768684.38047  20750047.208    20750048.3324   20750052.6744
       206.0004        206.0004
 -10857179.03349  -8444248.27247  22666765.422    22666765.1454   22666773.3864
       201.0004        201.0004
  -5601132.60547  -4350684.84245  23535218.405    23535217.9594   23535224.9314
       154.0004        156.0004
 -11605626.61848  -8829755.23146  21849163.032    21849162.6984   21849167.6704
       186.0004        185.0004
 -19084059.01148 -14857342.00447  21193373.016    21193373.9844   21193381.3614
       193.0004        194.0004
  -9313413.63148  -7215718.92546  22801782.521    22801782.6494   22801788.5574
       176.0004        178.0004
 21  2  3  0 21 30.0000000  0 10G09G14G30G28G07G08G04G21G01G17
 -13361199.30249 -10380646.81647  21819148.920    21819149.1624   21819156.5004
       198.0004        198.0004
  -3040984.35747  -2354646.68346  23275699.778    23275700.8754   23275719.4674
       162.0004        163.0004
 -11616992.42948  -9037151.07246  22491161.936    22491162.1574   22491168.9554
       179.0004        180.0004
  -1520977.89447  -1176950.73845  23624837.159    23624837.8754   23624841.9544
       151.0004        153.0004
 -21601733.81049 -16811868.34647  20739502.065    20739502.1474   20739506.7734
       206.0004        206.0004
 -10764268.51449  -8371850.49047  22684444.156    22684444.6904   22684453.4354
       200.0004        199.0004
  -5502738.02447  -4274013.77145  23553941.469    23553942.0214   23553948.7564
       155.0004        157.0004
 -11581230.25948  -8810745.07046  21853805.309    21853805.2394   21853809.8674
       185.0004        185.0004
 -19132455.38748 -14895053.44247  21184163.986    21184164.2994   21184172.0284
       194.0004        195.0004
  -9384667.82548  -7271241.64846  22788222.840    22788223.5254   22788229.9784
       176.0004        176.0004
 21  2  3  0 22  0.0000000  0 10G09G14G30G28G07G08G04G21G01G17
 -13293604.55449 -10327975.59547  21832010.955    21832011.5704   21832019.0494
       197.0004        197.0004
  -3067224.03947  -2375093.16746  23270707.186    23270706.7964   23270726.6204
       163.0004        166.0004
 -11702885.98248  -9104081.10346  22474816.841    22474816.4854   22474823.1554
       180.0004        181.0004
  -1535966.21547  -1188629.91045  23621985.825    23621985.6094   23621990.3824
       151.0004        154.0004
 -21656826.14249 -16854797.44147  20729018.191    20729019.1644   20729023.1304
       206.0004        207.0004
 -10671268.38449  -8299382.87547  22702141.467    22702142.1204   22702151.4624
       198.0004        198.0004
  -5404346.75747  -4197345.27545  23572664.542    23572664.8154   23572672.6104
       156.0004        158.0004
 -11556336.24148  -8791347.11246  21858543.783    21858542.9054   21858547.5554
       186.0004        186.0004
 -19180418.79348 -14932427.50747  21175036.215    21175036.7144   21175045.1374
       194.0004        195.0004
  -9455545.99548  -7326471.36846  22774735.985    22774736.5514   22774741.6094
       175.0004        175.0004
 21  2  3  0 22 30.0000000  0 10G09G14G30G28G07G08G04G21G01G17
 -13225736.76849 -10275091.60947  21844926.159    21844926.1214   21844933.8864
       195.0004        195.0004
  -3093484.84048  -2395556.11746  23265709.851    23265710.6204   23265729.8344
       166.0004        167.0004
 -11788676.08348  -9170930.50846  22458491.170    22458490.7034   22458497.9654
       180.0004        180.0004
  -1550969.95647  -1200321.09545  23619131.101    23619130.2884   23619136.0134
       151.0004        154.0004
 -21711588.76449 -16897469.61847  20718596.918    20718597.6294   20718601.9524
       206.0004        207.0004
 -10578181.89149  -8226847.94847  22719856.023    22719856.0604   22719865.5334
       198.0004        199.0004
  -5305961.50047  -4120681.44245  23591386.549    23591387.2064   23591393.8514
       154.0004        155.0004
 -11530944.74148  -8771561.51046  21863374.640    21863374.1024   21863379.9334
       186.0004        186.0004
 -19227946.44249 -14969462.01747  21165991.945    21165992.9734   21166000.9534
       195.0004        196.0004
  -9526046.94248  -7381407.15346  22761319.650    22761319.6704   22761324.8774
       175.0004        176.0004
 21  2  3  0 23  0.0000000  0 10G09G14G30G28G07G08G04G21G01G17
 -13157599.54048 -10221997.67447  21857891.918    21857892.1774   21857900.7164
       194.0004        194.0004
  -3119768.31448  -2416036.69946  23260707.417    23260708.2784   23260727.6444
       166.0004        166.0004
 -11874360.91948  -9237697.87846  22442185.501    22442185.3854   22442192.8864
       179.0004        180.0004
  -1565990.80047  -1212025.64145  23616270.878    23616271.2264   23616276.8084
       152.0004        155.0004
 -21766019.41049 -16939883.10347  20708239.480    20708239.8194   20708244.1554
       206.0004        207.0004
 -10485012.00449  -8154248.05247  22737585.481    22737585.5884   22737595.5854
       199.0004        199.0004
  -5207585.64147  -4044024.95345  23610107.553    23610107.6574   23610113.7404
       153.0004        155.0004
 -11505056.49348  -8751388.83246  21868301.388    21868300.4354   21868305.1834
       185.0004        185.0004
 -19275036.15249 -15006155.27347  21157031.740    21157032.0674   21157039.9764
       196.0004        196.0004
  -9596170.01548  -7436048.47846  22747975.430    22747976.3384   22747981.5494
       175.0004        178.0004
 21  2  3  0 23 30.0000000  0 10G09G14G30G28G07G08G04G21G01G17
 -13089194.11748 -10168694.76247  21870907.557    21870908.3874   21870917.5114
       193.0004        193.0004
  -3146073.71648  -2436534.36946  23255702.203    23255704.0544   23255722.5584
       166.0004        168.0004
 -11959936.15348  -9304379.87246  22425901.399    22425901.5454   22425908.3904
       179.0004        180.0004
  -1581028.62547  -1223743.38445  23613411.130    23613410.8114   23613416.2374
       153.0004        155.0004
 -21820113.48449 -16982034.32947  20697945.488    20697946.3014   20697950.8324
       206.0004        207.0004
 -10391759.44249  -8081583.71947  22755330.540    22755331.0864   22755340.4764
       199.0004        199.0004
  -5109220.04147  -3967376.46245  23628824.563    23628826.0554   23628832.1134
       153.0004        156.0004
 -11478669.74348  -8730827.71146  21873321.879    21873321.3964   21873326.3764
       185.0004        185.0004
 -19321683.37949 -15042503.74347  21148154.814    21148155.5154   21148163.6724
       196.0004        197.0004
  -9665912.23948  -7490393.04346  22734705.160    22734704.7254   22734709.7644
       176.0004        177.0004
 21  2  3  0 24  0.0000000  0 10G09G14G30G28G07G08G04G21G01G17
 -13020524.89148 -10115186.29747  21883975.265    21883975.7344   21883983.9094
       192.0004        191.0004
  -3172403.41348  -2457050.97846  23250691.604    23250692.5854   23250712.2774
       167.0004        168.0004
 -12045400.85048  -9370975.71946  22409638.288    22409637.7054   22409643.9944
       179.0004        180.0004
  -1596086.55247  -1235476.77045  23610545.596    23610544.3354   23610549.5624
       153.0004        155.0004
 -21873869.98049 -17023922.50647  20687716.598    20687716.9794   20687720.9114
       207.0004        207.0004
 -10298428.03749  -8008857.94447  22773092.517    22773091.9974   22773100.6914
       199.0004        198.0004
  -5010868.89747  -3890739.22845  23647541.663    23647541.7904   23647549.1554
       154.0004        156.0004
 -11451785.80048  -8709879.16946  21878437.891    21878437.4054   21878442.1604
       185.0004        185.0004
 -19367886.73649 -15078506.33447  21139362.346    21139363.0344   21139370.9094
       197.0004        197.0004
  -9735273.89748  -7544441.07046  22721504.778    22721505.4364   22721511.1664
       177.0004        178.0004
 21  2  3  0 24 30.0000000  0 10G09G14G30G28G07G08G04G21G01G17
 -12951594.40048 -10061474.23747  21897092.402    21897093.6044   21897101.6114
       192.0004        194.0004
  -3198757.93448  -2477586.93246  23245677.629    23245677.7684   23245698.0544
       168.0004        169.0004
 -12130752.06348  -9437483.13446  22393396.610    22393396.4064   22393402.7694
       180.0004        181.0004
  -1611165.40647  -1247226.48045  23607676.163    23607675.7954   23607680.8574
       155.0004        158.0004
 -21927285.41249 -17065544.91047  20677551.127    20677552.1974   20677556.1214
       207.0004        207.0004
 -10205020.36149  -7936072.74347  22790866.631    22790866.5764   22790875.6324
       196.0004        195.0004
  -4912534.43247  -3814114.96045  23666253.002    23666253.9984   23666260.2244
       153.0004        155.0004
 -11424404.90648  -8688543.38546  21883648.296    21883648.1454   21883653.0344
       185.0004        184.0004
 -19413643.03949 -15114160.57447  21130654.849    21130656.2944   21130663.7644
       197.0004        198.0004
  -9804253.41448  -7598191.29846  22708379.371    22708379.6834   22708384.0674
       177.0004        177.0004
 21  2  3  0 25  0.0000000  0 10G09G14G30G28G07G08G04G21G01G17
 -12882405.90148 -10007561.13247  21910260.461    21910260.3664   21910268.2374
       194.0004        196.0004
  -3225138.47448  -2498143.14046  23240656.587    23240657.7554   23240677.4024
       168.0004        168.0004
 -12215987.51648  -9503900.36046  22377176.138    22377177.1604   22377182.8104
       180.0004        182.0004
  -1626266.56547  -1258993.59045  23604801.596    23604801.5234   23604807.4814
       155.0004        156.0004
 -21980357.72349 -17106899.95347  20667451.998    20667452.5474   20667457.3154
       207.0004        207.0004
 -10111538.91849  -7863230.06947  22808656.326    22808656.3104   22808664.0484
       195.0004        195.0004
  -4814219.50847  -3737505.94445  23684961.316    23684962.2064   23684969.5094
       153.0004        156.0004
 -11396527.08748  -8666820.39946  21888953.822    21888953.1054   21888958.1234
       184.0004        184.0004
 -19458949.68949 -15149464.43747  21122034.300    21122034.4494   21122042.4934
       198.0004        198.0004
  -9872850.16048  -7651643.27546  22695324.325    22695325.1754   22695331.2544
       175.0004        176.0004
 21  2  3  0 25 30.0000000  0 10G09G14G30G28G07G08G04G21G01G17
 -12812961.54149  -9953448.64547  21923475.628    21923476.1274   21923482.6974
       196.0004        197.0004
  -3251545.11448  -2518719.71646  23235631.636    23235632.8324   23235651.3204
       168.0004        169.0004
 -12301103.88748  -9570224.79546  22360979.636    22360979.3624   22360986.5704
       182.0004        184.0004
  -1641390.90347  -1270778.75145  23601923.259    23601923.7824   23601928.5104
       154.0004        156.0004
 -22033082.83949 -17147984.45947  20657419.402    20657419.9804   20657423.8414
       207.0004        208.0004
 -10017985.40449  -7790331.22747  22826458.226    22826457.9224   22826466.6494
       195.0004        195.0004
  -4715926.05547  -3660913.67445  23703664.839    23703666.2874   23703675.0224
       154.0004        156.0004
 -11368152.14748  -8644710.03846  21894352.018    21894351.8784   21894357.5524
       184.0004        184.0004
 -19503803.20249 -15184415.21147  21113498.659    21113499.4314   21113507.0574
       198.0004        198.0004
  -9941061.98248  -7704795.34846  22682344.989    22682345.0244   22682350.6104
       175.0004        176.0004
 21  2  3  0 26  0.0000000  0 10G09G14G30G28G07G08G04G21G01G17
 -12743263.63449  -9899138.57847  21936738.842    21936739.3264   21936745.6784
       198.0004        198.0004
  -3277978.14948  -2539316.87246  23230601.321    23230601.3144   23230621.1284
       168.0004        167.0004
 -12386098.00548  -9636453.95246  22344806.209    22344806.3784   22344812.2624
       185.0004        185.0004
  -1656538.88247  -1282582.31545  23599042.391    23599040.7554   23599045.5454
       154.0004        157.0004
 -22085457.59749 -17188795.95447  20647452.104    20647452.8894   20647457.1284
       207.0004        208.0004
  -9924361.89349  -7717377.82847  22844273.729    22844273.9524   22844282.3044
       195.0004        195.0004
  -4617655.95547  -3584339.59045  23722367.296    23722367.0474   23722374.8374
       154.0004        157.0004
 -11339279.60748  -8622211.92946  21899846.626    21899846.4464   21899851.5824
       184.0004        184.0004
 -19548200.13349 -15219010.19647  21105050.054    21105050.7024   21105058.1444
       198.0004        198.0004
 -10008887.20948  -7757646.14446  22669438.557    22669438.6104   22669443.7674
       176.0004        176.0004
 21  2  3  0 26 30.0000000  0 10G09G14G30G28G07G08G04G21G01G17
 -12673317.26949  -9844634.93547  21950049.232    21950049.5614   21950055.9794
       198.0004        198.0004
  -3304440.66947  -2559937.00346  23225564.891    23225564.9584   23225585.3714
       164.0004        163.0004
 -12470969.48848  -9702587.56446  22328655.541    22328655.5994   22328661.9174
       185.0004        186.0004
  -1671714.21547  -1294407.22245  23596153.250    23596153.1024   23596157.9164
       153.0004        156.0004
 -22137481.53849 -17229334.09547  20637552.570    20637552.9744   20637557.3964
       207.0004        208.0004
  -9830673.05149  -7644373.54447  22862102.511    22862102.8254   22862111.7354
       195.0004        196.0004
  -4519414.04847  -3507787.50045  23741061.669    23741062.0544   23741069.0844
       155.0004        157.0004
 -11309911.50548  -8599327.70046  21905435.260    21905435.0684   21905440.1904
       184.0004        184.0004
 -19592139.91149 -15253248.96647  21096688.813    21096689.6364   21096696.9674
       198.0004        198.0004
 -10076326.75248  -7810196.42946  22656603.913    22656604.3814   22656609.9374
       174.0004        174.0004
 21  2  3  0 27  0.0000000  0 10G09G14G30G28G07G08G04G21G01G17
 -12603123.89749  -9789938.79147  21963406.159    21963406.5754   21963413.8774
       198.0004        198.0004
  -3330931.98747  -2580579.55246  23220523.711    23220525.0234   23220545.3334
       163.0004        165.0004
 -12555714.25648  -9768622.44246  22312528.944    22312529.3564   22312535.3894
       186.0004        186.0004
  -1686916.67547  -1306253.26145  23593259.313    23593260.6114   23593264.7614
       153.0004        155.0004
 -22189150.29849 -17269595.46547  20627720.331    20627720.6074   20627725.3224
       207.0004        208.0004
  -9736919.50648  -7571318.83847  22879942.542    22879942.8024   22879952.0734
       194.0004        193.0004
  -4421201.31947  -3431258.12345  23759750.026    23759750.8874   23759759.5554
       155.0004        158.0004
 -11280046.95348  -8576056.60346  21911118.391    21911118.3264   21911124.3064
       184.0004        184.0004
 -19635618.25149 -15287128.16947  21088415.161    21088415.4494   21088423.6264
       198.0004        198.0004
 -10143377.89248  -7862444.06146  22643844.884    22643845.1874   22643850.7324
       175.0004        176.0004
 21  2  3  0 27 30.0000000  0 10G09G14G30G28G07G08G04G21G01G17
 -12532687.47449  -9735053.27347  21976809.575    21976809.5314   21976816.8964
       196.0004        196.0004
  -3357454.03447  -2601246.03346  23215478.039    23215478.1244   23215497.2434
       164.0004        166.0004
 -12640330.77748  -9834557.37146  22296426.313    22296426.7934   22296433.8894
       186.0004        186.0004
  -1702148.58247  -1318122.26045  23590362.513    23590361.2734   23590366.9144
       154.0004        155.0004
 -22240461.96049 -17309578.57747  20617956.073    20617956.7094   20617960.9674
       207.0004        208.0004
  -9643105.08748  -7498216.71147  22897796.425    22897796.1584   22897804.2734
       193.0004        193.0004
  -4323021.43447  -3354754.34545  23778433.528    23778434.1854   23778442.3544
       154.0004        156.0004
 -11249687.14648  -8552399.60046  21916896.239    21916895.4234   21916901.3024
       184.0004        185.0004
 -19678633.46149 -15320646.49647  21080228.942    21080229.8544   21080237.9694
       198.0004        198.0004
 -10210040.64648  -7914389.03446  22631158.712    22631160.0234   22631164.9334
       174.0004        174.0004
 21  2  3  0 28  0.0000000  0 10G09G14G30G28G07G08G04G21G01G17
 -12462010.94149  -9679980.64847  21990257.982    21990258.1774   21990266.7524
       195.0004        195.0004
  -3384007.61347  -2621937.10846  23210423.151    23210424.2594   23210444.5384
       164.0004        164.0004
 -12724816.42648  -9900390.31946  22280349.995    22280349.4064   22280356.3604
       186.0004        187.0004
  -1717411.12647  -1330015.11845  23587458.071    23587458.0364   23587461.5414
       153.0004        155.0004
 -22291413.99149 -17349281.45647  20608260.272    20608260.4894   20608264.9004
       207.0004        208.0004
  -9549232.11948  -7425068.94847  22915659.530    22915658.6304   22915667.9874
       193.0004        193.0004
  -4224876.90347  -3278278.10545  23797109.719    23797109.7724   23797118.9524
       153.0004        156.0004
 -11218832.16348  -8528356.74246  21922766.737    21922766.6584   21922771.8264
       184.0004        184.0004
 -19721182.81049 -15353801.81247  21072132.325    21072133.3324   21072141.1324
       198.0004        198.0004
 -10276313.89348  -7966030.52146  22618548.747    22618549.0894   22618554.3024
       176.0004        179.0004
 21  2  3  0 28 30.0000000  0 10G09G14G30G28G07G08G04G21G01G17
 -12391097.51848  -9624723.45847  22003752.096    22003752.9614   22003760.5394
       193.0004        194.0004
  -3410593.84747  -2642653.62246  23205364.696    23205365.2454   23205386.2214
       164.0004        166.0004
 -12809168.82948  -9966119.47847  22264298.612    22264298.0894   22264304.3894
       187.0004        188.0004
  -1732705.79947  -1341933.00945  23584546.536    23584547.3954   23584551.4394
       151.0004        153.0004
 -22342003.92149 -17388702.19047  20598633.480    20598633.7934   20598638.1764
       208.0004        209.0004
  -9455303.51048  -7351877.80847  22933531.894    22933532.3864   22933542.0644
       192.0004        193.0004
  -4126770.56647  -3201831.62945  23815779.421    23815778.9974   23815787.2164
       154.0004        157.0004
 -11187482.98948  -8503928.81746  21928731.954    21928732.1194   21928738.0524
       184.0004        184.0004
 -19763263.82849 -15386592.19847  21064123.685    21064125.1244   21064133.0294
       198.0004        197.0004
 -10342196.86648  -8017367.88146  22606011.943    22606012.7624   22606015.7914
       178.0004        179.0004
 21  2  3  0 29  0.0000000  0 10G09G14G30G28G07G08G04G21G01G17
 -12319949.46248  -9569283.42847  22017292.109    22017292.3704   22017299.0604
       193.0004        193.0004
  -3437212.88147  -2663395.71946  23200300.694    23200300.5144   23200319.7074
       163.0004        163.0004
 -12893384.76248 -10031742.27446  22248271.938    22248272.3644   22248279.0104
       187.0004        187.0004
  -1748033.78847  -1353876.90345  23581629.766    23581629.7634   23581634.1394
       150.0004        152.0004
 -22392228.40949 -17427838.14947  20589075.521    20589075.9774   20589080.5164
       208.0004        209.0004
  -9361320.53348  -7278644.30547  22951416.025    22951416.9824   22951427.2084
       193.0004        194.0004
  -4028704.37347  -3125416.46245  23834442.177    23834441.7264   23834448.1054
       155.0004        157.0004
 -11155638.95248  -8479115.26446  21934792.829    21934792.2314   21934797.4004
       184.0004        184.0004
 -19804873.22049 -15419015.07647  21056206.888    21056207.2884   21056215.0384
       197.0004        197.0004
 -10407688.00348  -8068399.90846  22593549.198    22593549.4354   22593554.0154
       178.0004        180.0004
 21  2  3  0 29 30.0000000  0 10G09G14G30G28G07G08G04G21G01G17
 -12248570.82348  -9513663.70247  22030874.639    22030874.9554   22030882.6684
       193.0004        193.0004
  -3463866.69847  -2684164.90645  23195228.617    23195228.3654   23195247.7994
       161.0004        162.0004
 -12977462.71648 -10097257.52947  22232272.669    22232272.5174   22232279.6114
       188.0004        189.0004
  -1763396.58647  -1365847.89145  23578706.555    23578707.3294   23578710.9404
       148.0004        151.0004
 -22442085.69849 -17466687.98647  20579588.259    20579588.5804   20579593.1184
       208.0004        209.0004
  -9267287.12648  -7205371.51247  22969311.063    22969310.5804   22969321.2274
       192.0004        193.0004
  -3930681.85347  -3049035.29345  23853095.632    23853095.0184   23853101.3884
       155.0004        157.0004
 -11123301.52148  -8453917.24846  21940946.344    21940945.6814   21940951.1154
       184.0004        184.0004
 -19846009.34249 -15451069.16947  21048378.439    21048379.1544   21048386.8654
       196.0004        196.0004
 -10472787.28048  -8119126.60546  22581160.660    22581161.6224   22581166.2054
       179.0004        181.0004
 21  2  3  0 30  0.0000000  0 10G09G14G30G28G07G08G04G21G01G17
 -12176964.88548  -9457866.87447  22044501.107    22044501.2314   22044508.3334
       193.0004        193.0004
  -3490556.40547  -2704962.05646  23190147.760    23190148.9284   23190169.1384
       162.0004        165.0004
 -13061400.39048 -10162663.50147  22216300.106    22216299.7554   22216307.4304
       190.0004        191.0004
  -1778796.60447  -1377847.86445  23575775.867    23575775.6554   23575781.2484
       148.0004        152.0004
 -22491573.40149 -17505249.82247  20570170.407    20570171.3314   20570175.8484
       208.0004        209.0004
  -9173205.72848  -7132061.36047  22987214.932    22987214.7024   22987223.8964
       193.0004        193.0004
  -3832705.84847  -2972690.36945  23871740.501    23871739.6104   23871745.7744
       155.0004        156.0004
 -11090471.57148  -8428335.45446  21947194.169    21947193.2924   21947197.9934
       183.0004        183.0004
 -19886669.91249 -15482752.70347  21040641.019    21040641.0604   21040649.1914
       196.0004        196.0004
 -10537493.91448  -8169547.32046  22568847.621    22568848.2164   22568852.0514
       179.0004        180.0004
 21  2  3  0 30 30.0000000  0 10G09G14G30G28G07G08G04G21G01G17
 -12105133.77348  -9401894.58047  22058170.330    22058170.7634   22058177.6684
       193.0004        193.0004
  -3517282.01948  -2725787.19046  23185062.664    23185063.5404   23185083.0464
       165.0004        167.0004
 -13145194.30948 -10227957.46047  22200354.476    22200354.2944   22200362.3904
       191.0004        191.0004
  -1794234.07147  -1389877.04745  23572838.076    23572837.8254   23572843.0404
       147.0004        150.0004
 -22540687.72749 -17543520.72747  20560825.009    20560825.7514   20560829.9134
       208.0004        209.0004
  -9079078.24148  -7058715.27147  23005126.518    23005126.4344   23005135.6854
       193.0004        193.0004
  -3734778.13747  -2896383.08745  23890374.343    23890374.4394   23890381.0064
       154.0004        155.0004
 -11057148.30948  -8402369.26746  21953534.276    21953533.7314   21953539.1164
       183.0004        183.0004
 -19926851.45949 -15514062.97847  21032994.175    21032995.0044   21033003.4484
       196.0004        196.0004
 -10601806.02348  -8219660.61846  22556609.454    22556609.6904   22556613.6454
       178.0004        177.0004
 21  2  3  0 31  0.0000000  0 10G09G14G30G28G07G08G04G21G01G17
 -12033079.90548  -9345748.72047  22071881.332    22071881.5314   22071890.3884
       193.0004        193.0004
  -3544043.87248  -2746640.53646  23179972.777    23179972.8744   23179990.6184
       168.0004        170.0004
 -13228841.39848 -10293136.99747  22184436.699    22184436.8954   22184443.7524
       190.0004        189.0004
  -1809709.71747  -1401935.95145  23569893.634    23569894.1754   23569898.4954
       143.0004        146.0004
 -22589425.60449 -17581498.30747  20551551.439    20551551.3094   20551555.3044
       209.0004        209.0004
  -8984906.29648  -6985334.55347  23023049.002    23023048.0524   23023055.3894
       193.0004        193.0004
  -3636900.70947  -2820115.01645  23909000.110    23908999.5254   23909006.5584
       152.0004        153.0004
 -11023331.92248  -8376018.83046  21959969.350    21959968.8484   21959974.9414
       183.0004        184.0004
 -19966550.85849 -15544997.56147  21025439.147    21025440.2294   21025448.6894
       196.0004        196.0004
 -10665722.20548  -8269465.42746  22544447.466    22544447.4854   22544452.3164
       179.0004        182.0004
 21  2  3  0 31 30.0000000  0 10G09G14G30G28G07G08G04G21G01G17
 -11960806.63448  -9289431.89947  22085634.526    22085634.7684   22085642.3924
       192.0004        193.0004
  -3570843.06848  -2767522.95646  23174872.445    23174873.4994   23174891.1264
       170.0004        170.0004
 -13312339.30348 -10358200.29047  22168548.768    22168548.3514   22168554.6364
       189.0004        190.0004
  -1825224.95047  -1414025.72045  23566942.296    23566941.1694   23566945.6024
       144.0004        148.0004
 -22637784.79149 -17619180.78847  20542347.770    20542348.5074   20542352.8844
       209.0004        210.0004
  -8890692.98248  -6911921.56747  23040976.059    23040975.5754   23040983.8574
       193.0004        194.0004
  -3539076.41947  -2743888.34545  23927613.349    23927614.7684   23927621.8014
       150.0004        151.0004
 -10989023.29148  -8349284.82046  21966498.016    21966497.8014   21966502.9504
       183.0004        182.0004
 -20005765.87149 -15575554.69047  21017977.568    21017978.4624   21017985.9084
       196.0004        197.0004
 -10729241.96548  -8318961.32446  22532358.975    22532359.9324   22532364.5334
       181.0004        182.0004
 21  2  3  0 32  0.0000000  0 10G09G14G30G28G07G08G04G21G01G17
 -11888316.85148  -9232946.35647  22099428.983    22099429.3324   22099436.8484
       192.0004        193.0004
  -3597680.30048  -2788435.05246  23169762.702    23169763.5794   23169784.2674
       168.0004        167.0004
 -13395685.37948 -10423145.28147  22152687.925    22152687.6544   22152694.1064
       189.0004        190.0004
  -1840781.19347  -1426147.41945  23563980.791    23563980.7174   23563985.1214
       147.0004        152.0004
 -22685762.46249 -17656565.98747  20533218.532    20533218.9704   20533222.9764
       209.0004        210.0004
  -8796440.21248  -6838477.86147  23058911.734    23058911.6444   23058919.8654
       194.0004        195.0004
  -3441307.56747  -2667704.81445  23946218.409    23946218.2884   23946228.1434
       148.0004        151.0004
 -10954222.76048  -8322167.52246  21973120.630    21973119.3904   21973125.2694
       182.0004        183.0004
 -20044493.84349 -15605732.31347  21010606.844    21010608.2894   21010616.4594
       196.0004        197.0004
 -10792364.06548  -8368147.34646  22520347.091    22520347.5674   22520352.6314
       181.0004        182.0004
 21  2  3  0 32 30.0000000  0 10G09G14G30G28G07G08G04G21G01G17
 -11815612.79648  -9176293.84147  22113264.373    22113264.7594   22113271.4104
       192.0004        192.0004
  -3624555.70247  -2809376.92546  23164645.771    23164647.4414   23164670.6404
       164.0004        164.0004
 -13478876.34548 -10487969.37847  22136855.646    22136856.2324   22136863.7994
       188.0004        188.0004
  -1856379.25347  -1438301.74145  23561012.419    23561012.4434   23561017.6874
       150.0004        153.0004
 -22733355.33949 -17693651.33847  20524161.835    20524162.1844   20524166.5684
       210.0004        210.0004
  -8702149.88248  -6765004.85847  23076853.264    23076853.7714   23076861.6414
       193.0004        192.0004
  -3343596.15947  -2591566.10845  23964813.280    23964813.5314   23964819.3304
       148.0004        151.0004
 -10918930.21948  -8294666.81146  21979837.081    21979836.9684   21979841.1924
       183.0004        183.0004
 -20082731.57049 -15635527.91247  21003331.331    21003331.9724   21003340.0474
       196.0004        196.0004
 -10855086.89148  -8417022.23946  22508411.784    22508411.4994   22508417.2544
       183.0004        185.0004
 21  2  3  0 33  0.0000000  0 10G09G14G30G28G07G08G04G21G01G17
 -11742697.61248  -9119476.83547  22127139.342    22127139.8774   22127147.4044
       192.0004        193.0004
  -3651470.23848  -2830349.30146  23159527.607    23159528.6304   23159548.5034
       165.0004        168.0004
 -13561909.61248 -10552670.63246  22121056.100    22121055.9554   22121062.5204
       187.0004        186.0004
  -1872020.22347  -1450489.49745  23558035.722    23558035.7054   23558041.5034
       149.0004        152.0004
 -22780560.77649 -17730434.81547  20515178.817    20515179.2704   20515183.5274
       209.0004        210.0004
  -8607824.61048  -6691504.67947  23094802.429    23094803.0774   23094811.8304
       192.0004        192.0004
  -3245944.72347  -2515474.11545  23983397.243    23983396.2084   23983401.4864
       148.0004        151.0004
 -10883146.14948  -8266783.12046  21986645.881    21986645.6314   21986650.8194
       183.0004        183.0004
 -20120476.65649 -15664939.65147  20996148.145    20996148.9724   20996157.4414
       196.0004        196.0004
 -10917409.78448  -8465585.53446  22496551.798    22496552.6324   22496557.5774
       184.0004        184.0004
 21  2  3  0 33 30.0000000  0 10G09G14G30G28G07G08G04G21G01G17
 -11669576.05948  -9062499.00647  22141053.706    22141054.4364   22141061.8114
       192.0004        193.0004
  -3678426.52848  -2851354.16446  23154400.626    23154400.5704   23154418.3174
       167.0004        169.0004
 -13644784.33248 -10617248.31847  22105284.934    22105285.2574   22105292.4024
       187.0004        188.0004
  -1887707.17847  -1462713.06345  23555051.829    23555050.6394   23555054.8924
       149.0004        152.0004
 -22827377.93149 -17766915.71347  20506269.843    20506270.3504   20506274.6454
       210.0004        211.0004
  -8513468.15848  -6617980.19147  23112757.672    23112758.0454   23112767.6994
       192.0004        192.0004
  -3148357.60147  -2439432.23045  24001965.500    24001966.2484   24001972.0184
       148.0004        150.0004
 -10846872.90648  -8238518.24346  21993548.098    21993548.1914   21993553.1444
       183.0004        183.0004
 -20157728.35649 -15693966.92447  20989059.642    20989060.9124   20989068.6004
       196.0004        197.0004
 -10979333.81248  -8513838.01146  22484767.815    22484768.0524   22484773.6094
       183.0004        183.0004
 21  2  3  0 34  0.0000000  0 10G09G14G30G28G07G08G04G21G01G17
 -11596250.34148  -9005362.08047  22155007.307    22155007.8284   22155015.1944
       192.0004        191.0004
  -3705424.52748  -2872391.51346  23149261.874    23149262.1304   23149281.2314
       167.0004        167.0004
 -13727497.17748 -10681699.86847  22089545.901    22089545.9114   22089553.1734
       187.0004        188.0004
  -1903440.58547  -1474972.83245  23552057.491    23552057.0654   23552060.9714
       149.0004        151.0004
 -22873803.41649 -17803091.41447  20497435.490    20497436.0314   20497440.0834
       210.0004        211.0004
  -8419082.26748  -6544432.73247  23130719.282    23130718.9604   23130728.4654
       191.0004        191.0004
  -3050836.41147  -2363441.70945  24020522.827    24020524.4834   24020529.0494
       146.0004        149.0004
 -10810110.38848  -8209872.11446  22000544.763    22000544.3554   22000549.1094
       184.0004        184.0004
 -20194483.47449 -15722607.25947  20982066.433    20982067.0014   20982074.2584
       197.0004        198.0004
 -11040857.45748  -8561778.48546  22473061.300    22473061.3664   22473065.5304
       183.0004        182.0004
 21  2  3  0 34 30.0000000  0 11G09G14G30G28G07G08G04G21G19G01G17
 -11522723.51048  -8948068.45747  22168999.425    22168999.7964   22169007.1514
       192.0004        193.0004
  -3732465.05847  -2893462.02946  23144114.941    23144114.4234   23144134.6594
       164.0004        164.0004
 -13810045.49148 -10746023.22747  22073837.571    22073837.2694   22073844.1444
       188.0004        189.0004
  -1919221.73447  -1487269.80245  23549053.236    23549053.6714   23549058.4734
       149.0004        153.0004
 -22919834.57749 -17838959.84947  20488675.428    20488676.0764   20488680.2664
       210.0004        210.0004
  -8324669.67648  -6470864.50047  23148684.758    23148685.4894   23148694.2804
       192.0004        192.0004
  -2953383.74947  -2287504.62145  24039069.698    24039069.2804   24039076.7154
       144.0004        147.0004
 -10772858.96848  -8180845.02846  22007633.022    22007632.7784   22007637.7444
       183.0004        184.0004
  -1428780.54254  -1083042.79045  24804965.811
        74.0004        154.0004
 -20230739.55449 -15750858.72847  20975167.222    20975167.7024   20975174.9904
       198.0004        199.0004
 -11101979.82748  -8609406.28146  22461428.797    22461429.0404   22461434.9934
       182.0004        182.0004
 21  2  3  0 35  0.0000000  0 11G09G14G30G28G07G08G04G21G19G01G17
 -11448998.41148  -8890620.33947  22183027.938    22183028.3994   22183036.8334
       192.0004        192.0004
  -3759548.75347  -2914566.20046  23138959.825    23138960.8284   23138981.1644
       163.0004        165.0004
 -13892426.52648 -10810216.23447  22058159.761    22058160.4414   22058167.9354
       188.0004        189.0004
  -1935051.62247  -1499604.75045  23546041.147    23546041.4754   23546046.0414
       149.0004        152.0004
 -22965468.64549 -17874518.86947  20479991.892    20479992.4284   20479996.7014
       210.0004        211.0004
  -8230232.26448  -6397276.90247  23166655.460    23166656.3044   23166665.1314
       192.0004        193.0004
  -2856001.90447  -2211622.70245  24057600.730    24057600.3984   24057606.9984
       144.0004        148.0004
 -10735119.54948  -8151437.67346  22014814.682    22014814.6704   22014818.7624
       183.0004        184.0004
  -1520137.35047  -1154230.07445  24787578.381                    24787585.7814
       136.0004        147.0004
 -20266494.08149 -15778719.38847  20968363.001    20968363.3454   20968371.1544
       198.0004        198.0004
 -11162699.64848  -8656720.41146  22449874.933    22449875.2944   22449880.4944
       182.0004        183.0004
 21  2  3  0 35 30.0000000  0 11G09G14G30G28G07G08G04G21G19G01G17
 -11375078.89048  -8833020.70647  22197094.541    22197094.6624   22197102.4184
       190.0004        189.0004
  -3786677.28048  -2935705.27546  23133798.476    23133799.0044   23133818.6944
       165.0004        167.0004
 -13974638.49848 -10874277.48346  22042515.863    22042516.4234   22042523.0354
       187.0004        187.0004
  -1950932.66447  -1511979.52545  23543019.448    23543019.6694   23543023.7724
       149.0004        151.0004
 -23010703.83749 -17909767.06547  20471383.849    20471384.2764   20471388.7574
       210.0004        210.0004
  -8135773.24348  -6323672.44247  23184630.238    23184630.8544   23184640.5004
       191.0004        190.0004
  -2758694.25647  -2135798.59645  24076118.072    24076117.5484   24076123.0494
       143.0004        147.0004
 -10696893.39148  -8121651.04046  22022089.421    22022088.5014   22022093.3684
       183.0004        183.0004
  -1611286.73447  -1225255.17445  24770235.495    24770234.0704   24770237.1274
       144.0004        150.0004
 -20301745.46749 -15806187.97147  20961654.661    20961655.1754   20961663.2004
       198.0004        198.0004
 -11223017.47048  -8703721.27546  22438396.331    22438396.8004   22438401.9374
       182.0004        182.0004
 21  2  3  0 36  0.0000000  0 11G09G14G30G28G07G08G04G21G19G01G17
 -11300968.54448  -8775272.37947  22211197.636    22211197.9684   22211205.0374
       189.0004        189.0004
  -3813851.96347  -2956880.32346  23128625.861    23128627.3574   23128647.7104
       164.0004        164.0004
 -14056679.31848 -10938205.38047  22026905.317    22026904.6844   22026910.7924
       187.0004        188.0004
  -1966866.43147  -1524395.41945  23539986.773    23539986.5054   23539991.3164
       150.0004        153.0004
 -23055538.35849 -17944703.05147  20462852.009    20462852.5364   20462856.9724
       210.0004        210.0004
  -8041295.52248  -6250053.44447  23202608.749    23202609.2274   23202619.7364
       190.0004        190.0004
  -2661463.87847  -2060034.69045  24094619.314    24094619.1794   24094626.1934
       144.0004        148.0004
 -10658182.01348  -8091486.31446  22029455.604    22029454.6284   22029459.9694
       183.0004        184.0004
  -1702228.44247  -1296118.70945  24752928.214    24752927.8224   24752934.5454
       143.0004        147.0004
 -20336491.94049 -15833263.12747  20955042.954    20955043.4214   20955050.5724
       198.0004        199.0004
 -11282932.74848  -8750408.47946  22426995.005    22426994.9854   22427000.0554
       181.0004        182.0004
 21  2  3  0 36 30.0000000  0 11G09G14G30G28G07G08G04G21G19G01G17
 -11226668.37848  -8717376.14747  22225336.412    22225336.9284   22225343.8974
       189.0004        189.0004
  -3841071.61047  -2978090.43046  23123446.499    23123447.8554   23123468.6944
       162.0004        163.0004
 -14138544.36048 -11001996.31747  22011325.645    22011325.7444   22011332.9684
       187.0004        188.0004
  -1982852.35347  -1536851.95645  23536945.710    23536945.4284   23536949.5474
       152.0004        155.0004
 -23099967.50849 -17979323.17447  20454398.111    20454398.3344   20454402.4594
       210.0004        211.0004
  -7946799.35048  -6176420.08447  23220593.064    23220592.8034   23220601.2644
       190.0004        191.0004
  -2564311.12647  -1984331.29445  24113106.713    24113107.8124   24113113.4984
       146.0004        150.0004
 -10618983.99848  -8060942.39546  22036914.982    22036913.9464   22036918.8984
       183.0004        183.0004
  -1792958.33647  -1366817.30745  24735663.417    24735661.3714   24735668.2824
       141.0004        143.0004
 -20370729.14549 -15859941.44447  20948527.801    20948528.1714   20948536.2284
       199.0004        199.0004
 -11342442.83648  -8796779.95746  22415669.833    22415670.4144   22415675.9054
       181.0004        182.0004
 21  2  3  0 37  0.0000000  0 12G09G14G30G28G07G08G04G21G19G01G22G17
 -11152182.52148  -8659335.23047  22239510.959    22239510.9594   22239518.6004
       190.0004        191.0004
  -3868338.05347  -2999336.98946  23118258.973    23118258.2614   23118278.9654
       162.0004        163.0004
 -14220232.12148 -11065649.09747  21995780.935    21995781.1584   21995788.3174
       188.0004        190.0004
  -1998892.83947  -1549351.00845  23533894.095    23533893.7454   23533897.3874
       152.0004        155.0004
 -23143989.95849 -18013626.36847  20446020.460    20446020.7284   20446025.4464
       210.0004        211.0004
  -7852288.39448  -6102775.19647  23238577.859    23238577.6684   23238585.3634
       189.0004        189.0004
  -2467239.62447  -1908691.19145  24131578.211    24131579.1704   24131586.1564
       146.0004        150.0004
 -10579301.15648  -8030020.68946  22044466.426    22044466.0204   22044470.0804
       183.0004        183.0004
  -1883475.89947  -1437350.47545  24718438.464    24718438.1504   24718442.6744
       142.0004        148.0004
 -20404455.85349 -15886221.97447  20942109.797    20942110.2044   20942118.2754
       199.0004        199.0004
   -457319.00254   -331119.087 5                                  24708876.694
        74.0004        132.000
 -11401547.88348  -8842835.81346  22404422.961    22404423.2154   22404428.1894
       182.0004        182.0004
 21  2  3  0 37 30.0000000  0 12G09G14G30G28G07G08G04G21G19G01G22G17
 -11077512.73948  -8601150.99747  22253719.354    22253720.4574   22253727.9684
       190.0004        191.0004
  -3895650.88647  -3020619.67646  23113061.075    23113061.6064   23113081.7994
       162.0004        164.0004
 -14301738.64348 -11129160.65747  21980271.657    21980271.2344   21980278.4274
       190.0004        191.0004
  -2014987.52147  -1561892.30345  23530829.894    23530829.3114   23530834.2674
       149.0004        150.0004
 -23187601.79749 -18047609.62747  20437721.943    20437722.3634   20437726.3484
       210.0004        211.0004
  -7757763.35148  -6029119.34447  23256566.115    23256565.3524   23256573.3344
       188.0004        189.0004
  -2370250.61747  -1833115.39045  24150035.345    24150033.8724   24150042.1874
       145.0004        147.0004
 -10539132.73848  -7998720.62046  22052108.942    22052108.5304   22052114.0114
       182.0004        181.0004
  -1973778.47147  -1507716.06345  24701253.240    24701253.3264   24701258.0664
       143.0004        147.0004
 -20437668.51549 -15912101.96547  20935789.490    20935790.0964   20935798.1204
       199.0004        199.0004
   -457319.00244   -331119.087 5                                  24708876.694
        74.0004        133.000
 -11460246.48648  -8888574.95946  22393253.445    22393254.0544   22393258.9554
       182.0004        183.0004
 21  2  3  0 38  0.0000000  0 11G09G14G30G28G07G08G04G21G19G01G17
 -11002662.76348  -8542826.34747  22267963.139    22267963.0944   22267971.2774
       189.0004        188.0004
  -3923011.49347  -3041939.62046  23107854.701    23107855.4414   23107875.0544
       164.0004        166.0004
 -14383062.08148 -11192529.55447  21964796.758    21964796.2264   21964802.9664
       190.0004        191.0004
  -2031138.81047  -1574477.69145  23527757.338    23527756.4614   23527761.1434
       147.0004        149.0004
 -23230801.18049 -18081271.49347  20429501.082    20429501.3854   20429505.6424
       210.0004        210.0004
  -7663227.74248  -5955455.22947  23274553.836    23274554.0364   23274562.8814
       188.0004        188.0004
  -2273347.26747  -1757606.32345  24168476.251    24168475.5004   24168482.0614
       144.0004        147.0004
 -10498480.84248  -7967043.80046  22059845.410    22059844.9994   22059849.8904
       182.0004        182.0004
  -2063865.00847  -1577913.34345  24684111.107    24684111.4884   24684115.2924
       142.0004        146.0004
 -20470365.63749 -15937580.21747  20929567.750    20929568.2134   20929576.1044
       200.0004        200.0004
 -11518538.67548  -8933997.41046  22382160.469    22382161.0344   22382165.9494
       183.0004        185.0004
 21  2  3  0 38 30.0000000  0 11G09G14G30G28G07G08G04G21G19G01G17
 -10927634.92648  -8484363.11447  22282241.193    22282241.8234   22282248.7354
       189.0004        189.0004
  -3950419.97348  -3063296.87346  23102640.169    23102640.5204   23102659.7464
       167.0004        169.0004
 -14464199.08048 -11255753.19447  21949355.911    21949355.7214   21949362.8354
       190.0004        190.0004
  -2047346.89347  -1587107.33545  23524671.577    23524671.4554   23524676.0884
       146.0004        150.0004
 -23273585.02949 -18114609.56847  20421359.660    20421360.0234   20421364.1864
       210.0004        211.0004
  -7568683.08248  -5881784.08146  23292545.143    23292544.7674   23292553.5644
       187.0004        187.0004
  -2176531.32447  -1682165.39445  24186898.617    24186898.7474   24186905.1854
       144.0004        148.0004
 -10457345.00248  -7934989.89746  22067674.411    22067673.3694   22067677.8944
       182.0004        183.0004
  -2153733.31347  -1647940.54445  24667012.386    24667010.7154   24667013.0404
       143.0004        147.0004
 -20502544.20949 -15962654.42547  20923443.717    20923444.6034   20923452.4634
       200.0004        200.0004
 -11576422.96648  -8979102.05746  22371145.547    22371145.7394   22371150.8584
       184.0004        184.0004
 21  2  3  0 39  0.0000000  0 11G09G14G30G28G07G08G04G21G19G01G17
 -10852432.99248  -8425764.21646  22296550.066    22296551.0804   22296558.7194
       187.0004        187.0004
  -3977877.80448  -3084692.55246  23097413.437    23097413.9844   23097433.9864
       166.0004        166.0004
 -14545147.68148 -11318830.02247  21933951.946    21933952.3274   21933958.9074
       191.0004        192.0004
  -2063613.82747  -1599782.82745  23521576.102    23521576.0934   23521581.9744
       148.0004        152.0004
 -23315951.30649 -18147622.25247  20413297.188    20413297.6994   20413302.0334
       210.0004        211.0004
  -7474132.02848  -5808107.93146  23310535.320    23310536.6704   23310546.2294
       187.0004        187.0004
  -2079805.88947  -1606794.95445  24205304.032    24205305.1414   24205311.1814
       145.0004        149.0004
 -10415726.98548  -7902560.25546  22075593.721    22075593.0684   22075597.1214
       182.0004        182.0004
  -2243382.33547  -1717796.86545  24649950.544    24649949.0414   24649953.1774
       140.0004        142.0004
 -20534202.73049 -15987323.39447  20917419.533    20917420.2764   20917427.8944
       200.0004        200.0004
 -11633899.50748  -9023888.93846  22360207.249    22360208.4404   22360213.6534
       184.0004        185.0004
 21  2  3  0 39 30.0000000  0 11G09G14G30G28G07G08G04G21G19G01G17
 -10777058.83348  -8367031.11447  22310894.134    22310894.7014   22310901.9884
       187.0004        188.0004
  -4005384.66448  -3106126.43346  23092179.244    23092181.0704   23092199.8394
       165.0004        167.0004
 -14625904.22248 -11381757.20147  21918585.074    21918584.9684   21918591.2204
       192.0004        192.0004
  -2079939.62247  -1612504.19845  23518470.776    23518470.5074   23518474.6114
       149.0004        153.0004
 -23357896.59849 -18180306.90147  20405315.872    20405316.0544   20405320.2364
       210.0004        211.0004
  -7379575.93448  -5734427.86746  23328527.440    23328529.9504   23328539.5374
       185.0004        185.0004
  -1983172.36647  -1531496.15145  24223693.231    24223694.5714   24223700.8104
       148.0004        152.0004
 -10373626.78848  -7869754.90046  22083604.612    22083604.3634   22083607.9974
       181.0004        183.0004
  -2332809.59647  -1787480.38045  24632933.487    24632933.4514   24632936.9794
       139.0004        143.0004
 -20565337.94249 -16011584.58347  20911494.912    20911495.5074   20911502.8584
       200.0004        200.0004
 -11690966.31748  -9068356.56946  22349348.898    22349348.5544   22349354.0174
       183.0004        183.0004
 21  2  3  0 40  0.0000000  0 12G09G14G30G28G07G08G04G21G19G01G22G17
 -10701515.40548  -8308166.10847  22325270.256    22325270.5594   22325277.4434
       187.0004        188.0004
  -4032941.10348  -3127598.97346  23086936.360    23086936.9064   23086956.4314
       167.0004        169.0004
 -14706465.88448 -11444532.51247  21903254.180    21903254.1034   21903261.2674
       192.0004        192.0004
  -2096325.59347  -1625272.44645  23515350.579    23515351.0134   23515356.6524
       148.0004        150.0004
 -23399418.24149 -18212661.42747  20397414.030    20397414.7634   20397418.8254
       211.0004        212.0004
  -7285017.17948  -5660745.71946  23346523.554    23346524.9224   23346533.5874
       185.0004        185.0004
  -1886633.05947  -1456270.73045  24242063.735    24242064.7184   24242071.3224
       149.0004        152.0004
 -10331045.01248  -7836574.27946  22091706.442    22091707.3034   22091711.5274
       181.0004        181.0004
  -2422013.72047  -1856990.05745  24615955.866    24615956.4444   24615961.8144
       138.0004        142.0004
 -20595947.52549 -16035436.18947  20905670.273    20905670.9774   20905677.7954
       200.0004        200.0004
   -457319.00254
        74.0004
 -11747623.03148  -9112504.63346  22338566.490    22338567.0394   22338571.6924
       181.0004        181.0004
 21  2  3  0 40 30.0000000  0 12G09G14G30G28G07G08G04G21G19G01G22G17
 -10625807.60748  -8249173.03146  22339676.720    22339676.8624   22339683.4374
       186.0004        186.0004
  -4060549.72448  -3149112.19646  23081681.878    23081683.0884   23081702.3514
       167.0004        167.0004
 -14786831.91348 -11507155.37347  21887960.946    21887961.3974   21887968.1174
       193.0004        194.0004
  -2112774.89447  -1638090.06045  23512222.229    23512222.1604   23512226.6744
       150.0004        154.0004
 -23440515.77049 -18244685.48147  20389593.807    20389593.9824   20389597.9764
       211.0004        211.0004
  -7190459.91248  -5587064.74946  23364520.878    23364519.9404   23364527.5534
       186.0004        187.0004
  -1790192.20047  -1381122.06345  24260416.655    24260416.2464   24260423.9464
       149.0004        152.0004
 -10287984.51048  -7803020.62846  22099901.991    22099901.7194   22099905.9494
       181.0004        180.0004
  -2510994.53247  -1926325.75745  24599026.084    24599024.8034   24599028.2154
       140.0004        145.0004
 -20626031.18749 -16058877.98847  20899945.658    20899945.9154   20899952.9154
       200.0004        200.0004
   -457319.00244
        74.0004
 -11803870.82948  -9156334.07446  22327863.307    22327863.5054   22327868.4064
       181.0004        181.0004
 21  2  3  0 41  0.0000000  0 12G09G14G30G28G07G08G04G21G19G01G22G17
 -10549938.73148  -8190054.42946  22354113.242    22354113.7544   22354122.1944
       186.0004        186.0004
  -4088211.61348  -3170666.87346  23076418.747    23076418.9964   23076438.3984
       166.0004        168.0004
 -14866999.92048 -11569623.95647  21872706.025    21872705.9534   21872711.6604
       194.0004        194.0004
  -2129288.76147  -1650957.98945  23509077.903    23509077.9164   23509082.5534
       149.0004        151.0004
 -23481186.98649 -18276377.34747  20381854.248    20381854.7124   20381858.8244
       211.0004        212.0004
  -7095906.47348  -5513386.77746  23382515.587    23382514.1844   23382520.0654
       187.0004        187.0004
  -1693852.50847  -1306052.20645  24278748.231    24278748.9234   24278756.3134
       148.0004        149.0004
 -10244446.33148  -7769094.76446  22108187.399    22108186.1464   22108191.2254
       181.0004        181.0004
  -2599750.71847  -1995486.36545  24582135.181    24582133.9894   24582138.3304
       140.0004        144.0004
 -20655587.11649 -16081908.57147  20894320.668    20894321.0324   20894329.2614
       200.0004        200.0004
   -457319.00244   -331119.08744                                  24708876.6944
        74.0004        109.0004
 -11859709.43748  -9199844.66546  22317237.994    22317238.1014   22317242.7974
       181.0004        182.0004
 21  2  3  0 41 30.0000000  0 11G09G14G30G28G07G08G04G21G19G01G17
 -10473911.81548  -8130812.69746  22368581.779    22368581.7574   22368588.3634
       185.0004        185.0004
  -4115927.46548  -3192263.62346  23071143.576    23071144.6034   23071164.5554
       166.0004        167.0004
 -14946967.26248 -11631936.17247  21857487.843    21857488.3044   21857495.1724
       193.0004        193.0004
  -2145868.40947  -1663877.18145  23505923.023    23505922.9144   23505928.3444
       146.0004        149.0004
 -23521429.38749 -18307735.06847  20374196.220    20374196.7244   20374201.1014
       211.0004        212.0004
  -7001359.17948  -5439713.56947  23400506.270    23400505.6964   23400511.4064
       187.0004        188.0004
  -1597616.37247  -1231063.07045  24297061.189    24297061.7574   24297069.3334
       146.0004        149.0004
 -10200431.70248  -7734797.65046  22116563.259    22116562.3564   22116567.0194
       181.0004        181.0004
  -2688280.98947  -2064470.93745  24565287.158    24565286.7884   24565293.0214
       140.0004        145.0004
 -20684613.19049 -16104526.28547  20888797.457    20888797.9624   20888805.7344
       200.0004        201.0004
 -11915138.52648  -9243036.14446  22306690.268    22306690.8894   22306695.1044
       182.0004        184.0004
 21  2  3  0 42  0.0000000  0 12G09G14G30G28G07G08G04G21G19G01G22G17
 -10397728.73048  -8071449.23646  22383078.074    22383078.2534   22383086.3694
       185.0004        185.0004
  -4143696.74448  -3213901.99746  23065859.598    23065860.0004   23065879.9424
       165.0004        166.0004
 -15026730.11348 -11694089.03747  21842309.678    21842309.6814   21842316.3374
       193.0004        194.0004
  -2162513.83147  -1676847.59845  23502756.778    23502756.4804   23502761.5754
       148.0004        153.0004
 -23561239.27449 -18338755.75847  20366620.578    20366621.1554   20366625.4294
       211.0004        212.0004
  -6906819.02548  -5366045.93846  23418496.827    23418495.6324   23418502.1074
       186.0004        187.0004
  -1501484.99547  -1156155.55645  24315354.278    24315355.8534   24315363.3714
       145.0004        149.0004
 -10155940.15048  -7700128.87746  22125028.934    22125028.1274   22125032.6924
       180.0004        181.0004
  -2776582.81547  -2133277.51545  24548485.384    24548486.4584   24548489.0624
       142.0004        147.0004
 -20713106.15749 -16126728.57147  20883375.031    20883375.5634   20883383.7134
       200.0004        200.0004
   -457319.00254   -331119.087 3                                  24708876.694
        74.0004         74.000
 -11970155.85948  -9285906.77046  22296220.399    22296220.5234   22296226.3534
       182.0004        182.0004
 21  2  3  0 42 30.0000000  0 11G09G14G30G28G07G08G04G21G19G01G17
 -10321392.28348  -8011966.31446  22397604.379    22397605.2604   22397612.6954
       184.0004        185.0004
  -4171520.00248  -3235582.46046  23060565.899    23060566.2274   23060585.7954
       166.0004        168.0004
 -15106285.61948 -11756080.34047  21827171.264    21827170.9014   21827178.2084
       194.0004        195.0004
  -2179226.26447  -1689870.25545  23499577.267    23499576.3044   23499580.4994
       149.0004        151.0004
 -23600614.23949 -18369437.56147  20359127.889    20359128.2294   20359132.3994
       211.0004        212.0004
  -6812288.17448  -5292385.56546  23436485.149    23436484.0374   23436491.0574
       185.0004        185.0004
  -1405460.65647  -1081331.43845  24333628.506    24333630.2984   24333635.3824
       146.0004        149.0004
 -10110972.52048  -7665089.16946  22133585.890    22133585.2814   22133590.8374
       180.0004        181.0004
  -2864654.24747  -2201904.57845  24531725.839    24531725.2274   24531729.5044
       144.0004        148.0004
 -20741063.76349 -16148513.70347  20878055.260    20878055.7364   20878063.4494
       200.0004        200.0004
 -12024760.98748  -9328456.19946  22285829.148    22285829.7574   22285834.9064
       182.0004        183.0004
 21  2  3  0 43  0.0000000  0 12G09G14G30G28G07G08G04G21G19G01G22G17
 -10244905.68048  -7952366.38346  22412161.057    22412160.6744   22412167.3234
       185.0004        186.0004
  -4199398.13748  -3257305.65746  23055258.842    23055260.0374   23055280.9334
       167.0004        168.0004
 -15185631.31449 -11817908.13747  21812071.580    21812071.6104   21812078.9584
       195.0004        195.0004
  -2196007.19747  -1702946.28045  23496381.436    23496381.2194   23496386.3534
       148.0004        151.0004
 -23639552.15649 -18399778.80347  20351718.038    20351718.7504   20351723.1174
       211.0004        212.0004
  -6717769.05348  -5218734.31046  23454468.314    23454469.4084   23454476.9804
       184.0004        184.0004
  -1309545.85347  -1006592.70645  24351881.133    24351882.7464   24351887.7334
       147.0004        151.0004
 -10065530.13948  -7629679.50746  22142233.015    22142232.4414   22142237.3684
       180.0004        180.0004
  -2952493.90647  -2270351.02245  24515011.548    24515011.0644   24515014.9864
       148.0004        153.0004
 -20768484.18949 -16169880.25647  20872837.105    20872837.5464   20872845.3444
       199.0004        199.0004
   -457319.00244   -331119.087 4                                  24708876.694
        74.0004        127.000
 -12078954.50748  -9370684.90546  22275516.986    22275517.5114   22275522.5444
       183.0004        185.0004
 21  2  3  0 43 30.0000000  0 11G09G14G30G28G07G08G04G21G19G01G17
 -10168271.16948  -7892651.16846  22426742.783    22426743.2604   22426751.1054
       186.0004        187.0004
  -4227330.99848  -3279071.50346  23049943.628    23049944.4164   23049965.1754
       166.0004        167.0004
 -15264763.72448 -11879569.74147  21797013.006    21797013.1814   21797020.4474
       194.0004        195.0004
  -2212856.52447  -1716075.61545  23493176.435    23493176.9834   23493181.5914
       150.0004        155.0004
 -23678049.40849 -18429776.66148  20344392.710    20344393.2204   20344397.3554
       212.0004        213.0004
  -6623263.02648  -5145093.26346  23472451.885    23472452.1354   23472461.1524
       182.0004        182.0004
  -1213742.11647   -931940.50645  24370111.431    24370112.4204   24370118.5284
       145.0004        147.0004
 -10019613.26548  -7593900.11346  22150970.370    22150970.4964   22150975.8654
       180.0004        180.0004
  -3040100.03347  -2338615.52845  24498340.903    24498339.9364   24498346.1494
       150.0004        154.0004
 -20795364.57249 -16190825.99447  20867720.607    20867722.2784   20867730.3144
       199.0004        199.0004
 -12132734.81248  -9412591.61146  22265283.117    22265283.2024   22265287.5744
       184.0004        184.0004
 21  2  3  0 44  0.0000000  0 11G09G14G30G28G07G08G04G21G19G01G17
 -10091491.74348  -7832823.05246  22441353.826    22441354.4954   22441361.3784
       185.0004        186.0004
  -4255319.25048  -3300880.52346  23044619.019    23044619.4584   23044638.9414
       166.0004        168.0004
 -15343680.20149 -11941063.10147  21781996.893    21781996.7584   21782002.9844
       195.0004        195.0004
  -2229775.36447  -1729259.12345  23489957.699    23489958.1224   23489961.7494
       154.0004        158.0004
 -23716103.91949 -18459429.53447  20337150.680    20337151.1904   20337155.2784
       211.0004        212.0004
  -6528772.32448  -5071464.16446  23490433.534    23490433.4144   23490441.8644
       182.0004        183.0004
  -1118051.88247   -857376.74945  24388320.068    24388320.2744   24388327.6594
       142.0004        146.0004
  -9973222.96148  -7557751.81446  22159799.210    22159798.6024   22159802.5324
       180.0004        179.0004
  -3127470.49247  -2406696.36845  24481714.035    24481713.2484   24481717.8024
       151.0004        154.0004
 -20821702.95749 -16211349.39547  20862709.663    20862710.5964   20862718.2754
       200.0004        200.0004
 -12186101.21348  -9454175.80946  22255127.556    22255127.9514   22255132.6544
       184.0004        184.0004
 21  2  3  0 44 30.0000000  0 11G09G14G30G28G07G08G04G21G19G01G17
 -10014571.59948  -7772885.29846  22455991.606    22455991.4284   22455998.2114
       184.0004        184.0004
  -4283364.77348  -3322734.16346  23039281.483    23039281.7304   23039302.6304
       168.0004        169.0004
 -15422379.20649 -12002387.00447  21767021.018    21767020.5274   21767026.9124
       195.0004        195.0004
  -2246766.28747  -1742498.76645  23486725.475    23486725.0144   23486728.5584
       156.0004        159.0004
 -23753714.50349 -18488736.49247  20329993.082    20329994.0444   20329998.4524
       211.0004        212.0004
  -6434299.79148  -4997849.19846  23508410.808    23508411.2344   23508419.2774
       183.0004        183.0004
  -1022478.61747   -782904.15945  24406507.711    24406507.9274   24406514.7544
       140.0004        143.0004
  -9926361.41848  -7521236.32246  22168715.573    22168715.1704   22168720.0974
       179.0004        179.0004
  -3214605.36247  -2474593.59945  24465132.940    24465131.8554   24465136.0294
       151.0004        153.0004
 -20847498.58049 -16231449.86147  20857800.973    20857801.4714   20857809.4654
       199.0004        200.0004
 -12239054.28348  -9495437.91846  22245049.795    22245050.9144   22245055.9114
       184.0004        185.0004
 21  2  3  0 45  0.0000000  0 11G09G14G30G28G07G08G04G21G19G01G17
  -9937513.49248  -7712840.02946  22470653.962    22470654.9424   22470661.9414
       182.0004        183.0004
  -4311467.95448  -3344632.72546  23033933.391    23033934.4794   23033954.0124
       168.0004        170.0004
 -15500857.85849 -12063539.19747  21752086.403    21752086.7984   21752092.8754
       195.0004        195.0004
  -2263830.46047  -1755795.48545  23483476.622    23483476.8304   23483481.1174
       156.0004        157.0004
 -23790878.47149 -18517695.43048  20322921.823    20322922.4744   20322926.5984
       211.0004        213.0004
  -6339847.99048  -4924250.41946  23526384.952    23526384.9534   23526393.5754
       184.0004        186.0004
   -927024.31747   -708524.29245  24424672.026    24424673.0304   24424680.2484
       136.0004        140.0004
  -9879029.40048  -7484354.22546  22177723.739    22177723.1334   22177727.2674
       179.0004        179.0004
  -3301502.98947  -2542305.94945  24448595.690    24448595.7394   24448601.4704
       152.0004        154.0004
 -20872749.21749 -16251125.66747  20852995.831    20852996.4794   20853004.5734
       199.0004        200.0004
 -12291593.00148  -9536377.16046  22235052.871    22235052.9004   22235057.8934
       183.0004        183.0004
 21  2  3  0 45 30.0000000  0 11G09G14G30G28G07G08G04G21G19G01G17
  -9860320.25648  -7652689.45646  22485343.112    22485343.6964   22485352.3414
       182.0004        182.0004
  -4339629.23448  -3366576.57846  23028575.793    23028575.9694   23028594.6144
       168.0004        169.0004
 -15579113.27749 -12124517.44547  21737194.873    21737195.2574   21737201.7144
       195.0004        195.0004
  -2280968.65847  -1769149.89445  23480215.832    23480215.7164   23480219.7344
       155.0004        158.0004
 -23827593.33849 -18546304.41648  20315935.521    20315935.7524   20315939.7274
       212.0004        213.0004
  -6245418.66648  -4850669.13446  23544353.407    23544354.2364   23544363.0934
       184.0004        184.0004
   -831691.25947   -634238.87245  24442811.817    24442813.4754   24442823.5554
       136.0004        140.0004
  -9831227.76348  -7447106.18446  22186819.617    22186819.3404   22186824.4534
       179.0004        180.0004
  -3388161.73047  -2609832.26445  24432105.368    24432105.3584   24432109.5454
       151.0004        153.0004
 -20897452.79649 -16270375.18947  20848294.221    20848295.4184   20848304.2594
       199.0004        200.0004
 -12343718.02548  -9576994.05346  22225134.186    22225134.2694   22225138.9974
       184.0004        185.0004
 21  2  3  0 46  0.0000000  0 11G09G14G30G28G07G08G04G21G19G01G17
  -9782994.36248  -7592435.53646  22500057.894    22500058.4404   22500066.1294
       180.0004        181.0004
  -4367848.72548  -3388565.77346  23023204.646    23023205.6044   23023225.8454
       170.0004        171.0004
 -15657142.24949 -12185319.24147  21722346.823    21722346.5984   21722353.3534
       195.0004        196.0004
  -2298181.39947  -1782562.35545  23476941.602    23476940.6434   23476945.7704
       156.0004        158.0004
 -23863856.31449 -18574561.29447  20309033.809    20309034.7674   20309039.0664
       211.0004        212.0004
  -6151013.69148  -4777106.82746  23562320.684    23562320.3884   23562328.0124
       185.0004        185.0004
   -736481.11447   -560049.20345  24460930.088    24460931.7944   24460940.5424
       137.0004        143.0004
  -9782957.33848  -7409492.85346  22196005.302    22196005.0734   22196009.4904
       179.0004        180.0004
  -3474579.25047  -2677170.55145  24415660.926    24415660.7244   24415664.8694
       150.0004        151.0004
 -20921606.91349 -16289196.57747  20843698.993    20843699.4844   20843707.4354
       200.0004        200.0004
 -12395427.83048  -9617287.37246  22215294.160    22215295.0684   22215299.0464
       185.0004        186.0004
 21  2  3  0 46 30.0000000  0 11G09G14G30G28G07G08G04G21G19G01G17
  -9705540.41948  -7532081.80746  22514798.033    22514798.0034   22514806.0174
       182.0004        182.0004
  -4396128.63448  -3410602.03346  23017823.416    23017824.1984   23017843.3464
       169.0004        168.0004
 -15734943.69349 -12245943.73047  21707540.894    21707541.6244   21707548.5124
       196.0004        197.0004
  -2315471.27847  -1796034.95845  23473651.174    23473650.9584   23473655.1954
       154.0004        155.0004
 -23899666.57449 -18602465.38848  20302220.219    20302220.7284   20302224.5814
       212.0004        213.0004
  -6056636.43348  -4703566.14346  23580281.109    23580280.4014   23580287.0844
       185.0004        186.0004
   -641397.87447   -485958.44345  24479026.619    24479025.4084   24479033.9314
       139.0004        144.0004
  -9734220.73548  -7371516.26946  22205280.093    22205279.3304   22205283.9294
       179.0004        180.0004
  -3560755.90347  -2744321.12645  24399262.644    24399261.5774   24399266.5454
       149.0004        152.0004
 -20945211.20849 -16307589.52347  20839206.009    20839207.0984   20839215.7294
       199.0004        200.0004
 -12446723.62348  -9657258.09246  22205532.501    22205532.2924   22205538.3064
       185.0004        184.0004
 21  2  3  0 47  0.0000000  0 11G09G14G30G28G07G08G04G21G19G01G17
  -9627960.76148  -7471630.14646  22529561.028    22529561.3874   22529568.0754
       182.0004        183.0004
  -4424469.01848  -3432685.45146  23012431.839    23012431.7624   23012450.1924
       167.0004        167.0004
 -15812514.35049 -12306388.39047  21692780.745    21692780.3334   21692786.8684
       197.0004        197.0004
  -2332838.81047  -1809568.08445  23470342.692    23470342.4814   23470349.9424
       150.0004        151.0004
 -23935021.26449 -18630014.50248  20295492.264    20295492.6034   20295496.9714
       212.0004        213.0004
  -5962288.48648  -4630048.27846  23598234.392    23598233.9654   23598240.6254
       184.0004        184.0004
   -546443.23847   -411967.92045  24497094.790    24497094.7604   24497101.9064
       139.0004        144.0004
  -9685018.49748  -7333176.86246  22214642.358    22214641.7854   22214646.5264
       179.0004        179.0004
  -3646689.84147  -2811282.63445  24382909.983    24382909.3524   24382912.8884
       150.0004        153.0004
 -20968263.34149 -16325552.21347  20834819.962    20834820.9164   20834828.7234
       199.0004        199.0004
 -12497604.84848  -9696905.76846  22195849.520    22195849.7324   22195855.5654
       184.0004        185.0004
 21  2  3  0 47 30.0000000  0 11G09G14G30G28G07G08G04G21G19G01G17
  -9550257.52248  -7411082.18246  22544347.522    22544347.5554   22544354.1414
       183.0004        183.0004
  -4452869.45248  -3454815.65746  23007025.100    23007026.3704   23007045.4944
       166.0004        167.0004
 -15889850.51949 -12366650.35447  21678063.561    21678063.6364   21678070.7284
       196.0004        197.0004
  -2350284.14047  -1823161.88445  23467022.414    23467022.9414   23467029.6214
       148.0004        151.0004
 -23969917.11549 -18657206.09048  20288851.618    20288852.1214   20288856.2344
       212.0004        213.0004
  -5867971.03648  -4556554.19046  23616180.249    23616180.4894   23616188.0114
       182.0004        181.0004
   -451618.44947   -338078.56945  24515138.378    24515138.2554   24515146.5044
       139.0004        144.0004
  -9635351.06048  -7294474.95546  22224093.895    22224093.5524   22224097.6494
       179.0004        180.0004
  -3732378.69847  -2878053.16845  24366604.257    24366603.5424   24366606.5514
       150.0004        152.0004
 -20990760.46849 -16343082.43347  20830538.548    20830539.7924   20830547.2424
       199.0004        200.0004
 -12548069.86648  -9736229.14846  22186246.788    22186247.6954   22186252.2224
       185.0004        187.0004
 21  2  3  0 48  0.0000000  0 11G09G14G30G28G07G08G04G21G19G01G17
  -9472432.51148  -7350439.33046  22559155.525    22559156.6424   22559164.5924
       182.0004        183.0004
  -4481329.50348  -3476992.29246  23001610.004    23001611.1024   23001631.1834
       167.0004        168.0004
 -15966948.42049 -12426726.61447  21663391.891    21663392.1694   21663398.8324
       196.0004        196.0004
  -2367807.44347  -1836816.35545  23463692.342    23463691.2624   23463694.6024
       151.0004        155.0004
 -24004350.75849 -18684037.49448  20282298.833    20282299.4904   20282304.0384
       212.0004        213.0004
  -5773685.22948  -4483084.74946  23634118.313    23634120.7484   23634131.3514
       181.0004        181.0004
   -356924.67247   -264291.34645  24533159.266    24533158.8874   24533166.8014
       139.0004        144.0004
  -9585218.51248  -7255410.61746  22233633.066    22233632.7154   22233638.3004
       180.0004        180.0004
  -3817819.78247  -2944630.61545  24350345.047    24350344.3384   24350347.8434
       150.0004        153.0004
 -21012699.69149 -16360177.90647  20826364.630    20826365.3084   20826372.7074
       199.0004        200.0004
 -12598117.34948  -9775227.14746  22176723.030    22176723.3084   22176728.6194
       186.0004        187.0004
 21  2  3  0 48 30.0000000  0 11G09G14G30G28G07G08G04G21G19G01G17
  -9394489.86948  -7289704.81846  22573988.581    22573988.8364   22573996.9764
       183.0004        183.0004
  -4509850.80048  -3499216.64746  22996182.914    22996183.4514   22996203.1854
       168.0004        169.0004
 -16043806.49049 -12486616.02347  21648767.132    21648766.7494   21648773.5054
       197.0004        197.0004
  -2385410.72647  -1850533.16545  23460343.568    23460342.9974   23460345.3834
       154.0004        158.0004
 -24038321.15549 -18710507.93848  20275834.921    20275835.5074   20275839.7214
       212.0004        213.0004
  -5679434.07248  -4409642.26746  23652055.735    23652056.7954   23652065.7664
       180.0004        180.0004
   -262365.23247   -190608.72245  24551151.417    24551152.4914   24551160.1224
       138.0004        143.0004
  -9534623.08448  -7215985.59646  22243261.121    22243260.7144   22243265.5684
       179.0004        179.0004
  -3903012.94447  -3011014.86645  24334133.070    24334132.0854   24334137.1384
       151.0004        154.0004
 -21034080.37549 -16376838.16847  20822295.296    20822296.0224   20822303.6834
       199.0004        199.0004
 -12647748.26748  -9813900.57346  22167278.644    22167279.1384   22167284.3144
       186.0004        187.0004
 21  2  3  0 49  0.0000000  0 11G09G14G30G28G07G08G04G21G19G01G17
  -9316432.98648  -7228881.27346  22588841.847    22588842.6494   22588850.0044
       182.0004        181.0004
  -4538434.42148  -3521489.59346  22990743.252    22990743.8254   22990763.7444
       168.0004        168.0004
 -16120422.47649 -12546316.78347  21634186.640    21634186.2614   21634194.1954
       196.0004        196.0004
  -2403095.70647  -1864313.65245  23456975.489    23456974.5964   23456979.2434
       153.0004        156.0004
 -24071826.41549 -18736615.93748  20269459.089    20269459.7094   20269464.0024
       212.0004        213.0004
  -5585220.12948  -4336228.83346  23669985.910    23669985.9994   23669994.4214
       179.0004        180.0004
   -167942.93647   -117033.01345  24569120.462    24569121.1144   24569129.2824
       137.0004        141.0004
  -9483566.45148  -7176201.19946  22252977.261    22252976.1794   22252982.1254
       178.0004        179.0004
  -3987957.20147  -3077205.14045  24317968.325    24317967.2684   24317973.3844
       151.0004        155.0004
 -21054901.20749 -16393062.18147  20818333.094    20818334.0374   20818341.9064
       199.0004        199.0004
 -12696962.79748  -9852249.53246  22157913.668    22157913.6644   22157918.7924
       186.0004        186.0004
 21  2  3  0 49 30.0000000  0 11G09G14G30G28G07G08G04G21G19G01G17
  -9238264.79548  -7167971.00646  22603717.456    22603717.3484   22603725.0614
       181.0004        182.0004
  -4567080.84148  -3543811.47446  22985292.448    22985293.1824   22985312.3444
       169.0004        171.0004
 -16196793.63749 -12605826.77147  21619653.450    21619653.6384   21619661.2764
       196.0004        197.0004
  -2420863.36447  -1878158.56845  23453591.104    23453591.2514   23453597.9794
       151.0004        152.0004
 -24104864.37649 -18762359.81048  20263172.508    20263172.8364   20263177.0524
       212.0004        214.0004
  -5491045.68448  -4262846.15646  23687908.869    23687908.2504   23687915.6044
       180.0004        181.0004
    -73659.93947    -43565.84145  24587063.003    24587063.5694   24587070.3664
       137.0004        142.0004
  -9432049.90548  -7136058.43546  22262780.081    22262779.3134   22262784.5884
       178.0004        178.0004
  -4072651.23547  -3143200.43745  24301851.917    24301851.7484   24301855.7034
       152.0004        156.0004
 -21075160.40149 -16408848.56247  20814478.710    20814479.0324   20814486.6614
       199.0004        199.0004
 -12745761.05648  -9890274.13546  22148627.025    22148627.4734   22148632.6984
       185.0004        185.0004
 21  2  3  0 50  0.0000000  0 12G09G14G30G28G07G08G04G21G19G01G22G17
  -9159988.58648  -7106976.57846  22618612.660    22618613.4614   22618620.2524
       182.0004        182.0004
  -4595790.89448  -3566182.93446  22979828.431    22979829.0344   22979849.4184
       170.0004        171.0004
 -16272917.48249 -12665144.06447  21605167.562    21605167.8084   21605175.4134
       196.0004        198.0004
  -2438714.71447  -1892068.70045  23450196.261    23450196.4414   23450200.8304
       149.0004        152.0004
 -24137432.83349 -18787737.84548  20256974.732    20256975.0064   20256979.2124
       212.0004        213.0004
  -5396912.76248  -4189495.86946  23705819.931    23705819.8664   23705828.4404
       179.0004        178.0004
     20481.31147     29790.87045  24604977.859    24604978.3024   24604983.7474
       136.0004        141.0004
  -9380074.78748  -7095558.35246  22272670.938    22272670.4864   22272675.9104
       178.0004        179.0004
  -4157093.51347  -3208999.60645  24285783.407    24285782.7504   24285787.5974
       153.0004        156.0004
 -21094856.57849 -16424196.21847  20810730.150    20810730.9824   20810738.4584
       199.0004        199.0004
   -457319.00254   -331119.087 4                                  24708876.694
        74.0004         98.000
 -12794142.65348  -9927974.05846  22139420.914    22139421.3724   22139426.1624
       185.0004        187.0004
 21  2  3  0 50 30.0000000  0 12G09G14G30G28G07G08G04G21G19G01G22G17
  -9081607.17848  -7045900.14946  22633527.925    22633529.0914   22633536.2954
       182.0004        183.0004
  -4624565.01148  -3588604.30746  22974353.751    22974354.4444   22974373.3474
       171.0004        171.0004
 -16348791.29449 -12724266.49347  21590730.083    21590730.0554   21590737.1254
       197.0004        198.0004
  -2456650.78947  -1906044.84545  23446784.775    23446784.2034   23446788.2004
       150.0004        154.0004
 -24169529.92949 -18812748.55848  20250866.813    20250867.2974   20250871.8774
       212.0004        214.0004
  -5302823.53748  -4116179.60846  23723723.446    23723723.9124   23723732.6714
       178.0004        178.0004
    114478.60947    103035.40345  24622864.517    24622864.7124   24622870.9294
       136.0004        141.0004
  -9327642.69448  -7054702.14446  22282648.677    22282648.2954   22282653.4424
       178.0004        179.0004
  -4241283.00247  -3274601.75545  24269761.356    24269761.1984   24269766.8194
       152.0004        154.0004
 -21113987.99949 -16439103.79147  20807089.597    20807090.1634   20807098.2094
       199.0004        199.0004
   -457319.00244   -331119.087 4                                  24708876.694
        74.0004         98.000
 -12842107.50548  -9965349.23647  22130293.563    22130294.0584   22130298.2384
       187.0004        188.0004
 21  2  3  0 51  0.0000000  0 11G09G14G30G28G07G08G04G21G19G01G17
  -9003123.06948  -6984743.69246  22648462.925    22648462.8104   22648471.7514
       182.0004        182.0004
  -4653403.22048  -3611075.61246  22968866.392    22968866.6354   22968885.8604
       170.0004        170.0004
 -16424411.82049 -12783191.56347  21576339.898    21576339.6394   21576347.0374
       197.0004        197.0004
  -2474672.45247  -1920087.67545  23443354.493    23443354.4744   23443359.4544
       153.0004        156.0004
 -24201152.29149 -18837389.35448  20244849.493    20244849.9304   20244854.4214
       213.0004        214.0004
  -5208779.10548  -4042898.25546  23741616.984    23741618.4004   23741628.9994
       176.0004        176.0004
    208330.45747    176166.68245  24640723.034    24640724.1114   24640731.8714
       138.0004        144.0004
  -9274754.10748  -7013490.24346  22292712.508    22292712.3894   22292717.8794
       178.0004        178.0004
  -4325217.82647  -3340005.47745  24253789.057    24253789.2324   24253792.5804
       148.0004        149.0004
 -21132552.40449 -16453569.54147  20803556.585    20803557.3354   20803565.4454
       199.0004        200.0004
 -12889654.87948 -10002399.09547  22121245.864    22121245.8244   22121251.1224
       189.0004        190.0004
 21  2  3  0 51 30.0000000  0 11G09G14G30G28G07G08G04G21G19G01G17
  -8924538.59148  -6923509.05546  22663417.400    22663417.5244   22663425.5954
       181.0004        182.0004
  -4682305.54648  -3633596.90246  22963366.659    22963366.1954   22963385.7764
       170.0004        170.0004
 -16499775.81449 -12841916.75847  21561997.044    21561997.5114   21562005.4864
       197.0004        197.0004
  -2492779.88047  -1934197.34445  23439908.320    23439908.7834   23439913.4034
       155.0004        158.0004
 -24232297.59749 -18861658.43348  20238922.333    20238923.0504   20238927.2574
       213.0004        214.0004
  -5114781.28848  -3969653.22646  23759507.475    23759506.9054   23759516.2074
       176.0004        178.0004
    302034.99747    249183.07845  24658554.470    24658555.7154   24658563.0374
       139.0004        144.0004
  -9221409.90248  -6971923.32046  22302863.783    22302862.9144   22302868.4704
       177.0004        177.0004
  -4408895.75347  -3405209.01245  24237866.323    24237865.4944   24237869.7024
       146.0004        150.0004
 -21150547.70249 -16467591.83647  20800132.924    20800133.3374   20800140.9284
       199.0004        200.0004
 -12936784.13148 -10039123.18147  22112276.844    22112277.2644   22112281.9674
       189.0004        189.0004
 21  2  3  0 52  0.0000000  0 11G09G14G30G28G07G08G04G21G19G01G17
  -8845857.51048  -6862199.11946  22678390.936    22678390.4864   22678397.2004
       182.0004        182.0004
  -4711273.21448  -3656169.12146  22957853.689    22957854.6584   22957873.2714
       169.0004        170.0004
 -16574881.29649 -12900440.52347  21547705.579    21547705.6314   21547713.8804
       197.0004        198.0004
  -2510974.80247  -1948375.18645  23436446.726    23436446.6074   23436450.4604
       155.0004        157.0004
 -24262964.57149 -18885554.78948  20233086.850    20233087.2104   20233091.4684
       213.0004        214.0004
  -5020832.33648  -3896446.28546  23777382.551    23777384.4394   23777393.6494
       176.0004        176.0004
    395589.38447    322082.50745  24676357.495    24676357.7034   24676364.6194
       139.0004        143.0004
  -9167612.18748  -6930003.02046  22313101.431    22313100.7354   22313105.5484
       177.0004        177.0004
  -4492316.80847  -3470212.39745  24221991.894    24221990.2204   24221996.2174
       147.0004        150.0004
 -21167973.03449 -16481169.99847  20796815.943    20796816.4614   20796824.7234
       199.0004        199.0004
 -12983495.90148 -10075521.94047  22103387.768    22103388.0304   22103393.8514
       189.0004        188.0004
 21  2  3  0 52 30.0000000  0 11G09G14G30G28G07G08G04G21G19G01G17
  -8767083.22548  -6800816.56346  22693379.756    22693380.8364   22693387.9704
       181.0004        181.0004
  -4740307.16848  -3678792.98246  22952328.939    22952329.2114   22952348.3584
       170.0004        170.0004
 -16649726.03149 -12958761.08947  21533463.454    21533463.2634   21533471.1154
       198.0004        198.0004
  -2529258.93647  -1962622.55845  23432967.914    23432967.5334   23432971.2364
       154.0004        156.0004
 -24293151.36949 -18909076.98048  20227342.487    20227342.8904   20227347.3374
       213.0004        214.0004
  -4926935.49148  -3823279.90146  23795255.440    23795254.3504   23795262.1684
       176.0004        178.0004
    488990.96347    394862.83745  24694132.086    24694131.6574   24694139.5854
       139.0004        143.0004
  -9113362.78448  -6887730.74946  22323424.598    22323423.9704   22323429.9324
       177.0004        178.0004
  -4575479.97847  -3535014.81745  24206166.438    24206166.2344   24206170.5654
       149.0004        152.0004
 -21184827.27049 -16494303.15847  20793608.935    20793609.7924   20793617.2284
       199.0004        199.0004
 -13029790.65648 -10111595.75047  22094578.889    22094579.2394   22094583.6144
       188.0004        189.0004
 21  2  3  0 53  0.0000000  0 11G09G14G30G28G07G08G04G21G19G01G17
  -8688218.34448  -6739363.41946  22708387.365    22708388.0784   22708396.0214
       181.0004        181.0004
  -4769407.60648  -3701468.61846  22946790.757    22946791.6624   22946810.3054
       170.0004        171.0004
 -16724307.01749 -13016876.14247  21519271.260    21519271.1764   21519278.5984
       198.0004        199.0004
  -2547632.98147  -1976939.99745  23429470.390    23429471.0404   23429475.8004
       154.0004        157.0004
 -24322855.50649 -18932223.06748  20221689.640    20221690.2964   20221694.6064
       213.0004        214.0004
  -4833091.83848  -3750154.99846  23813112.007    23813111.6144   23813119.9934
       176.0004        177.0004
    582237.90047    467522.63745  24711875.806    24711877.2274   24711884.6484
       139.0004        144.0004
  -9058662.92448  -6845107.46346  22333832.945    22333833.0944   22333838.7664
       177.0004        177.0004
  -4658383.33847  -3599614.82145  24190391.967    24190391.0404   24190394.0054
       150.0004        154.0004
 -21201108.56549 -16506989.86547  20790510.932    20790511.4174   20790519.3194
       199.0004        200.0004
 -13075667.85048 -10147344.16947  22085848.353    22085848.5004   22085854.0434
       189.0004        189.0004
 21  2  3  0 53 30.0000000  0 12G09G14G30G28G07G08G04G21G19G01G22G17
  -8609265.51248  -6677841.74746  22723411.500    22723412.0504   22723420.2124
       180.0004        179.0004
  -4798574.68548  -3724196.21246  22941241.422    22941241.7064   22941261.4004
       173.0004        174.0004
 -16798621.19649 -13074783.29947  21505130.625    21505130.2584   21505137.3544
       199.0004        199.0004
  -2566097.33147  -1991327.80145  23425957.004    23425956.7994   23425960.9394
       156.0004        159.0004
 -24352074.67849 -18954991.26648  20216129.975    20216130.5834   20216134.5054
       213.0004        214.0004
  -4739303.56948  -3677073.25846  23830959.843    23830959.0124   23830967.0514
       176.0004        176.0004
    675328.43947    540060.57245  24729591.920    24729593.4514   24729599.2484
       138.0004        142.0004
  -9003513.47648  -6802133.87746  22344327.828    22344327.5864   22344332.2204
       176.0004        176.0004
  -4741025.34947  -3664011.18845  24174664.229    24174663.8844   24174667.6694
       152.0004        156.0004
 -21216815.12049 -16519228.72347  20787522.078    20787522.9424   20787530.6464
       199.0004        200.0004
   -457319.00254   -331119.087 4                                  24708876.694
        74.0004        111.000
 -13121127.15548 -10182766.99447  22077197.664    22077197.8374   22077202.5944
       189.0004        189.0004
 21  2  3  0 54  0.0000000  0 10G09G14G30G28G07G08G21G19G01G17
  -8530226.12948  -6616252.61446  22738453.363    22738454.0164   22738460.3564
       179.0004        181.0004
  -4827807.34848  -3746974.90246  22935676.763    22935677.3054   22935697.9254
       172.0004        171.0004
 -16872664.38549 -13132479.26847  21491040.222    21491040.0764   21491047.4904
       200.0004        200.0004
  -2584651.43747  -2005785.54845  23422427.120    23422425.9074   23422429.7694
       156.0004        158.0004
 -24380805.16949 -18977378.65048  20210662.495    20210662.9224   20210667.5854
       213.0004        215.0004
  -4645570.58448  -3604034.58046  23848795.603    23848796.0104   23848803.4924
       173.0004        173.0004
  -8947914.38148  -6758809.87546  22354908.342    22354907.6534   22354912.1934
       175.0004        175.0004
  -4823403.47347  -3728201.85845  24158988.451    24158987.4374   24158991.8254
       155.0004        158.0004
 -21231943.87549 -16531017.32547  20784643.290    20784643.6584   20784651.4644
       199.0004        200.0004
 -13166167.04648 -10217862.97347  22068626.833    22068627.0364   22068632.2814
       189.0004        189.0004
 21  2  3  0 54 30.0000000  0 10G09G14G30G28G07G08G21G19G01G17
  -8451103.91448  -6554598.94746  22753510.023    22753509.9034   22753516.5114
       179.0004        179.0004
  -4857106.88148  -3769805.71046  22930102.887    22930102.6394   22930121.4214
       171.0004        172.0004
 -16946434.60149 -13189962.54847  21477001.772    21477001.7214   21477009.1114
       200.0004        200.0004
  -2603297.21747  -2020314.71045  23418878.376    23418877.5814   23418882.1674
       156.0004        158.0004
 -24409045.92049 -18999384.43148  20205288.271    20205289.2044   20205293.2184
       213.0004        215.0004
  -4551895.73848  -3531041.21946  23866622.038    23866621.7574   23866629.7244
       173.0004        174.0004
  -8891867.58748  -6715137.04046  22365574.866    22365573.8264   22365577.3364
       175.0004        177.0004
  -4905516.87147  -3792186.27545  24143361.522    24143361.4554   24143365.9644
       155.0004        158.0004
 -21246494.17549 -16542355.20047  20781873.875    20781874.8574   20781882.9684
       200.0004        200.0004
 -13210787.97548 -10252632.50647  22060135.221    22060136.2764   22060141.4514
       190.0004        190.0004
 21  2  3  0 55  0.0000000  0 10G09G14G30G28G07G08G21G19G01G17
  -8371904.00348  -6492884.76946  22768578.857    22768580.4854   22768588.5044
       179.0004        179.0004
  -4886475.93848  -3792690.71746  22924513.826    22924514.6794   22924533.2404
       171.0004        171.0004
 -17019931.40249 -13247232.80547  21463015.613    21463015.8544   21463022.7174
       199.0004        200.0004
  -2622037.94147  -2034917.87245  23415311.325    23415311.6044   23415316.3774
       156.0004        159.0004
 -24436796.75249 -19021008.48748  20200008.441    20200008.3304   20200012.2484
       214.0004        215.0004
  -4458283.53348  -3458096.69146  23884435.637    23884435.6384   23884443.6994
       173.0004        175.0004
  -8835377.22148  -6671118.59546  22376323.054    22376322.6494   22376328.5424
       176.0004        177.0004
  -4987366.61147  -3855965.29845  24127786.651    24127786.1114   24127791.2834
       155.0004        157.0004
 -21260466.87849 -16553243.02647  20779215.260    20779215.7544   20779223.7444
       200.0004        200.0004
 -13254992.46548 -10287077.53947  22051723.753    22051724.0194   22051729.5384
       191.0004        191.0004
 21  2  3  0 55 30.0000000  0 11G09G14G30G28G07G08G21G19G01G22G17
  -8292626.68448  -6431110.24746  22783665.411    22783666.1294   22783674.4264
       178.0004        178.0004
  -4915912.30148  -3815628.12546  22918911.705    22918912.0454   22918931.9724
       170.0004        170.0004
 -17093149.41149 -13304285.79947  21449082.818    21449082.9534   21449089.9174
       200.0004        200.0004
  -2640871.71047  -2049593.54345  23411728.178    23411728.2664   23411731.5444
       157.0004        159.0004
 -24464053.18149 -19042247.26248  20194820.745    20194821.3134   20194825.5404
       214.0004        215.0004
  -4364732.74548  -3385199.97546  23902238.724    23902238.4714   23902245.2414
       176.0004        178.0004
  -8778442.15948  -6626753.59046  22387157.262    22387157.1544   22387162.0154
       175.0004        175.0004
  -5068949.10447  -3919536.04245  24112260.108    24112259.6434   24112267.4654
       153.0004        155.0004
 -21273857.86849 -16563677.54247  20776666.760    20776667.4994   20776675.4674
       199.0004        200.0004
   -457319.00244   -331119.087 4                                  24708876.694
        74.0004        130.000
 -13298778.06848 -10321196.17947  22043391.753    22043391.6454   22043397.7444
       191.0004        191.0004
 21  2  3  0 56  0.0000000  0 10G09G14G30G28G07G08G21G19G01G17
  -8213276.17748  -6369278.67346  22798766.030    22798766.1374   22798774.1764
       177.0004        178.0004
  -4945417.73348  -3838619.37646  22913297.255    22913298.0974   22913317.7944
       171.0004        172.0004
 -17166087.24649 -13361120.47747  21435203.788    21435203.7574   21435210.9164
       201.0004        201.0004
  -2659800.79247  -2064343.46245  23408126.493    23408126.5374   23408131.7524
       157.0004        161.0004
 -24490814.44949 -19063100.20148  20189728.744    20189729.0164   20189733.2144
       214.0004        215.0004
  -4271246.81848  -3312353.83246  23920027.627    23920027.4344   23920036.6414
       177.0004        178.0004
  -8721065.17948  -6582044.26046  22398076.822    22398075.7774   22398080.1394
       174.0004        175.0004
  -5150264.09447  -3982898.34545  24096788.143    24096787.6484   24096793.6854
       155.0004        158.0004
 -21286667.08949 -16573658.74647  20774230.387    20774230.1024   20774238.0274
       200.0004        200.0004
 -13342145.85848 -10354989.23647  22035138.941    22035139.4544   22035144.4954
       191.0004        192.0004
 21  2  3  0 56 30.0000000  0 11G09G14G30G28G07G08G21G19G01G22G17
  -8133855.82548  -6307392.71446  22813880.183    22813879.8194   22813887.4964
       177.0004        178.0004
  -4974993.10848  -3861665.10946  22907668.671    22907669.3784   22907689.4354
       170.0004        169.0004
 -17238742.64449 -13417735.06247  21421377.961    21421377.5304   21421384.9084
       201.0004        201.0004
  -2678826.57947  -2079168.73245  23404504.542    23404505.3514   23404508.9524
       156.0004        157.0004
 -24517079.07449 -19083566.14448  20184730.794    20184731.0964   20184735.3584
       214.0004        215.0004
  -4177828.34548  -3239560.19746  23937804.845    23937804.5744   23937811.3574
       175.0004        175.0004
  -8663248.09848  -6536991.96646  22409079.718    22409079.2324   22409082.6014
       175.0004        175.0004
  -5231310.77547  -4046051.61545  24081365.870    24081364.9404   24081370.2194
       156.0004        159.0004
 -21298893.62449 -16583185.88547  20771903.052    20771903.6094   20771911.0304
       200.0004        200.0004
   -457319.00254   -331119.08743                                  24708876.6944
        74.0004         85.0004
 -13385096.28648 -10388457.06247  22026965.906    22026966.4014   22026971.0934
       191.0004        191.0004
 21  2  3  0 57  0.0000000  0 10G09G14G30G28G07G08G21G19G01G17
  -8054368.09048  -6245454.22146  22829005.769    22829005.7164   22829013.1504
       177.0004        177.0004
  -5004638.36648  -3884765.31546  22902027.683    22902027.9644   22902048.0754
       169.0004        170.0004
 -17311112.48149 -13474127.13847  21407606.330    21407606.4924   21407613.1424
       201.0004        202.0004
  -2697949.57147  -2094069.75745  23400866.016    23400866.2584   23400870.9054
       155.0004        158.0004
 -24542844.56349 -19103643.14948  20179827.070    20179827.9814   20179832.3374
       214.0004        215.0004
  -4084478.36048  -3166819.95546  23955569.272    23955569.1194   23955576.4024
       175.0004        177.0004
  -8604991.91148  -6491597.52046  22420164.143    22420163.8494   22420167.3344
       174.0004        174.0004
  -5312087.84647  -4108994.71745  24065994.457    24065994.2284   24065998.1914
       156.0004        158.0004
 -21310535.74449 -16592257.65247  20769688.084    20769688.3334   20769695.9624
       200.0004        199.0004
 -13427629.12348 -10421599.50447  22018872.162    22018872.1634   22018877.5564
       191.0004        190.0004
 21  2  3  0 57 30.0000000  0 10G09G14G30G28G07G08G21G19G01G17
  -7974816.09248  -6183465.66846  22844143.807    22844144.1524   22844151.3834
       176.0004        177.0004
  -5034354.13348  -3907920.45446  22896372.855    22896373.2994   22896392.3754
       170.0004        170.0004
 -17383194.24149 -13530294.74247  21393889.366    21393889.2324   21393896.3864
       201.0004        200.0004
  -2717170.87447  -2109047.38945  23397207.379    23397207.0524   23397212.3294
       154.0004        156.0004
 -24568109.22749 -19123329.91648  20175020.283    20175020.6584   20175024.8814
       214.0004        216.0004
  -3991198.84448  -3094134.64846  23973318.303    23973319.1964   23973326.5154
       176.0004        176.0004
  -8546298.62348  -6445862.48846  22431334.648    22431333.1184   22431337.0794
       174.0004        175.0004
  -5392593.96947  -4171726.70145  24050674.926    24050674.3614   24050679.7414
       157.0004        159.0004
 -21321592.35249 -16600873.18147  20767583.072    20767584.0984   20767592.3294
       200.0004        201.0004
 -13469744.79048 -10454416.89247  22010857.591    22010857.8264   22010863.1124
       191.0004        191.0004
 21  2  3  0 58  0.0000000  0 10G09G14G30G28G07G08G21G19G01G17
  -7895201.43348  -6121428.28146  22859294.282    22859294.0694   22859302.1094
       176.0004        177.0004
  -5064139.53648  -3931129.84146  22890704.812    22890705.2424   22890725.2894
       170.0004        171.0004
 -17454983.89549 -13586234.73047  21380228.591    21380228.6504   21380235.3064
       201.0004        202.0004
  -2736490.17047  -2124101.38745  23393532.491    23393531.8164   23393536.1654
       155.0004        159.0004
 -24592869.89849 -19142623.95148  20170307.767    20170308.2894   20170312.5904
       214.0004        215.0004
  -3897990.52248  -3021504.79946  23991056.961    23991056.1634   23991063.5814
       173.0004        172.0004
  -8487168.39348  -6399786.96746  22442585.588    22442584.8824   22442589.7374
       174.0004        175.0004
  -5472826.88347  -4234245.82645  24035406.216    24035405.5874   24035411.2394
       157.0004        160.0004
 -21332060.87749 -16609030.46247  20765591.693    20765592.4464   20765600.0504
       200.0004        201.0004
 -13511442.09548 -10486908.27047  22002923.403    22002923.4434   22002928.2424
       190.0004        190.0004
 21  2  3  0 58 30.0000000  0 10G09G14G30G28G07G08G21G19G01G17
  -7815527.99148  -6059345.08946  22874455.680    22874455.8704   22874463.6954
       176.0004        178.0004
  -5093995.97448  -3954394.59046  22885022.941    22885023.8344   22885044.0724
       170.0004        171.0004
 -17526479.82549 -13641945.86147  21366623.126    21366622.9764   21366630.2314
       201.0004        201.0004
  -2755909.35747  -2139233.21645  23389837.370    23389836.8614   23389841.3464
       156.0004        158.0004
 -24617125.56649 -19161524.48248  20165692.403    20165692.9974   20165697.1004
       214.0004        216.0004
  -3804856.56148  -2948932.90546  24008779.600    24008779.9344   24008786.6734
       173.0004        175.0004
  -8427603.62048  -6353372.85646  22453920.019    22453920.1644   22453923.8624
       173.0004        172.0004
  -5552786.37947  -4296551.91345  24020190.939    24020190.2844   24020195.0874
       157.0004        158.0004
 -21341941.10949 -16616729.32847  20763711.920    20763712.2064   20763719.9414
       201.0004        200.0004
 -13552721.52948 -10519074.04747  21995067.454    21995067.6394   21995072.6884
       190.0004        190.0004
 21  2  3  0 59  0.0000000  0 10G09G14G30G28G07G08G21G19G01G17
  -7735798.90448  -5997218.54646  22889628.015    22889628.3904   22889635.7074
       178.0004        178.0004
  -5123923.99148  -3977715.11746  22879328.066    22879328.6944   22879348.6054
       170.0004        171.0004
 -17597679.52649 -13697426.13147  21353073.485    21353073.6634   21353081.6274
       201.0004        201.0004
  -2775429.46947  -2154443.66545  23386121.933    23386121.1474   23386125.9924
       155.0004        156.0004
 -24640874.34849 -19180030.03348  20161173.483    20161173.6364   20161177.8204
       215.0004        215.0004
  -3711798.77748  -2876420.33346  24026486.326    24026486.1244   24026494.3024
       171.0004        170.0004
  -8367606.46748  -6306621.81046  22465337.430    22465337.3404   22465341.4554
       173.0004        173.0004
  -5632471.45547  -4358644.17345  24005027.386    24005027.0964   24005030.9944
       158.0004        159.0004
 -21351232.06049 -16623969.01247  20761943.493    20761944.1934   20761951.8944
       201.0004        201.0004
 -13593584.34348 -10550915.16147  21987291.875    21987292.6454   21987296.6504
       189.0004        189.0004
 21  2  3  0 59 30.0000000  0 10G09G14G30G28G07G08G21G19G01G17
  -7656015.68448  -5935049.83046  22904810.303    22904810.2034   22904817.5554
       177.0004        177.0004
  -5153922.66248  -4001090.68046  22873620.187    22873621.0214   22873639.6584
       171.0004        172.0004
 -17668578.96149 -13752672.43447  21339582.892    21339582.7294   21339589.7164
       201.0004        202.0004
  -2795049.95447  -2169732.34245  23382388.902    23382389.0564   23382392.2684
       154.0004        158.0004
 -24664113.17449 -19198138.21248  20156750.833    20156751.3364   20156755.5394
       214.0004        215.0004
  -3618817.28248  -2803967.21446  24044177.280    24044179.0634   24044189.3164
       173.0004        175.0004
  -8307177.07948  -6259533.95846  22476837.024    22476835.8144   22476840.6634
       173.0004        173.0004
  -5711879.62347  -4420520.61245  23989916.895    23989915.8644   23989919.7824
       155.0004        157.0004
 -21359931.27249 -16630747.59847  20760288.088    20760288.7434   20760296.4994
       201.0004        201.0004
 -13634028.95748 -10582430.39747  21979595.382    21979595.9114   21979600.1464
       189.0004        190.0004
 21  2  3  1  0  0.0000000  0 10G09G14G30G28G07G08G21G19G01G17
  -7576181.49648  -5872841.38746  22920000.661    22920001.4614   22920008.5624
       175.0004        175.0004
  -5183992.62448  -4024521.83746  22867897.422    22867897.8194   22867918.1414
       170.0004        169.0004
 -17739175.70149 -13807682.87747  21326148.282    21326148.1944   21326155.6694
       201.0004        202.0004
  -2814772.15947  -2185100.31045  23378635.949    23378636.1444   23378640.6254
       156.0004        159.0004
 -24686840.61049 -19215847.92248  20152426.238    20152426.7534   20152430.6874
       215.0004        216.0004
  -3525914.80848  -2731575.69946  24061855.712    24061856.5534   24061868.0134
       173.0004        173.0004
  -8246317.32648  -6212110.77846  22488417.870    22488417.3164   22488420.7174
       172.0004        174.0004
  -5791009.85447  -4482180.50745  23974858.264    23974857.2724   23974860.2844
       153.0004        155.0004
 -21368037.80649 -16637064.37047  20758745.128    20758746.0534   20758753.7814
       200.0004        200.0004
 -13674055.97548 -10613620.25547  21971978.964    21971979.0954   21971983.2444
       190.0004        191.0004
 21  2  3  1  0 30.0000000  0 10G09G14G30G28G07G08G21G19G01G17
  -7496299.24048  -5810595.47346  22935202.276    22935202.6454   22935210.0444
       173.0004        174.0004
  -5214134.23648  -4048008.80746  22862161.172    22862162.6114   22862182.1154
       169.0004        170.0004
 -17809467.12549 -13862455.42047  21312772.319    21312772.5164   21312779.6254
       202.0004        202.0004
  -2834597.05147  -2200548.27045  23374862.098    23374861.7844   23374867.0014
       156.0004        159.0004
 -24709054.60049 -19233157.53148  20148198.797    20148199.3714   20148203.6144
       215.0004        216.0004
  -3433093.04348  -2659247.10346  24079520.992    24079521.9554   24079530.8414
       172.0004        172.0004
  -8185029.29048  -6164353.85346  22500079.871    22500079.8694   22500084.9184
       173.0004        173.0004
  -5869861.35247  -4543623.18745  23959853.415    23959853.3304   23959856.5184
       156.0004        159.0004
 -21375550.62149 -16642918.50147  20757315.834    20757316.4474   20757323.5704
       200.0004        200.0004
 -13713665.68148 -10644484.94447  21964440.932    21964441.6674   21964445.7864
       191.0004        191.0004
 21  2  3  1  1  0.0000000  0 10G09G14G30G28G07G08G21G19G01G17
  -7416371.46348  -5748314.09646  22950413.042    22950413.1504   22950419.8574
       174.0004        176.0004
  -5244347.56448  -4071551.63246  22856412.183    22856413.1014   22856433.6544
       171.0004        173.0004
 -17879450.25949 -13916987.71947  21299455.099    21299454.9674   21299462.0464
       202.0004        202.0004
  -2854524.96847  -2216076.49345  23371070.344    23371069.6514   23371074.5724
       156.0004        158.0004
 -24730753.31849 -19250065.62048  20144069.541    20144070.1034   20144074.5454
       215.0004        216.0004
  -3340353.55848  -2586982.55346  24097168.999    24097170.1064   24097178.6584
       173.0004        174.0004
  -8123313.70048  -6116263.77446  22511823.916    22511823.9974   22511828.3704
       172.0004        173.0004
  -5948432.68347  -4604847.56445  23944900.945    23944900.1384   23944904.7674
       157.0004        160.0004
 -21382468.34949 -16648308.91947  20755999.713    20755999.9724   20756007.2574
       200.0004        200.0004
 -13752857.94448 -10675024.34347  21956983.313    21956983.0604   21956988.1914
       191.0004        191.0004
 21  2  3  1  1 30.0000000  0 10G09G14G30G28G07G08G21G19G01G17
  -7336402.35848  -5686000.52846  22965629.496    22965629.7844   22965637.5234
       174.0004        173.0004
  -5274634.17648  -4095151.56646  22850649.558    22850650.1534   22850669.5794
       172.0004        173.0004
 -17949123.66749 -13971278.69547  21286196.410    21286196.6114   21286203.6034
       202.0004        202.0004
  -2874558.12447  -2231686.74745  23367259.354    23367259.3254   23367262.1404
       156.0004        159.0004
 -24751935.98449 -19266571.59048  20140038.943    20140039.1764   20140043.6874
       215.0004        216.0004
  -3247699.04248  -2514784.28646  24114800.837    24114801.4394   24114810.5634
       172.0004        173.0004
  -8061173.85148  -6067843.11046  22523650.245    22523649.1374   22523653.3314
       173.0004        175.0004
  -6026724.08547  -4665853.82345  23930002.701    23930002.3924   23930006.9304
       158.0004        161.0004
 -21388791.14749 -16653235.76847  20754796.333    20754796.5294   20754803.8734
       200.0004        200.0004
 -13791634.17548 -10705239.57447  21949603.191    21949604.6174   21949609.6524
       190.0004        190.0004
 21  2  3  1  2  0.0000000  0 10G09G14G30G28G07G08G21G19G01G17
  -7256395.13748  -5623657.24546  22980853.703    22980854.2234   22980863.0994
       172.0004        174.0004
  -5304994.85048  -4118809.24846  22844871.840    22844872.7904   22844891.0564
       171.0004        170.0004
 -18018485.09149 -14025326.54147  21272996.895    21272997.2854   21273004.5994
       202.0004        202.0004
  -2894697.61547  -2247379.82345  23363426.366    23363425.1714   23363430.4234
       157.0004        159.0004
 -24772601.27349 -19282674.41548  20136105.818    20136106.4684   20136110.8044
       215.0004        216.0004
  -3155131.87148  -2442654.03946  24132419.065    24132418.3634   24132425.7694
       176.0004        178.0004
  -7998611.63148  -6019093.30846  22535555.063    22535554.8724   22535557.7834
       173.0004        175.0004
  -6104734.61547  -4726641.20245  23915157.809    23915156.9974   23915162.3994
       159.0004        160.0004
 -21394518.43349 -16657698.56647  20753706.036    20753707.0884   20753714.3274
       200.0004        200.0004
 -13829995.22548 -10735131.27947  21942304.415    21942304.2664   21942309.2464
       189.0004        189.0004
 21  2  3  1  2 30.0000000  0 10G09G14G30G28G07G08G21G19G01G17
  -7176351.90948  -5561285.91446  22996085.930    22996086.7504   22996094.2454
       173.0004        175.0004
  -5335429.10048  -4142524.21946  22839079.309    22839080.5674   22839100.4564
       169.0004        170.0004
 -18087531.10549 -14079128.63447  21259858.338    21259858.1994   21259865.8104
       202.0004        202.0004
  -2914943.67247  -2263155.95245  23359573.703    23359573.1924   23359578.6244
       156.0004        157.0004
 -24792746.86249 -19298372.28848  20132273.067    20132273.3124   20132277.3404
       215.0004        216.0004
  -3062653.04148  -2370592.65446  24150013.068    24150014.5224   24150023.5864
       174.0004        174.0004
  -7935628.25548  -5970015.34846  22547540.014    22547539.4654   22547544.6714
       174.0004        175.0004
  -6182462.62847  -4787208.42845  23900368.561    23900367.1564   23900370.9544
       158.0004        160.0004
 -21399648.46849 -16661695.99247  20752729.828    20752730.4404   20752738.0404
       200.0004        200.0004
 -13867940.50348 -10764699.01047  21935083.585    21935083.7094   21935087.9064
       189.0004        190.0004
 21  2  3  1  3  0.0000000  0 10G09G14G30G28G07G08G21G19G01G17
  -7096275.22648  -5498888.53146  23011325.576    23011325.3484   23011331.8004
       173.0004        172.0004
  -5365936.98848  -4166296.59746  22833275.520    22833276.0234   22833294.3974
       170.0004        171.0004
 -18156258.79349 -14132682.66747  21246779.536    21246779.8174   21246787.3894
       202.0004        203.0004
  -2935296.85547  -2279015.57745  23355700.450    23355699.8144   23355704.6034
       155.0004        157.0004
 -24812370.70849 -19313663.59848  20128538.022    20128538.6954   20128543.2304
       215.0004        216.0004
  -2970264.29648  -2298601.46246  24167595.513    24167596.1074   24167605.0904
       174.0004        176.0004
  -7872225.17848  -5920610.34546  22559605.067    22559604.0594   22559609.2854
       174.0004        174.0004
  -6259906.64447  -4847554.36545  23885629.471    23885629.0834   23885634.0464
       160.0004        162.0004
 -21404180.03849 -16665227.08147  20751867.811    20751868.2684   20751875.5244
       200.0004        200.0004
 -13905470.37648 -10793943.05447  21927942.092    21927942.1844   21927946.1334
       190.0004        191.0004
 21  2  3  1  3 30.0000000  0 10G09G14G30G28G07G08G21G19G01G17
  -7016167.41348  -5436466.85446  23026568.546    23026569.2954   23026576.3594
       171.0004        172.0004
  -5396518.22348  -4190126.13646  22827456.179    22827455.7784   22827475.4994
       170.0004        171.0004
 -18224664.89649 -14185986.10747  21233762.783    21233762.7954   21233769.8704
       203.0004        203.0004
  -2955757.46847  -2294958.88645  23351806.574    23351806.5644   23351810.8074
       153.0004        155.0004
 -24831470.22549 -19328546.33248  20124904.322    20124904.5454   20124908.4514
       215.0004        216.0004
  -2877966.37148  -2226681.04946  24185159.373    24185159.9874   24185168.7684
       173.0004        174.0004
  -7808403.42248  -5870879.09846  22571749.491    22571750.1764   22571754.4054
       174.0004        175.0004
  -6337065.26247  -4907677.94345  23870947.779    23870946.7744   23870951.1414
       160.0004        161.0004
 -21408111.61249 -16668290.62847  20751119.475    20751120.1574   20751127.5494
       200.0004        200.0004
 -13942584.36448 -10822863.02447  21920878.914    21920879.2394   21920883.9854
       191.0004        191.0004
 21  2  3  1  4  0.0000000  0 10G09G14G30G28G07G08G21G19G01G17
  -6936032.09348  -5374023.75346  23041818.461    23041818.5084   23041825.9294
       172.0004        174.0004
  -5427173.90648  -4214013.66746  22821620.669    22821622.1224   22821641.3294
       169.0004        169.0004
 -18292747.57049 -14239037.55047  21220806.837    21220806.8484   21220814.1354
       203.0004        203.0004
  -2976326.88647  -2310986.99445  23347892.942    23347892.7684   23347896.8974
       154.0004        156.0004
 -24850045.18549 -19343020.34648  20121369.010    20121369.4734   20121373.7444
       215.0004        216.0004
  -2785762.57548  -2154833.92446  24202706.539    24202706.7234   24202715.1124
       172.0004        173.0004
  -7744165.63648  -5820823.67646  22583974.413    22583973.8054   22583978.6574
       175.0004        176.0004
  -6413938.22747  -4967578.88546  23856319.590    23856319.2964   23856323.6864
       160.0004        163.0004
 -21411443.08049 -16670886.57647  20750484.909    20750485.9884   20750493.9934
       200.0004        200.0004
 -13979283.48748 -10851459.74247  21913895.237    21913895.4474   21913900.4064
       191.0004        191.0004
 21  2  3  1  4 30.0000000  0 10G09G14G30G28G07G08G21G19G01G17
  -6855872.27548  -5311561.56646  23057071.278    23057072.5034   23057080.0064
       173.0004        174.0004
  -5457904.54748  -4237959.61746  22815773.934    22815774.5414   22815794.1544
       169.0004        170.0004
 -18360504.42249 -14291835.08247  21207913.173    21207913.0294   21207920.8894
       203.0004        203.0004
  -2997006.27147  -2327100.79145  23343957.721    23343957.1854   23343962.0894
       155.0004        158.0004
 -24868093.46149 -19357083.93148  20117934.842    20117935.2704   20117939.8234
       215.0004        217.0004
  -2693653.87848  -2083060.95546  24220232.624    24220234.4484   24220242.8344
       173.0004        175.0004
  -7679513.75948  -5770445.58046  22596277.384    22596276.2734   22596282.2244
       175.0004        176.0004
  -6490524.70647  -5027256.59745  23841743.580    23841742.9994   23841749.3184
       160.0004        161.0004
 -21414173.83649 -16673014.42347  20749965.968    20749966.6314   20749973.9944
       200.0004        200.0004
 -14015568.65548 -10879733.89147  21906990.492    21906990.7414   21906995.6524
       191.0004        192.0004
 21  2  3  1  5  0.0000000  0 10G09G14G30G28G07G08G21G19G01G17
  -6775689.68648  -5249081.64246  23072330.234    23072330.8964   23072338.6544
       174.0004        175.0004
  -5488709.27848  -4261963.27146  22809912.558    22809912.8474   22809933.4574
       171.0004        173.0004
 -18427931.65149 -14344375.77147  21195082.865    21195082.4244   21195089.6344
       203.0004        204.0004
  -3017795.11247  -2343299.85945  23340001.134    23340000.8794   23340006.2824
       155.0004        157.0004
 -24885612.30649 -19370734.98148  20114601.419    20114601.7344   20114606.0604
       215.0004        217.0004
  -2601641.03148  -2011362.66046  24237743.080    24237743.1184   24237752.2914
       173.0004        174.0004
  -7614448.50548  -5719745.36446  22608659.118    22608657.7164   22608664.2044
       175.0004        176.0004
  -6566822.31847  -5086709.23145  23827225.081    23827224.8774   23827230.1144
       159.0004        160.0004
 -21416301.86849 -16674672.61247  20749560.790    20749561.6564   20749569.2924
       200.0004        200.0004
 -14051439.12448 -10907684.91147  21900164.784    21900164.9624   21900169.9264
       191.0004        192.0004
 21  2  3  1  5 30.0000000  0 10G09G14G30G28G07G08G21G19G01G17
  -6695487.19648  -5186586.21846  23087591.941    23087591.9324   23087599.4784
       172.0004        171.0004
  -5519588.43048  -4286024.92946  22804036.704    22804037.2824   22804056.7594
       171.0004        172.0004
 -18495026.70949 -14396657.64747  21182314.765    21182314.4834   21182321.4134
       203.0004        204.0004
  -3038694.47947  -2359585.07145  23336024.064    23336023.1774   23336029.4314
       155.0004        158.0004
 -24902600.39749 -19383972.46748  20111367.543    20111368.3944   20111373.2274
       215.0004        216.0004
  -2509726.19848  -1939740.74346  24255235.581    24255234.7214   24255242.2614
       173.0004        174.0004
  -7548972.04248  -5668724.76046  22621117.376    22621117.6564   22621123.6364
       176.0004        176.0004
  -6642830.41147  -5145936.27446  23812761.912    23812761.6144   23812766.5634
       160.0004        163.0004
 -21417826.50149 -16675860.63547  20749270.559    20749271.3734   20749278.6214
       200.0004        200.0004
 -14086895.22848 -10935313.05847  21893417.676    21893417.6784   21893422.6574
       191.0004        191.0004
 21  2  3  1  6  0.0000000  0 10G09G14G30G28G07G08G21G19G01G17
  -6615268.26748  -5124077.97846  23102858.148    23102857.9264   23102865.0484
       171.0004        172.0004
  -5550542.90048  -4310145.28646  22798145.861    22798145.5934   22798165.9124
       171.0004        171.0004
 -18561787.60149 -14448679.12447  21169610.422    21169610.6834   21169617.6554
       204.0004        205.0004
  -3059705.90247  -2375957.61345  23332026.057    23332025.9304   23332029.6004
       154.0004        156.0004
 -24919056.83149 -19396795.66548  20108236.972    20108237.2814   20108241.7464
       215.0004        217.0004
  -2417911.95148  -1868197.19146  24272704.825    24272705.8084   24272714.3904
       173.0004        173.0004
  -7483086.52148  -5617385.39946  22633655.428    22633655.0264   22633661.0164
       176.0004        176.0004
  -6718548.78747  -5204937.54845  23798354.008    23798352.1264   23798357.0984
       160.0004        162.0004
 -21418747.57449 -16676578.34847  20749095.254    20749096.1404   20749103.5064
       200.0004        200.0004
 -14121938.08448 -10962619.18447  21886749.004    21886749.6824   21886754.8374
       190.0004        191.0004
 21  2  3  1  6 30.0000000  0 10G09G14G30G28G07G08G21G19G01G17
  -6535034.84848  -5061558.45646  23118125.212    23118125.3194   23118133.2944
       171.0004        171.0004
  -5581572.04648  -4334323.83746  22792240.653    22792241.1824   22792261.4064
       170.0004        170.0004
 -18628210.79149 -14500437.45447  21156970.831    21156970.7694   21156977.8394
       205.0004        206.0004
  -3080829.07647  -2392417.21645  23328004.742    23328004.8864   23328011.3274
       153.0004        156.0004
 -24934979.21149 -19409202.71548  20105206.967    20105207.3034   20105211.5674
       215.0004        217.0004
  -2326198.50548  -1796732.20546  24290158.881    24290158.6784   24290167.0584
       172.0004        172.0004
  -7416792.90748  -5565728.03946  22646271.443    22646270.9334   22646276.2534
       176.0004        176.0004
  -6793975.37147  -5263711.46345  23783998.694    23783998.4594   23784004.0674
       161.0004        162.0004
 -21419063.47249 -16676824.49547  20749035.989    20749036.2794   20749043.7454
       200.0004        201.0004
 -14156567.42748 -10989603.08047  21880158.533    21880159.4374   21880164.2514
       190.0004        191.0004
 21  2  3  1  7  0.0000000  0 10G09G14G30G28G07G08G21G19G01G17
  -6454790.26248  -4999030.21746  23133395.501    23133396.0914   23133402.9004
       170.0004        170.0004
  -5612676.62748  -4358561.16446  22786321.594    22786321.7244   22786342.0634
       169.0004        170.0004
 -18694294.19149 -14551931.00447  21144395.378    21144395.2554   21144402.6754
       205.0004        205.0004
  -3102065.30147  -2408964.90545  23323965.989    23323965.5164   23323970.3164
       155.0004        159.0004
 -24950366.38049 -19421192.71648  20102278.357    20102279.0884   20102283.6474
       215.0004        217.0004
  -2234588.08848  -1725347.47446  24307590.471    24307591.0244   24307599.8154
       171.0004        173.0004
  -7350093.93948  -5513754.80146  22658963.668    22658963.3154   22658969.4794
       176.0004        176.0004
  -6869109.93247  -5322257.82945  23769701.898    23769701.0744   23769704.9274
       160.0004        162.0004
 -21418773.99049 -16676598.91147  20749090.803    20749091.1754   20749099.2054
       201.0004        201.0004
 -14190784.00348 -11016265.35147  21873648.631    21873648.7644   21873653.3794
       191.0004        191.0004
 21  2  3  1  7 30.0000000  0 10G09G14G30G28G07G08G21G19G01G17
  -6374536.81048  -4936495.05846  23148667.131    23148666.9134   23148674.4834
       169.0004        169.0004
  -5643856.30548  -4382857.01246  22780389.357    22780389.5864   22780408.5044
       169.0004        170.0004
 -18760034.67349 -14603157.35647  21131885.099    21131885.2834   21131892.1344
       205.0004        206.0004
  -3123414.75347  -2425600.82245  23319901.309    23319901.5044   23319907.5064
       154.0004        156.0004
 -24965216.50349 -19432764.24448  20099452.912    20099453.3454   20099457.6204
       215.0004        217.0004
  -2143081.76048  -1654043.86246  24325004.826    24325004.2934   24325012.1304
       169.0004        169.0004
  -7282990.59148  -5461466.49046  22671732.231    22671731.8784   22671738.2294
       175.0004        176.0004
  -6943950.81147  -5380575.37046  23755461.075    23755460.1914   23755463.8974
       162.0004        165.0004
 -21417877.90049 -16675900.64847  20749260.896    20749261.6854   20749269.2484
       201.0004        201.0004
 -14224588.04848 -11042606.15347  21867215.251    21867215.5244   21867220.3824
       190.0004        191.0004
 21  2  3  1  8  0.0000000  0 10G09G14G30G28G07G08G21G19G01G17
  -6294277.76148  -4873955.57346  23163939.024    23163939.7444   23163948.1064
       168.0004        170.0004
  -5675111.92348  -4407212.04146  22774440.834    22774441.4204   22774459.8894
       169.0004        169.0004
 -18825430.20949 -14654114.92947  21119441.234    21119441.3024   21119448.0074
       206.0004        206.0004
  -3144878.50847  -2442325.83245  23315818.529    23315818.7634   23315822.5344
       153.0004        158.0004
 -24979528.33749 -19443916.34548  20096729.834    20096730.0364   20096734.3064
       216.0004        217.0004
  -2051682.01648  -1582823.30546  24342398.149    24342397.6404   24342405.1604
       168.0004        170.0004
  -7215485.70348  -5408865.28546  22684578.444    22684577.7924   22684584.9164
       175.0004        177.0004
  -7018497.76847  -5438663.83846  23741275.562    23741274.6184   23741278.3834
       164.0004        166.0004
 -21416375.19949 -16674729.70947  20749547.266    20749547.5844   20749555.0274
       201.0004        200.0004
 -14257980.76248 -11068626.47647  21860861.303    21860861.0364   21860866.1554
       191.0004        191.0004
 21  2  3  1  8 30.0000000  0 10G09G14G30G28G07G08G21G19G01G17
  -6214015.87648  -4811413.84946  23179212.378    23179212.9354   23179221.7744
       170.0004        173.0004
  -5706443.57948  -4431626.30646  22768477.792    22768478.5424   22768499.0204
       168.0004        169.0004
 -18890478.08749 -14704801.58347  21107063.206    21107063.3594   21107069.8784
       206.0004        207.0004
  -3166457.54947  -2459140.66345  23311711.199    23311710.3414   23311716.5904
       153.0004        156.0004
 -24993300.47449 -19454647.88348  20094108.159    20094108.8944   20094113.5734
       215.0004        217.0004
  -1960390.56848  -1511687.12946  24359768.201    24359768.5964   24359778.1504
       168.0004        169.0004
  -7147580.83948  -5355952.40046  22697500.769    22697500.0804   22697505.8884
       175.0004        176.0004
  -7092750.07047  -5496522.75446  23727143.475    23727143.1554   23727148.1044
       163.0004        164.0004
 -21414265.12949 -16673085.49047  20749948.523    20749949.0784   20749956.8554
       200.0004        200.0004
 -14290961.71248 -11094325.90147  21854584.641    21854585.5434   21854590.2184
       192.0004        192.0004
 21  2  3  1  9  0.0000000  0 10G09G14G30G28G07G08G21G19G01G17
  -6133752.76448  -4748871.17146  23194486.429    23194486.5704   23194493.4784
       170.0004        170.0004
  -5737850.29648  -4456099.07146  22762502.119    22762502.7424   22762521.7354
       168.0004        169.0004
 -18955174.56349 -14755214.41647  21094751.978    21094751.5984   21094758.3944
       206.0004        207.0004
  -3188151.35547  -2476044.89345  23307582.137    23307582.7854   23307587.7004
       154.0004        157.0004
 -25006530.31949 -19464956.85248  20091591.290    20091591.6874   20091595.9904
       215.0004        217.0004
  -1869207.84148  -1440635.71646  24377120.141    24377120.9234   24377128.3664
       168.0004        169.0004
  -7079276.90048  -5302728.55146  22710498.756    22710498.0704   22710503.7544
       174.0004        174.0004
  -7166705.22847  -5554150.10046  23713071.271    23713071.2804   23713074.7954
       163.0004        165.0004
 -21411545.97149 -16670966.64447  20750466.130    20750466.6444   20750474.2484
       200.0004        201.0004
 -14323531.40948 -11119704.86847  21848386.752    21848387.5234   21848392.1484
       191.0004        191.0004
 21  2  3  1  9 30.0000000  0 10G09G14G30G28G07G08G21G19G01G17
  -6053492.07048  -4686330.41046  23209759.633    23209760.5104   23209766.5514
       168.0004        168.0004
  -5769333.09648  -4480631.12946  22756511.212    22756511.5704   22756531.8264
       169.0004        170.0004
 -19019517.86049 -14805352.06147  21082507.214    21082507.7474   21082514.5144
       207.0004        207.0004
  -3209961.43247  -2493039.77445  23303434.482    23303434.3014   23303438.2484
       157.0004        161.0004
 -25019217.13749 -19474842.71148  20089176.494    20089177.3554   20089181.8664
       216.0004        217.0004
  -1778135.95348  -1369670.61046  24394448.989    24394449.9884   24394459.6114
       167.0004        168.0004
  -7010576.52048  -5249195.81446  22723571.182    22723571.1984   22723576.7254
       173.0004        174.0004
  -7240363.50847  -5611546.11346  23699055.061    23699054.4944   23699057.6504
       164.0004        165.0004
 -21408218.00349 -16668373.42747  20751099.582    20751099.8374   20751107.2224
       200.0004        200.0004
 -14355690.85448 -11144764.16047  21842267.660    21842267.6804   21842272.4474
       192.0004        192.0004
 21  2  3  1 10  0.0000000  0 10G09G14G30G28G07G08G21G19G01G17
  -5973236.81548  -4623793.90246  23225033.034    23225033.0874   23225039.5214
       167.0004        168.0004
  -5800892.45948  -4505222.80746  22750504.916    22750505.5834   22750526.4964
       170.0004        172.0004
 -19083505.71449 -14855212.73047  21070331.064    21070331.2164   21070337.9814
       207.0004        207.0004
  -3231888.59747  -2510125.84545  23299259.996    23299259.4184   23299266.0904
       156.0004        157.0004
 -25031359.72149 -19484304.47848  20086866.365    20086866.6744   20086871.2504
       216.0004        217.0004
  -1687177.07248  -1298793.61746  24411761.507    24411760.9614   24411768.0284
       168.0004        170.0004
  -6941481.74348  -5195355.71846  22736719.902    22736719.4224   22736724.9224
       173.0004        174.0004
  -7313724.19848  -5668710.24146  23685094.717    23685094.6124   23685098.8704
       165.0004        167.0004
 -21404280.95749 -16665305.60247  20751847.833    20751848.8294   20751856.2784
       200.0004        200.0004
 -14387440.98448 -11169504.49247  21836226.001    21836226.1864   21836230.9434
       193.0004        194.0004
 21  2  3  1 10 30.0000000  0 10G09G14G30G28G07G08G21G19G01G17
  -5892990.18948  -4561264.10546  23240302.236    23240303.1764   23240310.8934
       167.0004        168.0004
  -5832528.92348  -4529874.60146  22744485.701    22744486.3484   22744505.7834
       171.0004        172.0004
 -19147135.95649 -14904794.73247  21058222.822    21058222.7534   21058229.4434
       207.0004        208.0004
  -3253934.35847  -2527304.35045  23295063.778    23295064.9534   23295070.1904
       154.0004        157.0004
 -25042957.41649 -19493341.63648  20084658.973    20084659.5644   20084664.0334
       216.0004        217.0004
  -1596333.19648  -1228006.15746  24429047.360    24429047.5174   24429056.7864
       170.0004        172.0004
  -6871995.26348  -5141210.39146  22749942.619    22749941.3444   22749947.0584
       172.0004        172.0004
  -7386786.88547  -5725642.15945  23671191.327    23671190.6024   23671194.8314
       163.0004        162.0004
 -21399734.78849 -16661763.11347  20752713.715    20752714.2904   20752721.5994
       200.0004        201.0004
 -14418782.61448 -11193926.49947  21830262.124    21830262.0884   21830266.2404
       194.0004        193.0004
 21  2  3  1 11  0.0000000  0 10G09G14G30G28G07G08G21G19G01G17
  -5812753.81448  -4498742.28846  23255570.367    23255570.3434   23255579.7384
       167.0004        168.0004
  -5864241.65348  -4554585.81946  22738450.121    22738450.9244   22738471.1074
       171.0004        172.0004
 -19210404.99349 -14954095.29247  21046182.768    21046182.6254   21046189.8934
       208.0004        207.0004
  -3276098.17647  -2544574.84845  23290847.234    23290847.5934   23290852.4054
       156.0004        159.0004
 -25054007.71849 -19501952.27948  20082556.711    20082556.8494   20082561.3004
       216.0004        217.0004
  -1505604.44548  -1157308.45346  24446313.392    24446312.7514   24446321.2144
       170.0004        171.0004
  -6802118.15348  -5086760.70946  22763237.905    22763239.0454   22763245.1894
       170.0004        169.0004
  -7459549.85847  -5782340.54646  23657345.412    23657343.9584   23657348.2574
       162.0004        164.0004
 -21394577.98149 -16657744.82747  20753694.963    20753695.6044   20753703.1424
       200.0004        201.0004
 -14449715.54848 -11218030.07047  21824374.836    21824375.4424   21824379.9524
       193.0004        192.0004
 21  2  3  1 11 30.0000000  0 10G09G14G30G28G07G08G21G19G01G17
  -5732529.93648  -4436230.19246  23270836.194    23270837.1934   23270845.7364
       167.0004        169.0004
  -5896030.17448  -4579356.08646  22732401.635    22732401.7084   22732422.7244
       171.0004        172.0004
 -19273309.66449 -15003111.91647  21034211.853    21034212.4114   21034219.8554
       207.0004        207.0004
  -3298379.78647  -2561937.11645  23286608.744    23286608.2604   23286612.5604
       156.0004        159.0004
 -25064508.90249 -19510135.02248  20080557.820    20080558.6924   20080562.7844
       215.0004        217.0004
  -1414992.24048  -1086701.54446  24463555.137    24463555.5134   24463565.2314
       171.0004        172.0004
  -6731851.77148  -5032007.66846  22776610.357    22776610.2784   22776616.1694
       169.0004        170.0004
  -7532011.55947  -5838804.15746  23643557.151    23643555.6704   23643560.0864
       164.0004        166.0004
 -21388809.53249 -16653249.91447  20754793.181    20754793.3384   20754800.3144
       201.0004        201.0004
 -14480239.86748 -11241815.25147  21818566.244    21818566.6024   21818571.4194
       192.0004        191.0004
 21  2  3  1 12  0.0000000  0 10G09G14G30G28G07G08G21G19G01G17
  -5652322.15548  -4373730.64146  23286100.779    23286100.9864   23286108.3714
       167.0004        169.0004
  -5927895.48048  -4604186.17246  22726337.522    22726338.3794   22726357.9094
       171.0004        172.0004
 -19335848.26149 -15051843.29947  21022311.977    21022311.5624   21022318.5874
       207.0004        207.0004
  -3320781.28747  -2579392.80545  23282345.402    23282345.1404   23282349.7514
       155.0004        157.0004
 -25074460.21949 -19517889.30248  20078664.690    20078664.9934   20078669.2874
       216.0004        217.0004
  -1324498.83048  -1016187.22746  24480771.745    24480773.7834   24480785.5794
       169.0004        169.0004
  -6661198.86548  -4976953.45846  22790055.493    22790055.4494   22790059.6964
       169.0004        170.0004
  -7604172.18347  -5895033.15946  23629823.949    23629822.9464   23629828.2594
       163.0004        164.0004
 -21382429.89949 -16648278.75947  20756006.364    20756007.2784   20756014.8104
       201.0004        201.0004
 -14510357.18748 -11265283.27947  21812835.241    21812835.5254   21812840.3854
       192.0004        192.0004
 21  2  3  1 12 30.0000000  0 10G09G14G30G28G07G08G21G19G01G17
  -5572133.03648  -4311245.60946  23301358.467    23301359.2614   23301366.7234
       180.0004        183.0004
  -5959837.58348  -4629076.10946  22720259.337    22720259.4984   22720279.1554
       170.0004        169.0004
 -19398018.15049 -15100287.37547  21010481.743    21010481.4084   21010488.4054
       208.0004        208.0004
  -3343303.09247  -2596942.23445  23278058.753    23278058.8064   23278063.8444
       155.0004        157.0004
 -25083860.23649 -19525213.99548  20076875.788    20076876.1944   20076880.6654
       216.0004        217.0004
  -1234125.70248   -945766.64646  24497973.163    24497972.6704   24497980.1474
       165.0004        166.0004
  -6590161.10248  -4921599.33746  22803574.215    22803573.6724   22803577.9764
       169.0004        170.0004
  -7676030.63047  -5951026.76946  23616149.978    23616149.3054   23616154.7184
       163.0004        164.0004
 -21375438.61249 -16642831.00347  20757337.236    20757337.7754   20757345.0134
       200.0004        200.0004
 -14540068.00048 -11288434.54747  21807181.382    21807181.6524   21807187.0564
       193.0004        194.0004
 21  2  3  1 13  0.0000000  0 10G09G14G30G28G07G08G21G19G01G17
  -5491965.36648  -4248777.32946  23316614.666    23316614.7134   23316622.5644
       183.0004        184.0004
  -5991856.66348  -4654026.00146  22714164.779    22714165.6944   22714186.0304
       168.0004        168.0004
 -19459816.81249 -15148442.17447  20998721.000    20998721.3724   20998728.1274
       208.0004        208.0004
  -3365945.65247  -2614585.78245  23273749.386    23273749.5954   23273754.4994
       155.0004        158.0004
 -25092707.92749 -19532108.30448  20075192.256    20075192.5444   20075197.0834
       216.0004        217.0004
  -1143874.57248   -875441.07546  24515146.473    24515147.8604   24515155.1544
       166.0004        167.0004
  -6518740.91548  -4865947.23146  22817164.285    22817163.8164   22817168.4134
       168.0004        168.0004
  -7747586.21347  -6006784.31246  23602533.941    23602533.6854   23602536.8644
       164.0004        164.0004
 -21367835.33549 -16636906.35247  20758783.880    20758784.3914   20758792.0784
       200.0004        200.0004
 -14569372.91248 -11311269.52247  21801604.586    21801605.2034   21801610.4434
       193.0004        194.0004
 21  2  3  1 13 30.0000000  0 10G09G14G30G28G07G08G21G19G01G17
  -5411820.93748  -4186327.16047  23331865.514    23331866.0144   23331873.5144
       192.0004        198.0004
  -6023951.85548  -4679035.26146  22708058.586    22708059.3484   22708078.9914
       168.0004        170.0004
 -19521240.76749 -15196305.01147  20987032.721    20987032.9804   20987039.6034
       208.0004        208.0004
  -3388708.71647  -2632323.25345  23269419.300    23269418.6764   23269422.5924
       156.0004        158.0004
 -25101001.01049 -19538570.46248  20073614.014    20073614.4734   20073618.8524
       216.0004        217.0004
  -1053745.79547   -805210.91246  24532298.681    24532297.7314   24532305.9164
       162.0004        163.0004
  -6446939.47548  -4809998.07346  22830826.559    22830827.0894   22830831.6174
       167.0004        167.0004
  -7818837.48947  -6062304.76845  23588974.928    23588973.9604   23588978.3644
       162.0004        162.0004
 -21359618.88449 -16630503.91847  20760348.135    20760348.0334   20760355.8214
       200.0004        200.0004
 -14598271.97548 -11333788.26847  21796105.449    21796106.0464   21796111.0264
       194.0004        194.0004
 21  2  3  1 14  0.0000000  0 10G09G14G30G28G07G08G21G19G01G17
  -5331703.37649  -4123897.91447  23347111.314    23347112.0314   23347119.6264
       197.0004        199.0004
  -6056124.19848  -4704104.61546  22701936.765    22701936.9134   22701956.4684
       170.0004        171.0004
 -19582288.43349 -15243874.62147  20975416.155    20975416.0004   20975423.0804
       208.0004        209.0004
  -3411593.83047  -2650155.76945  23265062.873    23265062.9094   23265068.8444
       156.0004        158.0004
 -25108739.19649 -19544600.22848  20072141.524    20072142.0494   20072146.1364
       216.0004        217.0004
   -963741.95947   -735078.07446  24549426.125    24549426.6844   24549433.6164
       163.0004        165.0004
  -6374759.93248  -4753754.25246  22844564.330    22844563.5994   22844566.9284
       167.0004        167.0004
  -7889784.30947  -6117587.97346  23575473.455    23575473.0074   23575478.4274
       163.0004        165.0004
 -21350789.86949 -16623624.14847  20762027.336    20762028.2144   20762035.5754
       200.0004        200.0004
 -14626766.59048 -11355991.84947  21790683.948    21790684.1304   21790688.9994
       194.0004        194.0004
 21  2  3  1 14 30.0000000  0 10G09G14G30G28G07G08G21G19G01G17
  -5251614.81749  -4061491.27847  23362352.232    23362352.3514   23362359.7004
       197.0004        197.0004
  -6088373.22848  -4729233.69646  22695799.337    22695799.7724   22695820.1324
       170.0004        171.0004
 -19642956.71849 -15291148.61947  20963870.912    20963870.9964   20963878.0734
       209.0004        209.0004
  -3434601.04647  -2668083.47845  23260685.279    23260685.2104   23260690.2154
       157.0004        159.0004
 -25115920.84149 -19550196.33148  20070774.740    20070775.3254   20070779.8794
       216.0004        217.0004
   -873863.77947   -665043.21046  24566528.536    24566529.1444   24566538.0074
       164.0004        166.0004
  -6302203.04348  -4697216.41746  22858370.908    22858370.5744   22858373.2374
       166.0004        166.0004
  -7960425.74047  -6172633.23146  23562030.596    23562030.2894   23562035.0894
       163.0004        165.0004
 -21341347.49849 -16616266.46147  20763824.090    20763825.3044   20763832.6974
       200.0004        200.0004
 -14654857.42248 -11377880.80647  21785337.583    21785338.4754   21785343.2384
       194.0004        194.0004
 21  2  3  1 15  0.0000000  0 10G09G14G30G28G07G08G21G19G01G17
  -5171558.09749  -3999109.42247  23377586.763    23377587.2224   23377593.4764
       198.0004        198.0004
  -6120699.16448  -4754422.74246  22689647.629    22689648.8744   22689667.8374
       170.0004        170.0004
 -19703243.34049 -15338125.19547  20952398.332    20952398.5504   20952405.4424
       208.0004        208.0004
  -3457731.22247  -2686106.95145  23256284.010    23256284.0664   23256289.6204
       159.0004        162.0004
 -25122545.06049 -19555358.04948  20069514.028    20069514.5634   20069519.2074
       216.0004        217.0004
   -784112.90747   -595107.48646  24583609.299    24583608.9364   24583615.8694
       164.0004        165.0004
  -6229271.33048  -4640386.49046  22872248.442    22872248.2574   22872252.0424
       165.0004        167.0004
  -8030761.03747  -6227439.90946  23548647.271    23548647.1774   23548651.3684
       163.0004        166.0004
 -21331291.77749 -16608430.80047  20765737.215    20765737.9964   20765746.0154
       200.0004        200.0004
 -14682545.04448 -11399455.54647  21780068.965    21780069.3424   21780074.1084
       194.0004        194.0004
 21  2  3  1 15 30.0000000  0 10G09G14G30G28G07G08G21G19G01G17
  -5091535.97549  -3936754.55247  23392814.731    23392814.9124   23392821.4444
       198.0004        199.0004
  -6153102.18048  -4779671.84546  22683482.226    22683482.9244   22683502.4704
       169.0004        170.0004
 -19763145.87049 -15384802.49547  20940999.762    20940999.7534   20941006.5284
       208.0004        208.0004
  -3480984.90247  -2704226.69545  23251858.777    23251858.7224   23251864.1764
       159.0004        161.0004
 -25128610.58049 -19560084.43248  20068360.135    20068360.7254   20068364.6464
       216.0004        217.0004
   -694491.27147   -525272.46346  24600661.281    24600662.2404   24600671.3424
       162.0004        164.0004
  -6155967.44348  -4583266.56846  22886197.594    22886196.7894   22886201.1014
       165.0004        166.0004
  -8100789.50147  -6282007.52946  23535320.788    23535320.7854   23535324.6064
       162.0004        164.0004
 -21320622.56949 -16600117.13247  20767768.037    20767768.8924   20767776.0264
       200.0004        200.0004
 -14709830.50848 -11420716.93147  21774876.787    21774877.0664   21774881.9974
       194.0004        194.0004
 21  2  3  1 16  0.0000000  0 10G09G14G30G28G07G08G21G19G01G17
  -5011549.91149  -3874427.72547  23408034.421    23408035.4214   23408041.6874
       197.0004        196.0004
  -6185581.05848  -4804980.02646  22677300.055    22677301.2164   22677321.9754
       169.0004        169.0004
 -19822660.49949 -15431177.53347  20929674.660    20929674.6364   20929681.4234
       208.0004        208.0004
  -3504361.48847  -2722442.19845  23247410.726    23247410.7114   23247415.0634
       158.0004        160.0004
 -25134114.90549 -19564373.52548  20067312.971    20067313.2054   20067317.5234
       216.0004        217.0004
   -604999.03047   -455538.26446  24617687.800    24617690.7644   24617701.4834
       162.0004        163.0004
  -6082291.96648  -4525857.09446  22900217.264    22900218.1544   22900221.8054
       165.0004        168.0004
  -8170509.28747  -6336334.59445  23522053.230    23522053.2274   23522056.6704
       162.0004        162.0004
 -21309338.48949 -16591324.32847  20769914.609    20769915.2954   20769923.2324
       199.0004        199.0004
 -14736713.34948 -11441664.58147  21769761.098    21769761.4034   21769766.1844
       193.0004        194.0004
 21  2  3  1 16 30.0000000  0 10G09G14G30G28G07G08G21G19G01G17
  -4931602.66449  -3812131.15847  23423248.028    23423248.5084   23423256.2624
       196.0004        195.0004
  -6218135.93448  -4830347.45646  22671105.254    22671106.5214   22671125.8704
       169.0004        170.0004
 -19881784.90249 -15477248.50447  20918423.218    20918423.5574   20918430.2774
       209.0004        209.0004
  -3527861.82547  -2740754.12845  23242938.708    23242938.6244   23242942.8644
       159.0004        162.0004
 -25139057.61349 -19568224.98548  20066372.026    20066372.4914   20066376.9364
       216.0004        217.0004
   -515637.23857   -385905.77546  24634692.881    24634695.5975   24634706.0304
       161.0004        163.0004
  -6008247.10748  -4468159.82546  22914308.441    22914307.9674   22914312.4914
       165.0004        167.0004
  -8239919.83547  -6390420.72446  23508846.198    23508844.7364   23508847.7894
       161.0004        163.0004
 -21297439.51849 -16582052.38647  20772179.016    20772179.7664   20772187.4454
       199.0004        200.0004
 -14763194.13948 -11462298.95747  21764721.654    21764721.9384   21764726.7674
       193.0004        194.0004
 21  2  3  1 17  0.0000000  0 10G09G14G30G28G07G08G21G19G01G17
  -4851698.00449  -3749867.81447  23438453.672    23438454.4614   23438461.6434
       195.0004        196.0004
  -6250767.92448  -4855774.97646  22664897.590    22664897.5594   22664917.1594
       171.0004        174.0004
 -19940517.72649 -15523014.32947  20907247.024    20907247.0434   20907254.2224
       208.0004        209.0004
  -3551487.32747  -2759163.60845  23238443.163    23238442.6994   23238446.8534
       160.0004        162.0004
 -25143438.25349 -19571638.47648  20065538.544    20065538.9914   20065543.1534
       216.0004        217.0004
   -426408.69147   -316377.01846  24651674.445    24651675.8104   24651684.9364
       164.0004        166.0004
  -5933836.10048  -4410177.21346  22928468.989    22928468.3424   22928472.2684
       166.0004        168.0004
  -8309021.90147  -6444266.46646  23495695.489    23495695.3944   23495699.4264
       162.0004        165.0004
 -21284926.67449 -16572302.11447  20774560.386    20774561.2984   20774568.7514
       199.0004        200.0004
 -14789275.63448 -11482622.18547  21759758.883    21759759.1044   21759763.9014
       194.0004        194.0004
 21  2  3  1 17 30.0000000  0 10G09G14G30G28G07G08G21G19G01G17
  -4771838.16749  -3687639.39047  23453650.046    23453650.7934   23453659.3594
       196.0004        197.0004
  -6283476.62248  -4881262.25246  22658673.262    22658673.8954   22658692.9804
       175.0004        177.0004
 -19998856.03349 -15568472.74147  20896145.346    20896145.5924   20896152.6764
       209.0004        209.0004
  -3575238.29647  -2777670.82745  23233922.800    23233923.6644   23233928.8114
       159.0004        160.0004
 -25147255.37149 -19574612.85448  20064812.274    20064812.7154   20064816.9184
       216.0004        217.0004
   -337314.77247   -246953.23646  24668632.765    24668632.5454   24668638.1844
       164.0004        166.0004
  -5859060.48148  -4351910.47746  22942696.862    22942696.8384   22942701.8034
       165.0004        167.0004
  -8377813.78547  -6497870.49646  23482605.326    23482603.5664   23482607.7474
       163.0004        164.0004
 -21271799.45549 -16562073.09647  20777059.085    20777059.7214   20777066.8384
       200.0004        200.0004
 -14814957.87049 -11502634.28447  21754871.859    21754871.7664   21754876.8214
       195.0004        195.0004
 21  2  3  1 18  0.0000000  0 10G09G14G30G28G07G08G21G19G01G17
  -4692026.81949  -3625448.75347  23468838.385    23468838.2734   23468846.7804
       198.0004        198.0004
  -6316263.08648  -4906810.14246  22652434.538    22652434.7054   22652453.6464
       176.0004        176.0004
 -20056798.43249 -15613622.67047  20885118.777    20885119.3864   20885126.1754
       208.0004        208.0004
  -3599116.07647  -2796276.89645  23229380.964    23229379.4634   23229384.4814
       159.0004        161.0004
 -25150509.16849 -19577148.29548  20064192.893    20064193.2274   20064197.8974
       216.0004        217.0004
   -248357.75948   -177636.09746  24685559.912    24685559.9234   24685567.2574
       166.0004        168.0004
  -5783923.90648  -4293362.49246  22956995.549    22956994.4694   22956999.6344
       166.0004        169.0004
  -8446296.13847  -6551233.36846  23469573.057    23469572.6704   23469576.4104
       162.0004        165.0004
 -21258058.89149 -16551366.15947  20779673.372    20779673.7294   20779681.4354
       199.0004        199.0004
 -14840242.90448 -11522336.90347  21750060.226    21750060.5954   21750064.9274
       194.0004        195.0004
 21  2  3  1 18 30.0000000  0 10G09G14G30G28G07G08G21G19G01G17
  -4612265.35049  -3563296.97047  23484016.061    23484016.7494   23484024.4174
       198.0004        196.0004
  -6349126.08448  -4932417.65346  22646179.738    22646180.3934   22646200.1194
       176.0004        175.0004
 -20114341.23049 -15658461.21747  20874170.075    20874169.6114   20874176.5654
       209.0004        209.0004
  -3623120.17047  -2814981.37345  23224811.212    23224811.8424   23224815.6304
       160.0004        162.0004
 -25153197.41449 -19579243.03948  20063681.369    20063681.9074   20063686.1324
       216.0004        217.0004
   -159538.01447   -108425.93146  24702459.801    24702460.4844   24702469.1304
       164.0004        165.0004
  -5708426.75348  -4234533.53546  22971361.824    22971361.8534   22971367.2544
       168.0004        169.0004
  -8514467.30247  -6604353.72646  23456600.776    23456599.7444   23456603.9874
       163.0004        166.0004
 -21243703.74449 -16540180.31647  20782404.741    20782405.3974   20782413.5514
       199.0004        200.0004
 -14865130.24449 -11541729.62447  21745323.906    21745324.4054   21745329.1874
       195.0004        195.0004
 21  2  3  1 19  0.0000000  0 10G09G14G30G28G07G08G21G19G01G17
  -4532555.86149  -3501185.70147  23499184.283    23499184.8234   23499191.6124
       195.0004        193.0004
  -6382065.09348  -4958084.39846  22639911.991    22639912.1684   22639932.2644
       176.0004        176.0004
 -20171481.47549 -15702986.08147  20863295.337    20863295.8234   20863303.1704
       209.0004        209.0004
  -3647250.80447  -2833784.45346  23220220.179    23220220.0324   23220225.0514
       160.0004        163.0004
 -25155318.71449 -19580896.00648  20063277.984    20063278.4014   20063282.4774
       215.0004        217.0004
    -70855.86747    -39322.94446  24719335.848    24719335.9854   24719344.1064
       163.0004        164.0004
  -5632571.16148  -4175425.28846  22985795.876    22985796.4114   22985803.2344
       168.0004        169.0004
  -8582325.95847  -6657230.59146  23443687.022    23443687.0564   23443691.3284
       163.0004        166.0004
 -21228733.55849 -16528515.22847  20785253.224    20785254.2744   20785262.0904
       199.0004        199.0004
 -14889620.53249 -11560812.96547  21740663.910    21740664.2954   21740669.2724
       195.0004        195.0004
 21  2  3  1 19 30.0000000  0 10G09G14G30G28G07G08G21G19G01G17
  -4452900.83348  -3439116.85947  23514342.839    23514343.0514   23514350.1484
       194.0004        194.0004
  -6415079.92348  -4983810.21546  22633629.814    22633629.8944   22633649.7414
       175.0004        175.0004
 -20228216.60549 -15747195.27147  20852499.372    20852499.3224   20852506.5304
       208.0004        209.0004
  -3671507.77147  -2852685.97345  23215603.184    23215603.3414   23215607.6994
       160.0004        161.0004
 -25156872.02549 -19582106.39148  20062982.126    20062982.5774   20062987.0864
       215.0004        217.0004
     17687.20847     29671.64445  24736185.237    24736184.5524   24736193.8064
       160.0004        160.0004
  -5556359.34748  -4116039.46746  23000299.470    23000298.9164   23000305.3874
       168.0004        168.0004
  -8649871.37747  -6709863.36946  23430833.599    23430833.1794   23430837.1014
       164.0004        166.0004
 -21213148.22949 -16516370.81447  20788219.224    20788220.3294   20788227.8264
       199.0004        200.0004
 -14913714.34949 -11579587.37247  21736079.556    21736079.6514   21736083.7374
       195.0004        196.0004
 21  2  3  1 20  0.0000000  0  9G09G14G30G28G07G21G19G01G17
  -4373302.80448  -3377092.44847  23529489.634    23529489.9174   23529497.3704
       194.0004        194.0004
  -6448170.48148  -5009595.05646  22627332.891    22627333.0904   22627352.5254
       175.0004        176.0004
 -20284544.15649 -15791086.86647  20841780.897    20841781.0084   20841788.0164
       208.0004        209.0004
  -3695891.44347  -2871686.25545  23210964.315    23210963.8094   23210967.8254
       160.0004        161.0004
 -25157856.26049 -19582873.32548  20062795.024    20062795.2004   20062799.7514
       215.0004        217.0004
  -5479792.73048  -4056377.17146  23014869.861    23014868.9824   23014874.4784
       168.0004        169.0004
  -8717103.22747  -6762251.79546  23418040.021    23418039.8444   23418044.2894
       164.0004        165.0004
 -21196947.84749 -16503747.12547  20791302.522    20791303.0804   20791310.5924
       200.0004        200.0004
 -14937412.70248 -11598053.59547  21731569.025    21731569.3804   21731574.1184
       194.0004        194.0004
 21  2  3  1 20 30.0000000  0  9G09G14G30G28G07G21G19G01G17
  -4293762.76649  -3315113.21347  23544625.424    23544626.0954   23544633.6414
       195.0004        195.0004
  -6481335.11148  -5035437.61846  22621021.801    22621022.4744   22621041.0844
       176.0004        177.0004
 -20340460.12249 -15834657.75047  20831140.118    20831140.2814   20831147.3724
       208.0004        209.0004
  -3720401.24947  -2890784.77645  23206298.973    23206298.7734   23206303.3834
       160.0004        161.0004
 -25158268.84949 -19583194.83648  20062716.214    20062716.6754   20062721.1834
       215.0004        217.0004
  -5402872.73248  -3996439.50846  23029506.592    23029505.5044   23029512.2214
       167.0004        168.0004
  -8784018.93847  -6814393.90046  23405306.748    23405306.7224   23405310.1094
       164.0004        165.0004
 -21180130.85749 -16490642.97047  20794502.874    20794503.1874   20794511.0784
       199.0004        200.0004
 -14960714.97348 -11616211.20547  21727134.114    21727135.2374   21727140.3474
       194.0004        194.0004
 21  2  3  1 21  0.0000000  0  9G09G14G30G28G07G21G19G01G17
  -4214286.45648  -3253183.65747  23559749.186    23559749.5664   23559757.0194
       194.0004        192.0004
  -6514576.89148  -5061340.27746  22614696.201    22614696.7164   22614716.7244
       178.0004        179.0004
 -20395965.21749 -15877908.46747  20820578.510    20820578.5264   20820585.1484
       208.0004        209.0004
  -3745040.50847  -2909984.19545  23201611.301    23201610.7824   23201614.9354
       159.0004        161.0004
 -25158112.43349 -19583072.95148  20062745.684    20062746.2734   20062750.6884
       215.0004        216.0004
  -5325603.69648  -3936229.85946  23044211.530    23044210.1814   23044215.6984
       167.0004        168.0004
  -8850621.31647  -6866291.87345  23392631.246    23392630.6134   23392636.1324
       161.0004        162.0004
 -21162700.64749 -16477060.95747  20797818.428    20797819.6554   20797827.9654
       199.0004        199.0004
 -14983625.21049 -11634063.31847  21722775.648    21722775.5904   21722780.7574
       195.0004        196.0004
 21  2  3  1 21 30.0000000  0  9G09G14G30G28G07G21G19G01G17
  -4134876.12848  -3191305.53447  23574860.893    23574860.6644   23574868.0384
       192.0004        191.0004
  -6547895.41348  -5087302.77046  22608355.190    22608355.9914   22608376.4974
       178.0004        178.0004
 -20451056.71849 -15920836.92047  20810094.821    20810094.8694   20810101.4394
       209.0004        209.0004
  -3769809.21747  -2929284.48545  23196896.719    23196896.8434   23196901.7904
       159.0004        159.0004
 -25157385.41049 -19582506.46148  20062884.063    20062884.6414   20062889.0734
       215.0004        216.0004
  -5247988.16348  -3875750.23446  23058981.468    23058980.7164   23058985.2894
       166.0004        167.0004
  -8916909.58347  -6917945.06346  23380019.702    23380018.8974   23380022.3644
       163.0004        166.0004
 -21144657.01549 -16463000.97647  20801253.202    20801253.6984   20801261.6154
       199.0004        200.0004
 -15006144.16849 -11651610.56647  21718490.227    21718490.5754   21718495.1944
       196.0004        196.0004
 21  2  3  1 22  0.0000000  0  9G09G14G30G28G07G21G19G01G17
  -4055533.85448  -3129480.41847  23589958.761    23589959.1134   23589966.5824
       192.0004        192.0004
  -6581290.17048  -5113324.63946  22601999.865    22602000.4754   22602020.7384
       177.0004        175.0004
 -20505731.82249 -15963440.90947  20799689.794    20799690.0944   20799697.2654
       209.0004        209.0004
  -3794707.85947  -2948686.02445  23192159.087    23192158.9504   23192163.2374
       157.0004        159.0004
 -25156086.60949 -19581494.41648  20063131.356    20063131.7814   20063136.6054
       215.0004        216.0004
  -5170027.79448  -3815001.89746  23073816.091    23073815.9494   23073820.9034
       166.0004        167.0004
  -8982882.59747  -6969352.59946  23367463.693    23367463.4164   23367468.7544
       163.0004        164.0004
 -21125999.71849 -16448462.81747  20804803.018    20804803.6754   20804811.3634
       199.0004        199.0004
 -15028272.63749 -11668853.52647  21714278.744    21714279.0174   21714284.5184
       195.0004        195.0004
 21  2  3  1 22 30.0000000  0  9G09G14G30G28G07G21G19G01G17
  -3976261.14648  -3067709.46847  23605044.112    23605044.5864   23605053.1724
       193.0004        194.0004
  -6614759.95848  -5139404.97046  22595632.240    22595631.7634   22595650.1074
       175.0004        175.0004
 -20559987.05149 -16005717.68847  20789365.824    20789365.8864   20789372.8624
       209.0004        209.0004
  -3819735.54747  -2968188.08346  23187397.467    23187397.7464   23187401.9284
       160.0004        164.0004
 -25154214.37749 -19580035.52248  20063488.052    20063488.4994   20063492.8124
       215.0004        217.0004
  -5091724.00047  -3753985.92646  23088716.214    23088716.9944   23088721.2114
       164.0004        166.0004
  -9048538.96147  -7020513.38745  23354969.017    23354968.1244   23354973.3024
       161.0004        161.0004
 -21106727.98049 -16433445.84947  20808470.256    20808470.9434   20808478.7554
       199.0004        199.0004
 -15050010.52548 -11685792.11347  21710141.893    21710142.6064   21710146.9804
       194.0004        194.0004
 21  2  3  1 23  0.0000000  0  9G09G14G30G28G07G21G19G01G17
  -3897060.82548  -3005994.95947  23620116.717    23620115.7454   23620124.0034
       193.0004        193.0004
  -6648304.95748  -5165543.92046  22589249.010    22589248.6694   22589267.8304
       175.0004        176.0004
 -20613820.38049 -16047665.72947  20779121.402    20779121.5074   20779128.6584
       208.0004        209.0004
  -3844893.08547  -2987791.37046  23182610.081    23182609.5144   23182614.5164
       161.0004        163.0004
 -25151768.20649 -19578129.41948  20063953.403    20063953.8894   20063958.2104
       215.0004        216.0004
  -5013078.83248  -3692703.98946  23103684.265    23103682.8654   23103686.6774
       165.0004        166.0004
  -9113878.12847  -7071427.01545  23342536.906    23342535.8964   23342540.2494
       160.0004        162.0004
 -21086842.32749 -16417950.52047  20812254.449    20812255.1314   20812263.1974
       199.0004        199.0004
 -15071359.04348 -11702427.29347  21706079.825    21706080.3214   21706085.5724
       194.0004        195.0004
 21  2  3  1 23 30.0000000  0  9G09G14G30G28G07G21G19G01G17
  -3817937.05548  -2944340.13047  23635172.639    23635172.6964   23635179.9204
       191.0004        190.0004
  -6681926.67548  -5191742.67346  22582850.378    22582850.8474   22582869.5404
       175.0004        175.0004
 -20667231.07249 -16089284.45447  20768957.869    20768957.8124   20768965.1644
       209.0004        210.0004
  -3870182.30847  -3007497.22245  23177796.447    23177796.0044   23177802.2214
       160.0004        160.0004
 -25148749.17649 -19575776.92948  20064527.692    20064528.1764   20064532.6774
       215.0004        216.0004
  -4934096.70547  -3631159.47146  23118712.583    23118711.4974   23118714.9514
       164.0004        165.0004
  -9178901.59647  -7122094.65046  23330161.945    23330162.0014   23330166.8454
       160.0004        163.0004
 -21066344.74749 -16401978.37047  20816155.234    20816155.8644   20816163.6164
       199.0004        199.0004
 -15092320.87849 -11718761.17247  21702091.471    21702091.4494   21702096.4854
       196.0004        197.0004
 21  2  3  1 24  0.0000000  0  9G09G14G30G28G07G21G19G01G17
  -3738890.12348  -2882745.18947  23650213.245    23650213.8964   23650222.1284
       189.0004        188.0004
  -6715622.75348  -5217999.37646  22576437.608    22576438.5634   22576458.3484
       176.0004        177.0004
 -20720214.55749 -16130570.30247  20758875.052    20758875.1454   20758882.5174
       209.0004        209.0004
  -3895601.28947  -3027304.22245  23172959.048    23172959.4404   23172964.6254
       159.0004        162.0004
 -25145154.11949 -19572975.61848  20065211.947    20065212.5124   20065216.7664
       215.0004        216.0004
  -4854777.48847  -3569352.29946  23133806.377    23133806.2574   23133808.9084
       163.0004        164.0004
  -9243606.49147  -7172514.01746  23317849.490    23317848.8024   23317853.1334
       161.0004        163.0004
 -21045233.26849 -16385527.87947  20820172.817    20820173.2904   20820180.9164
       199.0004        199.0004
 -15112894.82149 -11734792.82747  21698176.224    21698176.6684   21698181.4614
       197.0004        198.0004
 21  2  3  1 24 30.0000000  0  9G09G14G30G28G07G21G19G01G17
  -3659922.40348  -2821211.92447  23665242.076    23665242.1114   23665249.6674
       189.0004        190.0004
  -6749392.87348  -5244313.74046  22570011.004    22570012.2884   22570031.9494
       176.0004        178.0004
 -20772768.32649 -16171521.29747  20748874.749    20748874.5604   20748882.0914
       209.0004        209.0004
  -3921150.54047  -3047212.74045  23168097.698    23168097.7894   23168102.2344
       159.0004        161.0004
 -25140982.20449 -19569724.77648  20066005.812    20066006.3554   20066010.5314
       215.0004        217.0004
  -4775123.19247  -3507283.99845  23148963.842    23148964.1214   23148966.3174
       162.0004        162.0004
  -9307992.11447  -7222684.60046  23305597.923    23305597.1644   23305601.4424
       163.0004        165.0004
 -21023508.16349 -16368599.21347  20824306.967    20824307.3134   20824314.8394
       198.0004        198.0004
 -15133081.97649 -11750523.06947  21694334.384    21694334.8224   21694339.6334
       196.0004        196.0004
 21  2  3  1 25  0.0000000  0  9G09G14G30G28G07G21G19G01G17
  -3581037.33448  -2759743.06147  23680253.758    23680253.7444   23680260.5824
       190.0004        190.0004
  -6783237.81648  -5270686.39946  22563571.281    22563571.3914   22563591.2384
       176.0004        176.0004
 -20824891.02349 -16212136.37747  20738955.918    20738956.0094   20738963.6754
       209.0004        210.0004
  -3946831.29347  -3067223.69345  23163210.446    23163211.2824   23163216.0684
       159.0004        161.0004
 -25136233.89249 -19566024.78848  20066910.114    20066910.1194   20066914.3844
       215.0004        217.0004
  -4695136.98047  -3444957.06246  23164184.673    23164185.0664   23164187.7474
       162.0004        164.0004
  -9372059.18247  -7272606.98846  23293405.798    23293405.3884   23293409.4594
       163.0004        164.0004
 -21001170.75849 -16351193.42947  20828557.702    20828558.6434   20828566.0904
       198.0004        199.0004
 -15152884.37849 -11765953.49547  21690566.592    21690566.8524   21690571.8954
       196.0004        196.0004
 21  2  3  1 25 30.0000000  0  9G09G14G30G28G07G21G19G01G17
  -3502236.54848  -2698339.89246  23695248.654    23695248.5054   23695256.1784
       188.0004        187.0004
  -6817156.59148  -5297116.60146  22557115.645    22557117.4184   22557136.5914
       177.0004        178.0004
 -20876579.52449 -16252413.13447  20729120.476    20729120.5604   20729127.6244
       210.0004        211.0004
  -3972643.25547  -3087336.88545  23158299.798    23158299.7164   23158304.1554
       159.0004        162.0004
 -25130907.41549 -19561874.29348  20067922.763    20067923.4044   20067928.2254
       215.0004        217.0004
  -4614820.50447  -3382372.78846  23179468.181    23179468.3174   23179471.9804
       163.0004        165.0004
  -9435806.62047  -7322280.31646  23281274.766    23281274.0714   23281280.0154
       163.0004        165.0004
 -20978220.64149 -16333310.21047  20832924.954    20832925.4394   20832933.3314
       199.0004        200.0004
 -15172302.59849 -11781084.56547  21686871.529    21686871.6584   21686876.3164
       195.0004        196.0004
 21  2  3  1 26  0.0000000  0  9G09G14G30G28G07G21G19G01G17
  -3423523.34648  -2637004.95546  23710225.709    23710225.4584   23710234.9584
       185.0004        185.0004
  -6851149.80548  -5323604.80846  22550648.484    22550649.3594   22550668.4034
       178.0004        180.0004
 -20927832.29449 -16292350.35947  20719367.366    20719367.3374   20719374.4254
       210.0004        211.0004
  -3998587.12547  -3107552.91345  23153362.576    23153362.3714   23153365.9314
       159.0004        162.0004
 -25125003.13349 -19557273.56048  20069046.469    20069047.0374   20069051.7844
       215.0004        216.0004
  -4534176.77947  -3319533.52946  23194815.864    23194814.7654   23194818.3204
       164.0004        166.0004
  -9499234.49547  -7371704.62546  23269204.879    23269204.3214   23269209.6164
       163.0004        165.0004
 -20954659.03749 -16314950.51747  20837408.729    20837409.3714   20837416.3634
       199.0004        198.0004
 -15191338.19349 -11795917.48147  21683248.671    21683249.4824   21683253.8024
       195.0004        195.0004
 21  2  3  1 26 30.0000000  0 10G09G14G30G28G07G21G19G01G22G17
  -3344900.82848  -2575740.69747  23725187.579    23725188.0344   23725196.0864
       187.0004        189.0004
  -6885217.85048  -5350151.33146  22544165.702    22544165.4944   22544185.4124
       180.0004        179.0004
 -20978647.70849 -16331946.78947  20709696.587    20709697.0384   20709704.6484
       210.0004        210.0004
  -4024664.17647  -3127872.70845  23148399.963    23148400.6784   23148404.6944
       159.0004        162.0004
 -25118521.27649 -19552222.77148  20070279.777    20070280.5504   20070284.8614
       215.0004        216.0004
  -4453208.58547  -3256441.41546  23210222.637    23210222.2404   23210226.9194
       163.0004        164.0004
  -9562342.94147  -7420880.02446  23257197.229    23257196.0744   23257199.4094
       164.0004        166.0004
 -20930487.05649 -16296115.19947  20842008.270    20842008.9444   20842016.0484
       198.0004        198.0004
  -4235454.42046  -3277604.70845  24784096.071    24784097.0624   24784099.9174
       133.0004        140.0004
 -15209993.02549 -11810453.69147  21679698.604    21679699.1214   21679703.6124
       195.0004        195.0004
 21  2  3  1 27  0.0000000  0 10G09G14G30G28G07G21G19G01G22G17
  -3266370.45648  -2514548.25847  23740132.380    23740132.3814   23740139.8344
       187.0004        188.0004
  -6919359.54848  -5376755.21646  22537668.016    22537668.6014   22537687.8954
       179.0004        179.0004
 -21029022.45249 -16371199.83047  20700111.381    20700111.3854   20700118.4924
       210.0004        211.0004
  -4050873.58147  -3148295.60145  23143412.845    23143412.9994   23143416.5444
       160.0004        162.0004
 -25111460.22049 -19546720.65848  20071624.307    20071624.5744   20071628.6924
       215.0004        217.0004
  -4371917.31847  -3193097.56246  23225691.861    23225690.8844   23225696.1904
       164.0004        166.0004
  -9625130.82047  -7469805.63146  23245248.798    23245248.3044   23245252.1444
       164.0004        166.0004
 -20905704.20849 -16276803.87147  20846724.194    20846724.6924   20846732.1794
       198.0004        198.0004
  -4257826.61046  -3295037.54045  24779839.683    24779839.0374   24779841.5694
       134.0004        140.0004
 -15228267.42649 -11824693.44747  21676221.614    21676221.4034   21676226.1384
       195.0004        196.0004
 21  2  3  1 27 30.0000000  0 10G09G14G30G28G07G21G19G01G22G17
  -3187933.81048  -2453428.83346  23755059.093    23755059.0764   23755066.0664
       187.0004        187.0004
  -6953573.81848  -5403415.71746  22531157.638    22531158.1814   22531176.8344
       178.0004        177.0004
 -21078953.44949 -16410107.12347  20690610.273    20690609.9084   20690616.8024
       211.0004        212.0004
  -4077215.01247  -3168821.40745  23138400.274    23138399.5604   23138404.7454
       160.0004        162.0004
 -25103818.47149 -19540766.06048  20073078.033    20073078.5564   20073082.9154
       215.0004        216.0004
  -4290304.61547  -3129503.26046  23241222.084    23241221.2674   23241227.4754
       163.0004        166.0004
  -9687596.54748  -7518480.23946  23233360.416    23233360.1854   23233365.0084
       165.0004        167.0004
 -20880310.23049 -16257016.36347  20851555.904    20851556.9124   20851564.9914
       198.0004        198.0004
  -4280100.43846  -3312393.79945  24775601.507    24775602.3494   24775605.1044
       134.0004        140.0004
 -15246161.74649 -11838637.05947  21672816.376    21672816.5634   21672821.2194
       196.0004        196.0004
 21  2  3  1 28  0.0000000  0 10G09G14G30G28G07G21G19G01G22G17
  -3109593.47248  -2392384.42246  23769964.200    23769964.4044   23769973.6574
       186.0004        185.0004
  -6987860.54048  -5430132.62846  22524632.195    22524632.6034   22524653.2884
       178.0004        178.0004
 -21128438.56249 -16448666.95047  20681192.709    20681192.9844   20681199.9634
       211.0004        211.0004
  -4103688.82347  -3189450.34145  23133361.702    23133361.4264   23133366.9724
       159.0004        161.0004
 -25095595.68349 -19534358.69048  20074642.228    20074642.9764   20074647.4724
       215.0004        216.0004
  -4208372.41047  -3065659.97846  23256813.352    23256812.3374   23256817.6904
       164.0004        165.0004
  -9749740.34948  -7566903.99046  23221536.229    23221535.3634   23221539.1234
       167.0004        169.0004
 -20854305.77249 -16236753.14047  20856505.282    20856505.9874   20856512.7514
       198.0004        198.0004
  -4302273.58847  -3329671.58045  24771381.197    24771381.5964   24771385.5384
       135.0004        141.0004
 -15263677.24549 -11852285.46847  21669483.268    21669483.5034   21669487.9964
       196.0004        198.0004
 21  2  3  1 28 30.0000000  0 10G09G14G30G28G07G21G19G01G22G17
  -3031352.21748  -2331417.25347  23784854.548    23784854.9884   23784862.5574
       186.0004        188.0004
  -7022219.89848  -5456906.12846  22518094.368    22518094.6164   22518114.7024
       179.0004        179.0004
 -21177475.99049 -16486877.93847  20671861.518    20671861.3144   20671868.4764
       211.0004        211.0004
  -4130295.79147  -3210183.02945  23128299.372    23128299.4514   23128304.0584
       159.0004        162.0004
 -25086791.92949 -19527498.63648  20076318.470    20076318.8124   20076322.6024
       215.0004        216.0004
  -4126123.89447  -3001570.25146  23272464.122    23272462.9824   23272469.4344
       164.0004        164.0004
  -9811562.19048  -7615076.82546  23209770.845    23209770.2054   23209774.9354
       166.0004        167.0004
 -20827691.87649 -16216015.04247  20861570.136    20861570.5454   20861576.9184
       198.0004        198.0004
  -4324344.38146  -3346869.60345  24767181.126    24767180.5204   24767183.6784
       134.0004        140.0004
 -15280815.66849 -11865640.05647  21666221.801    21666222.1324   21666226.5714
       197.0004        197.0004
 21  2  3  1 29  0.0000000  0 10G09G14G30G28G07G21G19G01G22G17
  -2953211.74748  -2270528.60647  23799725.755    23799725.6144   23799731.7654
       189.0004        191.0004
  -7056650.84148  -5483735.42246  22511542.342    22511543.4314   22511562.7554
       179.0004        179.0004
 -21226062.71249 -16524737.71747  20662615.918    20662615.6954   20662623.2534
       211.0004        212.0004
  -4157035.31947  -3231019.02446  23123211.208    23123210.4784   23123216.0114
       161.0004        163.0004
 -25077405.97749 -19520184.91448  20078104.158    20078104.6404   20078108.9844
       215.0004        216.0004
  -4043560.85747  -2937235.40746  23288175.541    23288173.9434   23288180.0794
       162.0004        163.0004
  -9873060.93548  -7662997.91746  23198067.521    23198068.1064   23198072.5644
       165.0004        167.0004
 -20800468.35549 -16194801.89447  20866750.303    20866750.5834   20866757.7404
       198.0004        198.0004
  -4346309.82147  -3363985.52045  24763003.210    24763002.4564   24763004.5984
       135.0004        141.0004
 -15297577.51149 -11878701.23647  21663032.288    21663032.6814   21663036.8824
       197.0004        197.0004
 21  2  3  1 29 30.0000000  0 10G09G14G30G28G07G21G19G01G22G17
  -2875175.87948  -2209721.46647  23814573.670    23814574.1154   23814582.4824
       190.0004        191.0004
  -7091154.46248  -5510621.33946  22504976.319    22504976.9024   22504996.7174
       179.0004        179.0004
 -21274197.85549 -16562245.62548  20653455.975    20653455.9954   20653463.2834
       212.0004        213.0004
  -4183908.68847  -3251959.29646  23118096.937    23118096.6904   23118101.7604
       161.0004        163.0004
 -25067438.56249 -19512418.10448  20080001.255    20080001.6414   20080005.9854
       215.0004        217.0004
  -3960686.54747  -2872658.02046  23303946.303    23303945.5614   23303950.7524
       162.0004        163.0004
  -9934237.30248  -7710667.80446  23186428.368    23186426.9774   23186430.9224
       167.0004        169.0004
 -20772637.25749 -16173115.31547  20872045.736    20872046.3874   20872053.6804
       198.0004        198.0004
  -4368168.98547  -3381018.60445  24758844.136    24758843.0064   24758844.9234
       136.0004        141.0004
 -15313965.09749 -11891470.79647  21659913.591    21659913.9684   21659918.3894
       197.0004        197.0004
 21  2  3  1 30  0.0000000  0 10G09G14G30G28G07G21G19G01G22G17
  -2797246.71748  -2148997.47347  23829401.869    23829402.8984   23829412.2564
       190.0004        191.0004
  -7125730.25648  -5537563.52046  22498397.578    22498397.8294   22498416.9224
       179.0004        180.0004
 -21321879.06249 -16599399.80347  20644382.464    20644382.3184   20644389.8004
       212.0004        212.0004
  -4210916.45047  -3273004.30445  23112958.204    23112957.6084   23112961.8484
       161.0004        162.0004
 -25056889.43849 -19504198.00548  20082008.219    20082008.7194   20082013.1264
       215.0004        216.0004
  -3877503.23147  -2807839.84746  23319775.385    23319775.8214   23319779.7854
       162.0004        164.0004
  -9995091.14648  -7758086.36646  23174846.901    23174846.0904   23174850.5444
       167.0004        167.0004
 -20744199.02749 -16150955.64047  20877457.750    20877458.2534   20877465.8144
       198.0004        198.0004
  -4389919.27047  -3397966.87845  24754704.472    24754704.0714   24754705.7574
       138.0004        143.0004
 -15329979.84649 -11903949.82147  21656866.568    21656866.8314   21656870.9644
       196.0004        196.0004
 21  2  3  1 30 30.0000000  0 10G09G14G30G28G07G21G19G01G22G17
  -2719425.17348  -2088357.37247  23844213.162    23844212.9534   23844220.5244
       191.0004        192.0004
  -7160376.51948  -5564560.59546  22491803.152    22491804.1694   22491823.7244
       178.0004        178.0004
 -21369102.68749 -16636197.44648  20635395.945    20635396.0624   20635403.9474
       212.0004        213.0004
  -4238057.23547  -3294152.98645  23107791.623    23107791.9404   23107796.4174
       158.0004        158.0004
 -25045756.84749 -19495523.28048  20084127.520    20084127.5814   20084131.7144
       215.0004        216.0004
  -3794012.24247  -2742781.94545  23335662.927    23335663.1074   23335668.5624
       160.0004        160.0004
 -10055620.75248  -7805252.27846  23163328.858    23163327.9584   23163332.6284
       167.0004        169.0004
 -20715152.98649 -16128322.36747  20882984.983    20882985.8104   20882993.3284
       198.0004        198.0004
  -4411556.92247  -3414827.42545  24750585.989    24750585.3694   24750590.0764
       139.0004        144.0004
 -15345621.49449 -11916138.12747  21653889.008    21653889.8184   21653894.8104
       196.0004        196.0004
 21  2  3  1 31  0.0000000  0 10G09G14G30G28G07G21G19G01G22G17
  -2641714.78248  -2027803.84247  23859000.073    23859000.2424   23859007.7154
       190.0004        190.0004
  -7195093.99948  -5591613.15746  22485197.659    22485198.3924   22485216.7684
       178.0004        177.0004
 -21415867.63749 -16672637.65748  20626497.174    20626497.1774   20626504.5934
       213.0004        213.0004
  -4265332.55547  -3315406.46445  23102602.615    23102602.4454   23102607.1484
       158.0004        161.0004
 -25034041.23049 -19486394.22748  20086356.121    20086356.7924   20086360.9874
       215.0004        216.0004
  -3710216.41947  -2677486.50645  23351607.827    23351607.2944   23351613.1364
       159.0004        162.0004
 -10115826.86248  -7852166.09546  23151872.198    23151871.7164   23151875.6974
       168.0004        170.0004
 -20685500.91849 -16105216.84647  20888627.515    20888627.9394   20888635.5334
       198.0004        198.0004
  -4433080.80147  -3431599.24445  24746489.312    24746488.7644   24746494.2304
       138.0004        143.0004
 -15360892.05049 -11928037.26047  21650983.968    21650984.2854   21650988.7924
       196.0004        197.0004
 21  2  3  1 31 30.0000000  0 10G09G14G30G28G07G21G19G01G22G17
  -2564116.92148  -1967338.01947  23873766.425    23873766.4614   23873774.7884
       189.0004        188.0004
  -7229881.37048  -5618720.17746  22478576.551    22478577.0634   22478597.0224
       176.0004        177.0004
 -21462170.78549 -16708718.03148  20617686.057    20617685.9874   20617693.1444
       213.0004        213.0004
  -4292741.37547  -3336763.96645  23097387.184    23097386.8374   23097391.1664
       159.0004        162.0004
 -25021741.52249 -19476810.05448  20088697.077    20088697.6074   20088701.3004
       215.0004        216.0004
  -3626117.32247  -2611954.73145  23367612.065    23367611.6354   23367616.9444
       159.0004        160.0004
 -10175708.08248  -7898826.77446  23140476.216    23140475.6724   23140480.0994
       168.0004        170.0004
 -20655242.62949 -16081638.94147  20894385.411    20894385.6814   20894393.7064
       197.0004        198.0004
  -4454487.70747  -3448279.93445  24742415.088    24742414.6674   24742419.8394
       136.0004        141.0004
 -15375792.45949 -11939647.97147  21648148.944    21648148.5894   21648153.2374
       197.0004        197.0004
 21  2  3  1 32  0.0000000  0 10G09G14G30G28G07G21G19G01G22G17
  -2486634.36348  -1906962.03046  23888511.726    23888511.6984   23888518.8204
       187.0004        187.0004
  -7264738.73748  -5645881.75146  22471945.374    22471945.1814   22471964.8124
       178.0004        179.0004
 -21508010.44949 -16744437.24248  20608963.084    20608962.9904   20608969.9344
       213.0004        214.0004
  -4320284.30147  -3358225.96646  23092145.459    23092144.6984   23092149.8744
       160.0004        163.0004
 -25008857.77149 -19466770.76948  20091148.626    20091149.1294   20091153.0494
       215.0004        215.0004
  -3541717.79847  -2546188.88245  23383671.620    23383673.0724   23383675.9024
       158.0004        158.0004
 -10235264.72148  -7945234.52846  23129143.734    23129143.9924   23129147.3884
       170.0004        173.0004
 -20624379.38249 -16057589.64847  20900258.692    20900259.2074   20900266.8374
       198.0004        199.0004
  -4475775.90847  -3464868.14545  24738365.694    24738364.0664   24738369.4974
       137.0004        143.0004
 -15390324.18449 -11950971.38247  21645382.665    21645383.1944   21645388.0164
       196.0004        195.0004
 21  2  3  1 32 30.0000000  0 10G09G14G30G28G07G21G19G01G22G17
  -2409270.11348  -1846678.24847  23903234.082    23903234.1964   23903240.3604
       187.0004        188.0004
  -7299666.49248  -5673098.16646  22465297.687    22465298.2194   22465318.1814
       179.0004        178.0004
 -21553385.14949 -16779794.15548  20600328.659    20600328.9624   20600335.7074
       214.0004        214.0004
  -4347962.28847  -3379793.20746  23086879.451    23086878.9514   23086882.5074
       161.0004        163.0004
 -24995390.35249 -19456276.67848  20093710.978    20093711.7874   20093715.9054
       214.0004        215.0004
  -3457021.33847  -2480191.62945  23399789.046    23399790.2094   23399792.5564
       156.0004        157.0004
 -10294497.34548  -7991389.77246  23117872.170    23117871.2974   23117875.7484
       172.0004        174.0004
 -20592912.64149 -16033070.10147  20906245.963    20906247.1234   20906254.8774
       198.0004        198.0004
  -4496943.69347  -3481362.48945  24734337.320    24734337.8704   24734341.7234
       139.0004        145.0004
 -15404489.30048 -11962009.11147  21642687.433    21642687.9484   21642691.9234
       194.0004        194.0004
 21  2  3  1 33  0.0000000  0 10G09G14G30G28G07G21G19G01G22G17
  -2332025.96348  -1786488.05547  23917931.767    23917932.2994   23917940.3354
       188.0004        188.0004
  -7334663.86148  -5700368.83446  22458638.619    22458638.4034   22458657.7424
       179.0004        180.0004
 -21598292.40449 -16814786.82348  20591783.346    20591783.3094   20591790.0994
       214.0004        214.0004
  -4375775.25247  -3401465.63946  23081586.305    23081586.0184   23081590.7734
       161.0004        163.0004
 -24981338.83249 -19445327.45148  20096385.051    20096385.7684   20096390.0604
       214.0004        215.0004
  -3372029.20647  -2413963.98845  23415964.026    23415963.6964   23415966.9544
       156.0004        158.0004
 -10353405.10548  -8037291.90246  23106662.144    23106661.1474   23106665.6244
       172.0004        173.0004
 -20560842.90849 -16008080.69547  20912349.231    20912349.6944   20912357.1384
       198.0004        198.0004
  -4517988.58747  -3497761.08945  24730334.940    24730333.8994   24730336.2394
       142.0004        148.0004
 -15418288.84348 -11972761.98147  21640061.215    21640061.6964   21640066.1884
       194.0004        195.0004
 21  2  3  1 33 30.0000000  0 10G09G14G30G28G07G21G19G01G22G17
  -2254904.80048  -1726393.66847  23932607.362    23932608.3994   23932615.7734
       188.0004        188.0004
  -7369730.71848  -5727693.64346  22451964.555    22451965.6554   22451985.1484
       178.0004        178.0004
 -21642730.35449 -16849413.80948  20583327.555    20583326.9624   20583333.8154
       214.0004        214.0004
  -4403723.40247  -3423243.38745  23076265.928    23076265.8804   23076272.8104
       160.0004        159.0004
 -24966703.27249 -19433923.12748  20099170.247    20099170.6944   20099174.9734
       214.0004        215.0004
  -3286744.61747  -2347508.45345  23432192.615    23432192.1464   23432197.4214
       157.0004        160.0004
 -10411988.08848  -8082940.95546  23095513.474    23095513.5994   23095516.8764
       172.0004        172.0004
 -20528171.34349 -15982622.33047  20918566.244    20918566.6614   20918574.4774
       197.0004        197.0004
  -4538908.26647  -3514062.14745  24726352.927    24726351.0144   24726355.7084
       143.0004        148.0004
 -15431724.30849 -11983231.13747  21637504.585    21637504.9704   21637509.7804
       195.0004        197.0004
 21  2  3  1 34  0.0000000  0 10G09G14G30G28G07G21G19G01G22G17
  -2177907.41848  -1666395.76846  23947260.703    23947260.6134   23947268.5654
       186.0004        185.0004
  -7404865.35448  -5755071.28246  22445279.670    22445280.4814   22445299.2844
       178.0004        178.0004
 -21686695.60149 -16883672.45048  20574960.785    20574960.7394   20574967.7064
       214.0004        214.0004
  -4431805.56747  -3445125.58745  23070924.679    23070923.6084   23070928.2214
       160.0004        162.0004
 -24951481.99749 -19422062.39848  20102067.004    20102067.2864   20102071.4274
       214.0004        215.0004
  -3201168.29347  -2280825.60345  23448477.832    23448477.0324   23448482.8044
       158.0004        159.0004
 -10470244.57148  -8128335.57046  23084427.982    23084427.4294   23084431.7394
       172.0004        173.0004
 -20494897.48249 -15956694.64947  20924896.977    20924898.4484   20924906.3944
       197.0004        197.0004
  -4559699.12647  -3530262.80845  24722395.139    24722394.4014   24722399.7164
       142.0004        146.0004
 -15444795.73549 -11993416.65547  21635017.673    21635017.6834   21635022.5524
       197.0004        198.0004
 21  2  3  1 34 30.0000000  0 10G09G14G30G28G07G21G19G01G22G17
  -2101037.20648  -1606496.92846  23961886.535    23961887.3984   23961895.1404
       184.0004        183.0004
  -7440068.40548  -5782502.23846  22438580.243    22438580.4054   22438599.8924
       177.0004        177.0004
 -21730187.14649 -16917561.97148  20566684.358    20566684.5194   20566691.2074
       214.0004        214.0004
  -4460023.28247  -3467113.42245  23065554.360    23065554.0614   23065559.3724
       159.0004        160.0004
 -24935675.99749 -19409746.04648  20105074.281    20105074.8074   20105079.4704
       214.0004        215.0004
  -3115303.81447  -2213918.23645  23464816.982    23464816.1504   23464822.3214
       158.0004        161.0004
 -10528176.01448  -8173476.92946  23073405.380    23073403.6934   23073408.3144
       173.0004        173.0004
 -20461023.34549 -15930299.22647  20931344.200    20931345.0474   20931352.0274
       197.0004        197.0004
  -4580360.25747  -3546362.38745  24718462.101    24718461.4604   24718466.6454
       138.0004        142.0004
 -15457505.68049 -12003320.50747  21632598.229    21632598.8384   21632603.9514
       197.0004        197.0004
 21  2  3  1 35  0.0000000  0 10G09G14G30G28G07G21G19G01G22G17
  -2024295.84048  -1546698.51946  23976492.526    23976492.1854   23976498.4774
       184.0004        185.0004
  -7475338.86648  -5809985.68646  22431867.851    22431869.5874   22431888.7104
       177.0004        178.0004
 -21773202.23149 -16951080.22448  20558498.737    20558498.8784   20558505.5344
       214.0004        214.0004
  -4488375.76447  -3489206.23645  23060158.338    23060158.6554   23060162.8944
       159.0004        161.0004
 -24919284.76449 -19396973.65648  20108193.627    20108194.1514   20108198.4804
       214.0004        215.0004
  -3029152.79047  -2146787.58445  23481210.853    23481210.3614   23481216.6014
       159.0004        162.0004
 -10585781.36548  -8218364.17046  23062442.196    23062441.2374   23062445.9774
       171.0004        170.0004
 -20426549.28149 -15903436.29547  20937904.041    20937904.5634   20937913.0744
       197.0004        197.0004
  -4600888.71747  -3562358.60745  24714558.671    24714557.3174   24714561.2934
       139.0004        144.0004
 -15469854.78649 -12012943.17647  21630248.144    21630248.8194   21630253.3324
       196.0004        197.0004
 21  2  3  1 35 30.0000000  0 10G09G14G30G28G07G21G19G01G22G17
  -1947686.06848  -1487002.62047  23991071.261    23991071.2864   23991078.2854
       186.0004        188.0004
  -7510676.86948  -5837521.77746  22425143.997    22425144.5984   22425163.9544
       177.0004        176.0004
 -21815739.47349 -16984226.11948  20550404.304    20550404.2064   20550411.0374
       214.0004        214.0004
  -4516863.83347  -3511404.72445  23054737.758    23054737.3574   23054740.9964
       159.0004        161.0004
 -24902308.50649 -19383745.40248  20111423.895    20111424.4094   20111429.1504
       214.0004        215.0004
  -2942718.32047  -2079436.03845  23497658.690    23497658.6094   23497664.9214
       161.0004        162.0004
 -10643061.03048  -8262997.61846  23051541.191    23051540.4494   23051545.1584
       169.0004        170.0004
 -20391476.83749 -15876107.11147  20944578.138    20944578.5204   20944586.3994
       197.0004        196.0004
  -4621282.66747  -3578250.03045  24710677.382    24710676.3834   24710681.3774
       139.0004        144.0004
 -15481845.04349 -12022286.21647  21627967.366    21627967.4964   21627971.7014
       196.0004        197.0004
 21  2  3  1 36  0.0000000  0 10G09G14G30G28G07G21G19G01G22G17
  -1871209.69448  -1427410.67347  24005622.977    24005623.3394   24005632.1994
       187.0004        188.0004
  -7546081.52048  -5865109.78546  22418406.501    22418406.8494   22418426.1594
       176.0004        176.0004
 -21857796.28049 -17016997.64848  20542401.109    20542401.0774   20542408.2104
       214.0004        215.0004
  -4545487.02247  -3533708.47645  23049290.547    23049290.9864   23049293.9294
       159.0004        161.0004
 -24884746.73049 -19370060.88948  20114765.317    20114765.9884   20114771.1304
       213.0004        214.0004
  -2856002.63947  -2011865.38645  23514159.574    23514159.5334   23514165.7554
       160.0004        162.0004
 -10700014.28748  -8307376.74246  23040705.429    23040704.3984   23040707.8114
       171.0004        173.0004
 -20355806.54749 -15848312.06447  20951366.222    20951366.6694   20951373.8704
       196.0004        196.0004
  -4641539.47547  -3594034.55045  24706823.146    24706821.5844   24706826.2004
       139.0004        144.0004
 -15493477.54449 -12031350.47747  21625753.434    21625753.6854   21625758.3414
       196.0004        196.0004
 21  2  3  1 36 30.0000000  0 11G09G14G30G28G07G06G21G19G01G22G17
  -1794869.71948  -1367925.03646  24020150.604    24020150.1504   24020158.7154
       186.0004        186.0004
  -7581553.01148  -5892749.92446  22411656.833    22411657.0264   22411675.7244
       175.0004        175.0004
 -21899371.44849 -17049393.90148  20534489.499    20534489.6664   20534496.4894
       214.0004        214.0004
  -4574246.30247  -3556118.30845  23043817.331    23043817.0454   23043821.7814
       158.0004        159.0004
 -24866600.17649 -19355920.73948  20118219.473    20118219.8694   20118224.0584
       213.0004        214.0004
  -1834536.01754  -1409443.50645  24336018.737
        74.0004        146.0004
  -2769008.57847  -1944077.84445  23530713.790    23530713.9104   23530720.0834
       160.0004        161.0004
 -10756641.77448  -8351502.00046  23029929.069    23029928.5804   23029931.9904
       172.0004        173.0004
 -20319540.21249 -15820052.58247  20958268.445    20958268.5304   20958275.1714
       197.0004        198.0004
  -4661657.60847  -3609711.00945  24702994.200    24702992.0164   24702997.2754
       139.0004        143.0004
 -15504754.45949 -12040137.68847  21623607.016    21623607.4914   21623612.3524
       196.0004        196.0004
 21  2  3  1 37  0.0000000  0 11G09G14G30G28G07G06G21G19G01G22G17
  -1718667.25048  -1308546.50546  24034650.066    24034650.8014   24034659.5944
       185.0004        185.0004
  -7617089.77048  -5920440.87046  22404894.398    22404894.4654   22404914.1224
       175.0004        176.0004
 -21940461.75149 -17081412.31548  20526670.399    20526670.3974   20526677.2444
       214.0004        215.0004
  -4603140.41847  -3578633.15145  23038320.355    23038320.1684   23038323.8454
       159.0004        162.0004
 -24847867.63649 -19341323.94048  20121783.845    20121784.1254   20121788.7804
       213.0004        214.0004
  -1943168.81946  -1494092.29045  24315346.989                    24315355.4684
       130.0004        146.0004
  -2681737.15347  -1876074.12245  23547320.909    23547321.5024   23547326.6014
       159.0004        161.0004
 -10812942.35148  -8395372.52946  23019214.508    23019213.2454   23019218.2224
       172.0004        172.0004
 -20282677.70949 -15791328.52647  20965282.491    20965282.7724   20965290.2854
       197.0004        197.0004
  -4681633.69947  -3625276.80845  24699191.549    24699189.1684   24699195.4484
       136.0004        141.0004
 -15515676.39149 -12048648.26147  21621528.679    21621529.1534   21621534.3084
       196.0004        196.0004
 21  2  3  1 37 30.0000000  0 11G09G14G30G28G07G06G21G19G01G22G17
  -1642604.64048  -1249277.00146  24049124.820    24049124.8644   24049133.3284
       183.0004        182.0004
  -7652691.46648  -5948182.44846  22398120.100    22398120.9634   22398139.5424
       176.0004        177.0004
 -21981065.37749 -17113051.53048  20518943.459    20518943.6654   20518950.9364
       214.0004        215.0004
  -4632169.58747  -3601253.28445  23032794.617    23032794.6594   23032800.2154
       159.0004        160.0004
 -24828549.45949 -19326270.82748  20125459.256    20125460.4294   20125464.9734
       213.0004        215.0004
  -2051787.39047  -1578730.04145  24294677.242    24294676.6014   24294685.8144
       141.0004        148.0004
  -2594191.72647  -1807856.90645  23563981.227    23563980.6604   23563986.6704
       159.0004        159.0004
 -10868915.85548  -8438988.23346  23008564.133    23008562.9314   23008566.6604
       172.0004        173.0004
 -20245220.29949 -15762140.94447  20972409.651    20972410.5724   20972417.8674
       196.0004        197.0004
  -4701465.60047  -3640730.24345  24695419.512    24695418.1714   24695422.8884
       138.0004        143.0004
 -15526244.61449 -12056883.23147  21619518.255    21619518.1424   21619523.1934
       197.0004        197.0004
 21  2  3  1 38  0.0000000  0 12G09G14G30G28G07G06G03G21G19G01G22G17
  -1566684.43348  -1190118.45146  24063570.812    24063571.6644   24063580.8494
       182.0004        182.0004
  -7688358.09748  -5975974.60946  22391332.733    22391332.9974   22391352.3204
       177.0004        177.0004
 -22021180.79249 -17144310.28748  20511310.103    20511310.1454   20511317.1834
       215.0004        215.0004
  -4661334.42147  -3623979.09245  23027244.323    23027245.0304   23027249.9794
       158.0004        161.0004
 -24808646.13749 -19310761.74148  20129247.710    20129248.0404   20129251.8684
       213.0004        213.0004
  -2160389.61147  -1663355.01945  24274009.981    24274010.3084   24274020.8214
       143.0004        148.0004
  -1483357.70354  -1146619.66444  24582294.870
        74.0004        109.0004
  -2506374.33947  -1739427.77645  23580692.901    23580691.4034   23580697.3284
       158.0004        160.0004
 -10924562.89048  -8482349.49546  22997974.142    22997973.7864   22997977.8994
       174.0004        176.0004
 -20207169.57649 -15732491.00547  20979650.792    20979651.5334   20979658.8134
       196.0004        196.0004
  -4721151.19447  -3656069.67445  24691671.132    24691671.3774   24691675.3804
       139.0004        144.0004
 -15536460.99849 -12064844.03547  21617574.052    21617574.1914   21617578.8064
       197.0004        197.0004
 21  2  3  1 38 30.0000000  0 12G09G14G30G28G07G06G03G21G19G01G22G17
  -1490908.88948  -1131072.64446  24077992.950    24077993.0444   24078000.7234
       184.0004        185.0004
  -7724089.07648  -6003816.90546  22384533.013    22384533.5954   22384552.6474
       177.0004        177.0004
 -22060806.04049 -17175187.09948  20503769.626    20503769.3034   20503776.5164
       214.0004        214.0004
  -4690634.68647  -3646810.46745  23021669.587    23021670.3394   23021674.5104
       159.0004        162.0004
 -24788157.38849 -19294796.48748  20133146.004    20133146.3444   20133151.3154
       213.0004        213.0004
  -2268972.76947  -1747965.17845  24253348.347    24253348.0544   24253358.6374
       144.0004        149.0004
  -1522589.35344  -1177189.90846  24574830.201
        74.0004        171.0004
  -2418287.50347  -1670788.69445  23597455.525    23597454.8344   23597459.4424
       159.0004        161.0004
 -10979883.35348  -8525456.33946  22987447.405    22987446.7034   22987450.4114
       175.0004        175.0004
 -20168526.66649 -15702379.63847  20987004.477    20987004.9694   20987012.4134
       196.0004        196.0004
  -4740688.65747  -3671293.68045  24687954.493    24687954.2174   24687956.8324
       139.0004        143.0004
 -15546326.83049 -12072531.68647  21615696.533    21615696.5464   21615701.5774
       196.0004        196.0004
 21  2  3  1 39  0.0000000  0 12G09G14G30G28G07G06G03G21G19G01G22G17
  -1415280.24648  -1072141.26446  24092384.200    24092384.4304   24092391.4654
       184.0004        183.0004
  -7759883.95948  -6031709.01246  22377721.977    22377722.2484   22377741.0894
       177.0004        176.0004
 -22099939.22449 -17205680.49348  20496322.061    20496322.4924   20496329.5684
       214.0004        214.0004
  -4720070.55047  -3669747.49045  23016067.335    23016067.8394   23016073.1304
       159.0004        161.0004
 -24767083.40949 -19278375.21748  20137156.584    20137157.1114   20137161.6334
       213.0004        214.0004
  -2377534.30047  -1832558.48945  24232688.989    24232689.3284   24232698.8954
       145.0004        149.0004
  -1561874.58647  -1207801.67346  24567354.213                    24567362.9894
       150.0004        169.0004
  -2329934.39547  -1601942.12545  23614268.005    23614268.3894   23614271.6134
       158.0004        160.0004
 -11034877.08448  -8568308.60846  22976981.971    22976981.2834   22976985.0104
       174.0004        175.0004
 -20129292.80749 -15671807.79547  20994469.972    20994470.6564   20994478.2014
       196.0004        196.0004
  -4760075.53247  -3686400.36445  24684264.341    24684263.8274   24684267.6844
       137.0004        142.0004
 -15555844.00349 -12079947.64847  21613885.098    21613885.6804   21613890.0994
       196.0004        197.0004
 21  2  3  1 39 30.0000000  0 12G09G14G30G28G07G06G03G21G19G01G22G17
  -1339799.84748  -1013325.42846  24106747.245    24106746.5244   24106754.1544
       179.0004        177.0004
  -7795741.39748  -6059649.88046  22370897.519    22370898.3634   22370918.5824
       177.0004        177.0004
 -22138577.61549 -17235788.33448  20488970.354    20488970.2854   20488977.1314
       214.0004        215.0004
  -4749641.35347  -3692789.65045  23010441.270    23010441.3214   23010445.7414
       160.0004        162.0004
 -24745423.84049 -19261497.64048  20141277.960    20141278.4934   20141283.2814
       213.0004        213.0004
  -2486070.69547  -1917132.19045  24212034.742    24212035.4914   24212044.2874
       147.0004        151.0004
  -1601210.13147  -1238452.72746  24559869.297    24559868.8944   24559877.1764
       164.0004        167.0004
  -2241316.05247  -1532888.87345  23631131.969    23631130.0054   23631135.7694
       157.0004        158.0004
 -11089543.33748  -8610905.71246  22966579.737    22966578.9604   22966583.5864
       174.0004        175.0004
 -20089468.31149 -15640775.71547  21002048.373    21002049.4554   21002056.5854
       195.0004        196.0004
  -4779308.83647  -3701387.35845  24680607.711    24680605.9064   24680607.9794
       137.0004        143.0004
 -15565013.38749 -12087092.61547  21612140.801    21612141.0834   21612145.7444
       197.0004        198.0004
 21  2  3  1 40  0.0000000  0 12G09G14G30G28G07G06G03G21G19G01G22G17
  -1264469.06448   -954626.21346  24121080.909    24121081.4334   24121090.0104
       175.0004        175.0004
  -7831660.08648  -6087638.44946  22364062.423    22364063.6384   22364082.4984
       177.0004        178.0004
 -22176718.56849 -17265508.55548  20481712.098    20481712.0284   20481719.1004
       215.0004        215.0004
  -4779346.44547  -3715936.46345  23004787.485    23004788.0594   23004793.0584
       160.0004        162.0004
 -24723178.00849 -19244163.22848  20145511.434    20145511.9854   20145516.3274
       213.0004        214.0004
  -2594578.59647  -2001683.69145  24191386.146    24191387.1854   24191396.4134
       148.0004        152.0004
  -1640592.84048  -1269140.53346  24552374.860    24552375.3654   24552383.2934
       165.0004        167.0004
  -2152434.04247  -1463630.15645  23648045.458    23648044.5974   23648049.5684
       155.0004        157.0004
 -11143880.92148  -8653246.66646  22956239.362    22956239.2944   22956243.3264
       174.0004        175.0004
 -20049053.73149 -15609283.82847  21009738.677    21009739.8314   21009747.5284
       195.0004        195.0004
  -4798385.63347  -3716252.42345  24676975.241    24676974.6574   24676980.2534
       137.0004        142.0004
 -15573835.35549 -12093966.86947  21610461.653    21610462.2034   21610466.0274
       197.0004        196.0004
 21  2  3  1 40 30.0000000  0 12G09G14G30G28G07G06G03G21G19G01G22G17
  -1189290.32948   -896045.43046  24135387.590    24135388.0854   24135397.1094
       177.0004        179.0004
  -7867639.69548  -6115674.50246  22357215.887    22357216.3284   22357236.7874
       177.0004        178.0004
 -22214360.43249 -17294839.87448  20474549.398    20474549.2034   20474556.1134
       215.0004        215.0004
  -4809185.88147  -3739187.94246  22999110.639    22999110.7214   22999115.4844
       162.0004        165.0004
 -24700346.27349 -19226372.26348  20149856.634    20149856.9554   20149861.0114
       213.0004        214.0004
  -2703055.53647  -2086211.03245  24170744.178    24170744.9934   24170753.7914
       147.0004        150.0004
  -1680020.51948  -1299863.38246  24544870.895    24544871.9454   24544879.4594
       166.0004        169.0004
  -2063291.38447  -1394168.34145  23665008.725    23665007.4454   23665012.1974
       155.0004        158.0004
 -11197890.38848  -8695331.94346  22945961.719    22945960.8644   22945964.9824
       174.0004        175.0004
 -20008050.56549 -15577333.29347  21017542.420    21017542.2874   21017549.7154
       195.0004        195.0004
  -4817303.90747  -3730993.97645  24673375.595    24673375.0914   24673378.8534
       138.0004        143.0004
 -15582311.65249 -12100571.75647  21608848.717    21608849.2214   21608853.2534
       196.0004        195.0004
 21  2  3  1 41  0.0000000  0 12G09G14G30G28G07G06G03G21G19G01G22G17
  -1114266.54848   -837585.38746  24149664.629    24149665.0014   24149673.2964
       180.0004        181.0004
  -7903680.49248  -6143758.23646  22350358.208    22350358.8064   22350377.5164
       176.0004        176.0004
 -22251502.12949 -17323781.47148  20467481.047    20467481.5364   20467488.4254
       215.0004        215.0004
  -4839160.57247  -3762544.81745  22993406.397    22993405.7594   22993409.7994
       161.0004        162.0004
 -24676929.67749 -19208125.57948  20154312.462    20154312.9804   20154317.2164
       213.0004        214.0004
  -2811499.55847  -2170712.74645  24150107.902    24150108.1944   24150117.8804
       146.0004        150.0004
  -1719491.47148  -1330619.90146  24537360.542    24537361.3684   24537369.9264
       169.0004        171.0004
  -1973891.35947  -1324505.98645  23682020.365    23682020.4374   23682024.6294
       155.0004        157.0004
 -11251572.30548  -8737161.98346  22935745.734    22935744.9974   22935749.7074
       173.0004        174.0004
 -19966460.84548 -15544925.70947  21025455.618    21025456.5014   21025464.6664
       194.0004        194.0004
  -4836062.11647  -3745610.75545  24669804.686    24669803.5494   24669810.5124
       137.0004        141.0004
 -15590444.96849 -12106909.39447  21607300.911    21607301.3904   21607305.9884
       195.0004        196.0004
 21  2  3  1 41 30.0000000  0 12G09G14G30G28G07G06G03G21G19G01G22G17
  -1039400.03748   -779247.90846  24163912.140    24163911.8234   24163919.6144
       180.0004        180.0004
  -7939782.05048  -6171889.30146  22343487.769    22343487.8254   22343507.8334
       175.0004        176.0004
 -22288141.95749 -17352331.99648  20460508.998    20460508.9194   20460516.0784
       215.0004        215.0004
  -4869270.22747  -3786006.87646  22987676.689    22987677.3364   22987679.7504
       161.0004        163.0004
 -24652928.43349 -19189423.31348  20158879.823    20158880.2594   20158884.6344
       213.0004        214.0004
  -2919908.20147  -2255186.91945  24129477.651    24129478.5024   24129486.6564
       145.0004        148.0004
  -1759003.41448  -1361408.37346  24529842.310    24529841.5304   24529849.9444
       169.0004        170.0004
  -1884236.11447  -1254644.75745  23699081.682    23699080.5354   23699086.6494
       155.0004        158.0004
 -11304927.40048  -8778737.34646  22925593.200    22925592.3334   22925596.4174
       173.0004        174.0004
 -19924286.07648 -15512062.24947  21033482.204    21033482.2894   21033489.7844
       194.0004        194.0004
  -4854658.39947  -3760101.38245  24666262.803    24666263.7984   24666271.3214
       137.0004        142.0004
 -15598236.80749 -12112980.93847  21605818.320    21605818.4984   21605823.0754
       197.0004        198.0004
 21  2  3  1 42  0.0000000  0 12G09G14G30G28G07G06G03G21G19G01G22G17
   -964693.10148   -721034.76546  24178127.385    24178127.5724   24178136.7294
       180.0004        180.0004
  -7975943.94348  -6200067.39546  22336606.705    22336607.4404   22336626.6664
       177.0004        178.0004
 -22324278.34049 -17380490.22348  20453632.539    20453632.4994   20453639.6094
       215.0004        215.0004
  -4899515.16447  -3809574.34146  22981921.173    22981921.0404   22981925.6644
       161.0004        163.0004
 -24628343.14249 -19170265.94548  20163556.745    20163558.1014   20163563.0054
       212.0004        213.0004
  -3028279.02847  -2339631.59545  24108855.824    24108855.4644   24108864.7994
       145.0004        149.0004
  -1798554.17548  -1392227.10946  24522316.647    24522316.2194   24522323.5614
       167.0004        168.0004
  -1794328.75647  -1184587.08145  23716189.394    23716189.0824   23716195.8394
       156.0004        158.0004
 -11357955.49848  -8820057.91046  22915501.448    22915500.7644   22915505.4554
       172.0004        172.0004
 -19881527.83048 -15478744.12447  21041617.475    21041618.5214   21041626.2934
       194.0004        195.0004
  -4873090.36047  -3774463.96345  24662759.122    24662758.3964   24662761.1204
       138.0004        143.0004
 -15605689.05049 -12118787.86247  21604399.900    21604400.1264   21604405.2514
       197.0004        198.0004
 21  2  3  1 42 30.0000000  0 12G09G14G30G28G07G06G03G21G19G01G22G17
   -890147.64248   -662947.44646  24192313.428    24192313.6614   24192321.0894
       179.0004        180.0004
  -8012165.41248  -6228291.88946  22329712.901    22329713.6434   22329733.4864
       177.0004        177.0004
 -22359909.22449 -17408254.54648  20446852.301    20446852.2114   20446859.1344
       215.0004        215.0004
  -4929895.40547  -3833247.22746  22976139.646    22976139.3024   22976144.3974
       162.0004        164.0004
 -24603173.99249 -19150653.62448  20168348.555    20168348.6734   20168352.4034
       212.0004        214.0004
  -3136609.05247  -2424044.50445  24088240.898    24088241.8314   24088250.5484
       148.0004        152.0004
  -1838141.06948  -1423074.01746  24514781.391    24514782.1374   24514789.1074
       166.0004        166.0004
  -1704171.07647  -1114334.35745  23733346.439    23733346.2664   23733353.0034
       157.0004        160.0004
 -11410656.44948  -8861123.58446  22905473.080    22905471.8524   22905476.5994
       171.0004        172.0004
 -19838187.24448 -15444972.22847  21049865.603    21049865.9104   21049873.6734
       194.0004        194.0004
  -4891355.93447  -3788696.91945  24659282.944    24659283.3854   24659286.8364
       138.0004        143.0004
 -15612802.93849 -12124331.12647  21603046.244    21603046.4074   21603051.7494
       198.0004        198.0004
 21  2  3  1 43  0.0000000  0 12G09G14G30G28G07G06G03G21G19G01G22G17
   -815764.96748   -604987.00046  24206468.950    24206468.2464   24206476.7734
       178.0004        179.0004
  -8048445.08548  -6256561.75146  22322809.628    22322810.6444   22322830.1344
       178.0004        178.0004
 -22395032.05749 -17435622.98948  20440167.926    20440168.2904   20440175.5384
       215.0004        215.0004
  -4960409.82847  -3857024.69546  22970333.342    22970332.9434   22970338.7954
       163.0004        165.0004
 -24577420.63349 -19130586.07448  20173248.292    20173248.5594   20173253.3734
       213.0004        213.0004
  -3244894.90947  -2508423.00945  24067634.587    24067635.4344   24067643.5534
       149.0004        153.0004
  -1877760.78948  -1453946.48546  24507241.494    24507243.4324   24507251.1334
       167.0004        168.0004
  -1613765.21147  -1043888.23845  23750549.974    23750550.6194   23750556.9954
       158.0004        160.0004
 -11463029.50648  -8901933.76746  22895507.440    22895506.7764   22895511.0914
       173.0004        175.0004
 -19794264.94148 -15410747.05847  21058223.428    21058224.5504   21058231.7174
       194.0004        193.0004
  -4909451.98747  -3802797.75245  24655842.524    24655840.0274   24655842.5334
       137.0004        142.0004
 -15619579.33849 -12129611.42047  21601757.274    21601757.4114   21601762.3134
       198.0004        198.0004
 21  2  3  1 43 30.0000000  0 12G09G14G30G28G07G06G03G21G19G01G22G17
   -741548.63048   -547156.14546  24220590.837    24220591.5074   24220599.3314
       180.0004        181.0004
  -8084783.81048  -6284877.61946  22315895.017    22315895.4174   22315914.4634
       178.0004        178.0004
 -22429646.60349 -17462595.35348  20433581.362    20433581.5074   20433588.8254
       215.0004        215.0004
  -4991059.91647  -3880907.83846  22964500.733    22964499.9174   22964504.8004
       163.0004        165.0004
 -24551084.80149 -19110064.63948  20178259.775    20178260.7504   20178265.2204
       213.0004        214.0004
  -3353135.40247  -2592766.15845  24047036.038    24047036.7224   24047046.9114
       150.0004        153.0004
  -1917412.43348  -1484843.82546  24499696.604    24499697.8034   24499706.1514
       168.0004        169.0004
  -1523114.96647   -973251.66745  23767800.176    23767800.5394   23767806.8714
       157.0004        158.0004
 -11515076.55348  -8942489.90546  22885602.920    22885603.0474   22885606.7594
       175.0004        177.0004
 -19749763.88248 -15376070.87847  21066692.598    21066693.2494   21066700.3614
       194.0004        195.0004
  -4927377.81647  -3816765.93645  24652430.027    24652429.9954   24652429.9804
       137.0004        142.0004
 -15626021.45849 -12134631.22747  21600530.622    21600530.9184   21600536.0434
       198.0004        198.0004
 21  2  3  1 44  0.0000000  0 12G09G14G30G28G07G06G03G21G19G01G22G17
   -667499.56448   -489455.64146  24234682.575    24234682.9314   24234690.6594
       181.0004        182.0004
  -8121179.80048  -6313238.13346  22308969.068    22308969.6044   22308988.7284
       177.0004        178.0004
 -22463749.86549 -17489169.33648  20427092.070    20427091.7554   20427098.9424
       215.0004        216.0004
  -5021844.62947  -3904895.94746  22958642.245    22958642.3264   22958646.4474
       163.0004        164.0004
 -24524165.64049 -19089088.70548  20183383.493    20183383.2384   20183387.2884
       213.0004        213.0004
  -3461326.55247  -2677070.85945  24026447.723    24026449.1034   24026459.1834
       150.0004        153.0004
  -1957092.27948  -1515763.13646  24492146.758    24492147.4384   24492154.9694
       168.0004        168.0004
  -1432221.62347   -902425.72445  23785094.624    23785095.9464   23785103.1164
       156.0004        158.0004
 -11566796.26348  -8982790.99946  22875761.496    22875759.9634   22875765.0384
       176.0004        177.0004
 -19704684.26648 -15340943.91447  21075269.974    21075270.8504   21075279.0384
       194.0004        194.0004
  -4945129.97747  -3830598.79745  24649050.870    24649049.8104   24649053.8364
       138.0004        142.0004
 -15632129.64149 -12139390.85847  21599368.304    21599368.7214   21599373.5204
       197.0004        196.0004
 21  2  3  1 44 30.0000000  0 12G09G14G30G28G07G06G03G21G19G01G22G17
   -593619.44648   -431886.79146  24248740.179    24248740.4264   24248749.6204
       180.0004        180.0004
  -8157631.95948  -6341642.42046  22302033.000    22302033.1284   22302052.3914
       178.0004        178.0004
 -22497339.74649 -17515343.27148  20420699.693    20420699.7614   20420706.9104
       215.0004        215.0004
  -5052763.29647  -3928988.39946  22952758.719    22952758.5744   22952763.8584
       163.0004        166.0004
 -24496663.28549 -19067658.28748  20188614.426    20188616.0744   20188620.9144
       212.0004        213.0004
  -3569465.35347  -2761334.78145  24005870.417    24005871.4774   24005880.7174
       152.0004        155.0004
  -1996797.50747  -1546702.24546  24484589.846    24484591.7194   24484597.5344
       164.0004        164.0004
  -1341087.55647   -831412.16545  23802439.190    23802439.1384   23802444.4584
       153.0004        155.0004
 -11618188.19948  -9022836.66546  22865980.708    22865980.9364   22865985.3814
       176.0004        176.0004
 -19659027.20948 -15305366.98147  21083959.294    21083959.2884   21083966.7834
       194.0004        194.0004
  -4962706.07947  -3844294.47345  24645706.745    24645704.5294   24645710.1124
       140.0004        144.0004
 -15637905.42949 -12143891.46147  21598269.428    21598269.4734   21598274.7624
       196.0004        196.0004
 21  2  3  1 45  0.0000000  0 12G09G14G30G28G07G06G03G21G19G01G22G17
   -519911.09848   -374451.77046  24262766.785    24262767.2734   24262775.6284
       181.0004        182.0004
  -8194140.43848  -6370090.59146  22295084.964    22295085.3074   22295104.4804
       178.0004        178.0004
 -22530415.34849 -17541116.47248  20414405.881    20414405.6584   20414412.7444
       215.0004        215.0004
  -5083816.46947  -3953185.65746  22946849.755    22946850.2924   22946854.6274
       164.0004        167.0004
 -24468578.60149 -19045774.15148  20193962.619    20193961.5854   20193965.3364
       213.0004        213.0004
  -3677549.83847  -2845556.39445  23985302.137    23985303.4574   23985312.9724
       153.0004        155.0004
  -2036526.36647  -1577659.78846  24477029.516    24477030.8974   24477039.2634
       164.0004        165.0004
  -1249715.62047   -760213.26945  23819826.419    23819826.0274   23819831.2004
       152.0004        153.0004
 -11669253.49148  -9062627.80546  22856264.296    22856262.7244   22856268.1554
       175.0004        176.0004
 -19612794.97448 -15269341.86247  21092756.455    21092757.0424   21092764.9704
       193.0004        194.0004
  -4980104.52947  -3857851.75345  24642396.222    24642394.1314   24642398.0694
       139.0004        144.0004
 -15643351.02749 -12148134.76947  21597232.701    21597233.1864   21597237.6134
       195.0004        197.0004
 21  2  3  1 45 30.0000000  0 12G09G14G30G28G07G06G03G21G19G01G22G17
   -446376.09848   -317151.83346  24276760.967    24276760.8404   24276768.3414
       180.0004        181.0004
  -8230704.16048  -6398581.79946  22288127.202    22288127.7394   22288147.3324
       178.0004        179.0004
 -22562974.51349 -17566487.25048  20408209.985    20408210.1614   20408217.0304
       215.0004        216.0004
  -5115003.74447  -3977487.41446  22940913.937    22940914.2094   22940918.7914
       163.0004        164.0004
 -24439912.08449 -19023436.57547  20199412.467    20199415.0294   20199419.8514
       212.0004        212.0004
  -3785576.85247  -2929733.22745  23964746.330    23964746.7804   23964756.0564
       152.0004        155.0004
  -2076275.99847  -1608633.46546  24469466.171    24469466.6614   24469474.3394
       164.0004        166.0004
  -1158107.81847   -688830.56145  23837259.970    23837258.8924   23837263.2354
       150.0004        153.0004
 -11719991.76548  -9102164.08746  22846609.823    22846608.7424   22846612.1654
       175.0004        176.0004
 -19565988.69848 -15232869.42447  21101662.902    21101663.8684   21101671.3984
       193.0004        193.0004
  -4997322.72647  -3871268.51545  24639117.599    24639117.3394   24639121.5344
       139.0004        144.0004
 -15648467.79649 -12152121.84947  21596259.998    21596260.2424   21596264.5174
       197.0004        198.0004
 21  2  3  1 46  0.0000000  0 12G09G14G30G28G07G06G03G21G19G01G22G17
   -373016.64548   -259988.68246  24290720.106    24290720.4854   24290727.8404
       180.0004        181.0004
  -8267322.59048  -6427115.61746  22281158.336    22281159.2584   22281178.3974
       178.0004        179.0004
 -22595015.76149 -17591454.45948  20402113.142    20402112.9974   20402119.7664
       216.0004        216.0004
  -5146325.20348  -4001893.74446  22934955.161    22934955.1714   22934959.4024
       165.0004        167.0004
 -24410664.12849 -19000645.99748  20204984.148    20204982.5464   20204985.8214
       213.0004        213.0004
  -3893543.77147  -3013863.21845  23944200.944    23944202.0074   23944210.6674
       154.0004        156.0004
  -2116043.99148  -1639621.48146  24461900.203    24461900.1624   24461906.0564
       166.0004        168.0004
  -1066267.07047   -617266.34645  23854736.475    23854735.1054   23854738.5514
       148.0004        150.0004
 -11770403.25648  -9141445.74146  22837015.463    22837015.1914   22837018.9874
       175.0004        175.0004
 -19518610.02948 -15195950.98147  21110678.827    21110679.7534   21110687.3044
       193.0004        193.0004
  -5014358.76647  -3884543.35645  24635878.107    24635877.4254   24635879.4194
       140.0004        145.0004
 -15653257.07749 -12155853.72847  21595348.189    21595348.4384   21595353.4374
       198.0004        198.0004
 21  2  3  1 46 30.0000000  0 12G09G14G30G28G07G06G03G21G19G01G22G17
   -299835.18648   -202964.21946  24304646.699    24304646.3044   24304654.7654
       181.0004        182.0004
  -8303995.45148  -6455691.87446  22274180.618    22274180.8204   22274199.4924
       179.0004        180.0004
 -22626537.82449 -17616017.12448  20396114.097    20396114.4264   20396121.0224
       216.0004        215.0004
  -5177780.80948  -4026404.61446  22928969.572    22928968.9644   22928974.4714
       167.0004        169.0004
 -24380835.69649 -18977403.05347  20210657.005    20210657.8574   20210661.6834
       212.0004        212.0004
  -4001448.34247  -3097944.61445  23923666.934    23923667.9314   23923677.5844
       152.0004        154.0004
  -2155828.31748  -1670622.23746  24454328.410    24454328.7844   24454335.5264
       169.0004        170.0004
   -974195.91347   -545522.59945  23872258.274    23872256.5414   23872258.6254
       148.0004        151.0004
 -11820488.60148  -9180473.27146  22827485.165    22827483.9024   22827488.8814
       174.0004        175.0004
 -19470660.98648 -15158588.08247  21119803.445    21119804.3534   21119811.8494
       192.0004        193.0004
  -5031210.74947  -3897674.79645  24632671.630    24632670.7104   24632672.4764
       140.0004        144.0004
 -15657721.51249 -12159332.49747  21594498.217    21594498.7964   21594503.6014
       198.0004        198.0004
 21  2  3  1 47  0.0000000  0 12G09G14G30G28G07G06G03G21G19G01G22G17
   -226833.11348   -146079.56846  24318538.441    24318539.2444   24318545.8694
       182.0004        183.0004
  -8340721.36648  -6484309.46946  22267191.474    22267192.3744   22267210.5654
       179.0004        179.0004
 -22657538.47349 -17640173.48348  20390215.110    20390215.2844   20390221.6544
       215.0004        216.0004
  -5209369.83648  -4051019.40246  22922956.847    22922957.7064   22922963.5284
       168.0004        169.0004
 -24350426.78849 -18953707.80948  20216444.789    20216444.6554   20216448.6964
       212.0004        213.0004
  -4109287.29247  -3181974.88645  23903145.950    23903146.4434   23903155.2244
       152.0004        155.0004
  -2195625.87648  -1701633.30446  24446754.397    24446754.6334   24446762.9114
       167.0004        167.0004
   -881896.78447   -473601.19945  23889820.978    23889820.2244   23889823.8604
       148.0004        151.0004
 -11870247.26948  -9219246.24346  22818016.124    22818015.6074   22818020.2624
       176.0004        177.0004
 -19422142.52048 -15120781.48147  21129036.584    21129037.4504   21129044.9204
       193.0004        193.0004
  -5047875.97847  -3910660.66545  24629500.485    24629499.0644   24629501.3154
       140.0004        146.0004
 -15661861.87949 -12162558.74547  21593711.203    21593711.2494   21593715.1834
       198.0004        197.0004
 21  2  3  1 47 30.0000000  0 12G09G14G30G28G07G06G03G21G19G01G22G17
   -154012.30548    -89336.15046  24332396.766    24332396.6914   24332404.5074
       183.0004        184.0004
  -8377499.60048  -6512967.80846  22260193.362    22260193.3514   22260213.5994
       180.0004        180.0004
 -22688015.95949 -17663922.18248  20384415.879    20384415.7064   20384422.4404
       216.0004        216.0004
  -5241092.17748  -4075738.09446  22916921.455    22916921.4554   22916924.3224
       167.0004        167.0004
 -24319437.93849 -18929560.65647  20222340.340    20222341.0554   20222345.5834
       212.0004        212.0004
  -4217057.72647  -3265951.78245  23882638.722    23882638.7864   23882647.7714
       151.0004        154.0004
  -2235433.94848  -1732652.52846  24439179.697    24439180.3694   24439187.6154
       167.0004        169.0004
   -789371.88547   -401503.87345  23907427.671    23907425.7774   23907430.4864
       147.0004        150.0004
 -11919679.37348  -9257764.72446  22808609.536    22808609.3244   22808612.6654
       176.0004        176.0004
 -19373056.23648 -15082532.42347  21138377.412    21138377.8394   21138385.7714
       193.0004        193.0004
  -5064352.17347  -3923499.23945  24626364.940    24626362.9924   24626366.7794
       141.0004        145.0004
 -15665679.76649 -12165533.69847  21592983.598    21592984.2944   21592988.9734
       197.0004        197.0004
 21  2  3  1 48  0.0000000  0 12G09G14G30G28G07G06G03G21G19G01G22G17
    -81375.02848    -32735.72246  24346217.292    24346217.7224   24346226.9884
       184.0004        184.0004
  -8414329.70248  -6541666.60146  22253184.298    22253185.5734   22253203.6524
       180.0004        180.0004
 -22717969.04649 -17687262.25648  20378716.084    20378716.0164   20378722.8794
       216.0004        217.0004
  -5272948.05048  -4100560.83246  22910858.850    22910858.2174   22910862.9204
       165.0004        166.0004
 -24287870.04749 -18904962.30048  20228348.552    20228348.8424   20228353.0144
       212.0004        213.0004
  -4324757.25647  -3349873.43545  23862142.783    23862143.6124   23862151.4484
       149.0004        152.0004
  -2275250.35048  -1763678.24946  24431601.095    24431602.5844   24431611.0534
       168.0004        169.0004
   -696623.90947   -329232.72645  23925077.547    23925075.8454   23925080.7744
       146.0004        149.0004
 -11968785.42248  -9296029.13546  22799264.347    22799264.1054   22799268.6464
       176.0004        177.0004
 -19323404.03848 -15043842.37947  21147825.151    21147826.1874   21147834.1484
       192.0004        193.0004
  -5080637.43247  -3936189.03245  24623264.567    24623263.1474   24623266.0424
       139.0004        144.0004
 -15669177.56649 -12168259.23247  21592317.910    21592318.6654   21592323.3324
       197.0004        197.0004
 21  2  3  1 48 30.0000000  0 12G09G14G30G28G07G06G03G21G19G01G22G17
     -8921.77948     23721.28346  24360003.830    24360005.4494   24360015.5654
       183.0004        183.0004
  -8451209.46948  -6570404.06946  22246166.193    22246167.0814   22246186.6614
       180.0004        181.0004
 -22747394.69249 -17710191.33748  20373116.641    20373116.1694   20373123.2224
       216.0004        216.0004
  -5304935.80948  -4125486.34746  22904772.677    22904772.6444   22904775.6614
       165.0004        168.0004
 -24255722.17249 -18879912.01547  20234465.422    20234465.7484   20234470.4294
       211.0004        212.0004
  -4432381.65147  -3433736.58645  23841661.939    23841663.1854   23841671.2974
       149.0004        152.0004
  -2315071.04848  -1794707.32946  24424023.967    24424024.8434   24424034.3144
       166.0004        166.0004
   -603653.51047   -256788.27545  23942770.488    23942768.6764   23942772.4614
       147.0004        150.0004
 -12017564.29448  -9334038.62046  22789982.503    22789981.6394   22789985.5274
       175.0004        174.0004
 -19273186.09149 -15004711.52547  21157381.877    21157382.7404   21157390.2664
       206.0004        210.0004
  -5096728.13247  -3948727.25145  24620202.660    24620201.9604   24620205.5944
       138.0004        142.0004
 -15672355.61949 -12170735.62747  21591713.790    21591714.1754   21591718.9574
       197.0004        198.0004
 21  2  3  1 49  0.0000000  0 12G09G14G30G28G07G06G03G21G19G01G22G17
     63344.23948     80032.39846  24373755.720    24373757.0194   24373766.4154
       182.0004        182.0004
  -8488139.29448  -6599180.57046  22239140.282    22239140.4294   22239157.9154
       181.0004        181.0004
 -22776292.52949 -17732709.14248  20367616.973    20367617.1014   20367624.3774
       216.0004        216.0004
  -5337055.96748  -4150515.03346  22898660.339    22898659.1874   22898663.8144
       166.0004        169.0004
 -24222996.21749 -18854411.27647  20240692.720    20240693.3564   20240697.7424
       211.0004        211.0004
  -4539929.40047  -3517539.97245  23821196.657    23821197.5044   23821206.8054
       150.0004        154.0004
  -2354894.75447  -1825738.77846  24416444.512    24416446.2934   24416455.4664
       164.0004        165.0004
   -510464.65947   -184173.59145  23960501.864    23960501.4174   23960505.3704
       147.0004        151.0004
 -12066017.37348  -9371794.22846  22780762.621    22780761.9004   22780766.0434
       173.0004        174.0004
 -19222405.37549 -14965142.12147  21167044.995    21167045.6084   21167053.2384
       210.0004        209.0004
  -5112623.17047  -3961112.98045  24617175.193    24617176.6124   24617180.9964
       139.0004        143.0004
 -15675216.07049 -12172964.53347  21591169.702    21591170.0314   21591173.9704
       197.0004        197.0004
 21  2  3  1 49 30.0000000  0 12G09G14G30G28G07G06G03G21G19G01G22G17
    135421.27348    136196.24146  24387472.688    24387473.6514   24387481.6564
       182.0004        182.0004
  -8525118.30348  -6627995.35846  22232101.296    22232101.4724   22232121.8694
       179.0004        179.0004
 -22804660.79049 -17754814.27648  20362218.648    20362218.6344   20362225.8274
       216.0004        216.0004
  -5369308.36848  -4175646.75346  22892522.173    22892522.3444   22892526.2054
       167.0004        168.0004
 -24189692.57849 -18828460.38247  20247030.157    20247030.7934   20247035.8024
       211.0004        212.0004
  -4647397.39547  -3601281.22245  23800746.727    23800747.5434   23800755.7234
       152.0004        155.0004
  -2394718.72448  -1856770.37846  24408868.095    24408868.8204   24408876.6534
       166.0004        168.0004
   -417059.48947   -111390.36745  23978276.260    23978275.7864   23978279.9394
       149.0004        151.0004
 -12114144.65148  -9409295.94946  22771603.671    22771603.0674   22771607.4864
       173.0004        174.0004
 -19171063.36249 -14925135.33348  21176814.545    21176815.3754   21176823.1704
       219.0004        224.0004
  -5128320.68047  -3973344.80345  24614190.037    24614190.4994   24614194.9484
       139.0004        144.0004
 -15677760.83449 -12174947.42547  21590685.372    21590685.4434   21590689.6774
       198.0004        198.0004
 21  2  3  1 50  0.0000000  0 12G09G14G30G28G07G06G03G21G19G01G22G17
    207307.29348    192211.22946  24401153.492    24401153.6544   24401161.9274
       181.0004        181.0004
  -8562145.84148  -6656847.99246  22225056.027    22225056.6744   22225076.4274
       181.0004        182.0004
 -22832498.20749 -17776505.78648  20356921.672    20356921.6574   20356928.3574
       216.0004        216.0004
  -5401693.14848  -4200881.63246  22886360.023    22886360.3114   22886364.4024
       167.0004        169.0004
 -24155812.79349 -18802060.56447  20253477.091    20253477.8744   20253482.9374
       211.0004        211.0004
  -4754783.16247  -3684958.37345  23780311.254    23780312.1094   23780321.2394
       152.0004        154.0004
  -2434540.63848  -1887800.39046  24401289.373    24401290.3564   24401298.8574
       168.0004        170.0004
   -323441.20547    -38441.05345  23996090.457    23996090.3194   23996096.6614
       149.0004        152.0004
 -12161946.50548  -9446544.12646  22762508.198    22762507.8234   22762511.2214
       175.0004        177.0004
 -19119162.00149 -14884692.73148  21186691.096    21186692.2664   21186699.6534
       223.0004        224.0004
  -5143818.17147  -3985420.73845  24611242.587    24611241.8904   24611245.4164
       141.0004        146.0004
 -15679992.26749 -12176686.17347  21590260.222    21590260.6274   21590265.2064
       197.0004        197.0004
 21  2  3  1 50 30.0000000  0 12G09G14G30G28G07G06G03G21G19G01G22G17
    279000.20948    248075.74846  24414794.764    24414795.8944   24414803.7374
       179.0004        179.0004
  -8599221.19248  -6685737.87846  22218000.259    22218001.4114   22218020.1044
       182.0004        181.0004
 -22859803.33749 -17797782.52648  20351725.593    20351725.6174   20351732.6614
       216.0004        216.0004
  -5434209.82948  -4226219.30246  22880172.458    22880172.7374   22880177.1334
       169.0004        171.0004
 -24121357.10149 -18775211.98947  20260035.393    20260035.4854   20260039.1604
       211.0004        212.0004
  -4862084.04347  -3768569.33845  23759892.326    23759893.3314   23759902.3964
       153.0004        156.0004
  -2474357.94648  -1918826.84046  24393712.363    24393713.8384   24393721.4964
       169.0004        171.0004
   -229612.03747     34672.53945  24013946.483    24013945.3724   24013950.1794
       149.0004        151.0004
 -12209423.34248  -9483539.04346  22753472.365    22753472.5364   22753476.6634
       176.0004        176.0004
 -19066703.12549 -14843815.68548  21196674.867    21196675.2674   21196681.8614
       223.0004        223.0004
  -5159113.84847  -3997339.45845  24608330.321    24608329.1564   24608333.7434
       139.0004        142.0004
 -15681911.80349 -12178181.89447  21589895.047    21589895.4374   21589899.9564
       197.0004        198.0004
 21  2  3  1 51  0.0000000  0 12G09G14G30G28G07G06G03G21G19G01G22G17
    350498.37548    303788.50146  24428401.752    24428401.9304   24428410.1984
       179.0004        180.0004
  -8636343.37948  -6714664.25946  22210936.444    22210937.2244   22210956.3734
       182.0004        183.0004
 -22886574.55249 -17818643.21648  20346631.055    20346631.2134   20346637.9644
       216.0004        216.0004
  -5466858.05948  -4251659.46946  22873959.087    22873959.5204   22873964.3034
       170.0004        172.0004
 -24086326.15749 -18747915.15047  20266700.481    20266701.2324   20266705.2864
       211.0004        211.0004
  -4969297.07247  -3852111.87345  23739491.625    23739492.0614   23739500.5144
       154.0004        157.0004
  -2514168.01348  -1949847.62646  24386136.710    24386138.3294   24386146.1264
       171.0004        173.0004
   -135574.40247    107948.61645  24031839.760    24031839.5794   24031845.6914
       147.0004        149.0004
 -12256575.72348  -9520281.11546  22744499.917    22744499.5764   22744503.4414
       176.0004        176.0004
 -19013688.32749 -14802505.43948  21206762.137    21206762.8474   21206770.1464
       223.0004        222.0004
  -5174205.63047  -4009099.26645  24605456.728    24605456.9164   24605460.9124
       135.0004        139.0004
 -15683521.05849 -12179435.83347  21589588.918    21589589.0514   21589593.4924
       198.0004        199.0004
 21  2  3  1 51 30.0000000  0 12G09G14G30G28G07G06G03G21G19G01G22G17
    421800.34348    359348.39846  24441969.252    24441969.2744   24441978.4134
       179.0004        179.0004
  -8673511.12748  -6743626.14146  22203864.418    22203864.7674   22203883.9064
       182.0004        181.0004
 -22912809.94649 -17839086.37748  20341638.716    20341638.7894   20341645.6564
       216.0004        216.0004
  -5499637.15148  -4277201.60646  22867721.163    22867721.3954   22867725.8994
       169.0004        170.0004
 -24050720.09149 -18720170.16447  20273476.055    20273476.8834   20273481.1174
       210.0004        211.0004
  -5076419.09847  -3935583.49245  23719107.274    23719107.3124   23719115.3514
       155.0004        157.0004
  -2553967.67848  -1980860.32346  24378563.220    24378564.8114   24378571.9314
       172.0004        173.0004
    -41330.38847    181385.50245  24049775.733    24049774.6314   24049777.8624
       148.0004        152.0004
 -12303402.46448  -9556769.43046  22735589.770    22735589.3004   22735592.1364
       175.0004        177.0004
 -18960118.97449 -14760763.07648  21216955.397    21216956.7384   21216964.4964
       222.0004        223.0004
  -5189090.34147  -4020697.74445  24602624.353    24602625.9564   24602631.1264
       135.0004        140.0004
 -15684820.92249 -12180448.68047  21589341.858    21589341.9804   21589346.7764
       199.0004        200.0004
 21  2  3  1 52  0.0000000  0 12G09G14G30G28G07G06G03G21G19G01G22G17
    492903.36848    414753.24946  24455500.210    24455499.7034   24455508.6994
       178.0004        178.0004
  -8710724.47348  -6772623.54446  22196782.548    22196782.5664   22196801.3954
       180.0004        178.0004
 -22938508.93249 -17859111.57548  20336748.638    20336748.4674   20336755.3754
       216.0004        217.0004
  -5532547.74248  -4302846.22246  22861459.909    22861459.4444   22861463.0024
       168.0004        169.0004
 -24014540.62449 -18691978.39247  20280361.401    20280361.6924   20280365.5194
       210.0004        211.0004
  -5183448.14747  -4018982.70145  23698739.098    23698740.7174   23698748.5064
       155.0004        157.0004
  -2593755.36648  -2011863.68446  24370992.742    24370993.6204   24371001.6694
       172.0004        173.0004
     53117.11347    254980.95345  24067746.984    24067747.1444   24067752.1944
       148.0004        151.0004
 -12349905.39848  -9593005.46746  22726740.022    22726738.9714   22726743.4794
       176.0004        177.0004
 -18905997.75649 -14718590.69748  21227254.760    21227255.7284   21227263.1824
       223.0004        222.0004
  -5203766.70947  -4032133.87845  24599833.971    24599832.3104   24599837.2874
       136.0004        141.0004
 -15685814.76249 -12181223.07347  21589152.336    21589152.9324   21589157.5964
       199.0004        200.0004
 21  2  3  1 52 30.0000000  0 12G09G14G30G28G07G06G03G21G19G01G22G17
    563805.79848    470001.82146  24468992.463    24468993.2274   24469001.2584
       178.0004        179.0004
  -8747982.32148  -6801655.63446  22189692.039    22189692.2674   22189712.1884
       179.0004        180.0004
 -22963669.87349 -17878717.51048  20331960.175    20331960.3104   20331967.7634
       216.0004        217.0004
  -5565589.34448  -4328592.91146  22855171.100    22855171.0204   22855175.5704
       168.0004        168.0004
 -23977788.74749 -18663340.58547  20287354.060    20287354.9254   20287359.5754
       210.0004        210.0004
  -5290381.24247  -4102307.13145  23678391.007    23678391.5174   23678399.5844
       154.0004        157.0004
  -2633528.16848  -2042855.42746  24363425.311    24363425.3164   24363433.5174
       172.0004        172.0004
    147765.52247    328732.93445  24085759.656    24085759.1664   24085763.2054
       148.0004        151.0004
 -12396084.48248  -9628989.13646  22717952.834    22717951.8324   22717955.5124
       177.0004        177.0004
 -18851326.30349 -14675989.57348  21237658.247    21237659.3644   21237666.8034
       222.0004        222.0004
  -5218232.65747  -4043405.99945  24597081.577    24597079.9804   24597086.3984
       137.0004        143.0004
 -15686503.81849 -12181759.98347  21589021.419    21589021.7174   21589025.9924
       199.0004        198.0004
 21  2  3  1 53  0.0000000  0 12G09G14G30G28G07G06G03G21G19G01G22G17
    634506.02748    525092.84746  24482448.917    24482447.7934   24482454.7984
       177.0004        177.0004
  -8785283.62348  -6830721.55946  22182595.055    22182594.4544   22182614.1474
       180.0004        181.0004
 -22988291.18449 -17897902.93648  20327274.955    20327274.9834   20327282.1704
       216.0004        216.0004
  -5598761.07048  -4354440.98146  22848859.041    22848858.9494   22848863.5844
       168.0004        170.0004
 -23940464.70749 -18634256.91047  20294457.052    20294457.4064   20294461.8104
       210.0004        211.0004
  -5397215.47047  -4185554.53545  23658060.987    23658061.7234   23658070.6784
       157.0004        160.0004
  -2673283.35348  -2073833.46946  24355860.839    24355860.2154   24355868.2094
       172.0004        173.0004
    242612.28947    402639.51245  24103809.393    24103806.6684   24103812.8714
       147.0004        150.0004
 -12441939.99048  -9664720.66646  22709225.342    22709225.0974   22709229.3544
       175.0004        176.0004
 -18796106.27649 -14632960.96348  21248165.777    21248167.1454   21248174.8514
       222.0004        221.0004
  -5232486.30347  -4054512.71745  24594368.396    24594367.5214   24594372.3034
       137.0004        143.0004
 -15686890.03549 -12182060.90047  21588947.610    21588947.8654   21588952.6944
       198.0004        198.0004
 21  2  3  1 53 30.0000000  0 12G09G14G30G28G07G06G03G21G19G01G22G17
    705001.78448    580024.51146  24495862.613    24495862.0384   24495870.5814
       176.0004        176.0004
  -8822627.93948  -6859821.03546  22175488.281    22175488.5744   22175508.5754
       182.0004        183.0004
 -23012371.92649 -17916667.16448  20322692.667    20322692.6104   20322699.6194
       216.0004        216.0004
  -5632063.05748  -4380390.57846  22842521.744    22842522.0024   22842526.0994
       168.0004        168.0004
 -23902569.99249 -18604728.57647  20301667.880    20301668.4954   20301673.0244
       209.0004        209.0004
  -5503948.32647  -4268722.90145  23637751.059    23637750.6154   23637758.8354
       158.0004        160.0004
  -2713018.73648  -2104796.09246  24348297.042    24348298.0134   24348306.1514
       172.0004        173.0004
    337654.86147    476698.62845  24121892.576    24121892.0904   24121897.5784
       146.0004        149.0004
 -12487472.57748  -9700200.57946  22700561.933    22700560.9674   22700565.2124
       176.0004        178.0004
 -18740339.98349 -14589506.70548  21258778.071    21258779.1854   21258786.4224
       221.0004        221.0004
  -5246525.46647  -4065452.27845  24591696.734    24591697.3184   24591699.4884
       137.0004        142.0004
 -15686975.44549 -12182127.44247  21588930.795    21588931.4744   21588936.6224
       198.0004        198.0004
 21  2  3  1 54  0.0000000  0 12G09G14G30G28G07G06G03G21G19G01G22G17
    775292.43748    634796.34446  24509239.365    24509238.7234   24509246.3654
       174.0004        175.0004
  -8860013.16048  -6888952.36546  22168373.552    22168374.1614   22168393.9884
       183.0004        183.0004
 -23035909.52849 -17935008.15048  20318213.619    20318213.8704   20318220.7324
       216.0004        216.0004
  -5665494.07048  -4406440.71246  22836160.818    22836160.9414   22836164.7004
       169.0004        170.0004
 -23864104.37649 -18574755.36447  20308987.829    20308988.2694   20308992.9754
       209.0004        210.0004
  -5610575.85247  -4351809.21745  23617458.338    23617460.3194   23617468.3604
       157.0004        159.0004
  -2752730.46448  -2135740.29446  24340740.427    24340741.7034   24340747.4334
       172.0004        173.0004
    432892.30147    550909.59545  24140015.929    24140015.4174   24140020.8024
       146.0004        150.0004
 -12532681.22448  -9735428.04346  22691959.071    22691957.9284   22691962.0804
       177.0004        179.0004
 -18684028.13249 -14545627.32648  21269494.622    21269495.3274   21269502.3364
       221.0004        221.0004
  -5260346.98547  -4076222.27745  24589066.610    24589065.9154   24589071.5444
       138.0004        144.0004
 -15686760.64249 -12181960.04347  21588971.820    21588972.5984   21588977.6224
       199.0004        199.0004
 21  2  3  1 54 30.0000000  0 12G09G14G30G28G07G06G03G21G19G01G22G17
    845375.91348    689406.75846  24522574.217    24522574.1934   24522583.1864
       173.0004        174.0004
  -8897438.65748  -6918115.10446  22161251.830    22161252.2084   22161271.4314
       182.0004        181.0004
 -23058902.95849 -17952925.13248  20313838.090    20313838.1344   20313845.2944
       216.0004        216.0004
  -5699053.82648  -4432591.18346  22829774.355    22829773.8714   22829778.5544
       169.0004        169.0004
 -23825069.09149 -18544338.27147  20316416.127    20316416.6234   20316421.1554
       209.0004        210.0004
  -5717095.58147  -4434811.54545  23597187.467    23597188.4324   23597198.3124
       155.0004        157.0004
  -2792416.25948  -2166664.27946  24333187.300    24333189.0574   24333196.5984
       173.0004        174.0004
    528321.43347    625269.95945  24158176.846    24158176.1134   24158180.1624
       148.0004        152.0004
 -12577566.86248  -9770403.81446  22683416.810    22683415.8824   22683420.4664
       178.0004        179.0004
 -18627172.94249 -14501324.58148  21280313.822    21280314.3574   21280322.1084
       221.0004        221.0004
  -5273949.01547  -4086821.25145  24586476.766    24586476.1904   24586482.4234
       137.0004        142.0004
 -15686247.23849 -12181559.98647  21589070.493    21589070.6564   21589075.0404
       199.0004        199.0004
 21  2  3  1 55  0.0000000  0 12G09G14G30G28G07G06G03G21G19G01G22G17
    915250.70848    743854.56846  24535869.997    24535870.2484   24535879.7894
       172.0004        172.0004
  -8934903.15948  -6947308.20346  22154122.739    22154123.2704   22154142.3774
       182.0004        183.0004
 -23081350.53849 -17970416.74748  20309566.480    20309566.2054   20309573.6974
       216.0004        217.0004
  -5732741.74248  -4458841.49146  22823362.662    22823362.5094   22823368.0454
       168.0004        169.0004
 -23785464.75349 -18513477.75047  20323952.581    20323952.9534   20323957.5404
       209.0004        209.0004
  -5823504.41047  -4517727.47245  23576939.983    23576940.6334   23576949.0444
       156.0004        159.0004
  -2832073.10648  -2197565.69046  24325641.589    24325643.1144   24325650.3824
       172.0004        172.0004
    623940.06047    699777.93745  24176371.369    24176371.7324   24176376.4084
       148.0004        151.0004
 -12622129.30648  -9805127.74446  22674938.247    22674936.5054   22674940.7454
       178.0004        178.0004
 -18569775.98849 -14456599.67148  21291235.943    21291236.5034   21291244.1764
       221.0004        220.0004
  -5287329.18447  -4097247.37345  24583932.761    24583932.2514   24583934.2154
       137.0004        143.0004
 -15685436.63249 -12180928.33747  21589224.822    21589225.1004   21589229.4014
       200.0004        200.0004
 21  2  3  1 55 30.0000000  0 12G09G14G30G28G07G06G03G21G19G01G22G17
    984914.28548    798137.78246  24549128.611    24549128.0604   24549135.7134
       172.0004        173.0004
  -8972406.59748  -6976531.64846  22146985.379    22146985.9674   22147005.4054
       182.0004        183.0004
 -23103251.83249 -17987482.69948  20305398.542    20305398.5904   20305405.9754
       216.0004        216.0004
  -5766558.12548  -4485191.90546  22816928.931    22816928.7634   22816932.1024
       169.0004        170.0004
 -23745293.11549 -18482175.17047  20331597.042    20331597.5474   20331602.0114
       209.0004        210.0004
  -5929800.36747  -4600555.44945  23556712.287    23556713.2534   23556722.0764
       157.0004        159.0004
  -2871699.29348  -2228443.18246  24318102.556    24318102.5054   24318110.3594
       171.0004        171.0004
    719744.70547    774430.92045  24194602.540    24194603.3084   24194606.2494
       148.0004        152.0004
 -12666369.89748  -9839600.88046  22666518.743    22666517.6394   22666522.0304
       177.0004        178.0004
 -18511840.08749 -14411454.80548  21302260.668    21302261.7274   21302268.8534
       221.0004        221.0004
  -5300486.15847  -4107499.55745  24581428.448    24581428.2804   24581432.5774
       139.0004        144.0004
 -15684332.71549 -12180068.13047  21589434.733    21589435.0554   21589439.3764
       200.0004        200.0004
 21  2  3  1 56  0.0000000  0 12G09G14G30G28G07G06G03G21G19G01G22G17
   1054364.93948    852255.06746  24562342.846    24562343.8094   24562351.6614
       172.0004        174.0004
  -9009947.93648  -7005784.63546  22139842.840    22139842.9054   22139862.2714
       183.0004        183.0004
 -23124605.53649 -18004121.95248  20301334.815    20301334.8224   20301342.2694
       216.0004        216.0004
  -5800502.31948  -4511641.91246  22810468.851    22810468.5834   22810473.4504
       168.0004        168.0004
 -23704555.43749 -18450431.53747  20339349.437    20339349.7354   20339354.0404
       209.0004        210.0004
  -6035980.46747  -4683293.15445  23536508.177    23536508.3994   23536516.6794
       158.0004        161.0004
  -2911292.04048  -2259294.64246  24310568.400    24310568.8414   24310574.9324
       170.0004        170.0004
    815733.02747    849226.99245  24212868.125    24212868.5024   24212874.4624
       148.0004        151.0004
 -12710289.06748  -9873823.57546  22658161.679    22658160.6934   22658164.0384
       179.0004        180.0004
 -18453367.21749 -14365891.52748  21313388.788    21313389.1604   21313396.1854
       221.0004        222.0004
  -5313417.41347  -4117575.83945  24578967.964    24578967.1774   24578970.1064
       141.0004        146.0004
 -15682936.47749 -12178980.14647  21589700.312    21589700.3944   21589705.0814
       200.0004        200.0004
 21  2  3  1 56 30.0000000  0 12G09G14G30G28G07G06G03G21G19G01G22G17
   1123600.22148    906204.48146  24575519.690    24575519.9304   24575527.4004
       174.0004        176.0004
  -9047526.94748  -7035066.96346  22132691.101    22132691.2284   22132710.8784
       184.0004        184.0004
 -23145411.04049 -18020334.04948  20297375.913    20297375.9394   20297382.8904
       216.0004        216.0004
  -5834574.94948  -4538192.01046  22803984.554    22803984.6324   22803989.7704
       167.0004        168.0004
 -23663253.33549 -18418248.08447  20347208.109    20347208.8724   20347213.4594
       209.0004        209.0004
  -6142042.64947  -4765939.02245  23516325.587    23516325.1244   23516333.1304
       158.0004        160.0004
  -2950849.53348  -2290118.58646  24303038.541    24303039.2474   24303047.9154
       167.0004        168.0004
    911902.48347    924164.19445  24231168.556    24231168.9284   24231173.1724
       146.0004        149.0004
 -12753887.86548  -9907796.63046  22649864.064    22649864.0354   22649868.1844
       179.0004        181.0004
 -18394359.98249 -14319911.87048  21324616.923    21324617.7514   21324624.9454
       221.0004        221.0004
  -5326122.16047  -4127475.65845  24576550.683    24576549.2644   24576553.3954
       141.0004        146.0004
 -15681250.41449 -12177666.35347  21590020.314    21590021.2484   21590025.4494
       199.0004        199.0004
 21  2  3  1 57  0.0000000  0 12G09G14G30G28G07G06G03G21G19G01G22G17
   1192619.49648    959985.61346  24588652.635    24588652.6714   24588661.8144
       174.0004        174.0004
  -9085141.51548  -7064377.02346  22125532.864    22125533.8674   22125553.3054
       184.0004        184.0004
 -23165666.04649 -18036117.18648  20293521.472    20293521.6924   20293528.8394
       216.0004        217.0004
  -5868774.29048  -4564840.85146  22797477.230    22797477.1984   22797482.1564
       167.0004        169.0004
 -23621386.49049 -18385624.58247  20355175.689    20355176.0994   20355180.3974
       208.0004        209.0004
  -6247983.06247  -4848489.97745  23496165.427    23496165.4974   23496173.7614
       157.0004        158.0004
  -2990367.95448  -2320912.12546  24295519.513    24295519.9984   24295528.2284
       166.0004        167.0004
   1008251.34847    999241.20745  24249504.537    24249503.6524   24249508.5134
       146.0004        150.0004
 -12797165.30648  -9941519.30846  22641630.160    22641628.4974   22641631.7994
       181.0004        180.0004
 -18334819.41649 -14273516.62548  21335947.083    21335947.4694   21335955.5304
       221.0004        221.0004
  -5338597.04647  -4137196.35445  24574178.626    24574177.3644   24574179.9514
       142.0004        145.0004
 -15679275.33249 -12176127.34847  21590396.429    21590396.7604   21590401.5874
       198.0004        198.0004
 21  2  3  1 57 30.0000000  0 12G09G14G30G28G07G06G03G21G19G01G22G17
   1261420.38548   1013596.61046  24601743.837    24601744.6404   24601753.8024
       171.0004        171.0004
  -9122791.36348  -7093714.55246  22118368.453    22118368.8174   22118388.0274
       183.0004        183.0004
 -23185370.00749 -18051470.92548  20289772.200    20289772.2724   20289779.4344
       216.0004        217.0004
  -5903100.67048  -4591588.67246  22790943.707    22790943.8934   22790950.1964
       167.0004        168.0004
 -23578956.58649 -18352562.32947  20363250.667    20363250.7514   20363254.6584
       208.0004        209.0004
  -6353799.46747  -4930944.29245  23476027.721    23476029.2304   23476037.8494
       156.0004        158.0004
  -3029845.35347  -2351673.71346  24288005.324    24288007.7084   24288014.3714
       164.0004        165.0004
   1104776.25447   1074455.44245  24267871.748    24267872.1254   24267876.8824
       145.0004        149.0004
 -12840122.69948  -9974992.58646  22633455.231    22633453.9174   22633457.7774
       179.0004        179.0004
 -18274748.18249 -14226707.86748  21347377.442    21347378.4904   21347386.4444
       221.0004        221.0004
  -5350840.59147  -4146736.78745  24571845.927    24571844.5614   24571847.5504
       139.0004        143.0004
 -15677013.41949 -12174364.82447  21590827.695    21590827.9014   21590832.1834
       199.0004        199.0004
 21  2  3  1 58  0.0000000  0 12G09G14G30G28G07G06G03G21G19G01G22G17
   1330003.46548   1067037.84846  24614795.293    24614795.6334   24614804.0644
       168.0004        168.0004
  -9160473.11948  -7123076.95046  22111197.528    22111198.8594   22111217.3224
       183.0004        183.0004
 -23204519.38749 -18066392.52748  20286128.368    20286128.2844   20286135.3524
       216.0004        217.0004
  -5937551.08348  -4618433.15446  22784389.771    22784390.3564   22784394.0464
       168.0004        170.0004
 -23535962.69649 -18319060.60247  20371431.387    20371432.0534   20371436.1114
       208.0004        209.0004
  -6459486.64047  -5013297.98945  23455916.192    23455917.6944   23455926.0584
       157.0004        161.0004
  -3069276.71547  -2382399.47246  24280503.606    24280504.8034   24280511.3884
       163.0004        165.0004
   1201477.60947   1149807.12045  24286273.311    24286272.7734   24286277.6424
       145.0004        150.0004
 -12882758.31748 -10008215.12646  22625340.632    22625340.2904   22625344.0604
       177.0004        177.0004
 -18214145.93049 -14179485.33648  21358910.364    21358910.9164   21358918.8294
       221.0004        220.0004
  -5362848.59446  -4156093.71345  24569557.079    24569560.5794   24569565.4924
       134.0004        140.0004
 -15674464.65249 -12172378.78247  21591313.481    21591313.3024   21591316.9484
       199.0004        200.0004
 21  2  3  1 58 30.0000000  0 12G09G14G30G28G07G06G03G21G19G01G22G17
   1398364.14448   1120305.79146  24627806.177    24627805.5654   24627813.8624
       169.0004        171.0004
  -9198188.73048  -7152465.73346  22104021.014    22104021.3344   22104041.1754
       183.0004        183.0004
 -23223116.02349 -18080883.41748  20282589.825    20282589.7844   20282596.3244
       217.0004        217.0004
  -5972127.98348  -4645376.18346  22777810.212    22777808.9414   22777813.2554
       168.0004        168.0004
 -23492408.88749 -18285122.56047  20379719.611    20379719.7894   20379724.1214
       209.0004        209.0004
  -6565044.82547  -5095551.10645  23435828.407    23435829.5274   23435839.1324
       157.0004        159.0004
  -3108662.37848  -2413089.58946  24273009.139    24273009.2884   24273017.7074
       165.0004        167.0004
   1298349.08247   1225291.37645  24304708.758    24304708.2124   24304713.2384
       145.0004        148.0004
 -12925075.36748 -10041189.43346  22617288.801    22617288.1614   22617291.4714
       176.0004        177.0004
 -18153017.82349 -14131853.03648  21370541.973    21370542.9214   21370551.1654
       220.0004        220.0004
  -5374621.89846  -4165267.70745  24567322.936    24567321.3694   24567323.0884
       133.0004        139.0004
 -15671633.79649 -12170172.90947  21591850.693    21591851.1414   21591855.4704
       199.0004        199.0004
 21  2  3  1 59  0.0000000  0 12G09G14G30G28G07G06G03G21G19G01G22G17
   1466500.82548   1173399.22046  24640770.125    24640771.0014   24640780.0224
       171.0004        172.0004
  -9235937.06548  -7181880.03546  22096837.895    22096838.6024   22096858.0404
       184.0004        184.0004
 -23241158.65049 -18094942.62348  20279156.061    20279156.1594   20279163.4154
       217.0004        217.0004
  -6006831.13048  -4672417.59746  22771206.188    22771206.2814   22771209.4324
       167.0004        169.0004
 -23448296.02149 -18250748.92047  20388113.772    20388114.2334   20388118.5874
       208.0004        209.0004
  -6670470.96947  -5177701.33445  23415768.062    23415768.9404   23415776.9744
       158.0004        161.0004
  -3147999.51448  -2443741.90646  24265522.930    24265523.8774   24265533.0654
       166.0004        168.0004
   1395389.20747   1300907.02245  24323174.717    24323173.8444   24323178.0164
       143.0004        147.0004
 -12967074.44848 -10073915.98346  22609296.688    22609295.6404   22609299.5414
       176.0004        176.0004
 -18091365.78149 -14083812.49748  21382274.034    21382275.0844   21382282.8464
       220.0004        220.0004
  -5386158.11246  -4174256.98345  24565125.829    24565125.2994   24565129.0554
       132.0004        139.0004
 -15668522.48949 -12167748.51747  21592442.754    21592443.2864   21592447.5074
       198.0004        198.0004
 21  2  3  1 59 30.0000000  0 12G09G14G30G28G07G06G03G21G19G01G22G17
   1534413.00848   1226317.69046  24653694.991    24653695.0094   24653703.9044
       173.0004        174.0004
  -9273716.03348  -7211318.18146  22089648.290    22089649.1924   22089668.6984
       184.0004        184.0004
 -23258645.08449 -18108568.42948  20275828.538    20275828.6294   20275835.5574
       217.0004        217.0004
  -6041658.58548  -4699555.84446  22764578.480    22764578.3434   22764583.0854
       168.0004        170.0004
 -23403624.42649 -18215939.90547  20396614.549    20396615.2434   20396619.0904
       208.0004        209.0004
  -6775761.25247  -5259745.69345  23395732.949    23395733.6624   23395741.3004
       159.0004        161.0004
  -3187284.45948  -2474353.51846  24258047.106    24258048.0154   24258056.0034
       167.0004        170.0004
   1492596.39847   1376652.89645  24341671.785    24341670.9814   24341675.5684
       142.0004        145.0004
 -13008754.64548 -10106394.04946  22601365.268    22601364.2504   22601368.4784
       176.0004        178.0004
 -18029190.89249 -14035364.52648  21394106.202    21394106.7034   21394114.3624
       220.0004        219.0004
  -5397454.27047  -4183059.18645  24562976.637    24562975.2504   24562979.3704
       135.0004        141.0004
 -15665131.51849 -12165106.20747  21593088.101    21593088.4384   21593093.3024
       198.0004        199.0004
 21  2  3  2  0  0.0000000  0 12G09G14G30G28G07G06G03G21G19G01G22G17
   1602098.21348   1279059.29546  24666574.465    24666574.4704   24666583.7024
       172.0004        173.0004
  -9311525.24848  -7240779.90646  22082453.006    22082453.8024   22082473.4734
       184.0004        183.0004
 -23275574.90549 -18121760.49348  20272606.866    20272606.8014   20272613.8444
       217.0004        217.0004
  -6076610.59148  -4726791.16846  22757926.319    22757927.3334   22757930.5344
       168.0004        170.0004
 -23358395.99649 -18180696.98247  20405221.465    20405221.9424   20405225.6524
       208.0004        208.0004
  -6880913.45347  -5341682.48046  23375723.614    23375724.2614   23375730.7934
       161.0004        164.0004
  -3226515.13448  -2504922.83146  24250581.847    24250582.9504   24250589.5474
       169.0004        171.0004
   1589967.30447   1452526.29245  24360201.121    24360202.0544   24360204.8714
       140.0004        144.0004
 -13050117.03648 -10138624.45946  22593493.816    22593493.5284   22593497.1794
       177.0004        178.0004
 -17966495.92649 -13986511.30248  21406036.350    21406037.3224   21406044.5754
       219.0004        219.0004
  -5408508.83247  -4191673.11545  24560873.847    24560872.0854   24560874.4744
       136.0004        141.0004
 -15661463.42649 -12162247.94447  21593786.648    21593786.9304   21593791.3844
       199.0004        200.0004
 21  2  3  2  0 30.0000000  0 12G09G14G30G28G07G06G03G21G19G01G22G17
   1669555.62948   1331623.34446  24679412.301    24679412.1794   24679419.2504
       172.0004        174.0004
  -9349362.89448  -7270263.79746  22075253.990    22075253.9894   22075273.4754
       183.0004        184.0004
 -23291946.30949 -18134517.45748  20269491.567    20269491.5184   20269498.6934
       217.0004        217.0004
  -6111685.99948  -4754122.66846  22751252.879    22751252.2114   22751256.5854
       167.0004        168.0004
 -23312610.87749 -18145020.29447  20413934.086    20413934.4084   20413938.2434
       208.0004        208.0004
  -6985924.09347  -5423508.94946  23355739.833    23355739.7454   23355748.7474
       162.0004        164.0004
  -3265688.23548  -2535447.33946  24243127.352    24243128.6564   24243136.2484
       171.0004        173.0004
   1687499.97747   1528525.73545  24378762.304    24378760.6764   24378764.1894
       140.0004        144.0004
 -13091161.73648 -10170607.34046  22585683.294    22585682.8914   22585687.2094
       179.0004        180.0004
 -17903282.37249 -13937254.00348  21418065.541    21418066.1074   21418073.7194
       219.0004        218.0004
  -5419319.26047  -4200096.85545  24558815.525    24558814.3884   24558818.5264
       135.0004        141.0004
 -15657519.65249 -12159174.86847  21594537.417    21594537.7294   21594542.2014
       200.0004        200.0004
