     2.11           OBSERVATION DATA    G (GPS)             RINEX VERSION / TYPE
teqc  2018Jun8                          20210202 03:10:36UTCPGM / RUN BY / DATE
Linux2.6.32-573.12.1.el6.x86_64|x86_64|gcc|Win64-MinGW64|=+ COMMENT
BIT 2 OF LLI FLAGS DATA COLLECTED UNDER A/S CONDITION       COMMENT
-Unknown-                                                   MARKER NAME
CRNO                                                        MARKER NUMBER
-Unknown-           -Unknown-                               OBSERVER / AGENCY
-Unknown-           ASHTECH             -Unknown-           REC # / TYPE / VERS
-Unknown-           -Unknown-                               ANT # / TYPE
   408078.0667 -6158373.0436  1605163.8779                  APPROX POSITION XYZ
        0.0000        0.0000        0.0000                  ANTENNA: DELTA H/E/N
     1     1                                                WAVELENGTH FACT L1/2
     7    L1    L2    C1    P1    P2    S1    S2            # / TYPES OF OBSERV
    30.0000                                                 INTERVAL
Forced Modulo Decimation to 30 seconds                      COMMENT
 SNR is mapped to RINEX snr flag value [1-9]                COMMENT
  L1: 1 -> 1;  90 -> 5; 210 -> 9                            COMMENT
  L2: 1 -> 1; 150 -> 5; 250 -> 9                            COMMENT
pseudorange smoothing corrections not applied               COMMENT
  2021     2     6     0     0   30.0000000     GPS         TIME OF FIRST OBS
                                                            END OF HEADER
 21  2  6  0  0 30.0000000  0  9G03G21G08G04G07G09G16G27G22
  -2315719.74248  -1777728.16046  23900588.438    23900588.8424   23900597.8214
       181.0004        181.0004
  -8767754.26047  -6666787.69545  23009924.265    23009923.6244   23009929.5604
       150.0004        152.0004
 -24109144.67349 -18772013.25248  20148259.641    20148260.0664   20148267.6314
       212.0004        213.0004
 -22725273.56949 -17686159.17048  20254902.382    20254903.1624   20254908.9774
       214.0004        213.0004
  -2990513.71247  -2312499.41945  24198142.645    24198143.1464   24198147.6334
       156.0004        158.0004
 -16846182.19449 -13107897.15647  21328071.442    21328072.6254   21328079.5664
       203.0004        202.0004
  -5687006.32447  -4377713.50245  23850560.409    23850561.0594   23850565.4304
       142.0004        145.0004
 -18440649.69549 -14353374.88647  21423470.382    21423470.3404   21423476.6804
       209.0004        212.0004
   -754115.94647   -259006.53945  24592179.113    24592178.1384   24592186.1694
       137.0004        142.0004
 21  2  6  0  1  0.0000000  0  9G03G21G08G04G07G09G16G27G22
  -2254102.07148  -1729714.42346  23912313.840    23912314.6114   23912323.5064
       182.0004        183.0004
  -8819615.24747  -6707198.77345  23000056.129    23000054.2084   23000060.9554
       151.0004        154.0004
 -24114204.86549 -18775956.23848  20147296.749    20147297.1834   20147304.6544
       212.0004        213.0004
 -22710309.53449 -17674498.88848  20257750.585    20257751.1754   20257756.4134
       214.0004        213.0004
  -3054907.37147  -2362676.25345  24185888.696    24185889.0824   24185895.3524
       156.0004        159.0004
 -16901010.08449 -13150620.18947  21317638.741    21317639.3434   21317645.6634
       202.0004        203.0004
  -5604243.56247  -4313222.99645  23866309.417    23866308.8264   23866315.0074
       140.0004        144.0004
 -18375645.61049 -14302722.35047  21435839.332    21435839.8394   21435846.6614
       213.0004        212.0004
   -704699.69847   -220500.47545  24601581.872    24601581.4744   24601589.7864
       137.0004        143.0004
 21  2  6  0  1 30.0000000  0  9G03G21G08G04G07G09G16G27G22
  -2192606.77948  -1681796.07346  23924015.274    23924016.3644   23924025.2054
       180.0004        180.0004
  -8871452.73747  -6747591.52945  22990189.960    22990189.4614   22990196.7794
       149.0004        152.0004
 -24118653.60049 -18779422.75547  20146450.290    20146450.4584   20146458.0794
       212.0004        212.0004
 -22694772.55249 -17662392.14448  20260706.321    20260707.1414   20260713.3154
       214.0004        213.0004
  -3119457.70447  -2412975.19745  24173604.505    24173604.9244   24173609.5194
       155.0004        156.0004
 -16955360.07749 -13192970.82447  21307296.614    21307296.9254   21307303.4644
       202.0004        203.0004
  -5521596.08847  -4248822.35345  23882037.169    23882037.3284   23882041.6174
       140.0004        143.0004
 -18310145.86449 -14251683.56548  21448303.660    21448303.9114   21448311.0734
       221.0004        226.0004
   -655511.15547   -182171.78345  24610944.217    24610943.1964   24610950.8524
       139.0004        145.0004
 21  2  6  0  2  0.0000000  0 10G03G21G08G04G01G07G09G16G27G22
  -2131236.19748  -1633974.89346  23935693.951    23935694.6214   23935703.2754
       177.0004        178.0004
  -8923263.51847  -6787963.50345  22980330.209    22980330.5114   22980337.0464
       148.0004        151.0004
 -24122490.78049 -18782412.73348  20145720.189    20145720.5354   20145727.8564
       212.0004        213.0004
 -22678662.95149 -17649839.18748  20263772.368    20263772.9504   20263778.8534
       214.0004        213.0004
  -1482691.81154  -1143375.57043  24412988.619
        74.0004         74.0004
  -3184164.58347  -2463396.09745  24161291.748    24161292.0604   24161295.7884
       152.0004        153.0004
 -17009230.25549 -13234947.57047  21297045.387    21297045.8964   21297051.6774
       203.0004        203.0004
  -5439065.18347  -4184512.54045  23897740.766    23897741.4414   23897747.6184
       139.0004        143.0004
 -18244152.85549 -14200260.42148  21460861.015    21460861.7084   21460869.3144
       225.0004        225.0004
   -606551.59047   -144021.63545  24620260.717    24620258.9084   24620266.4234
       141.0004        145.0004
 21  2  6  0  2 30.0000000  0 10G03G21G08G04G01G07G09G16G27G22
  -2069993.10748  -1586253.05246  23947348.959    23947350.2014   23947358.7294
       180.0004        182.0004
  -8975045.54647  -6828313.06045  22970478.244    22970477.7044   22970482.8864
       148.0004        153.0004
 -24125716.90649 -18784926.57648  20145106.574    20145106.7504   20145113.9854
       212.0004        213.0004
 -22661981.63149 -17636840.75247  20266946.404    20266947.1654   20266952.9784
       214.0004        212.0004
  -1513158.54044  -1167116.199 4                                  24407209.986
        74.0004        109.000
  -3249027.86847  -2513938.90945  24148947.846    24148949.0994   24148951.3024
       150.0004        152.0004
 -17062619.05549 -13276549.24047  21286885.623    21286886.2884   21286892.5264
       203.0004        203.0004
  -5356652.45147  -4120294.80745  23913426.441    23913424.9714   23913430.2154
       138.0004        143.0004
 -18177669.60149 -14148455.28948  21473512.835    21473513.2354   21473520.6714
       225.0004        225.0004
   -557822.32647   -106050.90845  24629531.245    24629531.3714   24629541.3914
       139.0004        143.0004
 21  2  6  0  3  0.0000000  0 10G03G21G08G04G01G07G09G16G27G22
  -2008879.45548  -1538632.07046  23958978.294    23958979.6074   23958989.2384
       183.0004        185.0004
  -9026796.29747  -6868638.25945  22960631.165    22960628.7044   22960634.5414
       148.0004        151.0004
 -24128331.55349 -18786963.94548  20144608.630    20144609.0014   20144616.2784
       212.0004        213.0004
 -22644728.66549 -17623396.87847  20270229.680    20270230.5764   20270236.3034
       213.0004        212.0004
  -1513158.54045  -1167116.199 4                                  24407209.986
       102.0004        109.000
  -3314046.51047  -2564602.77045  24136574.768    24136575.9044   24136581.3224
       150.0004        154.0004
 -17115524.25149 -13317774.06547  21276819.140    21276819.1534   21276825.1004
       203.0004        203.0004
  -5274359.33447  -4056170.29045  23929083.500    23929084.9094   23929088.5304
       137.0004        141.0004
 -18110698.12049 -14096269.71148  21486257.305    21486257.5054   21486264.2854
       225.0004        224.0004
   -509325.61047    -68261.28145  24638758.586    24638757.9104   24638768.3794
       135.0004        139.0004
 21  2  6  0  3 30.0000000  0  9G03G21G08G04G07G09G16G27G22
  -1947897.56648  -1491113.78646  23970582.066    23970582.9654   23970593.2494
       181.0004        180.0004
  -9078513.06747  -6908936.95545  22950786.940    22950787.8164   22950793.0274
       147.0004        149.0004
 -24130334.88749 -18788524.96348  20144227.537    20144227.7714   20144235.3654
       212.0004        213.0004
 -22626904.57749 -17609507.96847  20273621.954    20273622.1094   20273627.9304
       213.0004        212.0004
  -3379220.01147  -2615387.27145  24124174.409    24124173.6784   24124178.9204
       152.0004        156.0004
 -17167944.11049 -13358620.69147  21266843.961    21266843.8004   21266849.9784
       203.0004        203.0004
  -5192186.68047  -3992139.58045  23944722.599    23944722.3134   23944724.8074
       137.0004        142.0004
 -18043241.02649 -14043705.72748  21499093.771    21499093.8504   21499101.1274
       224.0004        224.0004
   -461062.15746    -30653.43145  24647943.620    24647943.3684   24647952.5934
       134.0004        139.0004
 21  2  6  0  4  0.0000000  0  9G03G21G08G04G07G09G16G27G22
  -1887049.49848  -1443699.77546  23982161.152    23982161.6834   23982172.1394
       178.0004        177.0004
  -9130192.72347  -6949206.73945  22940952.644    22940952.7964   22940958.6314
       146.0004        150.0004
 -24131726.48949 -18789609.30848  20143962.334    20143962.5604   20143970.6314
       212.0004        213.0004
 -22608509.53149 -17595174.16447  20277121.891    20277122.5404   20277128.5824
       213.0004        212.0004
  -3444547.69447  -2666291.92345  24111740.793    24111741.8264   24111746.8074
       154.0004        157.0004
 -17219876.44749 -13399087.44447  21256960.497    21256960.6744   21256967.9384
       202.0004        202.0004
  -5110135.63447  -3928203.69245  23960335.144    23960336.1914   23960339.2424
       139.0004        144.0004
 -17975300.54649 -13990765.09148  21512021.100    21512022.2674   21512029.7644
       224.0004        223.0004
   -413033.13347      6771.68945  24657084.214    24657084.3184   24657092.3734
       137.0004        144.0004
 21  2  6  0  4 30.0000000  0  9G03G21G08G04G07G09G16G27G22
  -1826337.23948  -1396391.58246  23993714.814    23993716.0724   23993723.8134
       176.0004        176.0004
  -9181832.98047  -6989445.83245  22931128.099    22931126.8454   22931131.9524
       148.0004        151.0004
 -24132506.39349 -18790217.00848  20143814.123    20143814.3274   20143822.1334
       212.0004        213.0004
 -22589543.90349 -17580395.73947  20280731.155    20280731.6914   20280737.6394
       213.0004        212.0004
  -3510028.67247  -2717316.03745  24099281.310    24099281.0984   24099286.7424
       154.0004        156.0004
 -17271319.27149 -13439172.74047  21247169.905    21247170.3914   21247178.5254
       201.0004        200.0004
  -5028207.30347  -3864363.42745  23975927.292    23975926.6814   23975928.5454
       139.0004        143.0004
 -17906878.98949 -13937449.58848  21525042.661    21525042.7534   21525049.9514
       223.0004        222.0004
   -365239.40147     44013.49045  24666180.160    24666179.3284   24666187.4124
       141.0004        147.0004
 21  2  6  0  5  0.0000000  0  9G03G21G08G04G07G09G16G27G22
  -1765764.22748  -1349191.87046  24005241.565    24005242.6324   24005250.7284
       175.0004        176.0004
  -9233432.38047  -7029653.07845  22921308.278    22921307.0834   22921311.9924
       148.0004        151.0004
 -24132676.43449 -18790349.49748  20143781.626    20143781.8124   20143789.4534
       212.0004        213.0004
 -22570009.36449 -17565174.01747  20284448.437    20284448.8854   20284454.7794
       213.0004        212.0004
  -3575663.41647  -2768459.96845  24086789.337    24086790.8274   24086796.6604
       155.0004        157.0004
 -17322271.83649 -13478876.02147  21237473.269    21237474.3914   21237482.6564
       200.0004        200.0004
  -4946404.15847  -3800620.66045  23991492.839    23991493.5054   23991496.4604
       140.0004        145.0004
 -17837980.03049 -13883762.08748  21538153.767    21538154.0154   21538161.0394
       223.0004        223.0004
   -317683.72947     81069.83045  24675229.243    24675229.7244   24675237.2744
       139.0004        143.0004
 21  2  6  0  5 30.0000000  0  9G03G21G08G04G07G09G16G27G22
  -1705331.76548  -1302101.70446  24016741.560    24016741.9584   24016752.4904
       175.0004        176.0004
  -9284987.30247  -7069825.66845  22911497.672    22911496.0584   22911502.9574
       148.0004        151.0004
 -24132235.05749 -18790005.56147  20143865.815    20143866.2084   20143873.4794
       212.0004        212.0004
 -22549905.46049 -17549508.63347  20288274.359    20288274.9264   20288280.6524
       213.0004        212.0004
  -3641450.07147  -2819722.28145  24074272.882    24074273.2124   24074277.1654
       155.0004        158.0004
 -17372731.40349 -13518195.16047  21227872.448    21227872.8124   21227880.5494
       201.0004        202.0004
  -4864726.19447  -3736975.47645  24007035.808    24007035.6264   24007039.2844
       140.0004        144.0004
 -17768605.29049 -13829703.84348  21551355.867    21551356.0494   21551362.8144
       223.0004        224.0004
   -270366.21847    117940.57745  24684235.858    24684233.1864   24684239.8784
       138.0004        142.0004
 21  2  6  0  6  0.0000000  0  9G03G21G08G04G07G09G16G27G22
  -1645042.78148  -1255123.36346  24028215.093    24028215.1124   24028224.5604
       177.0004        179.0004
  -9336495.70747  -7109962.02945  22901693.869    22901694.7184   22901699.7534
       150.0004        154.0004
 -24131183.63249 -18789186.25248  20144066.223    20144066.2964   20144073.3484
       212.0004        213.0004
 -22529233.54449 -17533400.63947  20292207.638    20292208.4294   20292214.3034
       213.0004        212.0004
  -3707389.15447  -2871103.36345  24061725.275    24061726.1304   24061730.3814
       156.0004        158.0004
 -17422696.87049 -13557129.27647  21218364.818    21218365.1324   21218372.5764
       202.0004        204.0004
  -4783175.57947  -3673429.52345  24022552.815    24022553.0294   24022558.7754
       139.0004        144.0004
 -17698758.06049 -13775277.41648  21564647.146    21564647.0184   21564654.0134
       223.0004        222.0004
   -223288.76047    154624.27245  24693193.388    24693192.2974   24693199.3004
       139.0004        144.0004
 21  2  6  0  6 30.0000000  0  9G03G21G08G04G07G09G16G27G22
  -1584898.13948  -1208257.44246  24039659.595    24039660.0484   24039668.6774
       176.0004        177.0004
  -9387953.97747  -7150059.30545  22891901.875    22891902.2064   22891908.7994
       151.0004        155.0004
 -24129520.88849 -18787890.60047  20144382.298    20144382.7394   20144389.9814
       212.0004        212.0004
 -22507992.99049 -17516849.55447  20296250.390    20296250.5844   20296255.9734
       213.0004        212.0004
  -3773478.69247  -2922601.65845  24049147.733    24049147.7774   24049153.6884
       155.0004        156.0004
 -17472165.29649 -13595676.08647  21208951.431    21208952.1444   21208958.8164
       203.0004        205.0004
  -4701752.38947  -3609982.86945  24038047.944    24038047.2844   24038052.4744
       138.0004        143.0004
 -17628439.67749 -13720483.86248  21578026.899    21578027.7364   21578035.2574
       222.0004        222.0004
   -176451.42547    191120.87345  24702105.699    24702104.7444   24702112.9574
       141.0004        146.0004
 21  2  6  0  7  0.0000000  0  9G03G21G08G04G07G09G16G27G22
  -1524900.26548  -1161505.93446  24051076.827    24051077.6464   24051086.2024
       176.0004        177.0004
  -9439359.24947  -7190115.26945  22882121.193    22882120.9394   22882126.2224
       151.0004        154.0004
 -24127247.36949 -18786119.01347  20144814.937    20144815.0434   20144822.5244
       212.0004        212.0004
 -22486184.34249 -17499855.79947  20300399.557    20300400.6934   20300406.2634
       213.0004        211.0004
  -3839717.75147  -2974216.47545  24036544.592    24036544.2024   24036548.4034
       155.0004        158.0004
 -17521134.79649 -13633834.13547  21199633.733    21199634.2324   21199640.4414
       205.0004        207.0004
  -4620457.65247  -3546636.29945  24053519.865    24053519.9674   24053523.4484
       138.0004        144.0004
 -17557652.57849 -13665325.06148  21591497.984    21591498.3874   21591505.9374
       222.0004        222.0004
   -129855.75647    227429.17045  24710970.328    24710969.3084   24710977.7154
       139.0004        141.0004
 21  2  6  0  7 30.0000000  0  9G03G21G08G04G07G09G16G27G22
  -1465052.70248  -1114871.51646  24062464.828    24062466.0884   24062475.9264
       177.0004        179.0004
  -9490710.48447  -7230129.15545  22872349.771    22872348.5954   22872354.0784
       151.0004        153.0004
 -24124364.72449 -18783872.78347  20145363.248    20145363.5884   20145371.0094
       212.0004        212.0004
 -22463809.93549 -17482421.19047  20304657.690    20304658.0654   20304663.8944
       213.0004        211.0004
  -3906107.55147  -3025948.78245  24023910.451    24023909.8474   24023915.4974
       154.0004        157.0004
 -17569605.29949 -13671603.36447  21190411.111    21190411.2144   21190416.7524
       207.0004        208.0004
  -4539294.10747  -3483391.97645  24068961.442    24068961.9844   24068966.9494
       136.0004        141.0004
 -17486401.11049 -13609804.42248  21605057.637    21605057.3404   21605064.4994
       222.0004        222.0004
    -83504.56747    263546.94145  24719791.945    24719790.3894   24719799.6194
       135.0004        139.0004
 21  2  6  0  8  0.0000000  0  9G03G21G08G04G07G09G16G27G22
  -1405356.35848  -1068354.93046  24073825.296    24073825.7484   24073835.6494
       179.0004        180.0004
  -9542003.75447  -7270097.84945  22862586.441    22862586.8434   22862593.8324
       151.0004        155.0004
 -24120871.48349 -18781150.76848  20146028.170    20146028.4714   20146035.8624
       212.0004        213.0004
 -22440868.89449 -17464545.05047  20309023.299    20309023.7984   20309029.3524
       213.0004        211.0004
  -3972645.99147  -3077796.87645  24011245.967    24011247.6884   24011252.6914
       153.0004        155.0004
 -17617573.53349 -13708981.20047  21181282.298    21181282.6034   21181288.5494
       207.0004        207.0004
  -4458261.39447  -3420249.59445  24084381.434    24084381.0694   24084386.7634
       135.0004        140.0004
 -17414686.37149 -13553922.79048  21618703.554    21618703.5524   21618711.3684
       222.0004        221.0004
    -37397.42047    299474.52945  24728568.500    24728567.5384   24728573.8174
       137.0004        142.0004
 21  2  6  0  8 30.0000000  0  9G03G21G08G04G07G09G16G27G22
  -1345812.94948  -1021957.56246  24085156.233    24085157.2124   24085167.2744
       181.0004        182.0004
  -9593236.30247  -7310019.26245  22852837.931    22852837.5344   22852844.5404
       153.0004        156.0004
 -24116768.11549 -18777953.33448  20146808.832    20146809.2974   20146816.7944
       212.0004        213.0004
 -22417361.61749 -17446227.69347  20313496.423    20313497.1214   20313502.6634
       213.0004        211.0004
  -4039331.53547  -3129759.59545  23998557.928    23998558.7004   23998564.0224
       155.0004        158.0004
 -17665037.47649 -13745966.09547  21172249.577    21172249.9524   21172255.8134
       205.0004        204.0004
  -4377360.53147  -3357209.95645  24099777.300    24099776.8654   24099781.0384
       135.0004        141.0004
 -17342510.57849 -13497681.90748  21632438.205    21632438.4804   21632445.7944
       221.0004        221.0004
      8464.76947    335211.20345  24737294.309    24737293.4694   24737300.2764
       136.0004        141.0004
 21  2  6  0  9  0.0000000  0  9G03G21G08G04G07G09G16G27G22
  -1286425.57548   -975681.75146  24096455.637    24096457.2364   24096467.5344
       179.0004        179.0004
  -9644406.40947  -7349891.96845  22843101.260    22843101.1714   22843106.7064
       153.0004        156.0004
 -24112055.81249 -18774281.39048  20147705.639    20147706.0974   20147713.4754
       212.0004        213.0004
 -22393289.71749 -17427470.36147  20318076.980    20318077.5594   20318083.4184
       213.0004        212.0004
  -4106164.86747  -3181837.49145  23985840.891    23985840.6824   23985845.4204
       155.0004        157.0004
 -17711996.35849 -13782557.40947  21163311.358    21163312.3624   21163320.1984
       203.0004        202.0004
  -4296593.26647  -3294274.38945  24115147.747    24115148.2274   24115150.0974
       136.0004        141.0004
 -17269877.32249 -13441084.55148  21646260.580    21646260.4504   21646267.4224
       221.0004        221.0004
     54080.19347    370755.60845  24745974.999    24745972.3434   24745981.7504
       137.0004        142.0004
 21  2  6  0  9 30.0000000  0  9G03G21G08G04G07G09G16G27G22
  -1227196.03548   -929528.92946  24107729.037    24107729.1884   24107738.9444
       178.0004        179.0004
  -9695510.42047  -7389713.20245  22833377.566    22833375.9834   22833382.1364
       153.0004        156.0004
 -24106734.82449 -18770135.14848  20148718.312    20148718.6224   20148725.7674
       212.0004        213.0004
 -22368653.74649 -17408273.50047  20322765.274    20322765.8014   20322771.5654
       212.0004        211.0004
  -4173144.66047  -3234029.53245  23973093.209    23973094.4484   23973098.6434
       154.0004        156.0004
 -17758448.30249 -13818753.70447  21154472.184    21154472.4514   21154480.7234
       202.0004        202.0004
  -4215960.88547  -3231443.94045  24130492.297    24130491.9404   24130496.3154
       138.0004        143.0004
 -17196789.05049 -13384132.62848  21660167.269    21660168.1974   21660175.5364
       221.0004        221.0004
     99447.74047    406106.90745  24754607.357    24754606.2894   24754615.0394
       138.0004        144.0004
 21  2  6  0 10  0.0000000  0  9G03G21G08G04G07G09G16G27G22
  -1168127.19348   -883501.37046  24118968.969    24118969.8014   24118978.4294
       177.0004        177.0004
  -9746546.91547  -7429481.83645  22823663.990    22823664.0244   22823669.5694
       153.0004        155.0004
 -24100805.94549 -18765515.23748  20149846.343    20149846.4764   20149854.1774
       212.0004        213.0004
 -22343455.03049 -17388638.14447  20327560.135    20327560.5244   20327566.5964
       212.0004        210.0004
  -4240270.39947  -3286335.28945  23960320.929    23960320.9004   23960324.6584
       153.0004        156.0004
 -17804392.09549 -13854554.05947  21145729.303    21145729.5414   21145738.2344
       202.0004        202.0004
  -4135464.67647  -3168719.61345  24145809.313    24145809.7794   24145814.2284
       137.0004        142.0004
 -17123248.92649 -13326828.63048  21674161.507    21674162.1634   21674169.8854
       220.0004        219.0004
    144565.62247    441263.61645  24763193.313    24763193.1004   24763201.6894
       140.0004        144.0004
 21  2  6  0 10 30.0000000  0  9G03G21G08G04G07G09G16G27G22
  -1109219.77848   -837599.56046  24130178.510    24130179.5594   24130187.0384
       175.0004        175.0004
  -9797511.84247  -7469194.68145  22813966.600    22813965.9324   22813972.2834
       151.0004        155.0004
 -24094268.60449 -18760421.19448  20151090.395    20151090.6834   20151098.4244
       212.0004        213.0004
 -22317693.10449 -17368563.92347  20332462.808    20332463.1494   20332469.1464
       212.0004        210.0004
  -4307540.67947  -3338753.66245  23947520.472    23947520.0964   23947524.7074
       155.0004        159.0004
 -17849824.94849 -13889956.26047  21137083.021    21137083.9544   21137092.7394
       202.0004        203.0004
  -4055104.58847  -3106101.34145  24161100.789    24161101.5634   24161105.0714
       137.0004        143.0004
 -17049258.38149 -13269173.64148  21688241.636    21688242.0384   21688249.7974
       220.0004        220.0004
    189434.03247    476225.97245  24771730.503    24771729.6154   24771739.6704
       140.0004        144.0004
 21  2  6  0 11  0.0000000  0  8G03G21G08G04G07G09G16G27
  -1050474.66148   -791824.21946  24141357.355    24141358.1014   24141367.7604
       177.0004        178.0004
  -9848401.85047  -7508849.15845  22804283.600    22804282.4144   22804288.6464
       154.0004        157.0004
 -24087121.34749 -18754851.88348  20152450.106    20152450.6244   20152458.6364
       212.0004        213.0004
 -22291367.59449 -17348050.53847  20337472.154    20337472.6534   20337478.3784
       211.0004        210.0004
  -4374953.57147  -3391283.15945  23934691.812    23934692.0824   23934697.4644
       158.0004        162.0004
 -17894743.95849 -13924958.07347  21128537.385    21128537.4804   21128544.6524
       202.0004        204.0004
  -3974880.31747  -3043588.88845  24176366.743    24176366.4084   24176373.5144
       135.0004        141.0004
 -16974818.91349 -13211168.84948  21702407.848    21702407.5754   21702415.1494
       220.0004        220.0004
 21  2  6  0 11 30.0000000  0  8G03G21G08G04G07G09G16G27
   -991894.50348   -746177.42246  24152504.737    24152505.8504   24152515.3674
       179.0004        180.0004
  -9899214.46347  -7548443.32845  22794613.593    22794612.8894   22794618.1534
       155.0004        157.0004
 -24079365.81849 -18748808.59248  20153926.066    20153926.4764   20153934.3294
       212.0004        213.0004
 -22264479.89549 -17327099.08747  20342588.826    20342589.4004   20342594.8834
       211.0004        209.0004
  -4442508.56347  -3443923.35745  23921835.310    23921836.6214   23921842.2324
       159.0004        161.0004
 -17939148.12849 -13959558.70947  21120088.428    21120088.1504   21120094.4514
       204.0004        205.0004
  -3894793.88546  -2981183.87745  24191607.985    24191609.1564   24191609.8404
       133.0004        141.0004
 -16899933.75849 -13152816.76248  21716657.546    21716658.0724   21716665.4734
       220.0004        219.0004
 21  2  6  0 12  0.0000000  0  8G03G21G08G04G07G09G16G27
   -933483.87848   -700662.75446  24163620.701    24163621.1514   24163630.7544
       179.0004        180.0004
  -9949949.11847  -7587976.76745  22784956.610    22784956.8644   22784962.5854
       153.0004        154.0004
 -24071004.76749 -18742293.47548  20155517.518    20155517.8334   20155524.9284
       212.0004        213.0004
 -22237033.23749 -17305712.08247  20347811.612    20347812.1524   20347817.9174
       211.0004        210.0004
  -4510206.94547  -3496675.32745  23908954.643    23908953.9144   23908958.6074
       159.0004        160.0004
 -17983038.23149 -13993758.78047  21111735.556    21111736.2104   21111742.3454
       205.0004        205.0004
  -3814848.57547  -2918888.81745  24206821.493    24206819.8954   24206825.7354
       135.0004        142.0004
 -16824607.96849 -13094121.32448  21730990.913    21730991.5734   21730998.9954
       219.0004        218.0004
 21  2  6  0 12 30.0000000  0  8G03G21G08G04G07G09G16G27
   -875244.36548   -655281.34946  24174702.270    24174703.0674   24174712.0044
       178.0004        178.0004
 -10000602.91647  -7627447.19645  22775319.384    22775318.7774   22775323.5224
       153.0004        157.0004
 -24062038.55649 -18735306.80048  20157223.278    20157223.9244   20157231.2034
       212.0004        213.0004
 -22209028.32249 -17283890.07147  20353141.204    20353141.5634   20353147.0184
       211.0004        210.0004
  -4578047.64647  -3549538.19045  23896044.349    23896044.4634   23896047.8854
       159.0004        160.0004
 -18026412.43749 -14027556.84947  21103481.471    21103482.1924   21103488.4934
       206.0004        207.0004
  -3735044.93747  -2856704.21945  24222006.733    24222007.3424   24222008.3184
       137.0004        144.0004
 -16748844.01049 -13035084.47148  21745408.875    21745409.2514   21745416.5614
       219.0004        219.0004
 21  2  6  0 13  0.0000000  0  8G03G21G08G04G07G09G16G27
   -817177.34748   -610034.43346  24185753.141    24185753.6534   24185763.5374
       178.0004        180.0004
 -10051172.49447  -7666851.99645  22765696.354    22765696.2454   22765701.3904
       155.0004        159.0004
 -24052467.02449 -18727848.44348  20159045.059    20159045.3604   20159052.5684
       212.0004        213.0004
 -22180465.12649 -17261633.03947  20358576.712    20358576.9224   20358582.5994
       211.0004        210.0004
  -4646029.70247  -3602511.20946  23883106.538    23883107.5734   23883111.6854
       160.0004        163.0004
 -18069268.32049 -14060951.03547  21095326.834    21095327.1434   21095333.6914
       207.0004        207.0004
  -3655382.97747  -2794629.94845  24237165.740    24237167.0034   24237170.6634
       138.0004        144.0004
 -16672643.75149 -12975707.62948  21759909.376    21759909.7374   21759916.9044
       219.0004        219.0004
 21  2  6  0 13 30.0000000  0  8G03G21G08G04G07G09G16G27
   -759284.83948   -564923.49246  24196768.822    24196769.8654   24196780.5854
       178.0004        180.0004
 -10101655.16947  -7706189.06845  22756088.919    22756088.4884   22756095.1014
       155.0004        158.0004
 -24042290.50449 -18719918.66848  20160981.626    20160981.8974   20160989.0914
       212.0004        213.0004
 -22151344.67249 -17238941.78447  20364117.894    20364118.5104   20364124.0444
       211.0004        210.0004
  -4714151.95547  -3655593.45546  23870145.061    23870145.0044   23870149.0614
       161.0004        163.0004
 -18111604.36449 -14093940.14947  21087269.962    21087270.4964   21087277.8034
       207.0004        208.0004
  -3575864.00747  -2732667.09645  24252298.498    24252298.3804   24252302.3644
       140.0004        145.0004
 -16596009.88449 -12915992.91548  21774492.197    21774492.6374   21774500.0064
       219.0004        218.0004
 21  2  6  0 14  0.0000000  0  8G03G21G08G04G07G09G16G27
   -701568.85748   -519950.10346  24207751.105    24207752.5724   24207762.4714
       177.0004        178.0004
 -10152048.24447  -7745456.33945  22746500.330    22746499.1214   22746505.7654
       157.0004        160.0004
 -24031509.74849 -18711518.04747  20163032.714    20163033.2284   20163040.4114
       212.0004        212.0004
 -22121667.97049 -17215817.07447  20369765.542    20369765.8364   20369771.4204
       211.0004        210.0004
  -4782413.52547  -3708784.23645  23857154.178    23857154.4074   23857159.2474
       161.0004        162.0004
 -18153419.14949 -14126523.07247  21079312.904    21079313.0944   21079320.3664
       207.0004        208.0004
  -3496489.17147  -2670816.55945  24267400.094    24267402.1194   24267405.9434
       137.0004        142.0004
 -16518945.25749 -12855942.54248  21789157.499    21789157.4554   21789164.7244
       219.0004        219.0004
 21  2  6  0 14 30.0000000  0  8G03G21G08G04G07G09G16G27
   -644030.86548   -475115.30446  24218703.312    24218703.5554   24218711.8114
       181.0004        183.0004
 -10202348.78847  -7784651.52645  22736928.088    22736927.3364   22736933.0624
       156.0004        157.0004
 -24020125.29949 -18702647.02847  20165198.855    20165199.2264   20165207.1124
       212.0004        212.0004
 -22091435.57249 -17192259.36847  20375517.740    20375518.3344   20375524.6494
       211.0004        210.0004
  -4850812.76347  -3762082.34146  23844138.783    23844139.0454   23844143.1614
       161.0004        163.0004
 -18194710.68749 -14158698.29047  21071455.704    21071456.0294   21071462.8264
       207.0004        207.0004
  -3417258.90447  -2609078.67145  24282479.888    24282479.2324   24282481.9714
       137.0004        144.0004
 -16441452.20549 -12795558.33748  21803903.788    21803904.0344   21803910.7974
       218.0004        217.0004
 21  2  6  0 15  0.0000000  0  8G03G21G08G04G07G09G16G27
   -586674.10848   -430421.86146  24229616.558    24229617.4704   24229627.0984
       181.0004        181.0004
 -10252555.10247  -7823773.25645  22727372.801    22727372.9304   22727377.8564
       156.0004        158.0004
 -24008138.24849 -18693306.44947  20167480.101    20167480.3834   20167488.3384
       212.0004        212.0004
 -22060649.48049 -17168270.21147  20381376.504    20381377.1164   20381382.9844
       210.0004        209.0004
  -4919350.03247  -3815487.97446  23831095.361    23831095.8684   23831100.4374
       162.0004        164.0004
 -18235478.60649 -14190465.49147  21063697.974    21063698.4404   21063704.5234
       207.0004        208.0004
  -3338175.13046  -2547454.93345  24297528.839    24297527.6814   24297532.7334
       134.0004        140.0004
 -16363534.45149 -12734843.18948  21818731.181    21818731.2114   21818738.1764
       217.0004        217.0004
 21  2  6  0 15 30.0000000  0  9G03G21G08G04G01G07G09G16G27
   -529499.20948   -385870.19546  24240495.116    24240496.0204   24240506.5274
       177.0004        176.0004
 -10302662.98147  -7862818.29345  22717837.985    22717838.3094   22717843.5494
       155.0004        157.0004
 -23995548.57349 -18683496.30547  20169876.194    20169876.6174   20169883.8154
       212.0004        212.0004
 -22029309.41049 -17143849.38547  20387340.698    20387341.1694   20387346.6434
       210.0004        209.0004
   -617728.80454   -458704.25744  24072999.727
        74.0004         95.0004
  -4988022.92347  -3868999.27446  23818026.790    23818028.1114   23818033.1514
       162.0004        164.0004
 -18275720.08349 -14221822.48547  21056039.999    21056040.3874   21056046.8064
       208.0004        208.0004
  -3259237.45747  -2485945.05145  24312550.817    24312550.0274   24312553.0844
       135.0004        140.0004
 -16285193.47149 -12673798.26148  21833639.816    21833639.3274   21833646.4974
       218.0004        218.0004
 21  2  6  0 16  0.0000000  0  9G03G21G08G04G01G07G09G16G27
   -472507.60248   -341461.15746  24251340.013    24251341.5014   24251351.1144
       173.0004        172.0004
 -10352669.70547  -7901784.51645  22708322.091    22708321.7164   22708327.7754
       156.0004        158.0004
 -23982356.71849 -18673216.91047  20172386.913    20172386.9524   20172394.0354
       212.0004        212.0004
 -21997416.33149 -17118997.63547  20393409.953    20393410.3584   20393415.5944
       210.0004        209.0004
   -686967.24946   -512655.95645  24059823.174                    24059834.2774
       126.0004        147.0004
  -5056830.36147  -3922615.41646  23804934.986    23804935.5094   23804938.9284
       163.0004        165.0004
 -18315433.53549 -14252768.01847  21048483.355    21048483.7264   21048490.1194
       208.0004        209.0004
  -3180446.43247  -2424549.46745  24327542.989    24327545.9014   24327546.1844
       137.0004        141.0004
 -16206431.88249 -12612425.57348  21848626.309    21848627.0674   21848634.1814
       218.0004        218.0004
 21  2  6  0 16 30.0000000  0  9G03G21G08G04G01G07G09G16G27
   -415702.82148   -297197.71346  24262152.282    24262152.3974   24262162.0534
       174.0004        175.0004
 -10402573.78547  -7940670.74645  22698825.270    22698825.5084   22698832.7154
       156.0004        158.0004
 -23968564.25249 -18662469.50547  20175010.689    20175011.1764   20175018.4684
       211.0004        212.0004
 -21964972.36249 -17093716.61747  20399583.254    20399583.7664   20399589.7204
       210.0004        209.0004
   -756405.80547   -566763.90845  24046611.957    24046611.0364   24046619.4814
       141.0004        148.0004
  -5125773.09747  -3976337.00646  23791815.237    23791816.0974   23791818.3904
       163.0004        163.0004
 -18354618.65249 -14283301.85847  21041027.156    21041026.9854   21041033.4394
       209.0004        210.0004
  -3101804.02546  -2363269.66945  24342506.902    24342508.5544   24342510.6614
       133.0004        138.0004
 -16127253.50749 -12550728.12848  21863693.878    21863694.2154   21863701.0554
       218.0004        217.0004
 21  2  6  0 17  0.0000000  0  9G03G21G08G04G01G07G09G16G27
   -359085.96648   -253080.82946  24272925.926    24272926.6434   24272935.8934
       175.0004        176.0004
 -10452371.18647  -7979473.87045  22689350.341    22689348.4124   22689354.4914
       156.0004        158.0004
 -23954171.35249 -18651254.24747  20177749.954    20177750.2474   20177757.3964
       212.0004        212.0004
 -21931977.82949 -17068006.59547  20405861.544    20405862.9054   20405868.1914
       209.0004        208.0004
   -826041.64447   -621025.53745  24033357.698    24033359.1444   24033367.5514
       142.0004        146.0004
  -5194848.95847  -4030162.30945  23778669.389    23778670.1334   23778673.1404
       161.0004        162.0004
 -18393273.21149 -14313422.28847  21033670.629    21033670.8514   21033677.4364
       209.0004        208.0004
  -3023310.67246  -2302105.95045  24357445.295    24357443.6044   24357449.4594
       131.0004        138.0004
 -16047660.40249 -12488707.51648  21878839.695    21878840.4144   21878846.9954
       218.0004        217.0004
 21  2  6  0 17 30.0000000  0  9G03G21G08G04G01G07G09G16G27
   -302659.40448   -209112.14746  24283663.920    24283663.8834   24283672.3214
       174.0004        174.0004
 -10502060.03947  -8018192.40445  22679895.235    22679893.8224   22679898.4214
       156.0004        159.0004
 -23939179.72849 -18639572.45147  20180602.919    20180602.9824   20180610.1914
       212.0004        212.0004
 -21898434.66149 -17041869.07047  20412245.417    20412245.6014   20412252.0404
       210.0004        209.0004
   -895873.47247   -675439.78645  24020070.648    24020070.9614   24020080.8474
       144.0004        149.0004
  -5264057.79047  -4084091.24646  23765500.813    23765501.8464   23765504.7124
       161.0004        164.0004
 -18431396.63749 -14343128.85947  21026415.401    21026415.9814   21026422.5064
       208.0004        208.0004
  -2944968.01246  -2241059.70645  24372352.559    24372354.0514   24372359.1084
       131.0004        138.0004
 -15967656.18549 -12426366.54748  21894064.155    21894064.5014   21894071.3444
       218.0004        218.0004
 21  2  6  0 18  0.0000000  0  9G03G21G08G04G01G07G09G16G27
   -246424.89448   -165293.15746  24294361.859    24294364.0604   24294374.0454
       171.0004        172.0004
 -10551637.74047  -8056824.31145  22670459.832    22670460.1764   22670464.8934
       157.0004        159.0004
 -23923589.67649 -18627424.34247  20183569.172    20183569.3174   20183577.0964
       212.0004        212.0004
 -21864343.60749 -17015304.61447  20418732.567    20418733.2154   20418738.2164
       209.0004        208.0004
   -965898.72447   -730004.79045  24006747.399    24006747.2354   24006754.5764
       145.0004        149.0004
  -5333397.67547  -4138122.29846  23752305.860    23752306.1764   23752309.8834
       163.0004        166.0004
 -18468987.20349 -14372420.20347  21019262.704    21019262.9534   21019269.5024
       208.0004        208.0004
  -2866776.35946  -2180131.15845  24387233.987    24387231.3144   24387235.4744
       129.0004        136.0004
 -15887243.19549 -12363707.06448  21909366.775    21909366.6524   21909372.8934
       217.0004        216.0004
 21  2  6  0 18 30.0000000  0  9G03G21G08G04G01G07G09G16G27
   -190384.33148   -121625.31846  24305028.625    24305029.0924   24305039.1754
       172.0004        173.0004
 -10601101.22747  -8095367.23045  22661047.386    22661045.9394   22661053.2154
       156.0004        156.0004
 -23907402.25049 -18614810.75047  20186649.470    20186649.5634   20186657.0554
       212.0004        212.0004
 -21829705.83349 -16988314.14447  20425323.717    20425324.4244   20425329.8494
       209.0004        208.0004
  -1036115.20747   -784718.78045  23993382.969    23993383.7194   23993393.2114
       145.0004        148.0004
  -5402868.18347  -4192255.13546  23739084.509    23739085.4674   23739090.5724
       164.0004        165.0004
 -18506043.53649 -14401295.26647  21012210.492    21012211.0184   21012217.6894
       208.0004        208.0004
  -2788736.74346  -2119321.01845  24402084.307    24402083.2544   24402087.9064
       126.0004        134.0004
 -15806424.25349 -12300731.24148  21924745.779    21924746.2394   21924752.5544
       217.0004        216.0004
 21  2  6  0 19  0.0000000  0  9G03G21G08G04G01G07G09G16G27
   -134539.87548    -78110.24546  24315655.197    24315656.0044   24315665.8664
       174.0004        175.0004
 -10650448.05847  -8133819.25845  22651656.916    22651657.0214   22651662.4284
       155.0004        156.0004
 -23890618.14849 -18601732.21747  20189843.754    20189843.8154   20189851.2754
       211.0004        212.0004
 -21794522.82749 -16960898.81947  20432018.796    20432019.1024   20432025.1694
       209.0004        208.0004
  -1106521.13147   -839580.42045  23979986.288    23979985.7704   23979996.1014
       143.0004        147.0004
  -5472468.55347  -4246489.16245  23725839.789    23725840.6564   23725845.2534
       162.0004        161.0004
 -18542564.68049 -14429753.28547  21005260.981    21005261.4384   21005268.2884
       208.0004        210.0004
  -2710850.16546  -2058630.19445  24416904.216    24416904.5654   24416907.5574
       127.0004        135.0004
 -15725202.51449 -12237441.56448  21940202.075    21940202.0884   21940208.8704
       216.0004        216.0004
 21  2  6  0 19 30.0000000  0  9G03G21G08G04G01G07G09G16G27
    -78892.42048    -34748.67746  24326243.964    24326244.8864   24326254.8024
       171.0004        172.0004
 -10699674.71747  -8172177.62545  22642287.387    22642286.5164   22642293.6424
       153.0004        157.0004
 -23873237.77749 -18588189.06147  20193150.774    20193151.1464   20193158.7074
       212.0004        212.0004
 -21758794.85849 -16933058.84547  20438817.233    20438817.7744   20438823.9824
       209.0004        207.0004
  -1177113.42047   -894587.29645  23966552.454    23966552.4294   23966561.7354
       144.0004        148.0004
  -5542196.92447  -4300822.93845  23712571.199    23712572.4854   23712576.8154
       160.0004        162.0004
 -18578548.31249 -14457792.47247  20998413.998    20998414.3774   20998420.9864
       210.0004        211.0004
  -2633116.48546  -1998058.52645  24431696.597    24431696.4984   24431702.2494
       131.0004        138.0004
 -15643579.82649 -12173839.45948  21955734.472    21955734.3794   21955740.9734
       216.0004        216.0004
 21  2  6  0 20  0.0000000  0  9G03G21G08G04G01G07G09G16G27
    -23444.66548      8457.27446  24336796.042    24336797.1924   24336806.6134
       172.0004        173.0004
 -10748779.08047  -8210440.69845  22632945.270    22632944.4714   22632950.9544
       156.0004        159.0004
 -23855263.26049 -18574182.92447  20196571.012    20196571.2804   20196578.8624
       211.0004        212.0004
 -21722523.97449 -16904795.81447  20445720.133    20445720.3754   20445725.9554
       208.0004        207.0004
  -1247890.59547   -949738.19845  23953083.927    23953085.0584   23953093.0884
       144.0004        149.0004
  -5612053.19047  -4355256.35546  23699278.972    23699279.6124   23699284.4144
       163.0004        166.0004
 -18613993.95849 -14485412.44047  20991668.734    20991668.9354   20991675.8284
       210.0004        210.0004
  -2555536.95946  -1937606.94745  24446459.408    24446459.4184   24446463.5584
       128.0004        134.0004
 -15561559.79549 -12109927.73048  21971342.009    21971342.0444   21971348.4284
       216.0004        215.0004
 21  2  6  0 20 30.0000000  0  9G03G21G08G04G01G07G09G16G27
     31801.60948     51506.18746  24347309.065    24347310.3204   24347320.0704
       172.0004        173.0004
 -10797758.72847  -8248606.61545  22623626.107    22623625.0854   22623629.7514
       157.0004        159.0004
 -23836695.07249 -18559714.19647  20200104.670    20200104.8754   20200112.4604
       211.0004        212.0004
 -21685711.48349 -16876110.77147  20452724.770    20452725.8214   20452731.1114
       209.0004        207.0004
  -1318850.52447  -1005031.48845  23939580.290    23939581.1054   23939589.3754
       145.0004        147.0004
  -5682035.87848  -4409788.29546  23685962.010    23685962.4914   23685966.7984
       166.0004        168.0004
 -18648900.42149 -14512612.28047  20985026.206    20985026.8184   20985033.4604
       209.0004        210.0004
  -2478112.82446  -1877276.46345  24461193.175    24461194.7884   24461199.7634
       128.0004        135.0004
 -15479145.35049 -12045708.66948  21987023.271    21987024.4324   21987031.6534
       215.0004        215.0004
 21  2  6  0 21  0.0000000  0  9G03G21G08G04G01G07G09G16G27
     86844.22048     94396.39446  24357781.973    24357783.8024   24357793.9314
       171.0004        172.0004
 -10846610.49447  -8286672.85845  22614327.147    22614326.8714   22614333.0984
       156.0004        157.0004
 -23817534.42949 -18544783.80747  20203751.011    20203751.0484   20203758.4304
       211.0004        212.0004
 -21648358.83749 -16847004.80547  20459832.710    20459833.5304   20459838.8734
       209.0004        207.0004
  -1389991.22447  -1060465.67445  23926043.735    23926043.1414   23926052.0844
       145.0004        149.0004
  -5752143.96347  -4464417.96646  23672621.710    23672621.6254   23672624.7674
       164.0004        165.0004
 -18683266.70749 -14539391.19047  20978486.411    20978486.8894   20978493.7674
       210.0004        211.0004
  -2400845.01246  -1817067.74745  24475894.488    24475894.6054   24475898.8664
       126.0004        135.0004
 -15396339.50449 -11981184.62348  22002782.426    22002782.4414   22002789.1794
       214.0004        214.0004
 21  2  6  0 21 30.0000000  0  9G03G21G08G04G01G07G09G16G27
    141682.15848    137127.16946  24368218.928    24368219.6104   24368227.6414
       171.0004        172.0004
 -10895331.35647  -8324637.09445  22605054.103    22605054.9204   22605061.0854
       154.0004        155.0004
 -23797781.90949 -18529392.21747  20207509.842    20207510.0844   20207517.2424
       211.0004        212.0004
 -21610466.76549 -16817478.51447  20467043.565    20467044.1484   20467049.9474
       209.0004        207.0004
  -1461309.84547  -1116038.45345  23912470.581    23912471.0314   23912481.9154
       145.0004        149.0004
  -5822375.74847  -4519143.99545  23659254.268    23659254.0894   23659259.3834
       160.0004        162.0004
 -18717090.98849 -14565747.75947  20972049.759    20972050.0704   20972057.1644
       210.0004        211.0004
  -2323733.57346  -1756980.92644  24490567.419    24490567.6904   24490576.4324
       122.0004        129.0004
 -15313144.55349 -11916357.37748  22018613.967    22018614.0484   22018620.8814
       215.0004        214.0004
 21  2  6  0 22  0.0000000  0  9G03G21G08G04G01G07G09G16G27
    196314.25148    179697.52646  24378615.223    24378615.7334   24378625.4994
       171.0004        172.0004
 -10943917.69247  -8362496.51445  22595811.689    22595809.8854   22595815.8184
       153.0004        156.0004
 -23777437.64349 -18513539.53547  20211380.741    20211381.2514   20211388.7024
       211.0004        211.0004
 -21572035.72149 -16787532.24447  20474356.466    20474357.0464   20474363.3254
       208.0004        207.0004
  -1532803.15347  -1171747.35745  23898865.613    23898866.2294   23898876.1014
       143.0004        147.0004
  -5892729.97947  -4573965.47546  23645867.516    23645867.3164   23645872.2044
       161.0004        163.0004
 -18750371.20049 -14591680.38247  20965716.863    20965717.4854   20965724.3364
       210.0004        210.0004
  -2246778.29646  -1697015.79845  24505214.204    24505213.4484   24505217.4124
       125.0004        133.0004
 -15229562.45649 -11851228.47248  22034518.433    22034518.9484   22034526.0134
       214.0004        214.0004
 21  2  6  0 22 30.0000000  0  9G03G21G08G04G01G07G09G16G27
    250736.68448    222104.45746  24388969.077    24388970.9874   24388983.7704
       173.0004        174.0004
 -10992368.95247  -8400250.69845  22586591.658    22586590.7774   22586595.2254
       154.0004        158.0004
 -23756504.60349 -18497228.05247  20215364.826    20215364.6574   20215372.0454
       211.0004        211.0004
 -21533069.23649 -16757168.75147  20481771.952    20481772.3604   20481778.1734
       208.0004        207.0004
  -1604471.20247  -1227592.45945  23885228.852    23885227.6014   23885236.9834
       141.0004        146.0004
  -5963207.38947  -4628882.89946  23632457.904    23632456.7644   23632461.4674
       163.0004        164.0004
 -18783108.33949 -14617189.82847  20959486.908    20959487.3284   20959494.4304
       210.0004        210.0004
  -2169982.27246  -1637174.71045  24519830.244    24519829.9384   24519829.4224
       125.0004        134.0004
 -15145598.23849 -11785801.79948  22050497.000    22050496.6914   22050503.7654
       213.0004        213.0004
 21  2  6  0 23  0.0000000  0  9G03G21G08G04G01G07G09G16G27
    304948.16848    264347.04546  24399287.497    24399287.9834   24399299.5874
       175.0004        176.0004
 -11040681.82347  -8437897.02445  22577397.549    22577397.2094   22577402.0054
       156.0004        158.0004
 -23734983.41749 -18480458.28047  20219459.525    20219459.7324   20219467.2904
       210.0004        211.0004
 -21493568.23949 -16726388.75847  20489288.416    20489289.1154   20489295.4394
       208.0004        207.0004
  -1676311.24847  -1283571.55145  23871557.138    23871558.2424   23871566.9874
       141.0004        146.0004
  -6033806.26747  -4683894.96146  23619022.127    23619022.4124   23619026.9004
       162.0004        164.0004
 -18815300.83149 -14642274.87447  20953360.961    20953361.7874   20953368.1734
       210.0004        210.0004
  -2093345.63846  -1577457.83545  24534409.876    24534411.3594   24534418.0034
       127.0004        134.0004
 -15061254.39449 -11720079.32047  22066547.400    22066547.1534   22066553.7374
       213.0004        212.0004
 21  2  6  0 23 30.0000000  0  9G03G21G08G04G01G07G09G16G27
    358947.09848    306423.98646  24409562.988    24409564.5954   24409574.0734
       171.0004        170.0004
 -11088853.37447  -8475433.22545  22568229.063    22568229.4184   22568235.7304
       156.0004        159.0004
 -23712875.31249 -18463231.17947  20223666.455    20223666.7354   20223674.5614
       210.0004        211.0004
 -21453533.92649 -16695193.19447  20496906.702    20496907.2944   20496913.3754
       208.0004        206.0004
  -1748320.77347  -1339682.74445  23857853.746    23857854.4104   23857863.4044
       142.0004        146.0004
  -6104525.51347  -4739000.85646  23605564.612    23605564.9164   23605569.2904
       163.0004        165.0004
 -18846947.35649 -14666934.50047  20947339.257    20947339.6244   20947346.1064
       210.0004        211.0004
  -2016868.86846  -1517865.56245  24548965.977    24548963.7194   24548968.0124
       128.0004        136.0004
 -14976533.50649 -11654063.03947  22082668.480    22082668.6554   22082675.3214
       212.0004        212.0004
 21  2  6  0 24  0.0000000  0  9G03G21G08G04G01G07G09G16G27
    412731.68348    348333.89746  24419799.116    24419799.2224   24419809.1064
       169.0004        170.0004
 -11136880.95647  -8512857.26345  22559092.278    22559091.3774   22559095.5554
       157.0004        159.0004
 -23690181.34749 -18445547.54947  20227984.760    20227985.2884   20227992.8424
       210.0004        210.0004
 -21412967.67049 -16663583.12847  20504626.869    20504627.2034   20504632.8024
       208.0004        207.0004
  -1820497.51447  -1395924.23045  23844118.848    23844119.4884   23844128.8794
       139.0004        143.0004
  -6175363.58147  -4794199.32646  23592084.330    23592084.7154   23592088.6054
       162.0004        164.0004
 -18878046.75949 -14691167.79447  20941421.037    20941421.4774   20941428.4944
       210.0004        211.0004
  -1940552.74146  -1458398.48245  24563485.188    24563484.1874   24563489.9064
       127.0004        135.0004
 -14891438.50549 -11587755.24547  22098861.553    22098861.5584   22098868.4214
       211.0004        211.0004
 21  2  6  0 24 30.0000000  0  9G03G21G08G04G01G07G09G16G27
    466301.30848    390076.37946  24429993.181    24429993.1084   24430002.1484
       169.0004        171.0004
 -11184760.68747  -8550166.09645  22549981.377    22549980.4384   22549984.5324
       158.0004        162.0004
 -23666901.73849 -18427407.57947  20232415.197    20232415.1614   20232422.8434
       210.0004        210.0004
 -21371869.92149 -16631558.90447  20512447.107    20512447.6564   20512453.4884
       207.0004        206.0004
  -1892838.08047  -1452293.36545  23830349.219    23830351.9804   23830363.0934
       137.0004        142.0004
  -6246318.26747  -4849488.66546  23578581.279    23578581.2644   23578587.1724
       163.0004        164.0004
 -18908596.99549 -14714973.17347  20935607.687    20935607.9024   20935614.4334
       210.0004        210.0004
  -1864396.83646  -1399056.21345  24577978.432    24577978.6174   24577982.2754
       126.0004        134.0004
 -14805971.19349 -11521157.32947  22115124.795    22115125.1224   22115132.7784
       211.0004        210.0004
 21  2  6  0 25  0.0000000  0  9G03G21G08G04G01G07G09G16G27
    519653.59148    431649.48446  24440145.777    24440146.4664   24440155.2254
       172.0004        174.0004
 -11232490.42847  -8587358.04645  22540897.105    22540896.4464   22540901.9924
       159.0004        162.0004
 -23643038.17849 -18408812.57947  20236956.026    20236956.3704   20236964.0544
       210.0004        211.0004
 -21330242.60349 -16599122.03847  20520367.958    20520368.8264   20520374.6274
       207.0004        205.0004
  -1965340.67647  -1508788.77345  23816553.592    23816555.8674   23816565.8724
       138.0004        143.0004
  -6317389.06447  -4904868.46946  23565056.749    23565057.6944   23565063.0664
       163.0004        165.0004
 -18938597.45749 -14738350.14647  20929898.671    20929898.7774   20929905.3434
       209.0004        209.0004
  -1788402.23646  -1339839.65345  24592438.169    24592437.9924   24592446.2324
       127.0004        135.0004
 -14720135.03549 -11454272.01647  22131458.352    22131458.9994   22131467.1074
       211.0004        211.0004
 21  2  6  0 25 30.0000000  0  9G03G21G08G04G01G07G09G16G27
    572787.47648    473052.38746  24450256.788    24450257.3214   24450267.1704
       174.0004        177.0004
 -11280066.78847  -8624430.46445  22531842.564    22531843.4394   22531848.6974
       159.0004        162.0004
 -23618591.24149 -18389763.01047  20241608.070    20241608.0324   20241616.1914
       210.0004        211.0004
 -21288086.80449 -16566273.36747  20528390.440    20528390.8734   20528396.8194
       207.0004        205.0004
  -2038002.46147  -1565408.23745  23802729.556    23802729.8864   23802738.8644
       142.0004        147.0004
  -6388574.67247  -4960337.74346  23551510.951    23551511.7244   23551516.5414
       164.0004        167.0004
 -18968046.68549 -14761297.58547  20924294.543    20924295.0354   20924301.7004
       209.0004        210.0004
  -1712569.26646  -1280749.00545  24606869.598    24606872.1044   24606875.3104
       127.0004        134.0004
 -14633932.41549 -11387101.13847  22147862.742    22147862.8404   22147870.5674
       211.0004        211.0004
 21  2  6  0 26  0.0000000  0  9G03G21G08G04G01G07G09G16G27
    625699.81348    514282.66946  24460325.527    24460325.8474   24460335.6834
       172.0004        171.0004
 -11327488.53047  -8661382.42345  22522819.505    22522819.3934   22522824.3894
       159.0004        161.0004
 -23593563.58949 -18370260.92147  20246370.514    20246370.7844   20246378.7184
       210.0004        210.0004
 -21245405.32949 -16533015.06947  20536512.223    20536512.6024   20536518.9834
       207.0004        206.0004
  -2110822.46347  -1622150.97145  23788872.228    23788872.7524   23788881.9824
       143.0004        148.0004
  -6459874.52948  -5015896.05046  23537943.494    23537943.7544   23537948.1904
       166.0004        168.0004
 -18996944.99949 -14783815.73647  20918795.035    20918795.6154   20918802.3854
       209.0004        209.0004
  -1636899.87346  -1221785.86645  24621270.508    24621269.8454   24621274.0304
       127.0004        134.0004
 -14547367.63749 -11319648.05247  22164336.049    22164335.8824   22164343.3734
       210.0004        210.0004
 21  2  6  0 26 30.0000000  0  9G03G21G08G04G01G07G09G16G27
    678388.70248    555338.82846  24470351.650    24470352.1804   24470363.3694
       171.0004        172.0004
 -11374752.79547  -8698211.66045  22513826.470    22513825.4864   22513830.4314
       160.0004        162.0004
 -23567956.73249 -18350307.52047  20251243.809    20251243.7144   20251251.2024
       210.0004        210.0004
 -21202199.94149 -16499348.53647  20544734.328    20544734.8574   20544740.7374
       207.0004        206.0004
  -2183798.59847  -1679015.38745  23774983.285    23774984.2964   23774994.8474
       143.0004        147.0004
  -6531288.36348  -5071543.16446  23524352.276    23524353.4354   23524358.4854
       166.0004        167.0004
 -19025291.77249 -14805904.12547  20913400.911    20913400.9474   20913408.1174
       208.0004        208.0004
  -1561394.83046  -1162950.81745  24635636.578    24635636.5144   24635644.0664
       126.0004        133.0004
 -14460443.82449 -11251915.20947  22180875.792    22180876.8904   22180884.1774
       210.0004        211.0004
 21  2  6  0 27  0.0000000  0  9G03G21G08G04G01G07G09G16G27
    730853.75948    596220.59346  24480334.210    24480335.7064   24480346.8274
       169.0004        170.0004
 -11421855.21147  -8734914.79046  22504862.767    22504862.6674   22504867.5104
       161.0004        164.0004
 -23541770.34649 -18329902.52547  20256226.285    20256226.8314   20256234.2134
       209.0004        210.0004
 -21158470.92249 -16465273.97147  20553055.728    20553056.3284   20553061.9984
       207.0004        205.0004
  -2256927.16747  -1735998.59445  23761067.365    23761068.1834   23761077.7474
       142.0004        146.0004
  -6602812.90648  -5127276.53246  23510743.163    23510743.0364   23510747.8854
       167.0004        168.0004
 -19053084.58849 -14827560.86547  20908112.277    20908112.8544   20908119.3884
       209.0004        210.0004
  -1486053.42946  -1104243.25044  24649975.605    24649973.9744   24649977.2584
       122.0004        131.0004
 -14373162.60249 -11183903.87047  22197485.167    22197486.0114   22197492.8884
       210.0004        210.0004
 21  2  6  0 27 30.0000000  0  9G03G21G08G04G01G07G09G16G27
    783092.36948    636925.86346  24490277.047    24490277.5504   24490286.7274
       169.0004        170.0004
 -11468794.71947  -8771491.00046  22495930.842    22495929.5894   22495934.7364
       162.0004        164.0004
 -23515007.44749 -18309048.31447  20261319.298    20261319.6474   20261327.1054
       209.0004        210.0004
 -21114220.72549 -16430793.30647  20561476.112    20561476.7304   20561482.4674
       206.0004        205.0004
  -2330206.59547  -1793099.36345  23747122.785    23747124.7804   23747134.3844
       144.0004        148.0004
  -6674448.15348  -5183096.17746  23497112.211    23497112.4794   23497116.6684
       167.0004        170.0004
 -19080323.44449 -14848785.95147  20902928.928    20902929.2444   20902936.0974
       210.0004        210.0004
  -1410877.27646  -1045664.39945  24664280.204    24664280.3674   24664284.8584
       126.0004        135.0004
 -14285527.77949 -11115617.00047  22214162.791    22214162.7964   22214169.3544
       210.0004        210.0004
 21  2  6  0 28  0.0000000  0  9G03G21G08G04G01G07G09G16G27
    835102.41548    677453.05346  24500173.333    24500173.9134   24500183.9594
       168.0004        170.0004
 -11515568.82447  -8807938.28746  22487027.862    22487027.7884   22487032.5374
       162.0004        163.0004
 -23487669.38049 -18287745.90847  20266521.498    20266521.8354   20266529.5504
       210.0004        210.0004
 -21069451.54849 -16395908.23147  20569995.152    20569995.7024   20570001.6564
       206.0004        204.0004
  -2403635.11747  -1850316.27545  23733149.993    23733151.2574   23733159.9354
       144.0004        148.0004
  -6746193.27748  -5239001.43346  23483458.439    23483459.7284   23483463.5764
       168.0004        170.0004
 -19107008.06549 -14869579.15547  20897850.879    20897851.0004   20897858.0104
       210.0004        211.0004
  -1335867.48146   -987215.23345  24678555.551    24678555.6504   24678560.0834
       130.0004        138.0004
 -14197542.94649 -11047057.38747  22230905.374    22230905.8124   22230912.1714
       210.0004        209.0004
 21  2  6  0 28 30.0000000  0  9G03G21G08G04G01G07G09G16G27
    886883.24948    717801.63246  24510027.136    24510028.0304   24510037.8144
       168.0004        170.0004
 -11562173.63247  -8844253.66646  22478159.268    22478159.2214   22478164.9714
       162.0004        165.0004
 -23459757.08049 -18265996.04847  20271833.041    20271833.6094   20271841.3264
       210.0004        210.0004
 -21024163.95049 -16360619.19347  20578613.112    20578613.5114   20578619.3984
       206.0004        204.0004
  -2477209.22247  -1907646.62845  23719149.102    23719150.3364   23719160.4554
       145.0004        149.0004
  -6818046.35148  -5294990.81446  23469785.379    23469785.9994   23469789.7444
       168.0004        169.0004
 -19133136.47949 -14889938.95247  20892878.731    20892879.2554   20892885.9974
       210.0004        210.0004
  -1261023.69846   -928895.42145  24692796.830    24692796.5334   24692802.1314
       132.0004        138.0004
 -14109209.86549 -10978226.40547  22247715.258    22247715.2294   22247721.4384
       210.0004        209.0004
 21  2  6  0 29  0.0000000  0  9G03G21G08G04G01G07G09G16G27
    938432.86748    757970.06146  24519836.093    24519836.9064   24519848.8544
       168.0004        169.0004
 -11608606.42147  -8880435.00946  22469323.553    22469324.4034   22469330.4364
       162.0004        164.0004
 -23431271.60649 -18243799.55747  20277253.609    20277254.1584   20277261.5164
       210.0004        210.0004
 -20978359.89649 -16324927.72247  20587329.996    20587330.0214   20587336.0134
       206.0004        204.0004
  -2550926.83947  -1965088.83745  23705119.190    23705121.7194   23705132.0024
       147.0004        151.0004
  -6890006.10848  -5351063.32646  23456091.888    23456092.7794   23456096.6304
       168.0004        169.0004
 -19158708.16649 -14909864.93447  20888013.346    20888013.1934   20888019.7604
       210.0004        210.0004
  -1186346.51646   -870705.38145  24707008.223    24707006.8754   24707011.8374
       132.0004        139.0004
 -14020531.89749 -10909126.69247  22264589.873    22264589.6814   22264596.6894
       210.0004        210.0004
 21  2  6  0 29 30.0000000  0  8G03G21G08G04G01G07G09G27
    989751.49248    797958.47746  24529601.219    24529603.5564   24529614.8654
       168.0004        170.0004
 -11654863.32347  -8916479.31146  22460520.867    22460522.0924   22460526.7324
       162.0004        163.0004
 -23402212.98549 -18221156.46347  20282782.785    20282783.5204   20282791.2184
       210.0004        211.0004
 -20932039.27949 -16288833.72747  20596143.272    20596143.9974   20596150.2564
       205.0004        204.0004
  -2624783.76147  -2022639.60545  23691068.546    23691067.3934   23691078.7264
       148.0004        151.0004
  -6962069.67948  -5407216.70946  23442376.954    23442377.2214   23442383.5084
       167.0004        167.0004
 -19183720.52749 -14929355.07947  20883253.418    20883253.8054   20883260.1794
       210.0004        211.0004
 -13931510.15149 -10839759.10747  22281529.407    22281530.1554   22281537.0314
       210.0004        210.0004
 21  2  6  0 30  0.0000000  0  8G03G21G08G04G01G07G09G27
   1040835.02048    837763.67446  24539324.187    24539323.9734   24539334.3724
       167.0004        168.0004
 -11700943.47747  -8952385.88246  22451752.988    22451752.8714   22451757.9384
       162.0004        165.0004
 -23372585.01049 -18198069.72547  20288421.267    20288421.7434   20288429.2194
       210.0004        210.0004
 -20885206.21349 -16252340.43747  20605055.965    20605056.5754   20605062.7204
       205.0004        203.0004
  -2698780.03747  -2080298.92645  23676985.348    23676986.3224   23676996.1284
       148.0004        151.0004
  -7034238.08248  -5463451.78146  23428645.489    23428645.5614   23428650.6934
       168.0004        170.0004
 -19208175.20349 -14948410.67347  20878599.737    20878600.1074   20878606.5694
       210.0004        211.0004
 -13842150.05149 -10770127.86247  22298535.551    22298535.7944   22298541.4814
       210.0004        210.0004
 21  2  6  0 30 30.0000000  0  8G03G21G08G04G01G07G09G27
   1091681.33648    877384.04846  24549000.750    24549000.9384   24549011.6574
       169.0004        170.0004
 -11746844.62447  -8988152.95646  22443018.983    22443018.3444   22443022.9264
       163.0004        165.0004
 -23342389.68149 -18174540.87547  20294167.767    20294167.9354   20294175.5154
       210.0004        211.0004
 -20837862.95949 -16215449.58147  20614065.558    20614065.9644   20614071.4984
       205.0004        203.0004
  -2772913.64747  -2138065.29045  23662878.075    23662879.0654   23662888.2944
       148.0004        151.0004
  -7106510.56248  -5519767.94546  23414893.144    23414893.9264   23414897.6264
       171.0004        175.0004
 -19232071.93949 -14967031.49847  20874051.740    20874052.4104   20874058.9754
       210.0004        210.0004
 -13752455.04649 -10700235.62247  22315603.804    22315603.5084   22315610.2394
       210.0004        210.0004
 21  2  6  0 31  0.0000000  0  8G03G21G08G04G01G07G09G27
   1142289.55148    916818.88946  24558629.817    24558630.3384   24558641.7224
       168.0004        168.0004
 -11792563.56347  -9023778.03946  22434318.011    22434318.3164   22434324.2784
       164.0004        165.0004
 -23311627.49949 -18150570.33547  20300021.741    20300021.9174   20300029.0974
       210.0004        210.0004
 -20790010.63049 -16178162.05447  20623171.109    20623171.7064   20623176.9684
       204.0004        202.0004
  -2847181.47547  -2195936.26845  23648746.989    23648747.9804   23648755.8394
       148.0004        151.0004
  -7178885.03048  -5576163.61446  23401120.733    23401121.0184   23401125.6694
       173.0004        174.0004
 -19255409.33549 -14985216.47647  20869611.633    20869611.5804   20869617.7114
       210.0004        210.0004
 -13662427.47849 -10630084.24347  22332733.698    22332734.4434   22332741.6644
       210.0004        209.0004
 21  2  6  0 31 30.0000000  0  8G03G21G08G04G01G07G09G27
   1192658.29247    956067.10046  24568212.416    24568213.8454   24568224.8044
       164.0004        164.0004
 -11838097.13747  -9059258.70246  22425653.671    22425653.7384   22425658.1244
       163.0004        165.0004
 -23280300.22949 -18126159.45947  20305982.715    20305983.0804   20305990.1164
       210.0004        210.0004
 -20741650.69649 -16140478.98347  20632374.096    20632374.1134   20632380.0124
       204.0004        203.0004
  -2921580.89347  -2253909.73945  23634589.524    23634590.3094   23634597.3014
       149.0004        152.0004
  -7251360.23448  -5632637.74846  23387327.583    23387329.3004   23387332.8404
       172.0004        172.0004
 -19278186.45749 -15002964.87047  20865276.590    20865277.1734   20865283.8494
       210.0004        211.0004
 -13572070.10549 -10559675.88647  22349928.819    22349928.9094   22349935.4254
       210.0004        209.0004
 21  2  6  0 32  0.0000000  0  8G03G21G08G04G01G07G09G27
   1242786.93348    995128.24446  24577754.246    24577754.7384   24577765.0364
       165.0004        167.0004
 -11883442.34547  -9094592.57246  22417025.023    22417024.3954   22417029.3254
       163.0004        165.0004
 -23248408.66849 -18101308.88147  20312051.683    20312051.9154   20312059.0174
       210.0004        211.0004
 -20692784.12149 -16102401.13547  20641672.404    20641673.3174   20641679.0084
       204.0004        202.0004
  -2996108.56347  -2311983.16745  23620407.265    23620407.5774   23620415.2644
       149.0004        152.0004
  -7323933.67948  -5689188.46446  23373520.243    23373518.8044   23373522.8314
       173.0004        173.0004
 -19300401.75949 -15020275.48747  20861049.609    20861049.9524   20861056.5014
       211.0004        211.0004
 -13481385.10549 -10489012.23447  22367185.867    22367186.1624   22367192.1424
       209.0004        207.0004
 21  2  6  0 32 30.0000000  0  8G03G21G08G04G01G07G09G27
   1292672.09648   1033999.66046  24587246.587    24587247.7574   24587257.6784
       167.0004        170.0004
 -11928597.57047  -9129778.43646  22408432.937    22408431.6854   22408437.6214
       163.0004        165.0004
 -23215955.56049 -18076020.74047  20318227.480    20318227.5414   20318234.7474
       210.0004        210.0004
 -20643414.34749 -16063931.18847  20651067.615    20651068.0064   20651074.0864
       204.0004        203.0004
  -3070763.59247  -2370155.82345  23606200.816    23606201.5384   23606209.4734
       151.0004        154.0004
  -7396605.61848  -5745815.91546  23359689.007    23359688.8224   23359693.2524
       171.0004        169.0004
 -19322056.22649 -15037149.10047  20856928.366    20856928.7444   20856935.8034
       211.0004        211.0004
 -13390377.06849 -10418096.86547  22384504.475    22384504.4804   22384510.6064
       209.0004        209.0004
 21  2  6  0 33  0.0000000  0  8G03G21G08G04G01G07G09G27
   1342313.33748   1072680.99646  24596694.995    24596694.6094   24596704.4904
       169.0004        170.0004
 -11973558.85847  -9164813.14946  22399876.743    22399875.3224   22399880.5224
       164.0004        166.0004
 -23182942.07549 -18050295.93547  20324509.199    20324509.6674   20324517.2044
       210.0004        211.0004
 -20593542.15949 -16025069.74547  20660557.918    20660558.3814   20660564.6304
       204.0004        203.0004
  -3145542.42347  -2428424.96345  23591972.453    23591972.0554   23591979.5734
       153.0004        156.0004
  -7469373.74048  -5802518.31446  23345841.992    23345843.4224   23345846.2894
       169.0004        170.0004
 -19343148.15349 -15053584.36547  20852915.004    20852915.2634   20852922.2394
       211.0004        211.0004
 -13299047.91649 -10346931.28047  22401883.269    22401883.1364   22401890.1534
       208.0004        207.0004
 21  2  6  0 33 30.0000000  0  8G03G21G08G04G01G07G09G27
   1391709.09548   1111171.08646  24606093.064    24606094.2044   24606104.5554
       168.0004        169.0004
 -12018323.83347  -9199694.88146  22391358.072    22391356.6844   22391363.0554
       164.0004        164.0004
 -23149369.64949 -18024135.59147  20330898.405    20330898.1814   20330905.9874
       210.0004        210.0004
 -20543169.57149 -15985818.37547  20670142.969    20670143.8294   20670149.3834
       203.0004        202.0004
  -3220442.74347  -2486788.76945  23577715.825    23577716.9514   23577726.1094
       153.0004        155.0004
  -7542236.74548  -5859294.66246  23331975.999    23331976.7884   23331981.9914
       170.0004        171.0004
 -19363677.08149 -15069580.92247  20849008.135    20849008.7194   20849015.3394
       210.0004        211.0004
 -13207400.77549 -10275517.92447  22419321.648    22419323.3454   22419329.6424
       207.0004        206.0004
 21  2  6  0 34  0.0000000  0  8G03G21G08G04G01G07G09G27
   1440858.50148   1149469.18346  24615446.322    24615447.1094   24615457.5184
       168.0004        169.0004
 -12062889.08348  -9234421.00346  22382878.143    22382877.3354   22382881.7544
       165.0004        166.0004
 -23115238.83349 -17997540.12747  20337392.479    20337392.9854   20337400.7644
       210.0004        210.0004
 -20492297.63349 -15946177.90047  20679824.098    20679824.5284   20679830.1764
       203.0004        202.0004
  -3295461.21247  -2545244.63245  23563441.447    23563442.2254   23563450.1644
       153.0004        156.0004
  -7615192.34748  -5916143.12946  23318092.874    23318093.7864   23318098.3044
       171.0004        172.0004
 -19383641.63849 -15085137.70947  20845208.871    20845209.5264   20845216.7644
       211.0004        211.0004
 -13115437.88049 -10203858.50347  22436822.729    22436823.6034   22436829.6884
       207.0004        207.0004
 21  2  6  0 34 30.0000000  0  8G03G21G08G04G01G07G09G27
   1489759.72048   1187573.89846  24624751.497    24624752.7594   24624763.1674
       168.0004        170.0004
 -12107252.19147  -9268989.59346  22374435.012    22374434.4324   22374440.6704
       164.0004        165.0004
 -23080552.27849 -17970511.64147  20343993.492    20343993.8154   20344000.9644
       210.0004        210.0004
 -20440928.69349 -15906150.16247  20689599.236    20689599.5574   20689605.5634
       203.0004        201.0004
  -3370595.71847  -2603790.91945  23549143.018    23549143.5284   23549152.9454
       151.0004        153.0004
  -7688239.93248  -5973063.28146  23304192.453    23304193.6194   23304196.7964
       171.0004        172.0004
 -19403041.73749 -15100254.66447  20841517.432    20841517.8164   20841524.9914
       211.0004        212.0004
 -13023162.70549 -10131955.74347  22454383.071    22454383.0424   22454389.5044
       207.0004        207.0004
 21  2  6  0 35  0.0000000  0  8G03G21G08G04G01G07G09G27
   1538410.98248   1225483.81446  24634009.135    24634010.3124   24634021.2084
       168.0004        169.0004
 -12151410.64747  -9303398.72546  22366031.653    22366030.6184   22366035.9744
       163.0004        164.0004
 -23045311.88749 -17943051.58847  20350699.330    20350699.5674   20350707.4374
       210.0004        210.0004
 -20389064.84049 -15865736.78147  20699468.205    20699469.1514   20699474.7754
       202.0004        201.0004
  -3445843.87047  -2662425.77745  23534825.032    23534825.3854   23534832.7574
       152.0004        155.0004
  -7761378.06748  -6030054.02346  23290274.473    23290274.9084   23290278.1714
       169.0004        170.0004
 -19421876.99049 -15114931.49047  20837933.235    20837933.6864   20837940.5474
       211.0004        212.0004
 -12930578.37149 -10059812.12147  22472000.708    22472001.2204   22472007.4484
       207.0004        206.0004
 21  2  6  0 35 30.0000000  0  8G03G21G08G04G01G07G09G27
   1586810.41248   1263197.53146  24643219.391    24643220.6594   24643232.3224
       166.0004        166.0004
 -12195362.11847  -9337646.56546  22357668.142    22357668.4964   22357672.2094
       163.0004        166.0004
 -23009519.21349 -17915161.18047  20357510.541    20357510.7794   20357518.6954
       210.0004        210.0004
 -20336708.43149 -15824939.57347  20709430.879    20709431.7484   20709438.2774
       202.0004        201.0004
  -3521203.58647  -2721147.54745  23520483.294    23520483.9044   23520493.3324
       152.0004        156.0004
  -7834605.58848  -6087114.41046  23276340.342    23276340.5904   23276344.1114
       169.0004        170.0004
 -19440147.30449 -15129168.10347  20834456.060    20834456.7494   20834464.1294
       211.0004        212.0004
 -12837688.34649  -9987430.27347  22489677.670    22489677.3054   22489684.2394
       206.0004        206.0004
 21  2  6  0 36  0.0000000  0  8G03G21G08G04G01G07G09G27
   1634956.70948   1300714.00546  24652382.972    24652383.9394   24652394.5244
       169.0004        171.0004
 -12239103.74047  -9371730.90046  22349344.081    22349344.2484   22349348.6714
       164.0004        166.0004
 -22973176.46649 -17886842.14447  20364426.510    20364426.6534   20364434.5954
       209.0004        210.0004
 -20283861.23749 -15783759.94047  20719488.456    20719488.7344   20719494.8184
       202.0004        201.0004
  -3596672.05647  -2779954.06945  23506122.778    23506123.2784   23506132.2224
       154.0004        157.0004
  -7907921.44048  -6144243.57146  23262388.868    23262389.1724   23262394.3934
       171.0004        173.0004
 -19457852.10149 -15142964.04147  20831087.403    20831087.8424   20831094.5294
       211.0004        211.0004
 -12744495.47649  -9914812.45347  22507411.868    22507412.0774   22507418.6864
       207.0004        207.0004
 21  2  6  0 36 30.0000000  0  8G03G21G08G04G01G07G09G27
   1682847.89948   1338031.66346  24661496.016    24661497.0834   24661507.7824
       170.0004        171.0004
 -12282633.40847  -9405650.06646  22341061.154    22341060.2204   22341065.5124
       164.0004        165.0004
 -22936285.79649 -17858096.16147  20371446.742    20371446.9864   20371454.1614
       209.0004        209.0004
 -20230525.74449 -15742199.81647  20729637.974    20729638.1904   20729644.2054
       202.0004        201.0004
  -3672247.27147  -2838843.77445  23491740.846    23491742.1164   23491750.0294
       154.0004        157.0004
  -7981324.17048  -6201440.49246  23248420.686    23248421.1914   23248424.3914
       170.0004        169.0004
 -19474991.37649 -15156319.32647  20827825.457    20827826.5914   20827833.1224
       211.0004        212.0004
 -12651003.27649  -9841961.40147  22525201.073    22525202.5844   22525209.5014
       206.0004        206.0004
 21  2  6  0 37  0.0000000  0  8G03G21G08G04G01G07G09G27
   1730483.72348   1375150.36046  24670560.891    24670561.9714   24670572.8034
       169.0004        169.0004
 -12325946.90847  -9439400.80046  22332819.255    22332818.4214   22332823.0614
       164.0004        166.0004
 -22898847.70649 -17828923.61647  20378570.574    20378570.9864   20378578.5504
       209.0004        210.0004
 -20176702.75249 -15700259.82747  20739879.576    20739880.3754   20739886.1714
       202.0004        200.0004
  -3747925.36647  -2897813.66645  23477339.485    23477340.5684   23477348.1764
       153.0004        154.0004
  -8054811.27248  -6258703.15046  23234436.395    23234436.9494   23234441.2934
       168.0004        169.0004
 -19491563.49749 -15169232.66647  20824673.018    20824672.9054   20824679.4784
       212.0004        212.0004
 -12557213.50049  -9768878.47647  22543049.784    22543049.6054   22543056.6584
       205.0004        204.0004
 21  2  6  0 37 30.0000000  0  8G03G21G08G04G01G07G09G27
   1777861.68048   1412068.13646  24679577.067    24679577.3204   24679587.9424
       166.0004        166.0004
 -12369042.61048  -9472981.82346  22324618.422    22324617.7404   22324623.7474
       165.0004        167.0004
 -22860865.15649 -17799326.81547  20385798.960    20385798.8914   20385806.5624
       209.0004        210.0004
 -20122395.33849 -15657942.36947  20750214.090    20750214.9374   20750220.5204
       202.0004        201.0004
  -3823704.94447  -2956862.59745  23462917.646    23462919.6984   23462928.8984
       152.0004        155.0004
  -8128381.85748  -6316030.85846  23220437.879    23220437.5434   23220441.6784
       170.0004        172.0004
 -19507569.20349 -15181704.63947  20821626.550    20821626.9124   20821633.7804
       211.0004        212.0004
 -12463130.32449  -9695566.90647  22560952.021    22560952.9344   22560959.9304
       203.0004        202.0004
 21  2  6  0 38  0.0000000  0  8G03G21G08G04G01G07G09G27
   1824980.51548   1448783.99046  24688541.971    24688543.0504   24688554.1864
       166.0004        168.0004
 -12411917.74248  -9506390.96746  22316459.506    22316457.6884   22316464.2634
       165.0004        165.0004
 -22822339.80549 -17769307.05047  20393130.101    20393130.0084   20393137.2254
       209.0004        209.0004
 -20067605.33049 -15615248.84647  20760640.797    20760640.8064   20760646.8984
       202.0004        201.0004
  -3899583.03447  -3015988.29645  23448478.439    23448480.3394   23448490.0634
       154.0004        156.0004
  -8202035.05748  -6373422.93246  23206419.777    23206420.6904   23206425.3154
       169.0004        168.0004
 -19523007.86649 -15193734.75547  20818688.642    20818689.2944   20818695.6224
       211.0004        211.0004
 -12368756.52549  -9622028.87647  22578912.469    22578911.8894   22578919.1204
       203.0004        203.0004
 21  2  6  0 38 30.0000000  0  8G03G21G08G04G01G07G09G27
   1871840.02848   1485297.81646  24697459.995    24697461.1914   24697472.5454
       169.0004        171.0004
 -12454568.41547  -9539625.20246  22308342.644    22308342.4034   22308348.1924
       163.0004        163.0004
 -22783272.10349 -17738864.67947  20400564.086    20400564.5184   20400571.3834
       209.0004        209.0004
 -20012333.62849 -15572179.98447  20771157.866    20771158.4024   20771164.5484
       201.0004        199.0004
  -3975555.89847  -3075187.85345  23434022.706    23434022.7624   23434032.1434
       153.0004        155.0004
  -8275767.81548  -6430876.99146  23192389.143    23192390.0834   23192394.7054
       168.0004        171.0004
 -19537877.98049 -15205321.85547  20815859.120    20815859.3734   20815865.9934
       211.0004        211.0004
 -12274093.96749  -9548265.83847  22596925.962    22596925.2334   22596932.5294
       202.0004        202.0004
 21  2  6  0 39  0.0000000  0  8G03G21G08G04G01G07G09G27
   1918437.04848   1521607.02246  24706327.536    24706328.5374   24706340.4254
       169.0004        169.0004
 -12496993.71247  -9572683.86046  22300270.306    22300270.9914   22300273.5394
       164.0004        165.0004
 -22743666.19949 -17708002.92447  20408100.834    20408100.8874   20408108.2814
       209.0004        209.0004
 -19956584.02849 -15528738.74847  20781766.677    20781767.1414   20781773.6604
       201.0004        199.0004
  -4051622.65447  -3134460.56345  23419546.747    23419548.0904   23419557.5954
       153.0004        155.0004
  -8349580.28548  -6488393.19046  23178344.003    23178344.4284   23178348.6054
       171.0004        172.0004
 -19552181.00249 -15216467.07047  20813137.195    20813137.8754   20813144.4624
       211.0004        212.0004
 -12179147.38049  -9474281.48447  22614992.214    22614992.6914   22615000.1364
       202.0004        201.0004
 21  2  6  0 39 30.0000000  0  8G03G21G08G04G01G07G09G27
   1964770.78948   1557711.18046  24715143.146    24715143.8514   24715156.7814
       168.0004        169.0004
 -12539190.28847  -9605564.28645  22292238.816    22292237.4044   22292243.7354
       162.0004        162.0004
 -22703522.80249 -17676722.34447  20415738.956    20415739.4624   20415747.6804
       208.0004        209.0004
 -19900358.07449 -15484926.31447  20792466.065    20792466.9264   20792472.4464
       201.0004        200.0004
  -4127780.08847  -3193803.92545  23405056.074    23405055.9754   23405065.0204
       153.0004        155.0004
  -8423470.68748  -6545970.10346  23164282.388    23164283.3954   23164287.7344
       170.0004        170.0004
 -19565916.03149 -15227169.68547  20810523.646    20810523.7164   20810530.6504
       211.0004        212.0004
 -12083919.25949  -9400077.75647  22633114.593    22633114.6494   22633121.3454
       202.0004        202.0004
 21  2  6  0 40  0.0000000  0  8G03G21G08G04G01G07G09G27
   2010839.89748   1593609.07246  24723913.091    24723913.0014   24723923.5474
       168.0004        169.0004
 -12581155.83647  -9638264.62945  22284250.835    22284251.9434   22284258.6654
       160.0004        162.0004
 -22662844.37249 -17645024.86447  20423480.641    20423481.0904   20423488.2444
       209.0004        209.0004
 -19843657.65649 -15440744.18547  20803256.502    20803256.8324   20803262.1644
       201.0004        199.0004
  -4204025.33547  -3253215.73945  23390545.497    23390545.6774   23390555.4004
       151.0004        154.0004
  -8497436.97048  -6603606.14446  23150207.747    23150208.5814   23150212.1344
       169.0004        171.0004
 -19579082.64349 -15237429.38847  20808017.623    20808018.1644   20808025.1224
       211.0004        212.0004
 -11988412.48749  -9325656.89947  22651289.054    22651288.7044   22651295.9534
       202.0004        201.0004
 21  2  6  0 40 30.0000000  0  8G03G21G08G04G01G07G09G27
   2056642.85848   1629299.53946  24732629.073    24732629.6254   24732639.7844
       169.0004        171.0004
 -12622887.32647  -9670782.65446  22276315.379    22276314.2604   22276316.9524
       164.0004        168.0004
 -22621632.56849 -17612911.75947  20431322.395    20431323.0644   20431330.8004
       209.0004        209.0004
 -19786485.20249 -15396194.21947  20814135.376    20814136.0484   20814142.3454
       201.0004        200.0004
  -4280356.04947  -3312694.10845  23376020.051    23376021.4184   23376030.6494
       149.0004        152.0004
  -8571478.27048  -6661300.62946  23136117.401    23136117.7494   23136122.9984
       170.0004        171.0004
 -19591680.85349 -15247246.17747  20805620.818    20805621.1414   20805627.8574
       211.0004        212.0004
 -11892630.27649  -9251021.42947  22669515.257    22669515.6994   22669523.0264
       201.0004        201.0004
 21  2  6  0 41  0.0000000  0  8G03G21G08G04G01G07G09G27
   2102176.70248   1664780.31646  24741293.304    24741293.1764   24741303.2174
       168.0004        169.0004
 -12664384.07448  -9703117.78246  22268417.652    22268416.9264   22268420.6774
       167.0004        168.0004
 -22579890.97449 -17580385.82347  20439265.861    20439266.3084   20439273.7974
       209.0004        209.0004
 -19728844.53949 -15351279.41447  20825104.134    20825104.6014   20825111.1924
       201.0004        199.0004
  -4356771.24247  -3372238.31845  23361480.396    23361480.3694   23361488.4944
       150.0004        153.0004
  -8645594.23948  -6719053.29946  23122013.707    23122014.5164   23122018.1094
       170.0004        171.0004
 -19603712.21549 -15256621.26347  20803331.034    20803331.5464   20803338.4874
       212.0004        212.0004
 -11796577.44749  -9176175.06747  22687792.522    22687793.3214   22687800.6204
       200.0004        199.0004
 21  2  6  0 41 30.0000000  0  8G03G21G08G04G01G07G09G27
   2147442.30047   1700052.08646  24749905.312    24749905.8504   24749917.0674
       164.0004        165.0004
 -12705640.65448  -9735265.74546  22260564.087    22260564.4834   22260569.5864
       166.0004        163.0004
 -22537619.40049 -17547446.92247  20447309.989    20447310.4004   20447317.8534
       209.0004        209.0004
 -19670735.39049 -15305999.56547  20836162.304    20836162.7984   20836168.6364
       201.0004        199.0004
  -4433265.73347  -3431844.28345  23346923.269    23346923.9624   23346932.9564
       151.0004        155.0004
  -8719781.04448  -6776861.17846  23107896.798    23107896.7764   23107901.1284
       171.0004        173.0004
 -19615174.06049 -15265552.56947  20801150.157    20801150.5584   20801157.2854
       212.0004        212.0004
 -11700254.49049  -9101118.21447  22706122.643    22706123.4194   22706130.4514
       200.0004        200.0004
 21  2  6  0 42  0.0000000  0  8G03G21G08G04G01G07G09G27
   2192439.21148   1735114.50346  24758469.304    24758469.6724   24758481.3954
       167.0004        169.0004
 -12746653.93047  -9767224.08045  22252757.450    22252758.1854   22252764.5064
       162.0004        162.0004
 -22494819.39349 -17514096.25247  20455454.714    20455455.1264   20455462.3624
       209.0004        209.0004
 -19612159.27149 -15260355.83847  20847308.528    20847309.2174   20847315.3614
       201.0004        200.0004
  -4509836.20947  -3491509.48945  23332352.253    23332353.2294   23332360.7194
       151.0004        153.0004
  -8794036.51248  -6834722.55446  23093767.433    23093766.3154   23093771.2604
       172.0004        173.0004
 -19626065.53949 -15274039.43947  20799077.315    20799077.9774   20799084.5104
       212.0004        212.0004
 -11603663.82249  -9025852.75447  22724505.262    22724505.1794   22724510.9904
       201.0004        202.0004
 21  2  6  0 42 30.0000000  0  8G03G21G08G04G01G07G09G27
   2237164.59348   1769965.31446  24766979.721    24766979.7754   24766992.7244
       168.0004        170.0004
 -12787422.59247  -9798991.83446  22245001.401    22245001.3354   22245007.0464
       162.0004        164.0004
 -22451494.21049 -17480336.36547  20463698.980    20463699.3804   20463706.9134
       208.0004        209.0004
 -19553119.73249 -15214351.01247  20858543.648    20858544.1974   20858550.4334
       201.0004        199.0004
  -4586481.30947  -3551232.83945  23317768.493    23317767.8864   23317776.0754
       150.0004        153.0004
  -8868360.54948  -6892637.35246  23079621.943    23079622.7294   23079627.7264
       172.0004        174.0004
 -19636387.93249 -15282082.86647  20797113.713    20797113.9344   20797120.0464
       212.0004        212.0004
 -11506809.83849  -8950382.13647  22742935.309    22742935.5384   22742941.2804
       201.0004        201.0004
 21  2  6  0 43  0.0000000  0  8G03G21G08G04G01G07G09G27
   2281617.40748   1804603.76246  24775438.330    24775439.3304   24775451.9914
       169.0004        170.0004
 -12827943.79547  -9830566.76746  22237292.078    22237291.0014   22237295.1224
       163.0004        166.0004
 -22407645.62049 -17446168.61547  20472043.021    20472043.6564   20472051.0544
       208.0004        208.0004
 -19493618.84049 -15167986.68047  20869866.109    20869866.7434   20869872.5594
       200.0004        199.0004
  -4663198.11647  -3611012.05545  23303168.007    23303168.0524   23303177.2374
       151.0004        154.0004
  -8942751.09148  -6950603.98146  23065466.332    23065466.9604   23065471.9564
       174.0004        175.0004
 -19646140.97349 -15289682.63748  20795257.075    20795257.8004   20795264.5984
       212.0004        213.0004
 -11409695.38849  -8874708.54547  22761416.190    22761415.6884   22761421.1024
       200.0004        199.0004
 21  2  6  0 43 30.0000000  0  8G03G21G08G04G01G07G09G27
   2325796.90448   1839029.20746  24783847.390    24783847.9354   24783857.6234
       168.0004        169.0004
 -12868213.93048  -9861946.04746  22229628.889    22229627.6764   22229632.5054
       166.0004        169.0004
 -22363274.93949 -17411594.04247  20480486.932    20480487.0544   20480494.4844
       208.0004        208.0004
 -19433658.14349 -15121264.05647  20881276.382    20881277.0554   20881282.8014
       200.0004        199.0004
  -4739983.28447  -3670844.54845  23288556.500    23288557.0904   23288565.4224
       152.0004        155.0004
  -9017205.75348  -7008620.54946  23051299.123    23051299.4774   23051303.3744
       175.0004        177.0004
 -19655323.91649 -15296838.17147  20793509.934    20793510.2534   20793516.8964
       212.0004        212.0004
 -11312322.83549  -8798833.83347  22779944.305    22779944.9524   22779950.2574
       199.0004        198.0004
 21  2  6  0 44  0.0000000  0  7G21G08G04G01G07G09G27
 -12908229.25348  -9893126.81446  22222015.360    22222013.4594   22222018.0544
       169.0004        170.0004
 -22318383.23549 -17376613.47947  20489029.164    20489029.5074   20489037.1024
       208.0004        208.0004
 -19373238.65249 -15074183.93747  20892774.307    20892774.5564   20892780.0284
       200.0004        199.0004
  -4816832.82747  -3730727.20545  23273931.268    23273932.5924   23273940.7424
       152.0004        155.0004
  -9091721.78048  -7066684.96546  23037119.185    23037119.6524   23037123.7574
       176.0004        177.0004
 -19663935.46449 -15303548.47247  20791870.949    20791871.7224   20791878.0864
       212.0004        212.0004
 -11214693.95949  -8722759.39647  22798522.190    22798523.0224   22798528.6554
       198.0004        199.0004
 21  2  6  0 44 30.0000000  0  7G21G08G04G01G07G09G27
 -12947983.81948  -9924104.37546  22214448.520    22214448.8214   22214453.9134
       169.0004        168.0004
 -22272968.83449 -17341225.61647  20497671.587    20497671.9784   20497679.1164
       208.0004        209.0004
 -19312358.78049 -15026745.07347  20904359.325    20904359.8974   20904364.7434
       200.0004        199.0004
  -4893740.12047  -3790654.86745  23259297.071    23259297.8024   23259305.9744
       151.0004        154.0004
  -9166293.85648  -7124793.03146  23022928.849    23022928.9354   23022932.5454
       176.0004        177.0004
 -19671971.72049 -15309810.48447  20790341.631    20790341.8774   20790349.1104
       212.0004        212.0004
 -11116807.94549  -8646484.57047  22817149.566    22817149.9284   22817155.7714
       200.0004        200.0004
 21  2  6  0 45  0.0000000  0  7G21G08G04G01G07G09G27
 -12987483.84748  -9954883.59046  22206931.586    22206931.9774   22206936.8534
       169.0004        169.0004
 -22227042.94849 -17305439.20147  20506410.717    20506411.0924   20506418.8794
       208.0004        208.0004
 -19251030.17849 -14978956.55447  20916029.900    20916029.8494   20916035.7074
       200.0004        198.0004
  -4970711.73847  -3850632.64945  23244649.072    23244650.7514   23244659.2624
       152.0004        156.0004
  -9240929.61048  -7182950.74146  23008726.017    23008725.9584   23008729.8334
       176.0004        177.0004
 -19679442.05449 -15315631.52748  20788920.350    20788920.8254   20788927.4554
       212.0004        213.0004
 -11018677.10649  -8570018.97447  22835823.416    22835823.8484   22835829.3344
       199.0004        198.0004
 21  2  6  0 45 30.0000000  0  7G21G08G04G01G07G09G27
 -13026725.05148  -9985461.11846  22199464.037    22199463.8224   22199469.0884
       168.0004        168.0004
 -22180606.16849 -17269254.67747  20515247.206    20515247.8114   20515255.1404
       208.0004        208.0004
 -19189253.32349 -14930818.74347  20927785.125    20927785.5924   20927791.1024
       200.0004        198.0004
  -5047743.12947  -3910657.02645  23229992.157    23229992.4284   23229999.8024
       154.0004        156.0004
  -9315625.61448  -7241155.37246  22994510.594    22994511.3944   22994515.8804
       177.0004        180.0004
 -19686344.71249 -15321010.21748  20787606.766    20787606.9094   20787614.0164
       212.0004        213.0004
 -10920302.70849  -8493363.58647  22854545.723    22854544.9334   22854550.3394
       200.0004        201.0004
 21  2  6  0 46  0.0000000  0  7G21G08G04G01G07G09G27
 -13065704.11248 -10015834.37046  22192045.636    22192045.8964   22192051.0744
       166.0004        167.0004
 -22133659.60349 -17232672.91947  20524180.805    20524181.4704   20524188.5214
       207.0004        207.0004
 -19127029.87449 -14882332.93347  20939625.881    20939626.4044   20939631.8894
       199.0004        198.0004
  -5124830.88147  -3970725.31145  23215320.623    23215321.6354   23215331.4914
       154.0004        157.0004
  -9390379.60848  -7299405.21046  22980285.723    22980285.5994   22980290.3644
       178.0004        178.0004
 -19692679.11249 -15325946.11148  20786401.102    20786401.5324   20786408.7054
       213.0004        213.0004
 -10821687.18549  -8416520.30347  22873309.214    22873309.6664   22873316.1714
       200.0004        200.0004
 21  2  6  0 46 30.0000000  0  7G21G08G04G01G07G09G27
 -13104417.49348 -10046000.62546  22184678.102    22184678.1424   22184684.5074
       165.0004        166.0004
 -22086205.33049 -17195695.55247  20533210.744    20533211.3704   20533218.5674
       207.0004        207.0004
 -19064361.56349 -14833500.49647  20951551.436    20951552.1444   20951557.5734
       200.0004        198.0004
  -5201971.54847  -4030834.85545  23200643.786    23200643.8694   23200651.2094
       157.0004        159.0004
  -9465188.82748  -7357698.10346  22966050.244    22966050.4954   22966054.9024
       178.0004        179.0004
 -19698444.74549 -15330438.81648  20785304.419    20785304.6644   20785311.5874
       213.0004        213.0004
 -10722832.96049  -8339491.05147  22892120.396    22892121.2024   22892127.8304
       201.0004        200.0004
 21  2  6  0 47  0.0000000  0  7G21G08G04G01G07G09G27
 -13142862.53948 -10075957.78346  22177363.241    22177363.1314   22177368.5574
       165.0004        167.0004
 -22038245.13449 -17158323.96547  20542337.666    20542337.9894   20542345.2734
       207.0004        207.0004
 -19001250.28349 -14784322.88047  20963560.911    20963561.3304   20963566.9214
       199.0004        198.0004
  -5279161.92547  -4090983.11845  23185953.103    23185953.7714   23185961.8834
       157.0004        159.0004
  -9540051.58548  -7416032.70246  22951804.369    22951804.2674   22951810.2524
       179.0004        180.0004
 -19703641.21949 -15334488.02247  20784315.331    20784315.8484   20784322.5534
       212.0004        212.0004
 -10623742.50149  -8262277.70147  22910976.602    22910977.3434   22910984.5664
       200.0004        200.0004
 21  2  6  0 47 30.0000000  0  7G21G08G04G01G07G09G27
 -13181036.63648 -10105703.78546  22170098.052    22170098.6444   22170104.4004
       166.0004        168.0004
 -21989780.67749 -17120559.43747  20551560.199    20551560.7154   20551567.6994
       207.0004        207.0004
 -18937698.24549 -14734801.81047  20975654.272    20975655.2524   20975660.5704
       199.0004        198.0004
  -5356399.00947  -4151167.79845  23171256.853    23171257.1314   23171265.4114
       158.0004        161.0004
  -9614965.90348  -7474407.46746  22937548.409    22937548.7394   22937553.1214
       179.0004        179.0004
 -19708268.54149 -15338093.72847  20783434.273    20783434.8744   20783441.8214
       212.0004        212.0004
 -10524418.72549  -8184882.53847  22929877.601    22929878.1234   22929884.9254
       199.0004        199.0004
 21  2  6  0 48  0.0000000  0  7G21G08G04G01G07G09G27
 -13218937.30448 -10135236.73546  22162887.473    22162887.8754   22162893.4214
       168.0004        170.0004
 -21940814.68849 -17082404.11347  20560878.969    20560879.1244   20560885.7414
       207.0004        208.0004
 -18873708.09549 -14684939.36247  20987831.981    20987832.2034   20987837.5494
       199.0004        198.0004
  -5433680.26247  -4211386.86345  23156550.182    23156551.0604   23156559.2474
       159.0004        162.0004
  -9689930.04848  -7532821.07146  22923283.651    22923283.8564   22923288.5824
       180.0004        180.0004
 -19712327.18349 -15341256.29748  20782661.964    20782662.7434   20782669.7654
       212.0004        213.0004
 -10424864.91449  -8107308.12947  22948821.642    22948822.3774   22948828.8124
       198.0004        198.0004
 21  2  6  0 48 30.0000000  0  7G21G08G04G01G07G09G27
 -13256561.20948 -10164554.04046  22155729.080    22155728.3684   22155732.9634
       170.0004        171.0004
 -21891349.27649 -17043859.61247  20570292.270    20570292.1514   20570298.4214
       208.0004        208.0004
 -18809281.81249 -14634737.06547  21000090.963    21000091.4734   21000097.7404
       199.0004        197.0004
  -5511002.43447  -4271637.84245  23141836.961    23141837.3494   23141845.4364
       160.0004        162.0004
  -9764942.47548  -7591272.30346  22909008.049    22909009.5234   22909013.2994
       179.0004        179.0004
 -19715816.89949 -15343975.55348  20781998.497    20781998.8814   20782005.5244
       213.0004        213.0004
 -10325083.66949  -8029556.49347  22967811.253    22967809.8274   22967816.7474
       198.0004        197.0004
 21  2  6  0 49  0.0000000  0  7G21G08G04G01G07G09G27
 -13293906.75648 -10193654.45146  22148621.476    22148621.3334   22148625.0744
       170.0004        171.0004
 -21841387.00349 -17004927.95747  20579799.892    20579799.6704   20579806.0834
       208.0004        208.0004
 -18744422.36549 -14584197.24047  21012433.602    21012434.3104   21012440.1224
       198.0004        197.0004
  -5588363.23147  -4331918.91245  23127115.023    23127115.6594   23127123.3664
       161.0004        162.0004
  -9840001.67448  -7649759.97546  22894725.882    22894726.1124   22894730.2554
       179.0004        181.0004
 -19718738.49249 -15346252.11948  20781442.480    20781442.8274   20781449.7824
       213.0004        214.0004
 -10225078.59449  -7951630.46847  22986840.621    22986840.3774   22986847.3814
       198.0004        199.0004
 21  2  6  0 49 30.0000000  0  7G21G08G04G01G07G09G27
 -13330970.68448 -10222535.42346  22141569.471    22141568.0764   22141572.7184
       171.0004        171.0004
 -21790929.69249 -16965610.55447  20589400.801    20589400.8084   20589407.4224
       207.0004        207.0004
 -18679131.82249 -14533321.49047  21024857.577    21024858.0604   21024864.4414
       198.0004        197.0004
  -5665759.45447  -4392227.58845  23112385.665    23112386.7234   23112394.7894
       159.0004        161.0004
  -9915105.39248  -7708282.34346  22880434.628    22880434.9324   22880437.9854
       180.0004        181.0004
 -19721091.88249 -15348085.93248  20780994.940    20780995.1164   20781001.7724
       213.0004        214.0004
 -10124852.38749  -7873532.11547  23005912.686    23005912.8554   23005919.4914
       198.0004        197.0004
 21  2  6  0 50  0.0000000  0  7G21G08G04G01G07G09G27
 -13367751.16448 -10251195.51546  22134569.623    22134568.6314   22134573.7024
       171.0004        172.0004
 -21739980.55749 -16925909.91847  20599094.733    20599095.2464   20599102.6554
       206.0004        206.0004
 -18613413.20849 -14482112.18747  21037363.893    21037364.5034   21037370.0724
       198.0004        197.0004
  -5743188.87647  -4452562.15145  23097652.257    23097652.7944   23097659.9184
       158.0004        161.0004
  -9990252.46148  -7766838.49346  22866133.875    22866133.8744   22866138.2374
       179.0004        177.0004
 -19722877.87149 -15349477.61048  20780654.814    20780655.0614   20780661.7544
       213.0004        213.0004
 -10024408.58149  -7795264.21047  23025026.075    23025026.8214   23025033.7874
       197.0004        196.0004
 21  2  6  0 50 30.0000000  0  7G21G08G04G01G07G09G27
 -13404245.82348 -10279632.88346  22127625.080    22127624.1094   22127629.4934
       171.0004        173.0004
 -21688541.87849 -16885827.80847  20608884.084    20608884.1634   20608891.0184
       205.0004        205.0004
 -18547269.12849 -14430571.34247  21049951.382    21049951.5974   21049956.9614
       198.0004        197.0004
  -5820648.70347  -4512920.42145  23082911.808    23082912.2484   23082920.0844
       159.0004        161.0004
 -10065440.95148  -7825426.90546  22851826.201    22851826.2114   22851830.6884
       178.0004        178.0004
 -19724096.96349 -15350427.53848  20780422.616    20780422.7514   20780429.9414
       213.0004        213.0004
  -9923750.29549  -7716829.17247  23044180.846    23044181.8764   23044188.2104
       195.0004        195.0004
 21  2  6  0 51  0.0000000  0  7G21G08G04G01G07G09G27
 -13440451.49048 -10307845.07546  22120734.080    22120734.2834   22120740.0114
       170.0004        170.0004
 -21636615.41249 -16845365.61647  20618765.097    20618765.2124   20618772.8634
       205.0004        206.0004
 -18480701.27149 -14378700.29047  21062617.393    21062618.6624   21062623.8904
       197.0004        196.0004
  -5898135.29047  -4573299.54546  23068167.702    23068167.9554   23068175.2314
       161.0004        164.0004
 -10140668.91848  -7884046.10146  22837511.100    22837511.1624   22837515.3034
       178.0004        179.0004
 -19724748.66249 -15350935.35348  20780298.989    20780299.3944   20780305.8664
       213.0004        214.0004
  -9822879.86349  -7638228.82247  23063377.165    23063376.8384   23063383.6664
       195.0004        195.0004
 21  2  6  0 51 30.0000000  0  7G21G08G04G01G07G09G27
 -13476366.42248 -10335830.72246  22113899.854    22113898.9494   22113904.4454
       169.0004        170.0004
 -21584204.07449 -16804525.59747  20628739.285    20628739.5374   20628746.4184
       206.0004        207.0004
 -18413713.21649 -14326501.80247  21075365.888    21075366.5324   21075371.1934
       197.0004        196.0004
  -5975646.87147  -4633698.12846  23053417.176    23053418.0874   23053426.4544
       162.0004        164.0004
 -10215935.48648  -7942695.35546  22823187.473    22823188.5664   22823192.4794
       179.0004        179.0004
 -19724834.45249 -15351002.19848  20780283.290    20780283.1734   20780289.6524
       214.0004        214.0004
  -9721801.29948  -7559466.31147  23082609.908    23082611.0464   23082617.7304
       194.0004        194.0004
 21  2  6  0 52  0.0000000  0  7G21G08G04G01G07G09G27
 -13511985.62048 -10363585.93046  22107122.154    22107121.2954   22107126.2014
       169.0004        170.0004
 -21531308.13149 -16763307.97147  20638804.757    20638805.3274   20638812.4634
       207.0004        207.0004
 -18346304.90849 -14273975.86047  21088193.195    21088193.6334   21088198.8424
       197.0004        196.0004
  -6053177.98147  -4694111.93046  23038663.154    23038663.6764   23038672.0544
       163.0004        164.0004
 -10291236.22148  -8001371.26346  22808859.471    22808859.3364   22808863.1544
       179.0004        180.0004
 -19724352.14749 -15350626.38748  20780374.108    20780374.7454   20780381.5554
       214.0004        214.0004
  -9620515.09148  -7480542.00547  23101884.152    23101884.5934   23101891.8854
       194.0004        194.0004
 21  2  6  0 52 30.0000000  0  7G21G08G04G01G07G09G27
 -13547308.03948 -10391109.87046  22100400.680    22100399.9794   22100404.9004
       170.0004        172.0004
 -21477931.28849 -16721715.61647  20648962.620    20648962.4304   20648969.3194
       206.0004        206.0004
 -18278480.24249 -14221125.46847  21101099.250    21101099.7274   21101106.2064
       197.0004        196.0004
  -6130727.11147  -4754539.77046  23023905.892    23023906.3054   23023913.7134
       161.0004        163.0004
 -10366570.59848  -8060073.36946  22794523.253    22794523.1804   22794526.5704
       178.0004        178.0004
 -19723303.61249 -15349809.33848  20780573.340    20780573.9124   20780581.2884
       214.0004        214.0004
  -9519025.64348  -7401459.31547  23121196.548    23121197.1484   23121204.5464
       193.0004        192.0004
 21  2  6  0 53  0.0000000  0  7G21G08G04G01G07G09G27
 -13582330.83248 -10418400.34746  22093735.489    22093735.3734   22093739.9734
       170.0004        170.0004
 -21424075.53349 -16679750.08647  20659210.428    20659210.6334   20659217.4174
       205.0004        205.0004
 -18210241.45549 -14167952.39547  21114084.078    21114085.3444   21114091.8154
       197.0004        196.0004
  -6208291.04047  -4814979.16046  23009145.235    23009146.2764   23009154.5294
       161.0004        163.0004
 -10441936.23248  -8118799.83246  22780180.783    22780181.4624   22780185.5264
       177.0004        177.0004
 -19721688.93549 -15348551.15448  20780881.144    20780881.6094   20780888.2214
       214.0004        215.0004
  -9417335.63048  -7322220.35647  23140549.375    23140548.9084   23140555.5104
       193.0004        193.0004
 21  2  6  0 53 30.0000000  0  7G21G08G04G01G07G09G27
 -13617051.40748 -10445455.29446  22087128.473    22087129.0024   22087134.5144
       170.0004        171.0004
 -21369743.70449 -16637413.57347  20669548.955    20669548.7984   20669556.9054
       205.0004        205.0004
 -18141591.01249 -14114458.53547  21127147.943    21127148.7724   21127155.2924
       196.0004        195.0004
  -6285866.75647  -4875427.72446  22994383.890    22994384.5914   22994392.1464
       161.0004        163.0004
 -10517332.08348  -8177549.81746  22765833.997    22765834.0364   22765838.6514
       177.0004        177.0004
 -19719508.52349 -15346852.11548  20781296.041    20781296.3434   20781303.4454
       214.0004        214.0004
  -9315447.98348  -7242827.36747  23159936.803    23159937.4324   23159944.6004
       192.0004        192.0004
 21  2  6  0 54  0.0000000  0  7G21G08G04G01G07G09G27
 -13651469.48748 -10472274.57046  22080579.261    22080578.7834   22080582.9494
       170.0004        170.0004
 -21314939.74049 -16594709.18447  20679976.565    20679977.5294   20679986.0744
       204.0004        204.0004
 -18072533.48149 -14060647.47847  21140289.560    21140290.3864   21140296.6614
       196.0004        195.0004
  -6363453.38347  -4935884.80446  22979620.651    22979620.3064   22979628.8564
       161.0004        163.0004
 -10592757.66548  -8236322.98346  22751481.167    22751482.1004   22751485.9054
       178.0004        179.0004
 -19716764.94849 -15344714.26148  20781818.023    20781818.3764   20781825.0804
       214.0004        214.0004
  -9213367.70648  -7163284.30547  23179361.435    23179362.5724   23179370.1714
       191.0004        191.0004
 21  2  6  0 54 30.0000000  0  7G21G08G04G01G07G09G27
 -13685581.30648 -10498855.19046  22074087.829    22074087.1374   22074092.2524
       170.0004        172.0004
 -21259665.59649 -16551638.42547  20690495.505    20690496.2454   20690504.0694
       204.0004        206.0004
 -18003070.67149 -14006520.62247  21153508.172    21153508.4554   21153514.7134
       196.0004        194.0004
  -6441047.24647  -4996347.51645  22964853.276    22964854.4214   22964863.2574
       160.0004        161.0004
 -10668210.12948  -8295117.10846  22737123.060    22737123.0714   22737127.3204
       177.0004        178.0004
 -19713457.94149 -15342137.36748  20782447.104    20782447.6174   20782454.1274
       213.0004        213.0004
  -9111097.11148  -7083592.92747  23198824.849    23198823.4064   23198832.2014
       191.0004        191.0004
 21  2  6  0 55  0.0000000  0  7G21G08G04G01G07G09G27
 -13719384.18448 -10525195.07146  22067655.864    22067654.9014   22067659.3244
       171.0004        172.0004
 -21203923.28749 -16508202.85747  20701104.112    20701104.4684   20701111.1474
       205.0004        206.0004
 -17933204.70849 -13952079.61747  21166803.623    21166803.9104   21166809.5804
       196.0004        194.0004
  -6518645.01547  -5056813.27545  22950087.467    22950087.5654   22950096.2054
       159.0004        160.0004
 -10743686.85648  -8353930.12446  22722758.865    22722760.4054   22722763.9984
       176.0004        177.0004
 -19709587.54549 -15339121.47248  20783183.994    20783184.1054   20783190.4944
       213.0004        213.0004
  -9008638.58048  -7003755.12947  23218320.766    23218320.3074   23218328.7234
       189.0004        189.0004
 21  2  6  0 55 30.0000000  0  7G21G08G04G01G07G09G27
 -13752874.47448 -10551291.36746  22061282.450    22061283.0094   22061287.2054
       172.0004        173.0004
 -21147713.79449 -16464403.22247  20711800.516    20711800.5384   20711807.8494
       205.0004        205.0004
 -17862936.56549 -13897325.21247  21180174.909    21180175.3414   21180181.3184
       195.0004        194.0004
  -6596241.83847  -5117278.28745  22935320.515    22935321.0004   22935330.7934
       159.0004        160.0004
 -10819185.15548  -8412759.95646  22708392.447    22708393.3174   22708397.9744
       177.0004        178.0004
 -19705152.75249 -15335665.77548  20784027.592    20784028.0054   20784034.6154
       213.0004        213.0004
  -8905993.59648  -6923772.01847  23237852.572    23237853.2494   23237860.8464
       189.0004        188.0004
 21  2  6  0 56  0.0000000  0  7G21G08G04G01G07G09G27
 -13786049.39148 -10577141.94246  22054969.271    22054968.7844   22054973.2214
       173.0004        173.0004
 -21091039.28949 -16420241.25447  20722584.978    20722585.4174   20722592.4044
       205.0004        205.0004
 -17792268.83849 -13842259.44347  21193622.653    21193622.8584   21193628.7054
       196.0004        195.0004
  -6673834.89547  -5177740.38145  22920554.071    22920555.2844   22920563.0414
       159.0004        161.0004
 -10894702.91548  -8471604.94846  22694022.833    22694022.9794   22694027.3954
       178.0004        180.0004
 -19700154.23249 -15331770.79948  20784978.616    20784979.0254   20784986.0714
       212.0004        213.0004
  -8803165.05948  -6843645.88347  23257419.823    23257421.1964   23257429.0664
       189.0004        189.0004
 21  2  6  0 56 30.0000000  0  7G21G08G04G01G07G09G27
 -13818907.91448 -10602745.97046  22048715.380    22048715.9054   22048720.6994
       173.0004        174.0004
 -21033903.91349 -16375720.18547  20733457.344    20733457.6704   20733464.8494
       204.0004        204.0004
 -17721205.57149 -13786885.48647  21207145.743    21207146.0774   21207151.4844
       196.0004        195.0004
  -6751422.66647  -5238198.33945  22905791.490    22905791.6294   22905800.0914
       160.0004        161.0004
 -10970239.71348  -8530464.78446  22679647.999    22679648.5154   22679653.1454
       179.0004        180.0004
 -19694593.91449 -15327438.07848  20786037.723    20786037.8144   20786043.9644
       213.0004        214.0004
  -8700157.39648  -6763380.18046  23277022.838    23277023.1694   23277029.5624
       188.0004        187.0004
 21  2  6  0 57  0.0000000  0  7G21G08G04G01G07G09G27
 -13851447.88348 -10628101.77346  22042525.039    22042523.9684   22042528.9114
       173.0004        174.0004
 -20976310.26149 -16330842.00347  20744417.201    20744417.4484   20744424.7214
       203.0004        204.0004
 -17649749.71849 -13731205.60147  21220742.790    21220743.3094   21220749.6264
       196.0004        194.0004
  -6829002.43147  -5298650.06445  22891028.928    22891028.5714   22891036.8174
       160.0004        162.0004
 -11045793.76648  -8589338.06846  22665270.469    22665271.8024   22665275.4604
       179.0004        179.0004
 -19688472.86449 -15322668.43248  20787201.966    20787202.2044   20787208.8834
       214.0004        214.0004
  -8596973.89948  -6682977.45247  23296657.912    23296658.2594   23296665.5064
       189.0004        190.0004
 21  2  6  0 57 30.0000000  0  7G21G08G04G01G07G09G27
 -13883667.34148 -10653207.84746  22036393.477    22036393.1904   22036397.5954
       173.0004        172.0004
 -20918261.64849 -16285609.31647  20755462.775    20755463.2064   20755471.2854
       203.0004        204.0004
 -17577904.23149 -13675222.11447  21234414.334    21234415.0624   21234421.1344
       195.0004        194.0004
  -6906571.59747  -5359093.55245  22876267.453    22876268.2884   22876275.0334
       159.0004        159.0004
 -11121363.26948  -8648223.39946  22650890.150    22650890.0954   22650894.7294
       178.0004        179.0004
 -19681792.08649 -15317462.63148  20788472.742    20788473.2394   20788480.1334
       213.0004        213.0004
  -8493617.83448  -6602440.27547  23316326.274    23316326.1144   23316333.5274
       189.0004        189.0004
 21  2  6  0 58  0.0000000  0  7G21G08G04G01G07G09G27
 -13915563.54948 -10678062.01546  22030323.776    22030323.6114   22030327.4414
       173.0004        174.0004
 -20859760.21049 -16240023.76947  20766595.179    20766595.7224   20766603.3894
       203.0004        203.0004
 -17505671.84449 -13618937.13747  21248160.213    21248160.6974   21248166.2894
       195.0004        194.0004
  -6984127.15047  -5419526.42045  22861509.404    22861510.1104   22861517.8634
       159.0004        161.0004
 -11196946.56448  -8707119.45346  22636507.012    22636507.8234   22636511.4254
       178.0004        180.0004
 -19674552.34249 -15311821.26448  20789851.096    20789851.4794   20789857.7724
       213.0004        213.0004
  -8390092.27848  -6521771.00846  23336027.213    23336026.4414   23336032.7064
       188.0004        187.0004
 21  2  6  0 58 30.0000000  0  7G21G08G04G01G07G09G27
 -13947133.90048 -10702662.26746  22024316.796    22024316.0504   22024319.9534
       173.0004        174.0004
 -20800808.10749 -16194087.05447  20777814.012    20777814.1824   20777821.4124
       203.0004        204.0004
 -17433054.68248 -13562352.33147  21261978.626    21261979.0134   21261985.0494
       194.0004        192.0004
  -7061665.63647  -5479945.97845  22846755.419    22846755.0214   22846762.7274
       161.0004        162.0004
 -11272541.10748  -8766024.27546  22622122.037    22622122.4434   22622126.3134
       180.0004        181.0004
 -19666753.84649 -15305744.50448  20791335.082    20791335.1944   20791341.6644
       213.0004        213.0004
  -8286399.65348  -6440971.55147  23355758.784    23355758.7394   23355765.7204
       188.0004        189.0004
 21  2  6  0 59  0.0000000  0  7G21G08G04G01G07G09G27
 -13978376.03148 -10727006.77646  22018371.379    22018372.2224   22018374.9534
       173.0004        173.0004
 -20741407.83549 -16147801.11047  20789117.710    20789117.7634   20789125.1214
       204.0004        204.0004
 -17360055.10548 -13505469.54647  21275869.616    21275870.2854   21275876.5854
       194.0004        193.0004
  -7139183.67547  -5540349.61546  22832003.336    22832004.1714   22832011.0734
       161.0004        164.0004
 -11348144.50548  -8824936.01546  22607735.840    22607736.2364   22607739.6804
       181.0004        182.0004
 -19658397.04349 -15299232.69948  20792924.841    20792925.3534   20792931.8554
       212.0004        213.0004
  -8182542.55348  -6360043.97347  23375522.646    23375522.6934   23375529.2584
       190.0004        191.0004
 21  2  6  0 59 30.0000000  0  7G21G08G04G01G07G09G27
 -14009286.73448 -10751093.01346  22012488.975    22012488.6574   22012492.6984
       172.0004        173.0004
 -20681561.42649 -16101167.54047  20800506.087    20800506.2294   20800513.5924
       203.0004        204.0004
 -17286675.47548 -13448290.62547  21289833.804    21289834.6064   21289840.1044
       194.0004        192.0004
  -7216677.87647  -5600734.68845  22817255.362    22817256.1844   22817264.8354
       160.0004        162.0004
 -11423754.57848  -8883852.96046  22593347.032    22593347.9424   22593351.3804
       181.0004        181.0004
 -19649482.42549 -15292286.23348  20794621.830    20794621.6694   20794628.2924
       213.0004        213.0004
  -8078523.61848  -6278990.23447  23395314.757    23395316.0944   23395323.3844
       191.0004        191.0004
 21  2  6  1  0  0.0000000  0  7G21G08G04G01G07G09G27
 -14039863.01448 -10774918.66146  22006670.933    22006670.5724   22006674.5004
       172.0004        172.0004
 -20621271.11049 -16054188.07247  20811978.762    20811978.9174   20811986.5344
       203.0004        203.0004
 -17212917.64648 -13390816.99447  21303869.602    21303870.2404   21303875.9284
       194.0004        193.0004
  -7294144.46347  -5661098.22446  22802515.865    22802515.6144   22802523.1134
       161.0004        164.0004
 -11499368.62848  -8942772.97946  22578958.905    22578959.0774   22578964.2014
       182.0004        184.0004
 -19640009.93849 -15284905.06848  20796423.794    20796424.0404   20796431.2484
       213.0004        213.0004
  -7974345.02748  -6197812.11147  23415140.974    23415140.9734   23415147.8914
       191.0004        191.0004
 21  2  6  1  0 30.0000000  0  7G21G08G04G01G07G09G27
 -14070104.40648 -10798483.36046  22000914.742    22000915.0734   22000922.1044
       172.0004        173.0004
 -20560541.17549 -16006866.04747  20823535.344    20823535.4724   20823543.2104
       202.0004        202.0004
 -17138786.26149 -13333052.28047  21317976.653    21317977.1554   21317982.7344
       195.0004        193.0004
  -7371582.24747  -5721439.31946  22787778.651    22787779.4454   22787787.6774
       162.0004        164.0004
 -11574986.23048  -9001695.77646  22564569.238    22564569.5834   22564573.7814
       183.0004        185.0004
 -19629982.33649 -15277091.34648  20798331.947    20798332.2354   20798339.5914
       212.0004        213.0004
  -7870011.49848  -6116513.26347  23434994.464    23434994.7734   23435002.2134
       191.0004        192.0004
 21  2  6  1  1  0.0000000  0  7G21G08G04G01G07G09G27
 -14100007.68748 -10821784.59846  21995223.905    21995223.5584   21995229.0114
       172.0004        171.0004
 -20499372.86049 -15959202.41447  20835174.829    20835175.1904   20835182.8934
       202.0004        202.0004
 -17064283.17948 -13274997.92547  21332153.095    21332154.1074   21332159.9594
       194.0004        193.0004
  -7448987.35947  -5781754.96546  22773049.454    22773049.5914   22773058.2964
       164.0004        167.0004
 -11650604.64148  -9060619.19646  22550178.795    22550179.6944   22550183.6144
       183.0004        184.0004
 -19619399.68449 -15268845.11548  20800345.835    20800346.3494   20800353.2124
       213.0004        213.0004
  -7765525.26048  -6035095.38847  23454878.126    23454878.0954   23454884.3094
       190.0004        190.0004
 21  2  6  1  1 30.0000000  0  7G21G08G04G01G07G09G27
 -14129571.34348 -10844821.21346  21989598.491    21989598.7544   21989603.2304
       171.0004        171.0004
 -20437770.41849 -15911200.51447  20846896.859    20846897.5654   20846905.0564
       202.0004        201.0004
 -16989411.93448 -13216656.69747  21346401.291    21346401.9274   21346407.3494
       194.0004        193.0004
  -7526357.51148  -5842043.37846  22758325.829    22758327.0134   22758335.3584
       166.0004        169.0004
 -11726222.63248  -9119542.30746  22535789.892    22535789.9274   22535793.4544
       183.0004        183.0004
 -19608263.61749 -15260167.66748  20802465.380    20802465.8634   20802471.8254
       213.0004        213.0004
  -7660889.89848  -5953561.35247  23474788.771    23474789.3824   23474795.8084
       190.0004        189.0004
 21  2  6  1  2  0.0000000  0  7G21G08G04G01G07G09G27
 -14158791.93148 -10867590.48146  21984039.077    21984037.9114   21984042.2824
       171.0004        171.0004
 -20375734.74749 -15862861.01647  20858701.904    20858702.6884   20858709.7314
       201.0004        202.0004
 -16914174.11848 -13158029.83947  21360718.420    21360718.9324   21360724.9384
       194.0004        193.0004
  -7603688.53148  -5902301.29446  22743611.206    22743610.5454   22743618.1044
       167.0004        167.0004
 -11801837.13848  -9178462.68346  22521400.287    22521401.2474   22521405.0624
       184.0004        185.0004
 -19596573.98149 -15251058.84948  20804688.980    20804689.7134   20804696.7504
       212.0004        213.0004
  -7556107.30248  -5871912.57947  23494728.995    23494729.7264   23494735.3374
       190.0004        191.0004
 21  2  6  1  2 30.0000000  0  7G21G08G04G01G07G09G27
 -14187668.02448 -10890091.28746  21978542.928    21978542.9594   21978547.3744
       171.0004        171.0004
 -20313269.66649 -15814186.91847  20870589.032    20870589.2844   20870597.3204
       202.0004        202.0004
 -16838573.34448 -13099120.15047  21375104.881    21375105.4524   21375110.9344
       193.0004        192.0004
  -7680978.21548  -5962526.99646  22728903.958    22728903.7194   22728910.6124
       166.0004        167.0004
 -11877446.65848  -9237379.17646  22507013.117    22507012.7954   22507016.7024
       185.0004        185.0004
 -19584332.52649 -15241520.04548  20807018.966    20807019.2204   20807026.0794
       212.0004        213.0004
  -7451181.20148  -5790151.99447  23514696.028    23514696.0244   23514702.1744
       189.0004        189.0004
 21  2  6  1  3  0.0000000  0  7G21G08G04G01G07G09G27
 -14216197.42048 -10912321.95446  21973113.983    21973113.1054   21973118.0444
       171.0004        171.0004
 -20250378.09649 -15765180.50347  20882557.171    20882557.0614   20882564.8464
       201.0004        202.0004
 -16762612.33148 -13039929.75347  21389559.245    21389559.6224   21389566.1094
       192.0004        190.0004
  -7758223.42348  -6022718.05246  22714203.395    22714203.8814   22714211.6354
       166.0004        167.0004
 -11953049.62348  -9296290.57246  22492626.050    22492626.2334   22492630.0744
       185.0004        185.0004
 -19571540.23049 -15231552.02448  20809453.496    20809453.7104   20809460.3124
       213.0004        213.0004
  -7346114.46048  -5708281.79746  23534689.725    23534689.5444   23534695.2564
       188.0004        187.0004
 21  2  6  1  3 30.0000000  0  7G21G08G04G01G07G09G27
 -14244376.69448 -10934279.80546  21967752.461    21967752.0104   21967756.5784
       171.0004        173.0004
 -20187061.10249 -15715842.57547  20894605.868    20894606.0384   20894613.7494
       201.0004        202.0004
 -16686292.77848 -12980459.97047  21404082.503    21404083.0844   21404089.3824
       192.0004        191.0004
  -7835420.02848  -6082871.21646  22699513.336    22699514.4264   22699522.6194
       166.0004        168.0004
 -12028642.46148  -9355194.05446  22478241.214    22478241.3634   22478245.7174
       185.0004        186.0004
 -19558196.99749 -15221154.69548  20811992.349    20811992.6064   20811999.4134
       213.0004        213.0004
  -7240908.91848  -5626303.46947  23554708.426    23554709.0974   23554715.1374
       189.0004        189.0004
 21  2  6  1  4  0.0000000  0  7G21G08G04G01G07G09G27
 -14272202.50848 -10955962.24046  21962457.085    21962456.7624   21962462.3944
       172.0004        173.0004
 -20123321.38549 -15666175.25047  20906734.572    20906734.7724   20906742.6674
       201.0004        201.0004
 -16609617.17448 -12920712.74747  21418673.508    21418674.3624   21418680.1514
       192.0004        190.0004
  -7912564.67848  -6142983.89846  22684832.752    22684833.3254   22684841.3304
       167.0004        169.0004
 -12104222.45148  -9414087.54846  22463859.332    22463859.2304   22463863.2154
       186.0004        187.0004
 -19544303.62449 -15210328.68148  20814636.013    20814636.6904   20814643.3414
       213.0004        213.0004
  -7135567.27448  -5544219.06147  23574754.521    23574755.1764   23574761.3544
       188.0004        189.0004
 21  2  6  1  4 30.0000000  0  7G21G08G04G01G07G09G27
 -14299674.78148 -10977369.18846  21957228.631    21957228.3594   21957235.0294
       173.0004        174.0004
 -20059162.79749 -15616181.55147  20918943.388    20918943.8914   20918951.8244
       200.0004        200.0004
 -16532589.26248 -12860691.01147  21433331.190    21433331.8624   21433337.8084
       191.0004        191.0004
  -7989655.12348  -6203054.36346  22670162.801    22670163.5354   22670171.4494
       167.0004        168.0004
 -12179788.82748  -9472970.43346  22449478.684    22449478.8484   22449482.9324
       186.0004        186.0004
 -19529862.03949 -15199075.50148  20817384.764    20817385.2304   20817391.6724
       213.0004        214.0004
  -7030093.28448  -5462031.54847  23594825.700    23594825.7924   23594831.9944
       189.0004        188.0004
 21  2  6  1  5  0.0000000  0  7G21G08G04G01G07G09G27
 -14326791.00448 -10998498.67746  21952067.949    21952068.1894   21952074.3534
       173.0004        174.0004
 -19994587.83049 -15565863.38647  20931232.278    20931232.4454   20931239.7254
       200.0004        200.0004
 -16455211.93448 -12800396.98647  21448055.781    21448056.0644   21448062.3654
       192.0004        191.0004
  -8066688.42948  -6263080.30446  22655503.425    22655504.7914   22655511.6844
       167.0004        168.0004
 -12255339.77948  -9531841.29646  22435101.597    22435102.1604   22435106.5434
       186.0004        187.0004
 -19514873.42749 -15187396.06448  20820236.679    20820237.0704   20820243.6204
       213.0004        213.0004
  -6924489.95348  -5379743.21546  23614920.015    23614921.2484   23614928.1034
       186.0004        186.0004
 21  2  6  1  5 30.0000000  0  7G21G08G04G01G07G09G27
 -14353547.28048 -11019347.69846  21946979.015    21946978.5584   21946982.2694
       174.0004        175.0004
 -19929597.64849 -15515221.67147  20943598.941    20943599.2394   20943607.1764
       199.0004        199.0004
 -16377486.50948 -12739831.72147  21462846.883    21462847.3734   21462853.4014
       192.0004        191.0004
  -8143659.97248  -6323058.11046  22640856.798    22640857.3674   22640865.2864
       168.0004        169.0004
 -12330871.74548  -9590697.35646  22420728.728    22420728.9064   22420733.3504
       186.0004        186.0004
 -19499337.40149 -15175290.05947  20823192.454    20823193.0804   20823199.8544
       212.0004        212.0004
  -6818758.64548  -5297355.23246  23635040.860    23635041.5194   23635048.3734
       184.0004        183.0004
 21  2  6  1  6  0.0000000  0  7G21G08G04G01G07G09G27
 -14379942.82148 -11039915.63446  21941955.117    21941955.0884   21941958.6934
       174.0004        175.0004
 -19864196.70649 -15464259.87847  20956044.423    20956044.8074   20956052.5254
       199.0004        200.0004
 -16299417.28848 -12678998.56447  21477702.526    21477703.0324   21477709.6324
       191.0004        190.0004
  -8220568.13548  -6382986.50846  22626222.215    22626222.9534   22626230.5344
       169.0004        172.0004
 -12406383.98848  -9649538.05246  22406359.227    22406359.2954   22406363.4624
       186.0004        187.0004
 -19483256.62149 -15162759.57647  20826253.062    20826253.5884   20826260.0804
       212.0004        212.0004
  -6712903.79348  -5214870.92746  23655185.119    23655185.4124   23655191.6744
       184.0004        184.0004
 21  2  6  1  6 30.0000000  0  7G21G08G04G01G07G09G27
 -14405976.40048 -11060201.52146  21937000.756    21937001.1994   21937004.5274
       174.0004        176.0004
 -19798388.76649 -15412980.96547  20968567.954    20968568.1324   20968575.7274
       200.0004        200.0004
 -16221008.09748 -12617900.50947  21492623.449    21492623.9774   21492630.0314
       191.0004        191.0004
  -8297410.79048  -6442863.88246  22611598.889    22611599.3034   22611607.8134
       169.0004        170.0004
 -12481875.14048  -9708362.33146  22391993.457    22391994.3574   22391997.7754
       186.0004        186.0004
 -19466633.19249 -15149806.26648  20829416.697    20829416.9234   20829423.3754
       212.0004        213.0004
  -6606929.19248  -5132293.31846  23675352.184    23675352.4354   23675358.4874
       184.0004        185.0004
 21  2  6  1  7  0.0000000  0  7G21G08G04G01G07G09G27
 -14431644.17048 -11080202.36446  21932117.049    21932116.4014   21932121.2424
       175.0004        177.0004
 -19732175.03949 -15361385.84447  20981167.879    20981167.6054   20981175.5104
       199.0004        200.0004
 -16142260.10948 -12556538.44547  21507609.135    21507609.3374   21507614.7334
       191.0004        190.0004
  -8374183.14548  -6502686.47746  22596989.958    22596990.4014   22596998.8844
       169.0004        170.0004
 -12557341.45648  -9767167.21746  22377633.343    22377633.2384   22377637.4324
       186.0004        187.0004
 -19449466.67249 -15136429.74548  20832683.036    20832683.4384   20832690.0794
       213.0004        213.0004
  -6500836.10148  -5049623.35646  23695541.235    23695541.5604   23695546.8054
       185.0004        186.0004
 21  2  6  1  7 30.0000000  0  7G21G08G04G01G07G09G27
 -14456945.56148 -11099917.71646  21927301.452    21927301.1484   21927306.9074
       176.0004        177.0004
 -19665559.38349 -15309477.53147  20993843.292    20993844.0094   20993851.8304
       199.0004        199.0004
 -16063177.47948 -12494915.61547  21522657.584    21522658.2914   21522663.5884
       191.0004        190.0004
  -8450883.39048  -6562452.88246  22582393.713    22582394.5464   22582402.9014
       168.0004        170.0004
 -12632782.17448  -9825952.19146  22363277.681    22363277.2114   22363280.9504
       186.0004        186.0004
 -19431759.54549 -15122631.98148  20836052.815    20836053.1884   20836059.7634
       213.0004        213.0004
  -6394628.68648  -4966864.35346  23715753.276    23715752.7504   23715756.7714
       186.0004        186.0004
 21  2  6  1  8  0.0000000  0  7G21G08G04G01G07G09G27
 -14481879.23348 -11119346.54246  21922556.507    21922556.6144   21922561.8974
       176.0004        176.0004
 -19598545.53249 -15257258.93147  21006595.630    21006596.1024   21006603.9224
       198.0004        198.0004
 -15983763.93548 -12433034.93747  21537769.146    21537770.0554   21537776.2314
       191.0004        190.0004
  -8527509.24848  -6622161.30146  22567812.714    22567812.6134   22567821.6584
       168.0004        170.0004
 -12708195.86748  -9884716.09946  22348926.388    22348926.9834   22348930.0494
       186.0004        185.0004
 -19413513.92949 -15108414.61548  20839525.089    20839525.3604   20839531.6604
       213.0004        213.0004
  -6288310.65348  -4884019.10946  23735985.210    23735983.5984   23735989.2834
       186.0004        187.0004
 21  2  6  1  8 30.0000000  0  8G30G21G08G04G01G07G09G27
   -322504.41357   -228823.41745  24227388.133    24227386.0245   24227394.2214
       142.0004        152.0004
 -14506441.33248 -11138485.82646  21917882.893    21917882.2404   21917887.3774
       176.0004        177.0004
 -19531134.89749 -15204731.15747  21019424.380    21019424.3574   21019431.7764
       198.0004        198.0004
 -15904020.91948 -12370897.51847  21552943.765    21552944.4124   21552950.6644
       191.0004        190.0004
  -8604056.17748  -6681808.23846  22553246.513    22553246.6674   22553254.5284
       168.0004        168.0004
 -12783579.09948  -9943456.26646  22334580.851    22334580.8144   22334585.2354
       185.0004        184.0004
 -19394729.66749 -15093777.52448  20843098.955    20843099.4744   20843106.3004
       213.0004        213.0004
  -6181883.44848  -4801088.82846  23756236.830    23756235.9924   23756241.1834
       186.0004        185.0004
 21  2  6  1  9  0.0000000  0  8G30G21G08G04G01G07G09G27
   -406671.10047   -294407.81445  24211370.200    24211370.8254   24211378.4874
       149.0004        154.0004
 -14530627.69848 -11157332.31346  21913280.206    21913280.0794   21913285.1494
       176.0004        177.0004
 -19463327.94949 -15151894.55247  21032327.614    21032327.7224   21032335.1024
       198.0004        199.0004
 -15823949.12448 -12308503.92447  21568182.172    21568182.2724   21568187.5454
       192.0004        191.0004
  -8680518.83848  -6741389.50946  22538696.215    22538696.6324   22538704.5224
       168.0004        169.0004
 -12858927.56448 -10002169.33946  22320241.773    22320242.8744   22320247.3514
       185.0004        186.0004
 -19375405.89449 -15078720.03248  20846776.350    20846776.4964   20846783.4934
       213.0004        213.0004
  -6075347.75248  -4718074.00446  23776507.423    23776507.5544   23776514.6274
       184.0004        183.0004
 21  2  6  1  9 30.0000000  0  8G30G21G08G04G01G07G09G27
   -490939.36947   -360071.35045  24195335.807    24195336.4284   24195343.4234
       152.0004        156.0004
 -14554436.56048 -11175884.66746  21908750.987    21908749.7774   21908754.4154
       176.0004        177.0004
 -19395127.62849 -15098751.44147  21045304.657    21045305.2744   21045313.7184
       198.0004        198.0004
 -15743551.52048 -12245856.44547  21583480.870    21583481.2804   21583486.8544
       191.0004        190.0004
  -8756894.12748  -6800902.70246  22524161.733    22524162.4604   22524171.0074
       168.0004        169.0004
 -12934239.11248 -10060853.64646  22305911.411    22305912.4654   22305915.8724
       186.0004        187.0004
 -19355543.94949 -15063243.18848  20850556.230    20850556.4714   20850563.0134
       213.0004        213.0004
  -5968706.41548  -4634976.87746  23796799.779    23796800.9184   23796807.5724
       183.0004        183.0004
 21  2  6  1 10  0.0000000  0  8G30G21G08G04G01G07G09G27
   -575309.90047   -425814.58445  24179280.117    24179280.6574   24179288.9764
       154.0004        157.0004
 -14577867.32248 -11194142.38046  21904291.026    21904290.6594   21904295.7884
       176.0004        177.0004
 -19326538.92549 -15045305.68947  21058356.773    21058357.1904   21058365.6544
       197.0004        197.0004
 -15662832.88948 -12182958.81447  21598839.930    21598841.1204   21598846.6304
       190.0004        188.0004
  -8833180.87448  -6860346.89246  22509645.242    22509646.0534   22509654.1354
       168.0004        170.0004
 -13009513.14148 -10119508.72846  22291587.646    22291588.0214   22291591.1934
       187.0004        186.0004
 -19335147.11849 -15047349.54648  20854437.950    20854437.8794   20854444.4104
       213.0004        213.0004
  -5861964.29948  -4551801.18346  23817112.276    23817113.5884   23817119.1624
       181.0004        180.0004
 21  2  6  1 10 30.0000000  0  8G30G21G08G04G01G07G09G27
   -659781.49047   -491636.56445  24163205.979    24163206.3624   24163214.0344
       155.0004        158.0004
 -14600918.47748 -11212104.30246  21899903.687    21899903.6684   21899908.2814
       177.0004        177.0004
 -19257564.62849 -14991559.47847  21071482.242    21071482.5374   21071490.9274
       197.0004        197.0004
 -15581796.27948 -12119813.41547  21614261.166    21614262.0434   21614268.1744
       190.0004        189.0004
  -8909376.01948  -6919719.69646  22495145.661    22495145.9934   22495154.2534
       168.0004        169.0004
 -13084747.84248 -10178133.16846  22277270.873    22277270.3114   22277274.9654
       186.0004        186.0004
 -19314216.90049 -15031040.28648  20858419.987    20858420.4994   20858427.1964
       212.0004        213.0004
  -5755124.25448  -4468549.20846  23837443.033    23837444.4024   23837451.4654
       181.0004        181.0004
 21  2  6  1 11  0.0000000  0  8G30G21G08G04G01G07G09G27
   -744352.35547   -557535.91145  24147113.133    24147113.5094   24147120.7014
       156.0004        158.0004
 -14623587.53648 -11229768.48946  21895591.267    21895590.6214   21895595.2314
       177.0004        176.0004
 -19188207.05849 -14937514.61147  21084680.693    21084681.1144   21084689.0024
       196.0004        197.0004
 -15500444.13348 -12056422.12947  21629742.554    21629742.8844   21629748.3974
       190.0004        189.0004
  -8985475.92848  -6979018.29246  22480664.330    22480665.1154   22480673.3234
       169.0004        170.0004
 -13159940.78548 -10236725.05746  22262961.341    22262962.2544   22262965.9134
       186.0004        186.0004
 -19292754.21749 -15014316.11547  20862504.704    20862505.0304   20862511.7624
       212.0004        212.0004
  -5648188.75848  -4385222.82546  23857793.936    23857794.5584   23857799.3614
       181.0004        181.0004
 21  2  6  1 11 30.0000000  0  8G30G21G08G04G01G07G09G27
   -829021.57147   -623511.89945  24131001.090    24131001.3214   24131008.5564
       155.0004        158.0004
 -14645872.59148 -11247133.44446  21891349.604    21891349.7304   21891354.3254
       176.0004        176.0004
 -19118469.66249 -14883173.77647  21097951.466    21097951.8284   21097959.6634
       196.0004        196.0004
 -15418779.84148 -11992787.62147  21645282.205    21645282.6684   21645288.4054
       189.0004        188.0004
  -9061477.91148  -7038240.58846  22466202.495    22466202.9014   22466210.3214
       169.0004        171.0004
 -13235089.86448 -10295282.78046  22248661.516    22248662.0254   22248665.6144
       186.0004        187.0004
 -19270760.95649 -14997178.50247  20866688.988    20866689.5814   20866696.1334
       211.0004        211.0004
  -5541161.00548  -4301824.59746  23878159.801    23878160.8924   23878166.6984
       181.0004        183.0004
 21  2  6  1 12  0.0000000  0  8G30G21G08G04G01G07G09G27
   -913786.88647   -689562.77345  24114869.249    24114870.4694   24114878.3744
       155.0004        157.0004
 -14667770.46748 -11264196.71146  21887183.036    21887183.1934   21887188.3454
       176.0004        178.0004
 -19048353.90349 -14828538.10747  21111294.569    21111294.5984   21111302.3134
       196.0004        196.0004
 -15336805.37348 -11928911.41847  21660882.066    21660882.0554   21660888.0734
       190.0004        189.0004
  -9137377.84448  -7097383.37146  22451757.598    22451758.4994   22451766.0014
       169.0004        169.0004
 -13310191.54848 -10353803.55546  22234369.611    22234370.1194   22234374.6004
       186.0004        186.0004
 -19248237.61449 -14979627.84247  20870975.754    20870975.9874   20870982.6454
       212.0004        212.0004
  -5434042.93548  -4218355.96146  23898544.155    23898544.0874   23898551.1054
       182.0004        182.0004
 21  2  6  1 12 30.0000000  0  8G30G21G08G04G01G07G09G27
   -998646.52247   -755687.15045  24098722.040    24098723.1234   24098729.0144
       155.0004        157.0004
 -14689279.40348 -11280956.90246  21883089.618    21883090.0854   21883094.2384
       177.0004        177.0004
 -18977862.84449 -14773610.00947  21124707.846    21124707.9794   21124716.0594
       196.0004        196.0004
 -15254523.23448 -11864795.48447  21676539.803    21676540.0634   21676546.2824
       190.0004        190.0004
  -9213172.16548  -7156443.87346  22437335.653    22437335.7644   22437343.7354
       169.0004        170.0004
 -13385243.87848 -10412285.86847  22220087.221    22220088.1934   22220091.8414
       186.0004        188.0004
 -19225185.21449 -14961664.94148  20875362.613    20875362.9844   20875369.6314
       212.0004        213.0004
  -5326836.90948  -4134818.81446  23918943.299    23918944.0304   23918951.7944
       180.0004        179.0004
 21  2  6  1 13  0.0000000  0  8G30G21G08G04G01G07G09G27
  -1083600.04147   -821884.67845  24082557.364    24082557.2134   24082563.0424
       155.0004        157.0004
 -14710397.95048 -11297412.89046  21879070.430    21879070.2364   21879076.1194
       177.0004        177.0004
 -18906999.99049 -14718392.18847  21138191.670    21138192.4214   21138200.5754
       195.0004        195.0004
 -15171937.32948 -11800442.84047  21692254.357    21692255.3874   21692261.6064
       190.0004        189.0004
  -9288858.59648  -7215420.27446  22422933.595    22422933.2104   22422941.5104
       171.0004        172.0004
 -13460245.51848 -10470728.69247  22205815.071    22205816.4414   22205820.0644
       187.0004        189.0004
 -19201606.23049 -14943291.70848  20879849.634    20879849.9214   20879856.5654
       212.0004        213.0004
  -5219546.61148  -4051215.97546  23939359.488    23939359.9294   23939368.6764
       179.0004        178.0004
 21  2  6  1 13 30.0000000  0  8G30G21G08G04G01G07G09G27
  -1168646.58447   -888154.68045  24066372.801    24066372.4794   24066379.2884
       155.0004        157.0004
 -14731124.48548 -11313563.42146  21875126.001    21875126.7354   21875131.6854
       176.0004        176.0004
 -18835769.13048 -14662887.62047  21151747.273    21151747.2554   21151755.4404
       194.0004        194.0004
 -15089051.15348 -11735856.20247  21708027.805    21708027.8014   21708034.6474
       190.0004        188.0004
  -9364434.58048  -7274310.61446  22408550.064    22408550.4754   22408559.8634
       170.0004        171.0004
 -13535194.41248 -10529130.41347  22191552.977    22191553.7364   22191558.1094
       188.0004        189.0004
 -19177502.71549 -14924509.74547  20884435.673    20884436.3144   20884443.2764
       212.0004        212.0004
  -5112175.51248  -3967550.20346  23959793.783    23959793.4654   23959800.1604
       178.0004        179.0004
 21  2  6  1 14  0.0000000  0  8G30G21G08G04G01G07G09G27
  -1253784.30747   -954495.71245  24050169.927    24050170.3474   24050178.4964
       155.0004        158.0004
 -14751456.82248 -11329406.77146  21871257.607    21871257.3394   21871262.5694
       176.0004        177.0004
 -18764172.15748 -14607097.75947  21165371.135    21165371.9324   21165379.9614
       194.0004        195.0004
 -15005867.10548 -11671037.46747  21723856.960    21723857.9894   21723863.7004
       189.0004        188.0004
  -9439896.33248  -7333111.94046  22394191.682    22394191.2524   22394199.7014
       170.0004        170.0004
 -13610087.66448 -10587488.77347  22177302.614    22177302.5354   22177306.6884
       189.0004        189.0004
 -19152875.69749 -14905319.85047  20889122.523    20889122.8714   20889129.7144
       212.0004        212.0004
  -5004725.77348  -3883823.14746  23980238.971    23980239.3344   23980246.8704
       176.0004        175.0004
 21  2  6  1 14 30.0000000  0  8G30G21G08G04G01G07G09G27
  -1339010.45247  -1020905.67245  24033952.349    24033952.9304   24033961.0324
       158.0004        161.0004
 -14771391.72948 -11344940.44146  21867464.320    21867464.1424   21867468.7384
       176.0004        178.0004
 -18692210.73249 -14551023.91447  21179066.024    21179066.2124   21179073.8344
       195.0004        196.0004
 -14922386.89148 -11605987.94347  21739742.673    21739743.2934   21739749.5454
       189.0004        188.0004
  -9515239.42348  -7391820.81846  22379852.901    22379853.9934   22379862.4394
       170.0004        172.0004
 -13684921.77448 -10645801.06047  22163062.082    22163062.0454   22163065.6384
       188.0004        188.0004
 -19127725.43449 -14885722.23747  20893907.936    20893908.6314   20893915.2984
       211.0004        211.0004
  -4897198.88748  -3800035.98646  24000700.309    24000701.5254   24000708.6244
       175.0004        175.0004
 21  2  6  1 15  0.0000000  0  8G30G21G08G04G01G07G09G27
  -1424323.59947  -1087383.44345  24017718.897    24017719.2674   24017725.9044
       159.0004        161.0004
 -14790927.60948 -11360163.19446  21863747.568    21863746.6504   21863752.1904
       177.0004        178.0004
 -18619888.17849 -14494668.67847  21192828.701    21192828.6254   21192836.5734
       195.0004        196.0004
 -14838613.46648 -11540709.97046  21755683.540    21755684.8504   21755691.3354
       188.0004        187.0004
  -9590460.65448  -7450434.74946  22365540.048    22365539.1284   22365547.4554
       172.0004        172.0004
 -13759694.73248 -10704065.69547  22148832.089    22148832.5644   22148836.5024
       187.0004        188.0004
 -19102053.55849 -14865718.18547  20898793.380    20898793.7154   20898800.8404
       211.0004        212.0004
  -4789597.68148  -3716190.88846  24021175.983    24021176.7734   24021184.4064
       172.0004        172.0004
 21  2  6  1 15 30.0000000  0  8G30G21G08G04G01G07G09G27
  -1509723.50347  -1153928.81445  24001468.449    24001467.6614   24001474.0444
       156.0004        157.0004
 -14810063.20648 -11375074.02446  21860105.811    21860105.2834   21860110.0044
       178.0004        178.0004
 -18547208.16949 -14438034.89847  21206658.746    21206659.0984   21206667.0214
       195.0004        195.0004
 -14754550.89548 -11475206.67846  21771681.237    21771681.3564   21771687.2124
       188.0004        186.0004
  -9665557.91148  -7508952.06946  22351250.557    22351250.8574   22351257.0424
       172.0004        175.0004
 -13834405.19648 -10762281.61947  22134615.837    22134615.5844   22134619.8264
       188.0004        190.0004
 -19075862.76049 -14845309.76947  20903777.409    20903777.8764   20903784.4254
       211.0004        212.0004
  -4681926.03048  -3632290.93246  24041666.843    24041666.7354   24041673.2804
       173.0004        175.0004
 21  2  6  1 16  0.0000000  0  8G30G21G08G04G01G07G09G27
  -1595209.50847  -1220541.28545  23985200.754    23985200.9494   23985206.8054
       152.0004        153.0004
 -14828797.41648 -11389672.08946  21856540.367    21856539.2054   21856545.3614
       178.0004        178.0004
 -18474174.64348 -14381125.64347  21220555.159    21220555.6234   21220565.1284
       194.0004        194.0004
 -14670203.00648 -11409481.05546  21787731.860    21787732.8614   21787738.0734
       187.0004        186.0004
  -9740528.85148  -7567370.95146  22336983.598    22336983.5434   22336990.7984
       173.0004        174.0004
 -13909051.72548 -10820447.73247  22120410.348    22120410.9144   22120415.0394
       190.0004        190.0004
 -19049155.47249 -14824498.89647  20908859.096    20908860.0234   20908866.9634
       212.0004        212.0004
  -4574187.50348  -3548338.83146  24062169.766    24062168.1434   24062175.3264
       172.0004        173.0004
 21  2  6  1 16 30.0000000  0  8G30G21G08G04G01G07G09G27
  -1680780.23947  -1287219.79845  23968916.648    23968917.1174   23968922.4194
       152.0004        155.0004
 -14847128.87248 -11403956.32146  21853050.361    21853051.2904   21853056.7354
       177.0004        177.0004
 -18400790.29648 -14323943.04047  21234520.589    21234520.8924   21234530.2804
       194.0004        194.0004
 -14585572.86548 -11343535.47946  21803836.241    21803836.7754   21803843.5354
       187.0004        187.0004
  -9815370.38148  -7625689.00446  22322741.239    22322741.0894   22322749.3914
       173.0004        174.0004
 -13983632.17648 -10878562.36747  22106219.171    22106219.3184   22106222.5804
       191.0004        191.0004
 -19021933.49049 -14803286.95647  20914039.965    20914040.0324   20914047.1794
       212.0004        212.0004
  -4466384.91848  -3464336.84846  24082683.218    24082682.7384   24082689.0764
       174.0004        175.0004
 21  2  6  1 17  0.0000000  0  8G30G21G08G04G01G07G09G27
  -1766432.67147  -1353961.94945  23952618.315    23952617.8024   23952624.7444
       153.0004        156.0004
 -14865053.87448 -11417923.83046  21849640.254    21849640.8024   21849644.4454
       177.0004        177.0004
 -18327056.74248 -14266488.32047  21248552.084    21248552.3894   21248560.2364
       194.0004        195.0004
 -14500661.85648 -11277371.06646  21819994.850    21819994.8994   21820001.3834
       187.0004        186.0004
  -9890077.65848  -7683902.44046  22308524.244    22308524.5014   22308532.4794
       173.0004        174.0004
 -14058142.37148 -10936622.24647  22092040.139    22092039.9884   22092044.0834
       191.0004        190.0004
 -18994196.92049 -14781674.03547  20919317.713    20919318.0874   20919325.1234
       211.0004        211.0004
  -4358519.47648  -3380285.83046  24103208.029    24103208.5434   24103215.9604
       174.0004        175.0004
 21  2  6  1 17 30.0000000  0  8G30G21G08G04G01G07G09G27
  -1852164.61647  -1420766.04145  23936302.280    23936301.9104   23936310.4914
       154.0004        155.0004
 -14882569.98648 -11431572.74546  21846308.548    21846307.4084   21846310.8984
       177.0004        177.0004
 -18252976.20748 -14208763.22547  21262649.297    21262649.7174   21262656.7064
       194.0004        194.0004
 -14415472.26448 -11210989.57446  21836206.155    21836206.5364   21836211.8064
       187.0004        186.0004
  -9964646.75148  -7742008.21346  22294333.195    22294334.2104   22294342.5134
       172.0004        173.0004
 -14132579.39948 -10994625.11847  22077874.975    22077875.2774   22077879.3554
       190.0004        190.0004
 -18965946.67749 -14759660.86447  20924693.629    20924694.1564   20924700.6694
       211.0004        211.0004
  -4250593.16848  -3296187.42846  24123745.406    24123747.0554   24123753.0614
       174.0004        175.0004
 21  2  6  1 18  0.0000000  0  8G30G21G08G04G01G07G09G27
  -1937974.25147  -1487630.64045  23919972.991    23919973.4844   23919981.4144
       153.0004        156.0004
 -14899674.81048 -11444901.15646  21843053.188    21843052.7814   21843056.8034
       177.0004        177.0004
 -18178551.01148 -14150769.54947  21276811.839    21276811.9924   21276820.1044
       193.0004        194.0004
 -14330006.70248 -11144393.03846  21852469.872    21852469.9454   21852475.1804
       186.0004        185.0004
 -10039074.11348  -7800003.52746  22280171.293    22280171.5764   22280179.6374
       172.0004        174.0004
 -14206940.78848 -11052569.03847  22063723.842    22063724.4074   22063728.9424
       191.0004        192.0004
 -18937184.18249 -14737248.52347  20930167.171    20930167.3544   20930174.0904
       211.0004        212.0004
  -4142608.32748  -3212043.38946  24144294.868    24144295.8364   24144302.7214
       175.0004        176.0004
 21  2  6  1 18 30.0000000  0  8G30G21G08G04G01G07G09G27
  -2023861.08147  -1554555.43845  23903630.914    23903630.6184   23903636.8964
       155.0004        159.0004
 -14916367.66048 -11457908.57146  21839876.692    21839875.7754   21839880.8824
       178.0004        178.0004
 -18103785.30248 -14092510.54947  21291038.959    21291039.5324   21291047.5994
       193.0004        193.0004
 -14244269.22448 -11077584.63646  21868783.654    21868784.5884   21868790.4224
       185.0004        184.0004
 -10113357.57248  -7857886.71746  22266035.031    22266035.9104   22266044.2034
       173.0004        176.0004
 -14281224.69548 -11110452.59847  22049588.228    22049589.2974   22049593.2074
       191.0004        192.0004
 -18907912.22249 -14714439.20447  20935737.610    20935737.8144   20935744.7234
       211.0004        211.0004
  -4034568.74448  -3127856.73246  24164854.093    24164855.1934   24164861.4044
       176.0004        176.0004
 21  2  6  1 19  0.0000000  0  8G30G21G08G04G01G07G09G27
  -2109824.19947  -1621539.68945  23887273.767    23887273.5564   23887279.6084
       157.0004        159.0004
 -14932647.56848 -11470594.19946  21836779.033    21836778.2334   21836783.1004
       178.0004        179.0004
 -18028682.58048 -14033988.94847  21305330.964    21305331.1684   21305338.7314
       193.0004        194.0004
 -14158263.45848 -11010567.14646  21885150.182    21885151.3754   21885156.8084
       184.0004        183.0004
 -10187494.49048  -7915655.73346  22251927.666    22251928.1724   22251935.8854
       175.0004        176.0004
 -14355429.87148 -11168274.80847  22035467.529    22035468.3954   22035471.6884
       191.0004        191.0004
 -18878133.16249 -14691234.73547  20941404.100    20941404.4944   20941411.4714
       211.0004        211.0004
  -3926477.68748  -3043629.95146  24185422.711    24185423.8874   24185431.2164
       175.0004        176.0004
 21  2  6  1 19 30.0000000  0  8G30G21G08G04G01G07G09G27
  -2195862.33447  -1688582.35545  23870900.370    23870900.1064   23870907.1994
       156.0004        157.0004
 -14948512.86848 -11482956.75146  21833759.280    21833758.7204   21833763.7514
       179.0004        179.0004
 -17953246.12248 -13975207.28347  21319686.222    21319686.6044   21319693.3684
       193.0004        193.0004
 -14071992.54148 -10943343.07446  21901567.402    21901568.4884   21901573.5144
       184.0004        184.0004
 -10261481.83248  -7973308.18246  22237848.189    22237849.1114   22237856.4924
       174.0004        175.0004
 -14429554.10148 -11226033.93547  22021362.116    22021362.4124   22021366.3384
       191.0004        191.0004
 -18847848.97449 -14667636.65647  20947167.096    20947167.5934   20947173.7214
       210.0004        211.0004
  -3818338.10748  -2959365.37146  24206001.994    24206002.3734   24206008.6164
       176.0004        177.0004
 21  2  6  1 20  0.0000000  0  8G30G21G08G04G01G07G09G27
  -2281973.49947  -1755681.96245  23854513.856    23854513.7694   23854519.5124
       153.0004        155.0004
 -14963961.25548 -11494994.44746  21830819.664    21830819.3494   21830824.1914
       179.0004        179.0004
 -17877478.45848 -13916167.53647  21334104.399    21334104.6154   21334112.2844
       193.0004        194.0004
 -13985459.14348 -10875914.44846  21918034.772    21918034.9074   21918040.5324
       185.0004        185.0004
 -10335315.97948  -8030841.25746  22223797.541    22223797.9964   22223805.8814
       174.0004        174.0004
 -14503593.87348 -11283727.24747  22007272.298    22007272.9014   22007277.3374
       191.0004        192.0004
 -18817061.08449 -14643646.08847  20953025.755    20953026.2084   20953032.8674
       210.0004        211.0004
  -3710152.26948  -2875064.72046  24226588.418    24226589.5404   24226595.9594
       178.0004        179.0004
 21  2  6  1 20 30.0000000  0  8G30G21G08G04G01G07G09G27
  -2368155.35647  -1822836.64545  23838112.686    23838113.3384   23838119.8844
       151.0004        154.0004
 -14978990.27248 -11506705.36046  21827959.667    21827959.1404   21827963.9414
       178.0004        179.0004
 -17801381.86848 -13856871.49047  21348585.129    21348585.6044   21348593.5784
       194.0004        194.0004
 -13898665.39148 -10808282.97246  21934550.034    21934551.0194   21934557.4134
       184.0004        182.0004
 -10408992.83348  -8088251.77546  22209778.287    22209778.3794   22209786.4024
       174.0004        175.0004
 -14577547.01748 -11341353.07247  21993200.981    21993200.4854   21993204.4194
       192.0004        192.0004
 -18785770.47049 -14619263.79647  20958979.836    20958980.3984   20958987.5344
       210.0004        211.0004
  -3601922.02148  -2790729.46546  24247184.835    24247185.5314   24247191.0834
       178.0004        180.0004
 21  2  6  1 21  0.0000000  0  8G30G21G08G04G01G07G09G27
  -2454406.85747  -1890045.60045  23821699.660    23821700.1554   23821706.5404
       151.0004        153.0004
 -14993598.72348 -11518088.56846  21825179.841    21825179.9584   21825184.4234
       179.0004        179.0004
 -17724959.40648 -13797321.52047  21363126.801    21363127.7544   21363136.0254
       193.0004        193.0004
 -13811614.83748 -10740451.38546  21951115.716    21951115.6524   21951122.3794
       184.0004        183.0004
 -10482509.69448  -8145537.62846  22195788.252    22195789.4394   22195796.7394
       175.0004        177.0004
 -14651411.25648 -11398909.61247  21979144.342    21979144.6804   21979148.6184
       192.0004        193.0004
 -18753979.48949 -14594491.59747  20965029.649    20965029.9134   20965037.2784
       210.0004        211.0004
  -3493650.53548  -2706362.08246  24267789.012    24267788.9094   24267795.5634
       181.0004        182.0004
 21  2  6  1 21 30.0000000  0  9G30G21G08G04G01G07G09G27G17
  -2540726.53447  -1957307.65545  23805273.200    23805273.4494   23805280.7074
       151.0004        154.0004
 -15007784.77348 -11529142.60846  21822479.701    21822480.2164   21822485.0704
       179.0004        179.0004
 -17648214.35948 -13737520.19247  21377731.693    21377732.3144   21377739.8064
       192.0004        193.0004
 -13724310.59248 -10672422.10846  21967729.165    21967730.1384   21967736.1544
       185.0004        184.0004
 -10555863.38548  -8202696.32546  22181829.439    22181830.1294   22181837.4574
       176.0004        178.0004
 -14725184.16448 -11456394.97447  21965105.114    21965106.0484   21965109.7854
       192.0004        192.0004
 -18721690.14849 -14569331.07547  20971173.703    20971174.2104   20971181.1584
       210.0004        210.0004
  -3385340.57548  -2621964.74246  24288398.571    24288399.2924   24288405.2854
       181.0004        180.0004
    216234.06854    497109.041 4                                  24776839.657
        74.0004        110.000
 21  2  6  1 22  0.0000000  0  8G30G21G08G04G01G07G09G27
  -2627112.14547  -2024621.10145  23788836.061    23788835.0654   23788842.4784
       153.0004        157.0004
 -15021546.26148 -11539865.84146  21819861.365    21819860.7704   21819865.2004
       179.0004        178.0004
 -17571148.70348 -13677469.01447  21392397.346    21392397.6754   21392405.3064
       193.0004        193.0004
 -13636754.98248 -10604196.96446  21984391.511    21984390.6164   21984396.9404
       184.0004        183.0004
 -10629050.04448  -8259724.86946  22167901.895    22167902.7064   22167909.7674
       176.0004        176.0004
 -14798862.45448 -11513806.63047  21951086.039    21951085.7554   21951089.1614
       191.0004        191.0004
 -18688903.64049 -14543783.14047  20977412.580    20977413.5194   20977420.4384
       210.0004        210.0004
  -3276994.07748  -2537538.89346  24309017.089    24309017.4014   24309022.0304
       177.0004        176.0004
 21  2  6  1 22 30.0000000  0  9G30G21G08G04G01G07G09G27G17
  -2713563.35547  -2091985.68845  23772384.569    23772384.3894   23772391.8684
       155.0004        159.0004
 -15034882.80648 -11550257.92946  21817324.751    21817323.1364   21817327.6364
       178.0004        178.0004
 -17493767.16448 -13617171.70647  21407122.028    21407122.5724   21407130.4164
       193.0004        193.0004
 -13548952.33048 -10535779.31746  22001098.618    22001099.5134   22001105.0754
       184.0004        182.0004
 -10702067.68248  -8316621.70746  22154005.472    22154007.4254   22154016.5104
       176.0004        176.0004
 -14872445.14448 -11571143.77947  21937082.496    21937083.0694   21937087.2894
       191.0004        192.0004
 -18655623.18749 -14517850.32347  20983746.654    20983747.3744   20983752.9654
       210.0004        210.0004
  -3168615.07448  -2453087.69846  24329641.246    24329641.5384   24329646.9594
       176.0004        176.0004
    216234.06854
        74.0004
 21  2  6  1 23  0.0000000  0  9G30G21G08G04G01G07G09G27G17
  -2800076.49647  -2159398.51645  23755920.377    23755920.6984   23755928.7294
       156.0004        159.0004
 -15047790.86348 -11560316.15346  21814867.144    21814866.2574   21814870.7834
       178.0004        177.0004
 -17416070.42548 -13556628.78647  21421906.415    21421907.2324   21421915.4324
       192.0004        192.0004
 -13460903.59348 -10467169.93646  22017853.858    22017855.0134   22017861.2124
       184.0004        184.0004
 -10774911.00348  -8373382.72346  22140145.027    22140145.6864   22140154.2004
       175.0004        176.0004
 -14945927.71548 -11628402.91547  21923099.302    21923100.3274   21923104.3584
       193.0004        194.0004
 -18621848.63749 -14491532.48647  20990173.235    20990173.6894   20990180.3054
       210.0004        210.0004
  -3060203.98348  -2368611.54246  24350270.846    24350271.2824   24350276.0794
       172.0004        171.0004
   -769495.38944   -583970.66844  24277128.808
        74.0004        123.0004
 21  2  6  1 23 30.0000000  0  9G30G21G08G04G01G07G09G27G17
  -2886651.25347  -2226859.31645  23739446.735    23739446.2794   23739455.0184
       157.0004        159.0004
 -15060269.90848 -11570040.08146  21812493.494    21812492.4934   21812496.6304
       178.0004        178.0004
 -17338062.68448 -13495843.54447  21436752.048    21436752.1674   21436759.8764
       192.0004        192.0004
 -13372613.05648 -10398372.11746  22034655.724    22034656.2894   22034661.8024
       184.0004        184.0004
 -10847577.95248  -8430006.30846  22126317.017    22126317.7934   22126326.8464
       176.0004        178.0004
 -15019309.02648 -11685583.17547  21909136.200    21909136.6694   21909140.1794
       194.0004        195.0004
 -18587583.17449 -14464832.11847  20996693.513    20996693.4534   20996701.1634
       209.0004        210.0004
  -2951764.74248  -2284113.39446  24370907.849    24370907.3934   24370911.8284
       173.0004        174.0004
   -866645.95644   -659671.33144  24258641.470
        74.0004        113.0004
 21  2  6  1 24  0.0000000  0  9G30G21G08G04G01G07G09G27G17
  -2973286.28647  -2294367.11345  23722960.621    23722960.8504   23722968.0194
       157.0004        158.0004
 -15072318.63548 -11579428.68346  21810200.358    21810199.4954   21810203.9834
       179.0004        180.0004
 -17259747.07948 -13434818.39347  21451654.542    21451654.9804   21451663.4414
       191.0004        191.0004
 -13284084.01348 -10329388.45846  22051502.675    22051502.8034   22051507.5594
       183.0004        183.0004
 -10920065.56848  -8486490.14546  22112523.668    22112524.6974   22112532.1804
       177.0004        178.0004
 -15092586.89548 -11742682.81247  21895190.890    21895191.6114   21895196.1534
       194.0004        194.0004
 -18552829.12049 -14437751.04347  21003307.211    21003307.2654   21003314.5764
       209.0004        209.0004
  -2843300.25048  -2199595.62346  24391546.516    24391546.5814   24391552.3144
       173.0004        174.0004
   -963577.85244   -421271.91243  24240194.901
        74.0004         74.0004
 21  2  6  1 24 30.0000000  0  9G30G21G08G04G01G07G09G27G17
  -3059980.99847  -2361921.44345  23706464.653    23706463.9334   23706469.5934
       156.0004        157.0004
 -15083936.46248 -11588481.51846  21807989.373    21807988.8494   21807994.0554
       180.0004        180.0004
 -17181127.75449 -13373556.57747  21466615.402    21466615.2884   21466623.9174
       208.0004        211.0004
 -13195320.58548 -10260222.15146  22068392.171    22068392.8904   22068399.6454
       183.0004        182.0004
 -10992371.74448  -8542832.59046  22098764.147    22098765.0764   22098772.4334
       177.0004        178.0004
 -15165760.18448 -11799700.94447  21881266.485    21881266.8464   21881271.2114
       194.0004        194.0004
 -18517589.51149 -14410291.61347  21010013.013    21010013.5104   21010020.1524
       209.0004        210.0004
  -2734814.22448  -2115061.09746  24412190.192    24412191.3454   24412196.2014
       173.0004        174.0004
  -1060289.67844   -496631.37244  24221790.961
        74.0004        127.0004
 21  2  6  1 25  0.0000000  0  9G30G21G08G04G01G07G09G27G17
  -3146733.79547  -2429521.01645  23689955.067    23689955.8574   23689962.2184
       155.0004        158.0004
 -15095121.95648 -11597197.46846  21805860.657    21805860.4044   21805865.3434
       180.0004        181.0004
 -17102207.88849 -13312060.57347  21481632.885    21481633.4974   21481641.3974
       211.0004        210.0004
 -13106325.82248 -10190875.59546  22085326.879    22085328.0054   22085335.2024
       182.0004        182.0004
 -11064493.17748  -8599031.08946  22085039.872    22085040.4014   22085049.1734
       177.0004        178.0004
 -15238826.15848 -11856635.45847  21867363.234    21867363.0114   21867367.6404
       193.0004        194.0004
 -18481866.37749 -14382455.40547  21016811.008    21016811.0084   21016818.1894
       209.0004        209.0004
  -2626309.20548  -2030511.72046  24432838.462    24432839.2434   24432843.1954
       170.0004        170.0004
  -1156779.29346   -571817.88245  24203429.643                    24203434.5584
       128.0004        144.0004
 21  2  6  1 25 30.0000000  0  9G30G21G08G04G01G07G09G27G17
  -3233540.85747  -2497162.89045  23673436.054    23673435.7574   23673442.5354
       154.0004        156.0004
 -15105871.28148 -11605573.56046  21803815.020    21803815.0404   21803819.9664
       180.0004        180.0004
 -17022988.27449 -13250330.99448  21496708.606    21496708.6044   21496716.4844
       220.0004        223.0004
 -13017100.61248 -10121349.46746  22102306.967    22102307.4054   22102313.2964
       182.0004        182.0004
 -11136424.49648  -8655081.45646  22071352.968    22071352.5864   22071360.9054
       177.0004        178.0004
 -15311780.29348 -11913482.83247  21853479.554    21853480.3294   21853484.6074
       193.0004        194.0004
 -18445659.62349 -14354242.34847  21023700.545    21023701.2944   21023707.9674
       209.0004        209.0004
  -2517785.65848  -1945947.94446  24453490.400    24453490.3234   24453497.2554
       170.0004        171.0004
  -1253043.01047   -646828.31645  24185110.549    24185111.3484   24185118.0914
       138.0004        145.0004
 21  2  6  1 26  0.0000000  0  9G30G21G08G04G01G07G09G27G17
  -3320400.73547  -2564845.91845  23656906.757    23656906.9454   23656914.4834
       155.0004        158.0004
 -15116183.17848 -11613608.79746  21801853.043    21801852.5044   21801856.9684
       180.0004        180.0004
 -16943471.80249 -13188370.11748  21511839.716    21511840.3324   21511847.6484
       222.0004        222.0004
 -12927648.18548 -10051646.29446  22119329.066    22119329.8084   22119336.2844
       182.0004        183.0004
 -11208162.61648  -8710981.28046  22057700.659    22057700.9964   22057708.8884
       177.0004        177.0004
 -15384620.60748 -11970241.51547  21839619.458    21839619.7174   21839623.7764
       194.0004        194.0004
 -18408971.49449 -14325654.20247  21030682.787    21030683.0684   21030689.7334
       209.0004        209.0004
  -2409246.42348  -1861371.92246  24474145.245    24474145.0364   24474149.6754
       170.0004        171.0004
  -1349078.02647   -721660.63245  24166835.096    24166836.1954   24166843.2484
       143.0004        149.0004
 21  2  6  1 26 30.0000000  0  9G30G21G08G04G01G07G09G27G17
  -3407310.27547  -2632567.62545  23640367.367    23640368.2274   23640376.2384
       157.0004        160.0004
 -15126054.76248 -11621300.91346  21799973.756    21799973.2884   21799977.8874
       179.0004        178.0004
 -16863660.05549 -13126179.14148  21527027.876    21527028.0194   21527035.2634
       222.0004        222.0004
 -12837970.14648  -9981767.30646  22136394.675    22136395.1424   22136400.9614
       183.0004        182.0004
 -11279702.86248  -8766726.90546  22044087.375    22044087.3574   22044094.0074
       177.0004        178.0004
 -15457342.58648 -12026907.98347  21825780.747    21825781.0174   21825785.1634
       194.0004        194.0004
 -18371802.64249 -14296691.45047  21037755.689    21037755.8644   21037762.9414
       209.0004        209.0004
  -2300692.52548  -1776784.49446  24494801.378    24494801.5154   24494807.7044
       170.0004        171.0004
  -1444881.30047   -796312.36445  24148605.288    24148605.5374   24148612.4544
       144.0004        148.0004
 21  2  6  1 27  0.0000000  0  9G30G21G08G04G01G07G09G27G17
  -3494268.30647  -2700327.11345  23623820.264    23623820.7674   23623827.6114
       158.0004        160.0004
 -15135484.96848 -11628649.12146  21798179.647    21798179.3014   21798182.5494
       178.0004        178.0004
 -16783556.82749 -13063761.03748  21542271.294    21542271.3034   21542278.2664
       222.0004        222.0004
 -12748069.98048  -9911715.23546  22153501.351    22153502.5554   22153508.2784
       183.0004        181.0004
 -11351042.43448  -8822316.16246  22030510.717    22030511.7694   22030519.7474
       177.0004        178.0004
 -15529944.44148 -12083480.84947  21811965.542    21811965.4384   21811969.8074
       194.0004        194.0004
 -18334155.61249 -14267356.10147  21044920.019    21044920.5154   21044927.2864
       210.0004        210.0004
  -2192127.04448  -1692188.04646  24515458.710    24515460.0604   24515466.4174
       170.0004        170.0004
  -1540451.09347   -870782.14745  24130419.746    24130419.9084   24130424.5304
       145.0004        148.0004
 21  2  6  1 27 30.0000000  0  9G30G21G08G04G01G07G09G27G17
  -3581273.31847  -2768123.19145  23607264.214    23607264.9004   23607271.6514
       157.0004        159.0004
 -15144472.55148 -11635652.42646  21796468.867    21796469.3954   21796471.6804
       177.0004        178.0004
 -16703164.77649 -13001117.86648  21557568.788    21557568.9154   21557576.7834
       222.0004        222.0004
 -12657950.99248  -9841492.65146  22170651.168    22170651.5414   22170657.4514
       182.0004        181.0004
 -11422178.27248  -8877746.67146  22016973.545    22016974.3554   22016983.2454
       177.0004        177.0004
 -15602423.90648 -12139958.32947  21798171.932    21798172.9794   21798177.0084
       194.0004        194.0004
 -18296032.72149 -14237649.95147  21052173.346    21052174.1334   21052181.6954
       209.0004        209.0004
  -2083552.69748  -1607584.60846  24536119.916    24536121.1804   24536127.9884
       170.0004        171.0004
  -1635785.24347   -945068.31345  24112277.531    24112277.4504   24112282.8614
       143.0004        146.0004
 21  2  6  1 28  0.0000000  0  9G30G21G08G04G01G07G09G27G17
  -3668324.12747  -2835954.98845  23590699.344    23590699.8014   23590707.1874
       158.0004        161.0004
 -15153016.52948 -11642310.06746  21794843.556    21794843.1654   21794846.5214
       177.0004        178.0004
 -16622487.69249 -12938252.60348  21572920.742    21572921.5034   21572929.4924
       223.0004        223.0004
 -12567616.72548  -9771102.31746  22187840.832    22187841.4234   22187847.6284
       181.0004        182.0004
 -11493107.69348  -8933016.32646  22003475.849    22003477.3514   22003485.7894
       177.0004        178.0004
 -15674778.88249 -12196338.83147  21784403.974    21784404.0894   21784408.1914
       195.0004        195.0004
 -18257436.83849 -14207575.23747  21059518.778    21059519.0034   21059526.1294
       209.0004        210.0004
  -1974972.60748  -1522976.78746  24556781.344    24556781.9254   24556790.0814
       168.0004        168.0004
  -1730882.29847  -1019169.78245  24094182.828    24094182.1194   24094186.4734
       146.0004        151.0004
 21  2  6  1 28 30.0000000  0  9G30G21G08G04G01G07G09G27G17
  -3755419.72147  -2903821.68945  23574126.086    23574125.7484   23574132.9514
       159.0004        160.0004
 -15161116.19348 -11648621.48446  21793302.749    21793301.8034   21793306.0004
       178.0004        179.0004
 -16541529.72149 -12875168.47448  21588327.272    21588327.4354   21588335.1964
       222.0004        222.0004
 -12477070.92348  -9700547.15846  22205071.798    22205071.8684   22205077.8824
       181.0004        181.0004
 -11563828.09648  -8988123.11146  21990019.104    21990019.9154   21990027.7294
       178.0004        179.0004
 -15747007.81149 -12252621.10947  21770659.833    21770659.4484   21770663.4514
       195.0004        195.0004
 -18218370.47149 -14177133.92047  21066952.868    21066953.4984   21066959.9874
       209.0004        209.0004
  -1866390.03848  -1438367.03846  24577444.318    24577444.9344   24577453.5254
       169.0004        171.0004
  -1825740.70547  -1093085.27445  24076129.787    24076130.5644   24076135.2104
       145.0004        149.0004
 21  2  6  1 29  0.0000000  0  8G30G21G08G04G01G07G09G17
  -3842556.47847  -2971720.44245  23557543.987    23557543.3834   23557551.1034
       159.0004        161.0004
 -15168768.32648 -11654584.17446  21791845.654    21791845.1774   21791850.8254
       180.0004        181.0004
 -16460291.63449 -12811866.06748  21603786.466    21603786.8864   21603793.3794
       222.0004        222.0004
 -12386314.71848  -9629828.04346  22222341.327    22222342.2224   22222348.6684
       181.0004        180.0004
 -11634334.32448  -9043063.01746  21976603.145    21976603.1844   21976611.1094
       178.0004        179.0004
 -15819106.02448 -12308801.53147  21756938.948    21756939.1684   21756943.7954
       194.0004        194.0004
 -18178834.03049 -14146326.29947  21074476.502    21074476.5994   21074483.4604
       209.0004        209.0004
  -1920356.98047  -1166812.11245  24058124.799    24058125.6884   24058130.7214
       144.0004        148.0004
 21  2  6  1 29 30.0000000  0  8G30G21G08G04G01G07G09G17
  -3929734.03047  -3039650.99246  23540955.273    23540955.6564   23540962.0494
       161.0004        164.0004
 -15175973.06148 -11660198.24046  21790473.583    21790473.6164   21790480.1024
       180.0004        181.0004
 -16378777.59849 -12748348.62748  21619299.030    21619298.9634   21619305.3064
       222.0004        222.0004
 -12295352.63248  -9558948.50046  22239650.436    22239651.3774   22239658.1664
       180.0004        179.0004
 -11704624.57848  -9097834.61046  21963226.245    21963227.4894   21963234.9194
       178.0004        179.0004
 -15891072.59748 -12364879.37247  21743243.966    21743244.2464   21743248.5154
       194.0004        194.0004
 -18138831.17049 -14115155.24947  21082087.913    21082088.9104   21082095.7094
       208.0004        209.0004
  -2014730.02047  -1240349.43545  24040167.095    24040166.3584   24040172.3214
       147.0004        150.0004
 21  2  6  1 30  0.0000000  0  8G30G21G08G04G01G07G09G17
  -4016951.20647  -3107612.41746  23524359.155    23524358.1274   23524365.0034
       163.0004        164.0004
 -15182729.32048 -11665462.83146  21789188.911    21789188.5244   21789194.2294
       181.0004        181.0004
 -16296991.33649 -12684619.07548  21634861.980    21634861.8354   21634868.4234
       222.0004        221.0004
 -12204188.24948  -9487911.33946  22256999.265    22256999.1814   22257005.1814
       179.0004        178.0004
 -11774696.13548  -9152435.80446  21949892.145    21949893.3824   21949901.5794
       178.0004        179.0004
 -15962905.32049 -12420852.92247  21729575.779    21729575.3814   21729579.8634
       195.0004        196.0004
 -18098364.65849 -14083622.90447  21089789.589    21089789.5544   21089796.2904
       208.0004        209.0004
  -2108858.32247  -1313696.01545  24022253.648    24022253.5734   24022260.0604
       148.0004        152.0004
 21  2  6  1 30 30.0000000  0  8G30G21G08G04G01G07G09G17
  -4104205.28247  -3175602.56546  23507754.677    23507754.6394   23507761.4354
       162.0004        165.0004
 -15189034.64748 -11670376.05246  21787989.679    21787988.8994   21787994.1764
       181.0004        182.0004
 -16214934.76849 -12620678.89248  21650476.661    21650476.6394   21650483.5294
       222.0004        221.0004
 -12112823.57748  -9416718.09246  22274384.601    22274385.4814   22274390.4604
       178.0004        177.0004
 -11844544.67848  -9206863.21346  21936601.315    21936601.6234   21936609.3644
       179.0004        180.0004
 -16034600.86149 -12476719.57347  21715931.822    21715932.0604   21715936.3214
       195.0004        195.0004
 -18057435.67549 -14051730.19447  21097577.577    21097577.8064   21097584.9084
       208.0004        208.0004
  -2202738.64147  -1386849.38145  24004389.144    24004388.9464   24004396.0294
       151.0004        155.0004
 21  2  6  1 31  0.0000000  0  9G30G21G08G04G01G14G07G09G17
  -4191495.06647  -3243620.56046  23491143.696    23491143.7254   23491150.3104
       163.0004        165.0004
 -15194888.43948 -11674937.43246  21786876.371    21786875.5264   21786879.7264
       181.0004        181.0004
 -16132611.38749 -12556530.80148  21666142.423    21666142.3834   21666148.7184
       221.0004        220.0004
 -12021262.34948  -9345371.69946  22291807.797    22291808.6924   22291815.4034
       177.0004        176.0004
 -11914167.67448  -9261114.89646  21923352.096    21923353.1814   21923359.8534
       179.0004        181.0004
   -195633.63257   -145807.57145  23563314.701                    23563323.8474
       138.0004        152.0004
 -16106157.17149 -12532477.73647  21702315.380    21702316.0814   21702319.7294
       195.0004        196.0004
 -18016047.14849 -14019479.39747  21105453.732    21105454.0274   21105460.5044
       208.0004        209.0004
  -2296369.76047  -1459808.52245  23986571.131    23986572.1224   23986577.7804
       154.0004        157.0004
 21  2  6  1 31 30.0000000  0  9G30G21G08G04G01G14G07G09G17
  -4278817.89647  -3311664.31646  23474526.564    23474526.8184   23474533.3524
       164.0004        165.0004
 -15200288.73348 -11679145.43346  21785848.042    21785847.5024   21785851.2094
       181.0004        181.0004
 -16050023.57349 -12492176.66348  21681858.521    21681858.6584   21681864.9854
       221.0004        221.0004
 -11929506.67748  -9273873.78446  22309268.787    22309269.3194   22309275.3504
       176.0004        176.0004
 -11983560.91248  -9315187.52346  21910147.079    21910147.7334   21910156.3414
       180.0004        181.0004
   -222373.62647   -166643.92145  23558227.099    23558227.9894   23558235.2004
       150.0004        156.0004
 -16177570.82949 -12588124.74047  21688726.381    21688726.5704   21688729.8874
       196.0004        196.0004
 -17974200.38449 -13986871.52847  21113417.164    21113417.3154   21113423.8674
       208.0004        209.0004
  -2389748.57947  -1532571.11345  23968802.694    23968802.5434   23968808.1424
       155.0004        157.0004
 21  2  6  1 32  0.0000000  0  9G30G21G08G04G01G14G07G09G17
  -4366171.70647  -3379732.20046  23457903.286    23457902.9904   23457910.5964
       164.0004        166.0004
 -15205233.91148 -11682998.82546  21784906.242    21784906.8164   21784909.8344
       180.0004        181.0004
 -15967173.85249 -12427618.43748  21697624.355    21697624.2374   21697631.1774
       222.0004        222.0004
 -11837559.32648  -9202226.49746  22326766.740    22326767.3794   22326772.7084
       177.0004        178.0004
 -12052720.83048  -9369078.34746  21896987.297    21896987.1694   21896995.5764
       181.0004        182.0004
   -249059.54547   -187438.13645  23553149.504    23553150.1334   23553155.2534
       152.0004        154.0004
 -16248839.06149 -12643658.43047  21675163.525    21675164.1974   21675168.3644
       196.0004        196.0004
 -17931897.44749 -13953908.20447  21121466.851    21121467.2844   21121473.8724
       208.0004        208.0004
  -2482872.73647  -1605135.26445  23951080.762    23951081.5634   23951087.1334
       153.0004        156.0004
 21  2  6  1 32 30.0000000  0  9G30G21G08G04G01G14G07G09G17
  -4453557.12047  -3447824.72646  23441272.967    23441274.2124   23441280.3654
       162.0004        163.0004
 -15209725.04148 -11686498.38746  21784051.860    21784051.5644   21784054.6184
       180.0004        180.0004
 -15884067.74449 -12362860.42248  21713438.251    21713438.3164   21713446.2074
       222.0004        222.0004
 -11745425.81248  -9130434.16246  22344298.965    22344299.3914   22344304.8844
       177.0004        176.0004
 -12121646.67848  -9422786.76346  21883869.578    21883870.3444   21883879.2294
       181.0004        181.0004
   -275695.16947   -208193.13245  23548080.439    23548080.7514   23548085.7844
       151.0004        153.0004
 -16319961.67949 -12699078.63847  21661629.323    21661629.8554   21661634.4844
       196.0004        197.0004
 -17889143.03749 -13920593.05847  21129602.192    21129602.9994   21129609.8704
       208.0004        209.0004
  -2575743.05147  -1677501.58445  23933408.411    23933408.9584   23933413.9454
       153.0004        156.0004
 21  2  6  1 33  0.0000000  0  9G30G21G08G04G01G14G07G09G17
  -4540970.17147  -3515938.78945  23424638.897    23424639.6394   23424646.3724
       160.0004        161.0004
 -15213758.75648 -11689641.51846  21783284.593    21783283.8974   21783288.0274
       180.0004        181.0004
 -15800705.84049 -12297903.09548  21729302.320    21729302.5274   21729308.7694
       222.0004        221.0004
 -11653107.04448  -9058497.46346  22361865.901    22361866.6774   22361872.1544
       176.0004        175.0004
 -12190333.03448  -9476308.57546  21870799.428    21870800.4174   21870807.1454
       180.0004        181.0004
   -302279.66647   -228908.28345  23543021.595    23543021.3264   23543025.5784
       150.0004        152.0004
 -16390933.82349 -12754381.60247  21648124.025    21648124.3444   21648128.1784
       196.0004        196.0004
 -17845937.33549 -13886926.26947  21137824.732    21137824.9604   21137831.8224
       209.0004        209.0004
  -2668355.24847  -1749666.81245  23915785.137    23915785.1374   23915789.6814
       155.0004        158.0004
 21  2  6  1 33 30.0000000  0  9G30G21G08G04G01G14G07G09G17
  -4628408.75147  -3584072.72646  23408000.755    23408001.3184   23408008.7124
       160.0004        163.0004
 -15217333.55048 -11692427.06946  21782603.737    21782603.3544   21782607.9374
       181.0004        182.0004
 -15717090.91649 -12232748.60748  21745213.456    21745213.3474   21745220.1274
       221.0004        220.0004
 -11560605.72548  -8986418.51846  22379467.500    22379468.8424   22379474.3524
       175.0004        174.0004
 -12258776.26748  -9529640.96346  21857775.404    21857776.1494   21857783.9844
       180.0004        182.0004
   -328813.85047   -249584.22445  23537972.393    23537972.8284   23537977.4624
       153.0004        157.0004
 -16461752.72549 -12809565.15647  21634647.417    21634647.6154   21634651.8254
       196.0004        196.0004
 -17802282.34549 -13852909.39547  21146132.501    21146132.4914   21146138.6934
       209.0004        209.0004
  -2760706.58747  -1821628.77045  23898210.575    23898211.0384   23898216.7004
       155.0004        157.0004
 21  2  6  1 34  0.0000000  0  9G30G21G08G04G01G14G07G09G17
  -4715870.55547  -3652224.76146  23391357.613    23391358.2904   23391365.7474
       163.0004        166.0004
 -15220447.80348 -11694853.75446  21782011.679    21782011.2334   21782016.3984
       182.0004        183.0004
 -15633225.63049 -12167399.03448  21761171.223    21761172.1664   21761179.1504
       220.0004        220.0004
 -11467924.50948  -8914199.40646  22397106.204    22397106.2464   22397111.8374
       175.0004        176.0004
 -12326972.80748  -9582781.09946  21844797.645    21844797.9324   21844806.0274
       181.0004        182.0004
   -355298.74947   -270221.76845  23532932.866    23532932.7684   23532937.5204
       156.0004        159.0004
 -16532415.31649 -12864626.91147  21621200.259    21621201.3614   21621205.5454
       196.0004        197.0004
 -17758180.02249 -13818543.95447  21154523.830    21154524.2784   21154530.9274
       208.0004        208.0004
  -2852794.92047  -1893385.75945  23880687.549    23880687.6564   23880692.5144
       155.0004        157.0004
 21  2  6  1 34 30.0000000  0  9G30G21G08G04G01G14G07G09G17
  -4803355.28047  -3720394.67246  23374710.056    23374709.9564   23374716.2064
       163.0004        163.0004
 -15223101.75348 -11696921.75146  21781506.251    21781506.4644   21781512.1024
       184.0004        185.0004
 -15549114.76649 -12101858.10148  21777178.442    21777178.3034   21777185.1474
       221.0004        221.0004
 -11375067.96448  -8841843.67646  22414775.457    22414776.4314   22414783.0074
       175.0004        176.0004
 -12394920.90648  -9635727.64646  21831867.766    21831867.7614   21831876.4864
       181.0004        182.0004
   -381737.20347   -290823.14245  23527901.818    23527901.8994   23527905.9824
       157.0004        159.0004
 -16602920.60549 -12919566.09247  21607784.086    21607784.5224   21607788.5284
       197.0004        197.0004
 -17713634.28949 -13783832.98547  21163000.444    21163001.1084   21163008.1464
       208.0004        208.0004
  -2944619.59047  -1964937.34845  23863213.910    23863214.0874   23863218.1604
       155.0004        158.0004
 21  2  6  1 35  0.0000000  0  9G30G21G08G04G01G14G07G09G17
  -4890860.80147  -3788580.80245  23358058.105    23358058.1444   23358065.5894
       161.0004        162.0004
 -15225294.04848 -11698630.01046  21781089.880    21781089.5074   21781095.3414
       185.0004        186.0004
 -15464760.67749 -12036127.63448  21793230.470    21793230.2644   21793237.1264
       221.0004        220.0004
 -11282038.83448  -8769353.45546  22432479.458    22432479.1754   22432484.8804
       176.0004        176.0004
 -12462616.99848  -9688477.82846  21818984.739    21818986.2854   21818993.8414
       181.0004        182.0004
   -408130.18047   -311389.08445  23522878.459    23522879.0104   23522884.0084
       157.0004        159.0004
 -16673265.71149 -12974380.45647  21594398.256    21594398.1854   21594402.5174
       196.0004        197.0004
 -17668647.16849 -13748778.08947  21171561.998    21171562.2194   21171568.9504
       208.0004        209.0004
  -3036178.47547  -2036281.80445  23845788.072    23845789.0914   23845796.2534
       155.0004        157.0004
 21  2  6  1 35 30.0000000  0  9G30G21G08G04G01G14G07G09G17
  -4978383.47447  -3856780.24746  23341402.684    23341402.9574   23341410.2984
       161.0004        164.0004
 -15227021.90548 -11699976.36946  21780761.177    21780760.0734   21780766.9654
       186.0004        187.0004
 -15380164.46449 -11970208.50248  21809329.141    21809328.6504   21809335.1134
       220.0004        219.0004
 -11188838.44748  -8696729.77246  22450214.213    22450215.0484   22450220.3664
       176.0004        176.0004
 -12530056.09648  -9741027.76546  21806152.123    21806152.7684   21806161.2534
       182.0004        183.0004
   -434477.22247   -331919.22845  23517865.355    23517865.3424   23517870.5664
       159.0004        162.0004
 -16743446.18549 -13029066.53047  21581042.709    21581043.5674   21581047.6744
       197.0004        198.0004
 -17623219.37149 -13713379.80747  21180206.449    21180206.8304   21180213.3954
       208.0004        208.0004
  -3127467.81147  -2107416.17045  23828416.785    23828417.0604   23828423.8774
       151.0004        152.0004
 21  2  6  1 36  0.0000000  0  9G30G21G08G04G01G14G07G09G17
  -5065922.75047  -3924992.65946  23324746.014    23324745.4994   23324753.0734
       164.0004        166.0004
 -15228285.34748 -11700960.86146  21780519.042    21780519.3584   21780526.4074
       186.0004        186.0004
 -15295330.78649 -11904104.34348  21825471.619    21825471.8194   21825478.4994
       220.0004        219.0004
 -11095471.18148  -8623976.06746  22467980.304    22467981.4994   22467987.1134
       176.0004        174.0004
 -12597236.29948  -9793375.96446  21793367.516    21793368.5604   21793376.9594
       183.0004        183.0004
   -460781.00747   -352415.66146  23512860.341    23512860.2424   23512865.4544
       162.0004        164.0004
 -16813460.87049 -13083623.41947  21567719.741    21567720.2234   21567724.3834
       198.0004        198.0004
 -17577354.62949 -13677641.05047  21188933.991    21188934.8204   21188940.8464
       208.0004        208.0004
  -3218486.61447  -2178339.76145  23811096.569    23811097.5214   23811102.5394
       150.0004        153.0004
 21  2  6  1 36 30.0000000  0  9G30G21G08G04G01G14G07G09G17
  -5153476.29947  -3993216.18746  23308082.933    23308084.2034   23308091.6904
       163.0004        164.0004
 -15229082.74548 -11701582.18746  21780367.520    21780367.6914   21780374.1284
       186.0004        186.0004
 -15210261.90249 -11837816.90548  21841659.087    21841659.2504   21841666.3514
       219.0004        218.0004
 -11001939.56848  -8551094.29146  22485780.134    22485780.0584   22485785.7364
       176.0004        176.0004
 -12664153.93748  -9845519.56146  21780633.770    21780634.8304   21780642.8864
       183.0004        184.0004
   -487042.33647   -372879.01346  23507863.221    23507862.9844   23507867.5254
       164.0004        164.0004
 -16883306.59249 -13138048.65347  21554429.102    21554429.4414   21554433.1484
       198.0004        198.0004
 -17531054.90149 -13641563.33847  21197744.787    21197745.1324   21197751.6324
       208.0004        208.0004
  -3309232.77647  -2249050.88745  23793828.546    23793828.6564   23793834.2544
       151.0004        155.0004
 21  2  6  1 37  0.0000000  0  9G30G21G08G04G01G14G07G09G17
  -5241042.06647  -4061449.23146  23291421.675    23291421.3624   23291428.0344
       164.0004        165.0004
 -15229413.42848 -11701839.84446  21780305.197    21780304.8114   21780311.0784
       185.0004        185.0004
 -15124960.67249 -11771348.42348  21857891.651    21857891.9224   21857898.9924
       218.0004        218.0004
 -10908246.59548  -8478086.79046  22503608.499    22503609.6584   22503614.7934
       176.0004        176.0004
 -12730805.61748  -9897455.92246  21767950.162    21767951.2734   21767959.0134
       183.0004        183.0004
   -513262.38447   -393310.20546  23502872.923    23502872.6134   23502878.6464
       162.0004        163.0004
 -16952980.82349 -13192340.27647  21541170.248    21541170.4214   21541174.7324
       198.0004        198.0004
 -17484322.52849 -13605148.49647  21206636.686    21206637.4894   21206644.9444
       207.0004        208.0004
  -3399704.54147  -2319548.22245  23776612.613    23776613.3454   23776620.0184
       153.0004        156.0004
 21  2  6  1 37 30.0000000  0  9G30G21G08G04G01G14G07G09G17
  -5328619.20247  -4129691.12146  23274754.873    23274755.0794   23274762.4584
       163.0004        165.0004
 -15229276.70248 -11701733.29846  21780329.876    21780330.1234   21780336.7724
       185.0004        185.0004
 -15039431.04249 -11704701.96048  21874167.890    21874168.0274   21874174.6214
       218.0004        218.0004
 -10814396.21648  -8404956.63846  22521467.907    22521468.1894   22521474.3494
       176.0004        176.0004
 -12797189.11148  -9949183.30846  21755318.961    21755319.7594   21755327.1004
       183.0004        184.0004
   -539443.43347   -413711.01345  23497889.861    23497890.5724   23497896.3024
       161.0004        161.0004
 -17022481.48049 -13246496.62247  21527944.167    21527944.8664   21527948.6954
       198.0004        198.0004
 -17437160.94549 -13568399.21447  21215612.103    21215612.5304   21215618.8134
       207.0004        208.0004
  -3489900.57447  -2389830.68445  23759448.454    23759448.6944   23759455.6464
       155.0004        160.0004
 21  2  6  1 38  0.0000000  0  9G30G21G08G04G01G14G07G09G17
  -5416204.14748  -4197939.12346  23258088.510    23258088.8904   23258095.6784
       165.0004        168.0004
 -15228670.19248 -11701260.67046  21780446.084    21780446.0814   21780451.5874
       184.0004        183.0004
 -14953674.68849 -11637878.80848  21890486.180    21890486.5624   21890493.5544
       218.0004        218.0004
 -10720390.03648  -8331705.06846  22539356.744    22539357.1284   22539363.6484
       176.0004        176.0004
 -12863299.65448 -10000697.99746  21742739.212    21742739.6334   21742746.1514
       184.0004        184.0004
   -565585.24947   -434081.23545  23492915.856    23492916.7154   23492921.0864
       159.0004        161.0004
 -17091804.66449 -13300514.67247  21514752.587    21514753.3874   21514757.6744
       198.0004        199.0004
 -17389571.15349 -13531316.25247  21224668.383    21224668.2964   21224674.5814
       207.0004        206.0004
  -3579817.16647  -2459895.45445  23742338.471    23742338.4864   23742344.1104
       156.0004        158.0004
 21  2  6  1 38 30.0000000  0  9G30G21G08G04G01G14G07G09G17
  -5503796.23748  -4266192.67646  23241419.992    23241420.2714   23241428.1344
       167.0004        169.0004
 -15227594.26148 -11700422.26246  21780651.052    21780650.9584   21780656.3164
       183.0004        182.0004
 -14867695.55449 -11570882.08148  21906847.682    21906847.9174   21906854.9014
       218.0004        218.0004
 -10626232.24148  -8258335.36346  22557275.314    22557274.9974   22557280.8124
       176.0004        176.0004
 -12929135.21448 -10051998.41846  21730209.184    21730210.2144   21730218.8984
       184.0004        184.0004
   -591690.35747   -454422.84546  23487949.376    23487949.6494   23487954.2844
       160.0004        163.0004
 -17160948.81649 -13354393.23047  21501595.592    21501595.5794   21501599.7754
       199.0004        199.0004
 -17341556.76249 -13493902.44047  21233804.227    21233805.0584   21233812.1224
       207.0004        208.0004
  -3669453.99647  -2529742.22745  23725281.676    23725281.1074   23725286.2714
       155.0004        156.0004
 21  2  6  1 39  0.0000000  0  9G30G21G08G04G01G14G07G09G17
  -5591393.00948  -4334449.86646  23224750.675    23224749.9674   23224758.2134
       165.0004        165.0004
 -15226047.40748 -11699216.92046  21780944.893    21780945.2434   21780949.8794
       182.0004        181.0004
 -14781496.46849 -11503713.96848  21923251.362    21923251.4114   21923258.2794
       218.0004        218.0004
 -10531925.33648  -8184849.47846  22575219.664    22575220.6544   22575226.2394
       175.0004        175.0004
 -12994692.05648 -10103081.66146  21717735.060    21717735.6354   21717743.2994
       184.0004        185.0004
   -617759.41047   -474736.36445  23482986.344    23482987.2794   23482992.9184
       160.0004        162.0004
 -17229910.89049 -13408129.91947  21488471.327    21488472.5814   21488476.3134
       198.0004        198.0004
 -17293119.81249 -13456159.36347  21243022.709    21243022.6644   21243029.3834
       207.0004        208.0004
  -3758808.55247  -2599369.03345  23708275.529    23708276.5954   23708283.2374
       153.0004        155.0004
 21  2  6  1 39 30.0000000  0  9G30G21G08G04G01G14G07G09G17
  -5678991.40748  -4402708.35746  23208081.050    23208081.3774   23208088.5874
       165.0004        167.0004
 -15224027.41148 -11697642.90246  21781329.482    21781329.4124   21781334.2104
       181.0004        180.0004
 -14695078.79249 -11436375.52848  21939695.874    21939696.2434   21939702.9014
       219.0004        218.0004
 -10437471.30948  -8111248.95146  22593193.422    22593194.9914   22593201.2934
       174.0004        174.0004
 -13059965.85348 -10153944.35746  21705314.411    21705314.7954   21705322.0024
       184.0004        184.0004
   -643792.68847   -495022.02845  23478034.216    23478034.5834   23478039.0624
       161.0004        162.0004
 -17298687.22049 -13461721.86147  21475385.341    21475385.2704   21475389.0314
       199.0004        199.0004
 -17244261.74349 -13418088.15147  21252320.188    21252320.4344   21252326.5054
       207.0004        207.0004
  -3847877.71647  -2668773.50745  23691326.206    23691327.8694   23691332.5874
       153.0004        156.0004
 21  2  6  1 40  0.0000000  0  9G30G21G08G04G01G14G07G09G17
  -5766589.82248  -4470966.83846  23191411.771    23191412.0634   23191419.4264
       167.0004        169.0004
 -15221533.76648 -11695699.79046  21781806.038    21781804.8544   21781808.3194
       181.0004        181.0004
 -14608445.99349 -11368869.44148  21956181.459    21956181.6454   21956188.1554
       218.0004        217.0004
 -10342873.57048  -8037536.42346  22611195.304    22611196.2154   22611202.0584
       175.0004        176.0004
 -13124953.81448 -10204584.30746  21692947.251    21692947.6114   21692955.1624
       184.0004        185.0004
   -669791.86447   -515281.11645  23473085.916    23473086.3514   23473091.2264
       161.0004        162.0004
 -17367275.38649 -13515167.19147  21462333.047    21462333.0704   21462336.5824
       199.0004        199.0004
 -17194985.47949 -13379691.06047  21261696.662    21261697.0124   21261703.5654
       206.0004        207.0004
  -3936659.78047  -2737954.22445  23674432.863    23674433.5804   23674437.5104
       156.0004        160.0004
 21  2  6  1 40 30.0000000  0  9G30G21G08G04G01G14G07G09G17
  -5854187.51548  -4539224.75446  23174743.061    23174743.4834   23174750.0144
       169.0004        170.0004
 -15218566.75448 -11693387.82446  21782369.777    21782369.0354   21782372.2124
       181.0004        181.0004
 -14521602.24749 -11301198.98848  21972707.216    21972707.4144   21972713.5354
       217.0004        215.0004
 -10248136.30948  -7963715.20446  22629222.875    22629224.4744   22629229.8244
       174.0004        174.0004
 -13189653.94648 -10254999.98146  21680634.163    21680635.2944   21680643.3644
       184.0004        184.0004
   -695759.38647   -535515.52046  23468146.255    23468146.6144   23468150.2994
       161.0004        163.0004
 -17435673.81749 -13568464.67047  21449315.942    21449316.6994   21449320.5464
       198.0004        198.0004
 -17145294.77049 -13340971.02547  21271152.334    21271152.5414   21271159.0154
       206.0004        206.0004
  -4025154.70747  -2806911.20345  23657593.315    23657593.5624   23657597.8664
       157.0004        158.0004
 21  2  6  1 41  0.0000000  0  9G30G21G08G04G01G14G07G09G17
  -5941782.93248  -4607480.92146  23158073.831    23158074.1954   23158080.6444
       169.0004        171.0004
 -15215126.01048 -11690706.73246  21783025.542    21783024.3364   21783026.9974
       180.0004        179.0004
 -14434550.78949 -11233366.68848  21989272.580    21989272.8024   21989279.4624
       216.0004        216.0004
 -10153262.96748  -7889787.91946  22647277.732    22647277.5444   22647284.0444
       174.0004        174.0004
 -13254063.38448 -10305189.13046  21668377.783    21668378.1894   21668386.0794
       184.0004        184.0004
   -721696.94447   -555726.56645  23463208.811    23463210.2454   23463214.4214
       161.0004        162.0004
 -17503880.52449 -13621612.75147  21436337.423    21436337.5734   21436341.5244
       198.0004        198.0004
 -17095192.55149 -13301930.33647  21280686.506    21280686.7694   21280693.5464
       206.0004        206.0004
  -4113360.83947  -2875643.17845  23640808.640    23640808.1884   23640812.5324
       156.0004        157.0004
 21  2  6  1 41 30.0000000  0  9G30G21G08G04G01G14G07G09G17
  -6029373.04748  -4675732.94946  23141406.945    23141406.1964   23141413.8304
       170.0004        172.0004
 -15211209.65148 -11687655.03046  21783768.993    21783768.8494   21783772.3824
       179.0004        179.0004
 -14347293.95949 -11165374.37148  22005877.065    22005876.9194   22005884.2474
       217.0004        216.0004
 -10058255.58748  -7815756.21246  22665356.266    22665357.0944   22665363.8084
       173.0004        174.0004
 -13318177.95048 -10355148.53746  21656178.465    21656178.6844   21656186.1414
       185.0004        185.0004
   -747604.74347   -575914.45145  23458279.317    23458279.2094   23458284.0554
       161.0004        162.0004
 -17571891.96049 -13674608.68047  21423395.162    21423395.3904   21423399.6004
       199.0004        199.0004
 -17044680.46749 -13262570.27847  21290298.237    21290298.9664   21290305.6514
       206.0004        206.0004
  -4201275.12547  -2944147.73645  23624079.592    23624080.1674   23624083.1174
       156.0004        159.0004
 21  2  6  1 42  0.0000000  0  9G30G21G08G04G01G14G07G09G17
  -6116955.89248  -4743979.30646  23124739.779    23124740.4894   23124747.4384
       170.0004        171.0004
 -15206816.93048 -11684232.12746  21784604.768    21784605.5904   21784607.5374
       179.0004        180.0004
 -14259834.41449 -11097224.07848  22022519.575    22022519.6884   22022527.2134
       217.0004        216.0004
  -9963117.18948  -7741622.42946  22683461.377    22683461.5494   22683467.0954
       173.0004        174.0004
 -13381994.45848 -10404875.66146  21644033.711    21644034.1444   21644041.6274
       185.0004        186.0004
   -773484.11547   -596080.18845  23453353.347    23453354.1714   23453359.9534
       160.0004        161.0004
 -17639705.09549 -13727450.08547  21410490.742    21410491.1574   21410495.1214
       199.0004        199.0004
 -16993761.09249 -13222892.84247  21299989.063    21299989.1224   21299995.2484
       206.0004        206.0004
  -4288895.69847  -3012423.40245  23607404.297    23607404.5564   23607410.2254
       157.0004        159.0004
 21  2  6  1 42 30.0000000  0  9G30G21G08G04G01G14G07G09G17
  -6204527.77048  -4812217.10246  23108075.821    23108076.0604   23108082.6984
       171.0004        171.0004
 -15201945.55948 -11680436.23746  21785531.815    21785531.8714   21785535.4934
       180.0004        179.0004
 -14172173.58949 -11028916.94248  22039201.334    22039201.5234   22039208.4754
       217.0004        216.0004
  -9867849.16148  -7667387.59446  22701589.476    22701590.1674   22701595.5714
       172.0004        173.0004
 -13445508.05648 -10454366.76246  21631946.866    21631948.1144   21631955.6264
       185.0004        185.0004
   -799334.69147   -616223.45845  23448434.493    23448434.9184   23448440.2724
       159.0004        160.0004
 -17707315.47849 -13780133.49347  21397624.667    21397625.1694   21397629.0874
       199.0004        199.0004
 -16942435.34749 -13182898.76747  21309755.183    21309756.1324   21309762.2724
       206.0004        206.0004
  -4376219.07947  -3080467.47745  23590787.347    23590787.4404   23590793.3824
       157.0004        159.0004
 21  2  6  1 43  0.0000000  0  9G30G21G08G04G01G14G07G09G17
  -6292087.53848  -4880445.49046  23091412.751    23091413.8624   23091419.7694
       169.0004        169.0004
 -15196594.68348 -11676266.72846  21786549.872    21786549.6534   21786553.9604
       179.0004        180.0004
 -14084315.14949 -10960455.82648  22055920.455    22055920.5964   22055926.8974
       216.0004        216.0004
  -9772455.36748  -7593054.76546  22719742.826    22719743.3544   22719749.6454
       172.0004        173.0004
 -13508716.44748 -10503620.04646  21619919.604    21619920.2104   21619927.8864
       186.0004        186.0004
   -825158.53547   -636345.91045  23443520.869    23443520.7474   23443525.3174
       160.0004        162.0004
 -17774721.72949 -13832657.85147  21384797.749    21384798.1154   21384802.3214
       199.0004        200.0004
 -16890706.76649 -13142590.78447  21319598.146    21319598.8724   21319606.0414
       205.0004        205.0004
  -4463244.27647  -3148279.25245  23574226.011    23574225.9044   23574232.2884
       156.0004        156.0004
 21  2  6  1 43 30.0000000  0  9G30G21G08G04G01G14G07G09G17
  -6379633.86448  -4948663.41146  23074752.958    23074753.6294   23074760.2224
       168.0004        169.0004
 -15190764.65348 -11671723.83646  21787658.837    21787658.7594   21787662.3414
       179.0004        180.0004
 -13996262.56449 -10891843.41748  22072676.129    22072676.3514   22072682.6084
       215.0004        214.0004
  -9676939.55048  -7518626.88346  22737918.236    22737918.4294   22737924.7434
       171.0004        171.0004
 -13571617.12548 -10552633.54046  21607950.163    21607950.4024   21607958.1004
       186.0004        187.0004
   -850957.63747   -656449.10045  23438610.622    23438611.7214   23438616.7854
       160.0004        162.0004
 -17841921.71949 -13885021.47547  21372010.751    21372010.7544   21372014.8124
       200.0004        200.0004
 -16838578.69749 -13101971.50947  21329518.595    21329518.9614   21329525.7704
       205.0004        206.0004
  -4549970.54047  -3215858.07945  23557722.792    23557723.4404   23557730.3324
       155.0004        159.0004
 21  2  6  1 44  0.0000000  0  9G30G21G08G04G01G14G07G09G17
  -6467163.21648  -5016868.08746  23058097.688    23058097.7964   23058105.1194
       169.0004        171.0004
 -15184453.32248 -11666805.90246  21788860.686    21788860.3554   21788864.9394
       180.0004        181.0004
 -13908017.39149 -10823080.93848  22089468.429    22089468.6204   22089475.7664
       215.0004        216.0004
  -9581303.20448  -7444105.07446  22756117.643    22756118.3064   22756124.5324
       169.0004        169.0004
 -13634205.44448 -10601403.63146  21596039.716    21596040.1684   21596048.0634
       187.0004        187.0004
   -876731.77047   -676532.83245  23433706.972    23433706.8784   23433711.6544
       160.0004        161.0004
 -17908911.24849 -13937221.09447  21359262.029    21359262.1904   21359267.0944
       200.0004        200.0004
 -16786052.26549 -13061041.81947  21339513.945    21339514.2214   21339520.9414
       205.0004        205.0004
  -4636394.26447  -3283201.14445  23541276.544    23541277.0184   23541282.7154
       155.0004        157.0004
 21  2  6  1 44 30.0000000  0  9G30G21G08G04G01G14G07G09G17
  -6554675.27248  -5085059.27046  23041444.781    23041445.2294   23041452.0624
       170.0004        171.0004
 -15177661.71848 -11661513.73146  21790153.428    21790152.3074   21790156.7754
       181.0004        181.0004
 -13819584.78249 -10754172.41448  22106296.689    22106296.7074   22106303.8944
       216.0004        215.0004
  -9485551.07248  -7369493.04346  22774339.543    22774339.5574   22774344.7174
       168.0004        168.0004
 -13696479.97448 -10649929.22346  21584190.071    21584189.9414   21584197.0764
       187.0004        187.0004
   -902483.94347   -696599.40945  23428805.806    23428806.3234   23428812.5294
       158.0004        159.0004
 -17975689.33349 -13989255.96647  21346555.285    21346556.1074   21346559.6764
       200.0004        201.0004
 -16733131.85149 -13019805.13447  21349584.547    21349584.8184   21349591.5604
       205.0004        205.0004
  -4722515.33547  -3350308.41345  23524888.619    23524888.7544   23524892.1124
       154.0004        156.0004
 21  2  6  1 45  0.0000000  0  9G30G21G08G04G01G14G07G09G17
  -6642167.22148  -5153234.82046  23024796.235    23024796.0494   23024802.4194
       171.0004        172.0004
 -15170388.18148 -11655846.04546  21791536.392    21791536.8924   21791541.8324
       181.0004        182.0004
 -13730966.10249 -10685118.90648  22123160.384    22123160.3754   22123167.3084
       215.0004        215.0004
  -9389685.43448  -7294792.53246  22792581.258    22792582.1794   22792586.7314
       168.0004        169.0004
 -13758436.75148 -10698207.23246  21572399.160    21572399.6844   21572406.2114
       187.0004        187.0004
   -928214.61747   -716649.25545  23423909.758    23423910.5174   23423915.4104
       157.0004        159.0004
 -18042252.41749 -14041123.31347  21333889.278    21333889.2034   21333892.9654
       201.0004        202.0004
 -16679819.41149 -12978262.98947  21359729.244    21359729.9814   21359736.3024
       204.0004        205.0004
  -4808331.50247  -3417178.07845  23508557.863    23508558.7334   23508562.9794
       153.0004        153.0004
 21  2  6  1 45 30.0000000  0  9G30G21G08G04G01G14G07G09G17
  -6729636.56148  -5221392.74946  23008151.085    23008150.9784   23008157.7454
       172.0004        172.0004
 -15162631.59048 -11649801.93546  21793013.774    21793013.0344   21793016.9954
       182.0004        182.0004
 -13642164.16149 -10615922.60048  22140058.557    22140059.0584   22140065.7194
       215.0004        214.0004
  -9293708.81148  -7220005.57746  22810845.748    22810845.8224   22810851.9854
       168.0004        168.0004
 -13820072.23748 -10746234.88446  21560669.112    21560670.4374   21560677.8794
       186.0004        186.0004
   -953924.59447   -736682.99145  23419017.195    23419017.3904   23419022.7294
       157.0004        159.0004
 -18108597.57549 -14092820.83747  21321264.021    21321264.2094   21321267.9534
       201.0004        201.0004
 -16626117.17049 -12936417.08747  21369949.422    21369949.4344   21369955.5834
       204.0004        205.0004
  -4893840.39747  -3483808.31945  23492285.953    23492286.3434   23492290.8414
       152.0004        155.0004
 21  2  6  1 46  0.0000000  0  9G30G21G08G04G01G14G07G09G17
  -6817081.33548  -5289531.54546  22991511.012    22991511.3004   22991516.9274
       171.0004        172.0004
 -15154392.10348 -11643381.55046  21794581.095    21794580.8434   21794586.0014
       182.0004        183.0004
 -13553182.08749 -10546585.92248  22156991.173    22156991.3234   22156998.2334
       214.0004        213.0004
  -9197624.40548  -7145134.63546  22829129.286    22829130.6264   22829135.8594
       168.0004        168.0004
 -13881383.43648 -10794009.82846  21549003.026    21549003.8854   21549011.1834
       186.0004        187.0004
   -979615.29647   -756701.69945  23414128.693    23414129.0484   23414133.6024
       157.0004        159.0004
 -18174722.32549 -14144346.62547  21308680.474    21308681.1354   21308684.5534
       201.0004        201.0004
 -16572028.00649 -12894269.69447  21380241.562    21380241.6844   21380248.7074
       204.0004        204.0004
  -4979040.52647  -3550197.97345  23476075.139    23476075.1954   23476078.2214
       156.0004        160.0004
 21  2  6  1 46 30.0000000  0  9G30G21G08G04G01G14G07G09G17
  -6904499.99748  -5357649.96546  22974874.768    22974875.2434   22974883.1344
       171.0004        172.0004
 -15145668.81548 -11636584.17846  21796241.458    21796241.0544   21796246.0404
       183.0004        183.0004
 -13464023.11049 -10477111.40148  22173957.638    22173957.8874   22173964.7284
       213.0004        213.0004
  -9101435.66248  -7070182.37646  22847433.021    22847434.1314   22847440.2964
       167.0004        167.0004
 -13942367.64448 -10841529.97446  21537399.125    21537399.7924   21537406.0454
       187.0004        186.0004
  -1005288.43347   -776706.71645  23409242.970    23409243.6654   23409248.8364
       158.0004        161.0004
 -18240624.20749 -14195698.74347  21296140.133    21296139.8474   21296144.0424
       201.0004        202.0004
 -16517555.11549 -12851823.27647  21390606.593    21390607.3204   21390614.0684
       203.0004        203.0004
  -5063930.36647  -3616345.85945  23459919.980    23459920.2964   23459924.3114
       159.0004        162.0004
 21  2  6  1 47  0.0000000  0  9G30G21G08G04G01G14G07G09G17
  -6991890.37648  -5425746.37546  22958244.438    22958245.3344   22958252.7764
       171.0004        171.0004
 -15136461.36248 -11629409.52746  21797993.398    21797993.0844   21797997.4934
       183.0004        183.0004
 -13374690.75549 -10407501.76947  22190956.413    22190957.3634   22190964.1404
       213.0004        212.0004
  -9005145.61748  -6995151.19546  22865757.312    22865757.1394   22865762.7574
       166.0004        167.0004
 -14003021.80348 -10888792.95746  21525856.928    21525856.9464   21525864.1574
       186.0004        186.0004
  -1030945.22547   -796699.00445  23404360.392    23404360.5254   23404365.0074
       159.0004        160.0004
 -18306300.63449 -14246875.17347  21283641.438    21283642.0964   21283646.2394
       202.0004        202.0004
 -16462701.21549 -12809079.98547  21401046.303    21401046.6534   21401052.9734
       203.0004        205.0004
  -5148508.24447  -3682250.65645  23443824.036    23443825.1034   23443830.4244
       160.0004        162.0004
 21  2  6  1 47 30.0000000  0  9G30G21G08G04G01G14G07G09G17
  -7079248.61448  -5493817.68746  22941619.793    22941620.4404   22941627.9534
       168.0004        167.0004
 -15126767.14948 -11621855.58546  21799837.805    21799837.4084   21799842.9834
       183.0004        183.0004
 -13285185.47549 -10337757.40048  22207990.223    22207990.0604   22207996.4284
       213.0004        213.0004
  -8908755.39948  -6920041.93446  22884099.832    22884099.6984   22884106.8494
       168.0004        169.0004
 -14063340.92148 -10935794.83146  21514376.808    21514376.9434   21514386.6184
       185.0004        187.0004
  -1056585.09747   -816678.10645  23399482.075    23399482.5674   23399487.2484
       158.0004        160.0004
 -18371746.83949 -14297872.21147  21271187.847    21271188.2134   21271192.1234
       201.0004        201.0004
 -16407467.20349 -12766040.49747  21411556.878    21411556.7774   21411563.9174
       204.0004        204.0004
  -5232770.90347  -3747909.80046  23427789.980    23427790.0074   23427795.5554
       161.0004        163.0004
 21  2  6  1 48  0.0000000  0  9G30G21G08G04G01G14G07G09G17
  -7166573.60948  -5561863.13646  22925002.134    22925002.9974   22925011.2164
       167.0004        169.0004
 -15116586.93248 -11613922.94446  21801775.274    21801775.1244   21801780.3944
       183.0004        184.0004
 -13195511.24349 -10267881.38847  22225053.547    22225054.0744   22225060.8264
       213.0004        212.0004
  -8812269.11448  -6844857.83146  22902461.057    22902460.7434   22902466.7564
       168.0004        169.0004
 -14123322.94048 -10982534.03847  21502962.933    21502963.2364   21502972.2864
       187.0004        188.0004
  -1082210.33247   -836645.81945  23394604.817    23394605.7984   23394610.8984
       157.0004        157.0004
 -18436961.60949 -14348688.91747  21258777.907    21258778.1644   21258782.0624
       201.0004        201.0004
 -16351856.91549 -12722707.81447  21422138.555    21422139.0394   21422145.3924
       204.0004        203.0004
  -5316717.45147  -3813322.64546  23411815.457    23411815.4174   23411821.8644
       161.0004        163.0004
 21  2  6  1 48 30.0000000  0  9G30G21G08G04G01G14G07G09G17
  -7253863.67348  -5629881.36146  22908393.269    22908393.4404   22908400.4594
       168.0004        169.0004
 -15105920.56748 -11605611.48146  21803805.167    21803804.6454   21803809.8794
       183.0004        183.0004
 -13105671.18049 -10197876.13847  22242149.600    22242149.9024   22242157.0294
       213.0004        212.0004
  -8715690.14448  -6769601.49746  22920838.500    22920838.7434   22920844.1594
       167.0004        167.0004
 -14182965.17348 -11029008.49447  21491614.909    21491615.4454   21491622.7714
       189.0004        191.0004
  -1107822.62947   -856603.43645  23389731.451    23389731.6944   23389736.8874
       154.0004        156.0004
 -18501942.52349 -14399323.39847  21246412.522    21246413.2074   21246416.8174
       201.0004        202.0004
 -16295873.56549 -12679084.42247  21432791.465    21432791.9374   21432799.0344
       203.0004        203.0004
  -5400346.66847  -3878488.18846  23395901.766    23395902.3594   23395907.7024
       164.0004        167.0004
 21  2  6  1 49  0.0000000  0  9G30G21G08G04G01G14G07G09G17
  -7341116.45348  -5697870.56046  22891789.485    22891790.3904   22891796.3824
       169.0004        171.0004
 -15094767.57748 -11596920.84146  21805927.687    21805926.9974   21805931.9374
       183.0004        184.0004
 -13015668.34649 -10127744.07947  22259276.471    22259276.7564   22259283.8704
       212.0004        212.0004
  -8619021.24548  -6694275.09546  22939232.945    22939234.1984   22939240.0694
       166.0004        167.0004
 -14242264.31348 -11075215.63447  21480331.519    21480331.9794   21480337.9464
       191.0004        191.0004
  -1133422.97247   -876551.74045  23384858.700    23384859.1224   23384864.4654
       152.0004        154.0004
 -18566686.91149 -14449773.57247  21234092.215    21234092.2704   21234096.2894
       201.0004        202.0004
 -16239519.70149 -12635172.32747  21443514.724    21443515.8034   21443522.5464
       202.0004        202.0004
  -5483656.99748  -3943405.24546  23380046.785    23380047.0954   23380054.0984
       165.0004        167.0004
 21  2  6  1 49 30.0000000  0  9G30G21G08G04G01G14G07G09G17
  -7428329.42948  -5765828.69046  22875193.449    22875194.3064   22875200.8194
       170.0004        171.0004
 -15083126.75248 -11587850.05546  21808143.010    21808142.2304   21808147.0674
       184.0004        184.0004
 -12925505.17249 -10057487.06747  22276435.280    22276434.7124   22276441.4724
       212.0004        212.0004
  -8522264.97248  -6618880.61446  22957645.735    22957646.3414   22957652.1464
       167.0004        168.0004
 -14301216.83248 -11121152.66247  21469111.277    21469112.6774   21469119.5024
       190.0004        189.0004
  -1159012.11747   -896491.34745  23379990.070    23379990.4844   23379996.2034
       152.0004        155.0004
 -18631191.24949 -14500036.68247  21221816.967    21221817.4874   21221821.5644
       202.0004        202.0004
 -16182797.66949 -12590973.34147  21454309.364    21454309.8284   21454316.8414
       202.0004        203.0004
  -5566646.40448  -4008072.23646  23364255.107    23364256.0274   23364263.0254
       166.0004        169.0004
 21  2  6  1 50  0.0000000  0 10G30G28G21G08G04G01G14G07G09G17
  -7515500.71048  -5833754.35546  22858606.489    22858605.8534   22858611.7684
       170.0004        171.0004
   -485967.02054   -368778.498 4                                  23706689.579
        74.0004        128.000
 -15070997.62548 -11578398.78546  21810450.934    21810450.1304   21810455.5944
       184.0004        185.0004
 -12835184.72949  -9987107.49347  22293621.513    22293621.9454   22293628.6514
       212.0004        211.0004
  -8425424.63448  -6543420.61146  22976073.575    22976074.4664   22976080.6914
       166.0004        168.0004
 -14359820.02548 -11166817.46046  21457959.165    21457959.0054   21457967.6844
       188.0004        187.0004
  -1184591.66547   -916423.47545  23375122.289    23375122.3314   23375129.7544
       153.0004        156.0004
 -18695453.11849 -14550110.87347  21209588.867    21209589.3984   21209592.8614
       202.0004        202.0004
 -16125710.55949 -12546489.89247  21465172.932    21465173.2934   21465179.9824
       202.0004        202.0004
  -5649312.80448  -4072487.56746  23348524.444    23348524.8534   23348531.5074
       167.0004        168.0004
 21  2  6  1 50 30.0000000  0 10G30G28G21G08G04G01G14G07G09G17
  -7602628.63548  -5901646.23946  22842025.711    22842026.0404   22842032.5114
       170.0004        171.0004
   -504814.83246   -383464.95845  23703101.012                    23703106.5204
       122.0004        136.0004
 -15058380.21948 -11568567.03946  21812851.233    21812850.9444   21812856.8734
       184.0004        184.0004
 -12744710.63649  -9916608.21247  22310838.332    22310838.0594   22310845.7954
       211.0004        210.0004
  -8328503.66448  -6467897.78346  22994518.783    22994519.2964   22994524.0614
       167.0004        169.0004
 -14418071.22148 -11212207.98446  21446873.297    21446874.2124   21446882.5534
       186.0004        185.0004
  -1210163.25247   -936349.39645  23370255.663    23370256.5274   23370262.2584
       154.0004        156.0004
 -18759470.32749 -14599994.42547  21197406.253    21197406.6584   21197410.9564
       202.0004        202.0004
 -16068261.70049 -12501724.56047  21476104.647    21476105.0804   21476111.9314
       201.0004        201.0004
  -5731655.30748  -4136650.52446  23332854.816    23332855.8724   23332862.1174
       166.0004        168.0004
 21  2  6  1 51  0.0000000  0 10G30G28G21G08G04G01G14G07G09G17
  -7689712.45148  -5969503.76146  22825452.848    22825453.9724   22825460.5534
       169.0004        169.0004
   -519867.30246   -395194.08745  23700236.144    23700235.9074   23700239.6834
       130.0004        138.0004
 -15045275.67548 -11558355.69346  21815344.785    21815344.6474   21815350.1524
       184.0004        184.0004
 -12654086.90549  -9845992.33047  22328083.325    22328083.2904   22328090.7984
       210.0004        209.0004
  -8231506.46748  -6392315.56346  23012976.759    23012977.5574   23012981.2384
       168.0004        170.0004
 -14475968.81348 -11257322.97347  21435856.905    21435858.0064   21435865.0914
       187.0004        189.0004
  -1235729.53247   -956271.15845  23365391.240    23365390.8684   23365397.1464
       153.0004        156.0004
 -18823241.36149 -14649686.13347  21185270.315    21185271.2024   21185275.6514
       201.0004        202.0004
 -16010455.32049 -12456680.63447  21487105.263    21487105.3714   21487112.5504
       201.0004        202.0004
  -5813674.36648  -4200561.41046  23317249.139    23317248.2484   23317254.0324
       166.0004        167.0004
 21  2  6  1 51 30.0000000  0 10G30G28G21G08G04G01G14G07G09G17
  -7776748.33948  -6037323.91346  22808892.047    22808892.9674   22808899.1664
       171.0004        175.0004
   -534896.72646   -406905.31145  23697374.624    23697374.8894   23697381.3744
       133.0004        140.0004
 -15031682.43248 -11547763.55846  21817932.120    21817932.0054   21817937.0594
       184.0004        184.0004
 -12563314.84549  -9775260.85947  22345356.573    22345356.6054   22345364.0644
       209.0004        208.0004
  -8134434.31448  -6316674.93346  23031447.375    23031447.9704   23031454.4074
       168.0004        168.0004
 -14533508.07948 -11302158.76147  21424908.799    21424909.0924   21424916.4784
       189.0004        191.0004
  -1261290.04547   -976188.41045  23360526.785    23360527.6824   23360533.7444
       154.0004        157.0004
 -18886762.27449 -14699182.95547  21173184.518    21173184.3714   21173188.0254
       202.0004        203.0004
 -15952292.56749 -12411359.01147  21498172.749    21498173.0334   21498180.2974
       200.0004        200.0004
  -5895366.30347  -4264217.39846  23301701.863    23301702.5734   23301707.1144
       163.0004        164.0004
 21  2  6  1 52  0.0000000  0 10G30G28G21G08G04G01G14G07G09G17
  -7863732.76848  -6105103.96246  22792339.452    22792338.9414   22792346.0234
       176.0004        177.0004
   -549903.74147   -418599.10245  23694518.780    23694519.1274   23694524.4664
       135.0004        140.0004
 -15017598.17648 -11536788.79846  21820612.157    21820611.6844   21820616.7744
       184.0004        184.0004
 -12472396.00049  -9704415.00347  22362658.736    22362658.2454   22362665.3164
       209.0004        209.0004
  -8037288.86348  -6240977.17746  23049933.148    23049934.5224   23049941.1414
       167.0004        167.0004
 -14590684.61848 -11346711.89847  21414028.184    21414028.4744   21414035.7524
       191.0004        192.0004
  -1286844.67147   -996101.08345  23355664.464    23355665.1844   23355670.9544
       156.0004        159.0004
 -18950028.85649 -14748481.58347  21161144.341    21161144.7634   21161148.6834
       202.0004        202.0004
 -15893774.96949 -12365760.87547  21509308.559    21509308.8254   21509316.0114
       200.0004        201.0004
  -5976728.21347  -4327616.23646  23286220.485    23286219.7674   23286223.5854
       162.0004        163.0004
 21  2  6  1 52 30.0000000  0 10G30G28G21G08G04G01G14G07G09G17
  -7950662.20448  -6172841.19146  22775797.911    22775797.6974   22775804.0274
       176.0004        177.0004
   -564888.44147   -430275.47845  23691668.731    23691668.1084   23691673.4294
       135.0004        141.0004
 -15003021.43848 -11525430.29546  21823386.494    21823385.7504   21823390.0044
       184.0004        184.0004
 -12381331.93149  -9633455.99747  22379986.479    22379986.6904   22379994.2244
       209.0004        208.0004
  -7940071.70048  -6165223.55546  23068433.649    23068434.3264   23068440.1224
       167.0004        167.0004
 -14647494.07548 -11390978.99947  21403218.482    21403218.6504   21403225.3134
       192.0004        193.0004
  -1312393.21047  -1016009.01245  23350803.044    23350803.3044   23350808.4504
       158.0004        161.0004
 -19013037.41849 -14797579.16747  21149153.969    21149154.6244   21149158.7934
       202.0004        202.0004
 -15834904.00749 -12319887.41247  21520511.899    21520511.8414   21520518.4594
       200.0004        200.0004
  -6057757.11547  -4390755.63145  23270800.705    23270800.8364   23270803.8534
       161.0004        162.0004
 21  2  6  1 53  0.0000000  0 10G30G28G21G08G04G01G14G07G09G17
  -8037535.41748  -6240534.58246  22759265.129    22759265.0804   22759272.5974
       175.0004        176.0004
   -579853.14947   -441936.27545  23688820.937    23688820.6524   23688825.7594
       137.0004        142.0004
 -14987952.84748 -11513688.53746  21826253.317    21826253.1664   21826257.8254
       183.0004        183.0004
 -12290126.17549  -9562386.57247  22397341.046    22397341.7694   22397350.2474
       208.0004        207.0004
  -7842786.77748  -6089417.15046  23086947.092    23086947.6194   23086952.8934
       167.0004        168.0004
 -14703934.35448 -11434958.44647  21392477.221    21392477.6814   21392485.1394
       192.0004        192.0004
  -1337937.83747  -1035913.91145  23345941.640    23345942.5184   23345946.8594
       159.0004        160.0004
 -19075785.76349 -14846473.98847  21137214.725    21137214.4014   21137218.0234
       203.0004        203.0004
 -15775683.55849 -12273741.61847  21531781.245    21531781.3634   21531788.0614
       201.0004        201.0004
  -6138452.48247  -4453635.07745  23255443.874    23255444.9784   23255447.6984
       160.0004        162.0004
 21  2  6  1 53 30.0000000  0 10G30G28G21G08G04G01G14G07G09G17
  -8124349.38548  -6308181.82646  22742745.767    22742745.5414   22742751.7064
       177.0004        178.0004
   -594799.05047   -453582.40745  23685974.954    23685975.2564   23685981.2924
       137.0004        143.0004
 -14972391.21648 -11501562.58946  21829214.688    21829214.6334   21829219.4554
       183.0004        184.0004
 -12198780.89849  -9491208.45847  22414725.372    22414725.1484   22414732.0554
       207.0004        206.0004
  -7745436.23048  -6013559.58146  23105472.412    23105472.3994   23105477.3714
       166.0004        166.0004
 -14760001.74848 -11478647.31747  21381807.551    21381808.1984   21381815.2704
       191.0004        191.0004
  -1363479.05847  -1055816.13345  23341082.236    23341082.7054   23341086.3314
       159.0004        161.0004
 -19138270.56649 -14895163.45047  21125323.075    21125323.7214   21125327.7974
       203.0004        203.0004
 -15716115.69449 -12227325.10247  21543115.539    21543116.2814   21543123.6254
       201.0004        200.0004
  -6218811.99147  -4516252.80745  23240151.267    23240151.8404   23240156.2454
       160.0004        162.0004
 21  2  6  1 54  0.0000000  0 10G30G28G21G08G04G01G14G07G09G17
  -8211103.63248  -6375782.52246  22726236.307    22726236.7344   22726243.5854
       179.0004        180.0004
   -609729.22147   -465216.28545  23683135.479    23683135.9544   23683140.0874
       137.0004        143.0004
 -14956338.46148 -11489053.92946  21832268.486    21832268.9284   21832274.9184
       183.0004        184.0004
 -12107300.76749  -9419925.24347  22432133.527    22432133.3594   22432140.4074
       207.0004        207.0004
  -7648024.72047  -5937654.51846  23124008.654    23124009.4154   23124015.3144
       164.0004        164.0004
 -14815694.86848 -11522044.53647  21371209.182    21371209.6964   21371217.5774
       190.0004        189.0004
  -1389019.62747  -1075717.87245  23336221.769    23336221.2524   23336226.2864
       159.0004        160.0004
 -19200490.74249 -14943646.70247  21113482.675    21113483.3254   21113487.7144
       203.0004        204.0004
 -15656204.95749 -12180641.42047  21554517.316    21554517.0484   21554523.6654
       200.0004        201.0004
  -6298835.60047  -4578608.85345  23224923.876    23224924.4714   23224927.2804
       159.0004        162.0004
 21  2  6  1 54 30.0000000  0 10G30G28G21G08G04G01G14G07G09G17
  -8297795.45248  -6443334.59346  22709740.116    22709740.2104   22709746.1294
       180.0004        180.0004
   -624645.01747   -476838.96345  23680297.011    23680296.7174   23680301.4004
       140.0004        145.0004
 -14939793.19548 -11476161.49546  21835418.101    21835417.3324   21835422.6454
       183.0004        184.0004
 -12015688.17649  -9348538.80347  22449566.324    22449566.2424   22449573.9864
       208.0004        207.0004
  -7550554.69047  -5861703.87246  23142555.959    23142557.4134   23142562.8744
       162.0004        163.0004
 -14871010.30448 -11565147.46647  21360682.555    21360683.2804   21360691.3734
       189.0004        189.0004
  -1414560.29947  -1095619.69745  23331361.785    23331362.0674   23331365.3634
       158.0004        160.0004
 -19262442.95649 -14991921.15847  21101694.684    21101694.4674   21101698.1334
       203.0004        203.0004
 -15595953.84449 -12133692.50647  21565982.523    21565982.9794   21565989.1564
       202.0004        203.0004
  -6378521.72147  -4640701.89446  23209760.868    23209760.8234   23209764.9004
       161.0004        164.0004
 21  2  6  1 55  0.0000000  0 10G30G28G21G08G04G01G14G07G09G17
  -8384421.68648  -6510835.53746  22693254.382    22693254.6384   22693261.7704
       177.0004        176.0004
   -639547.05547   -488450.93345  23677461.855    23677461.4084   23677466.1834
       140.0004        145.0004
 -14922754.33348 -11462884.45246  21838660.506    21838660.1144   21838665.0094
       184.0004        185.0004
 -11923944.54849  -9277050.27147  22467024.163    22467024.3664   22467032.6744
       207.0004        208.0004
  -7453028.12347  -5785709.18945  23161113.265    23161115.1644   23161121.9294
       161.0004        162.0004
 -14925944.09248 -11607953.00347  21350228.571    21350230.1334   21350237.4314
       189.0004        189.0004
  -1440101.32247  -1115521.78945  23326501.698    23326501.9684   23326506.1824
       158.0004        160.0004
 -19324123.79249 -15039984.16047  21089956.192    21089956.6844   21089960.7284
       203.0004        203.0004
 -15535364.23949 -12086479.82847  21577512.358    21577512.4784   21577518.6274
       202.0004        202.0004
  -6457867.76147  -4702529.95446  23194661.684    23194661.8544   23194666.9504
       163.0004        165.0004
 21  2  6  1 55 30.0000000  0 10G30G28G21G08G04G01G14G07G09G17
  -8470982.17948  -6578285.27446  22676783.272    22676782.9024   22676789.5904
       176.0004        177.0004
   -654438.80547   -500054.88645  23674627.314    23674626.7564   23674632.2754
       141.0004        146.0004
 -14905224.02948 -11449224.46346  21841996.376    21841995.9714   21842000.4534
       184.0004        184.0004
 -11832075.09149  -9205463.69147  22484507.716    22484507.4554   22484514.4104
       207.0004        207.0004
  -7355450.11747  -5709674.37546  23179682.831    23179683.2844   23179691.4124
       162.0004        163.0004
 -14980495.38048 -11650460.48547  21339848.303    21339848.6854   21339856.6824
       189.0004        189.0004
  -1465645.99847  -1135426.71245  23321640.265    23321639.6114   23321644.5404
       158.0004        159.0004
 -19385532.39949 -15087835.01247  21078269.888    21078270.6754   21078275.3634
       203.0004        203.0004
 -15474441.17049 -12039007.31447  21589106.370    21589106.3574   21589112.5314
       203.0004        203.0004
  -6536874.47147  -4764093.52746  23179627.084    23179627.7124   23179633.7544
       164.0004        167.0004
 21  2  6  1 56  0.0000000  0 10G30G28G21G08G04G01G14G07G09G17
  -8557473.31848  -6645680.98246  22660325.699    22660324.7924   22660330.1264
       177.0004        179.0004
   -669320.85447   -511651.27145  23671793.830    23671793.9564   23671799.3064
       141.0004        147.0004
 -14887200.57148 -11435180.20346  21845426.736    21845425.2954   21845431.0974
       184.0004        183.0004
 -11740081.22249  -9133780.16147  22502013.105    22502012.8434   22502020.3054
       207.0004        207.0004
  -7257822.14047  -5633600.65746  23198261.982    23198261.6344   23198268.3444
       162.0004        163.0004
 -15034659.86348 -11692666.55547  21329541.423    21329542.1784   21329550.1874
       189.0004        190.0004
  -1491194.08247  -1155334.30745  23316777.951    23316778.3394   23316783.0154
       158.0004        159.0004
 -19446665.14349 -15135470.92147  21066637.153    21066637.7314   21066641.7314
       203.0004        203.0004
 -15413186.24149 -11991276.20247  21600761.646    21600762.4374   21600768.7414
       202.0004        203.0004
  -6615538.75048  -4825390.35046  23164656.907    23164657.8514   23164664.4434
       167.0004        168.0004
 21  2  6  1 56 30.0000000  0 10G30G28G21G08G04G01G14G07G09G17
  -8643893.01248  -6713020.99946  22643879.457    22643880.1614   22643886.6174
       180.0004        181.0004
   -684194.72247   -523241.27945  23668966.599    23668966.1674   23668970.3754
       145.0004        150.0004
 -14868683.86648 -11420751.59246  21848949.224    21848949.1994   21848954.6954
       184.0004        184.0004
 -11647966.16949  -9062002.20747  22519541.481    22519541.2624   22519549.3034
       206.0004        205.0004
  -7160147.40147  -5557490.49645  23216847.561    23216849.1024   23216855.6324
       161.0004        161.0004
 -15088434.75148 -11734569.07347  21319309.026    21319309.8674   21319316.8124
       190.0004        191.0004
  -1516746.94347  -1175245.61645  23311915.733    23311915.6654   23311919.2014
       157.0004        158.0004
 -19507519.27249 -15182889.74047  21055058.122    21055058.3044   21055061.7124
       203.0004        204.0004
 -15351602.54249 -11943288.91147  21612481.312    21612481.4824   21612488.1714
       202.0004        203.0004
  -6693859.48748  -4886419.44146  23149753.757    23149753.9124   23149760.7544
       167.0004        169.0004
 21  2  6  1 57  0.0000000  0 10G30G28G21G08G04G01G14G07G09G17
  -8730238.22348  -6780302.95946  22627448.218    22627448.5894   22627455.7084
       180.0004        181.0004
   -699061.04847   -534825.40245  23666136.335    23666136.2654   23666140.5064
       147.0004        151.0004
 -14849673.07048 -11405937.97746  21852567.322    21852567.1124   21852571.2214
       183.0004        184.0004
 -11555731.32249  -8990130.88947  22537093.212    22537093.0354   22537100.5314
       205.0004        204.0004
  -7062427.89847  -5481345.44645  23235444.710    23235445.0124   23235451.0034
       161.0004        162.0004
 -15141816.31648 -11776165.07547  21309149.661    21309150.8694   21309158.9904
       191.0004        192.0004
  -1542304.88647  -1195160.89145  23307052.471    23307052.7734   23307056.8604
       156.0004        157.0004
 -19568091.11049 -15230088.56747  21043531.024    21043531.6554   21043535.7324
       204.0004        204.0004
 -15289692.19149 -11895047.07347  21624262.003    21624262.6474   21624268.9944
       202.0004        203.0004
  -6771834.46948  -4947179.13046  23134915.483    23134916.7864   23134922.0594
       169.0004        170.0004
 21  2  6  1 57 30.0000000  0 10G30G28G21G08G04G01G14G07G09G17
  -8816506.96848  -6847525.34946  22611031.794    22611032.8944   22611039.0634
       181.0004        182.0004
   -713922.28247   -546405.58045  23663308.097    23663307.5464   23663312.7724
       148.0004        151.0004
 -14830168.61448 -11390739.68046  21856278.856    21856278.2724   21856283.1024
       183.0004        183.0004
 -11463380.43049  -8918169.16647  22554667.536    22554666.9864   22554674.0734
       204.0004        204.0004
  -6964666.95547  -5405168.11646  23254047.477    23254048.4004   23254054.4714
       161.0004        163.0004
 -15194801.96948 -11817452.58847  21299067.066    21299067.8974   21299075.6594
       192.0004        192.0004
  -1567869.49147  -1215081.33945  23302188.550    23302188.5894   23302193.1374
       157.0004        158.0004
 -19628378.58149 -15277065.81847  21032059.166    21032059.6294   21032062.7844
       204.0004        204.0004
 -15227458.45149 -11846553.24547  21636105.041    21636105.2234   21636111.7364
       202.0004        201.0004
  -6849462.70048  -5007668.60546  23120143.507    23120144.7304   23120149.1704
       168.0004        169.0004
 21  2  6  1 58  0.0000000  0 10G30G28G21G08G04G01G14G07G09G17
  -8902697.21648  -6914686.57846  22594631.058    22594631.2204   22594637.8234
       182.0004        181.0004
   -728779.83947   -557982.88045  23660480.008    23660480.0844   23660484.6314
       148.0004        151.0004
 -14810170.45348 -11375156.69946  21860084.678    21860083.6664   21860088.9504
       183.0004        183.0004
 -11370916.10849  -8846119.05547  22572261.279    22572261.8414   22572269.9864
       204.0004        205.0004
  -6866867.60647  -5328960.86545  23272657.978    23272658.4364   23272664.7724
       160.0004        161.0004
 -15247388.93448 -11858429.44647  21289060.122    21289061.2604   21289069.3674
       193.0004        194.0004
  -1593441.98747  -1235007.97245  23297321.542    23297321.3704   23297326.6954
       158.0004        160.0004
 -19688378.97049 -15323819.38247  21020641.123    21020641.4214   21020645.2714
       204.0004        204.0004
 -15164904.44649 -11797809.87447  21648007.383    21648008.5484   21648015.3814
       201.0004        201.0004
  -6926742.64548  -5067886.69946  23105437.624    23105436.7114   23105443.2664
       166.0004        165.0004
 21  2  6  1 58 30.0000000  0 10G30G28G21G08G04G01G14G07G09G17
  -8988805.75348  -6981784.14146  22578245.592    22578245.1634   22578251.6194
       180.0004        180.0004
   -743634.45447   -569557.90345  23657655.150    23657654.8344   23657658.8714
       149.0004        153.0004
 -14789677.60848 -11359188.23646  21863984.328    21863983.6514   21863988.5694
       183.0004        184.0004
 -11278340.72449  -8773982.39447  22589877.825    22589878.2284   22589886.8934
       205.0004        205.0004
  -6769031.88547  -5252725.24845  23291275.742    23291276.1854   23291282.1614
       160.0004        162.0004
 -15299573.52048 -11899092.75747  21279130.932    21279131.5764   21279139.0004
       194.0004        194.0004
  -1619022.71847  -1254941.00945  23292453.250    23292452.9144   23292458.4474
       158.0004        160.0004
 -19748088.60049 -15370346.36447  21009279.424    21009279.1764   21009283.1584
       204.0004        205.0004
 -15102032.31749 -11748818.60347  21659971.798    21659972.4614   21659979.1214
       200.0004        200.0004
  -7003672.36247  -5127831.89546  23090797.728    23090798.0334   23090802.2504
       164.0004        166.0004
 21  2  6  1 59  0.0000000  0 10G30G28G21G08G04G01G14G07G09G17
  -9074830.56648  -7048816.45446  22561874.360    22561875.1124   22561881.2804
       179.0004        178.0004
   -758487.84747   -581131.96145  23654826.239    23654826.6294   23654831.0624
       150.0004        153.0004
 -14768690.38248 -11342834.54546  21867978.213    21867977.1954   21867982.1674
       183.0004        184.0004
 -11185656.87049  -8701761.23047  22607515.983    22607516.0424   22607524.3444
       204.0004        204.0004
  -6671162.96447  -5176463.77146  23309899.411    23309899.6704   23309905.3594
       161.0004        163.0004
 -15351353.06348 -11939440.45347  21269277.212    21269277.7444   21269284.9094
       193.0004        193.0004
  -1644613.06247  -1274881.51545  23287583.564    23287583.5644   23287588.2224
       158.0004        161.0004
 -19807505.06349 -15416644.90847  20997972.188    20997972.6314   20997976.7824
       204.0004        204.0004
 -15038845.24749 -11699581.93347  21671996.753    21671997.2544   21672003.6914
       199.0004        200.0004
  -7080250.56448  -5187503.19946  23076224.912    23076225.5384   23076230.9104
       165.0004        166.0004
 21  2  6  1 59 30.0000000  0 11G30G28G21G08G04G01G14G07G09G22G17
  -9160769.17348  -7115781.61146  22545520.466    22545520.9964   22545527.6064
       177.0004        177.0004
   -773341.60047   -592706.29645  23652001.553    23652000.8524   23652005.4314
       151.0004        154.0004
 -14747208.52048 -11326095.42246  21872065.218    21872064.9184   21872069.8754
       184.0004        184.0004
 -11092866.97349  -8629457.41947  22625173.328    22625173.1404   22625181.5134
       203.0004        203.0004
  -6573263.58347  -5100178.54745  23328527.776    23328528.3484   23328535.2374
       161.0004        162.0004
 -15402724.53848 -11979470.16147  21259501.180    21259502.2124   21259509.3354
       194.0004        195.0004
  -1670213.99047  -1294830.28445  23282712.253    23282712.3924   23282717.2604
       159.0004        161.0004
 -19866625.62949 -15462712.88447  20986722.251    20986722.1334   20986726.2744
       204.0004        204.0004
 -14975346.05749 -11650102.05247  21684079.313    21684079.8784   21684087.7414
       199.0004        199.0004
  -1860960.92054  -1434136.559 5                                  24578486.710
        74.0004        134.000
  -7156475.73447  -5246899.39246  23061720.503    23061719.7624   23061724.9374
       164.0004        165.0004
 21  2  6  2  0  0.0000000  0 11G30G28G21G08G04G01G14G07G09G22G17
  -9246619.33348  -7182677.80546  22529184.713    22529184.7404   22529190.5334
       177.0004        178.0004
   -788197.33747   -604282.19545  23649173.937    23649173.6544   23649178.6654
       153.0004        155.0004
 -14725231.98048 -11308970.83946  21876246.970    21876246.7884   21876252.1514
       184.0004        184.0004
 -10999974.17249  -8557073.42647  22642850.235    22642850.3244   22642858.0224
       203.0004        203.0004
  -6475336.63847  -5023871.85445  23347163.339    23347164.3464   23347170.2224
       160.0004        161.0004
 -15453685.09148 -12019179.67247  21249803.791    21249804.3064   21249812.2484
       194.0004        193.0004
  -1695826.65747  -1314788.19245  23277837.556    23277838.6164   23277843.2984
       160.0004        162.0004
 -19925447.66949 -15508548.23347  20975527.852    20975528.7684   20975532.6804
       204.0004        204.0004
 -14911537.79849 -11600381.32747  21696221.801    21696222.3854   21696229.4164
       199.0004        199.0004
  -1860960.92045  -1434136.559 5                                  24578486.710
        92.0004        134.000
  -7232346.77248  -5306019.64446  23047283.147    23047283.6384   23047287.8664
       166.0004        169.0004
 21  2  6  2  0 30.0000000  0 10G30G28G21G08G04G01G14G07G09G17
  -9332379.45948  -7249503.88546  22512864.191    22512864.7394   22512871.4324
       176.0004        177.0004
   -803057.23347   -615861.31645  23646346.473    23646346.3624   23646349.7054
       151.0004        153.0004
 -14702761.87048 -11291461.65646  21880522.545    21880523.1834   21880528.0474
       184.0004        184.0004
 -10906981.79949  -8484611.84647  22660545.375    22660546.3284   22660553.7414
       203.0004        204.0004
  -6377385.72547  -4947546.49345  23365803.187    23365803.5744   23365810.3724
       160.0004        162.0004
 -15504232.64348 -12058567.37347  21240184.985    21240185.7774   21240192.6594
       193.0004        193.0004
  -1721452.95847  -1334756.72845  23272961.098    23272961.2264   23272965.6824
       159.0004        160.0004
 -19983969.20149 -15554149.43647  20964392.338    20964392.4734   20964396.4654
       204.0004        204.0004
 -14847424.16449 -11550422.66547  21708422.758    21708423.0594   21708429.5314
       199.0004        199.0004
  -7307862.92248  -5364863.37346  23032912.376    23032912.5314   23032915.3034
       167.0004        168.0004
 21  2  6  2  1  0.0000000  0 10G30G28G21G08G04G01G14G07G09G17
  -9418045.04048  -7316256.28246  22496563.235    22496562.9604   22496570.2374
       177.0004        178.0004
   -817920.82147   -627443.29745  23643518.458    23643518.3594   23643522.6054
       151.0004        155.0004
 -14679795.83848 -11273566.03846  21884894.394    21884893.6964   21884897.7904
       184.0004        184.0004
 -10813890.54349  -8412073.21247  22678261.282    22678260.5934   22678269.2844
       203.0004        203.0004
  -6279411.60247  -4871203.05645  23384447.460    23384448.6414   23384453.1524
       160.0004        161.0004
 -15554362.20248 -12097629.35547  21230645.655    21230646.1824   21230653.7964
       193.0004        193.0004
  -1747091.82947  -1354735.05446  23268082.445    23268082.8514   23268088.1434
       161.0004        164.0004
 -20042185.35949 -15599512.67647  20953314.053    20953314.6324   20953318.2164
       204.0004        204.0004
 -14783006.00549 -11500226.70747  21720681.270    21720681.7414   21720687.7804
       198.0004        198.0004
  -7383020.79648  -5423427.89446  23018609.742    23018610.0414   23018614.0274
       166.0004        167.0004
 21  2  6  2  1 30.0000000  0 10G30G28G21G08G04G01G14G07G09G17
  -9503616.13648  -7382935.07446  22480279.490    22480279.7894   22480286.2264
       178.0004        179.0004
   -832792.06247   -639031.24545  23640687.786    23640687.6894   23640690.9724
       151.0004        153.0004
 -14656336.29648 -11255285.85846  21889357.698    21889357.8314   21889362.6884
       184.0004        183.0004
 -10720705.30149  -8339461.34147  22695993.233    22695992.9134   22696001.5584
       202.0004        201.0004
  -6181419.51147  -4794845.59845  23403094.612    23403094.7324   23403100.4594
       159.0004        160.0004
 -15604073.35848 -12136365.30147  21221185.661    21221186.3684   21221194.0914
       193.0004        193.0004
  -1772746.78947  -1374725.90745  23263200.853    23263201.0954   23263206.3744
       161.0004        162.0004
 -20100095.87049 -15644637.75347  20942294.731    20942294.5424   20942297.9314
       204.0004        204.0004
 -14718288.76249 -11449797.69447  21732996.265    21732996.9174   21733003.5144
       199.0004        199.0004
  -7457821.56148  -5481714.16446  23004376.742    23004377.7904   23004380.6494
       167.0004        170.0004
 21  2  6  2  2  0.0000000  0 10G30G28G21G08G04G01G14G07G09G17
  -9589089.02048  -7449537.30946  22464014.126    22464014.2704   22464022.2434
       178.0004        179.0004
   -847670.75347   -650625.03445  23637855.200    23637855.9944   23637861.3784
       149.0004        151.0004
 -14632381.78548 -11236620.01446  21893916.419    21893915.8234   21893920.2814
       183.0004        183.0004
 -10627427.53849  -8266777.38747  22713742.023    22713742.5214   22713751.8854
       200.0004        201.0004
  -6083410.86247  -4718475.26545  23421745.523    23421746.0014   23421751.6244
       159.0004        160.0004
 -15653361.85148 -12174771.91747  21211806.601    21211806.8444   21211814.9714
       192.0004        192.0004
  -1798417.49747  -1394729.06945  23258314.515    23258314.7334   23258318.9264
       159.0004        159.0004
 -20157696.55049 -15689521.41347  20931332.223    20931332.8394   20931337.1314
       204.0004        205.0004
 -14653273.93849 -11399136.80847  21745368.216    21745368.3214   21745375.7434
       199.0004        199.0004
  -7532262.44548  -5539720.04946  22990210.821    22990211.1374   22990214.9534
       167.0004        168.0004
 21  2  6  2  2 30.0000000  0 10G30G28G21G08G04G01G14G07G09G17
  -9674461.52248  -7516061.31446  22447768.497    22447769.1324   22447775.8464
       178.0004        180.0004
   -862558.88947   -662226.17045  23635023.238    23635023.0584   23635027.4704
       148.0004        151.0004
 -14607933.05648 -11217569.04946  21898568.649    21898568.1304   21898573.2284
       183.0004        184.0004
 -10534060.11949  -8194023.56047  22731510.496    22731510.4084   22731519.1184
       201.0004        202.0004
  -5985388.71447  -4642094.40545  23440397.569    23440398.6104   23440404.6454
       157.0004        158.0004
 -15702225.10548 -12212847.16847  21202508.199    21202508.9704   21202516.4434
       192.0004        193.0004
  -1824105.25047  -1414745.48345  23253425.596    23253426.4304   23253432.0704
       157.0004        159.0004
 -20214984.84649 -15734161.64047  20920431.456    20920431.8724   20920435.8094
       204.0004        205.0004
 -14587964.81849 -11348246.57447  21757795.983    21757796.8574   21757804.0584
       199.0004        200.0004
  -7606342.54548  -5597444.79846  22976113.978    22976114.0484   22976118.3194
       167.0004        170.0004
 21  2  6  2  3  0.0000000  0 10G30G28G21G08G04G01G14G07G09G17
  -9759731.44948  -7582505.40946  22431543.169    22431542.7934   22431550.3404
       180.0004        182.0004
   -877458.10947   -673835.93145  23632187.304    23632186.8614   23632192.5754
       149.0004        152.0004
 -14582990.20248 -11198133.04946  21903315.447    21903314.5924   21903318.8724
       184.0004        184.0004
 -10440606.05649  -8121202.22047  22749295.618    22749294.8414   22749302.7224
       202.0004        202.0004
  -5887356.09847  -4565705.41145  23459053.879    23459054.1534   23459059.9214
       157.0004        159.0004
 -15750660.51948 -12250589.03747  21193291.788    21193291.9814   21193299.5104
       193.0004        194.0004
  -1849811.31247  -1434776.17545  23248535.005    23248536.0774   23248541.0154
       160.0004        162.0004
 -20271958.36749 -15778556.59247  20909589.959    20909590.3034   20909593.8294
       205.0004        205.0004
 -14522364.54649 -11297129.48647  21770279.580    21770280.1054   21770286.7354
       199.0004        198.0004
  -7680060.22648  -5654887.11646  22962085.571    22962085.5664   22962090.2614
       170.0004        172.0004
 21  2  6  2  3 30.0000000  0 10G30G28G21G08G04G01G14G07G09G17
  -9844896.07948  -7648867.46246  22415336.340    22415336.2484   22415343.4974
       181.0004        182.0004
   -892369.83647   -685455.45845  23629350.283    23629349.5114   23629354.1724
       150.0004        153.0004
 -14557553.16048 -11178311.95846  21908155.811    21908155.3904   21908160.0604
       184.0004        184.0004
 -10347067.48449  -8048315.01047  22767093.943    22767093.6884   22767102.0534
       201.0004        201.0004
  -5789315.48247  -4489310.17045  23477709.527    23477710.0674   23477715.6434
       157.0004        158.0004
 -15798664.96448 -12287995.08347  21184155.577    21184156.8474   21184164.5544
       193.0004        194.0004
  -1875536.43547  -1454821.73245  23243640.030    23243640.2204   23243645.6064
       162.0004        162.0004
 -20328614.05149 -15822703.87547  20898808.288    20898808.7644   20898812.6734
       204.0004        205.0004
 -14456475.93549 -11245787.70747  21782817.122    21782817.5974   21782824.7044
       197.0004        197.0004
  -7753414.64048  -5712046.35246  22948126.286    22948126.8074   22948131.9234
       170.0004        173.0004
 21  2  6  2  4  0.0000000  0 10G30G28G21G08G04G01G14G07G09G17
  -9929952.68848  -7715145.31946  22399149.801    22399150.2864   22399158.1574
       181.0004        182.0004
   -907295.06147   -697085.50045  23626510.162    23626510.5324   23626514.5244
       150.0004        153.0004
 -14531621.48058 -11158105.44846  21913089.303    21913089.3675   21913095.3134
       183.0004        183.0004
 -10253447.12449  -7975364.09047  22784908.330    22784909.1984   22784917.5314
       200.0004        199.0004
  -5691269.24747  -4412910.55245  23496367.005    23496367.7794   23496373.4864
       155.0004        157.0004
 -15846235.29048 -12325062.85747  21175104.562    21175104.9344   21175112.1474
       194.0004        195.0004
  -1901281.29947  -1474882.62645  23238741.150    23238741.4394   23238745.7294
       161.0004        162.0004
 -20384949.02649 -15866601.25747  20888088.323    20888088.7434   20888092.6164
       205.0004        206.0004
 -14390301.37049 -11194223.11647  21795410.404    21795410.6104   21795417.4474
       197.0004        197.0004
  -7826403.64748  -5768920.88846  22934236.978    22934237.8154   22934242.8064
       172.0004        172.0004
 21  2  6  2  4 30.0000000  0 10G30G28G21G08G04G01G14G07G09G17
 -10014898.48748  -7781336.85746  22382985.991    22382986.1984   22382991.9254
       180.0004        181.0004
   -922234.95947   -708726.96145  23623667.309    23623667.1014   23623671.8984
       149.0004        152.0004
 -14505194.92148 -11137513.32646  21918119.243    21918118.6084   21918123.2434
       183.0004        184.0004
 -10159746.70049  -7902350.78347  22802740.514    22802739.6594   22802748.6934
       198.0004        197.0004
  -5593219.89347  -4336508.50745  23515025.530    23515026.0824   23515031.5554
       154.0004        157.0004
 -15893368.42249 -12361789.97647  21166135.253    21166135.4334   21166143.2534
       195.0004        196.0004
  -1927046.62647  -1494959.47046  23233838.010    23233838.6684   23233844.0604
       162.0004        164.0004
 -20440959.85449 -15910246.06847  20877429.610    20877430.0434   20877434.1304
       205.0004        205.0004
 -14323843.65949 -11142437.89047  21808056.634    21808057.4424   21808063.9144
       197.0004        197.0004
  -7899026.02048  -5825509.71246  22920416.743    22920417.9114   22920423.4804
       172.0004        174.0004
 21  2  6  2  5  0.0000000  0 10G30G28G21G08G04G01G14G07G09G17
 -10099732.28048  -7847441.11246  22366842.956    22366842.4974   22366849.2624
       181.0004        181.0004
   -937192.20647   -720381.95045  23620821.104    23620821.1394   23620824.9174
       150.0004        155.0004
 -14478275.17748 -11116536.89146  21923241.797    21923240.7194   21923246.2504
       183.0004        184.0004
 -10065970.24449  -7829278.23647  22820585.093    22820584.8674   22820593.0244
       197.0004        197.0004
  -5495171.40147  -4260107.12545  23533684.535    23533684.5464   23533690.0994
       155.0004        157.0004
 -15940062.77649 -12398175.18247  21157249.509    21157249.9564   21157257.9724
       196.0004        196.0004
  -1952834.60247  -1515054.01346  23228932.076    23228932.4244   23228936.4274
       164.0004        166.0004
 -20496645.31849 -15953637.35047  20866833.271    20866833.6404   20866837.3244
       205.0004        205.0004
 -14257107.02749 -11090435.32447  21820755.826    21820756.6744   21820763.7804
       196.0004        197.0004
  -7971281.66948  -5881812.79146  22906668.071    22906668.3334   22906673.5534
       174.0004        176.0004
 21  2  6  2  5 30.0000000  0 10G30G28G21G08G04G01G14G07G09G17
 -10184451.53448  -7913456.11746  22350720.483    22350721.4744   22350727.5744
       182.0004        183.0004
   -952168.07547   -732051.43245  23617970.598    23617971.3674   23617975.9194
       152.0004        155.0004
 -14450862.34848 -11095176.23446  21928457.545    21928457.7784   21928463.0964
       183.0004        183.0004
  -9972120.20149  -7756148.32547  22838444.650    22838444.4274   22838452.5264
       198.0004        199.0004
  -5397126.47747  -4183708.52345  23552341.441    23552341.0304   23552346.8304
       154.0004        156.0004
 -15986315.52549 -12434216.26947  21148448.203    21148448.5394   21148455.5424
       196.0004        196.0004
  -1978646.24048  -1535166.96346  23224019.464    23224019.4084   23224023.6834
       165.0004        166.0004
 -20552002.41149 -15996772.74347  20856298.487    20856299.2094   20856303.6614
       205.0004        205.0004
 -14190094.36649 -11038217.67047  21833507.838    21833508.0904   21833515.1094
       196.0004        196.0004
  -8043169.24048  -5937829.05146  22892988.114    22892988.5284   22892993.6444
       175.0004        175.0004
 21  2  6  2  6  0.0000000  0 10G30G28G21G08G04G01G14G07G09G17
 -10269052.61548  -7979379.02246  22334621.390    22334621.5774   22334628.1964
       183.0004        184.0004
   -967163.15147   -743735.90945  23615117.954    23615117.7734   23615120.9444
       154.0004        157.0004
 -14422955.58748 -11073430.70946  21933768.657    21933768.5814   21933773.3624
       184.0004        184.0004
  -9878198.54049  -7682962.62647  22856316.662    22856317.1874   22856325.1944
       199.0004        199.0004
  -5299086.63647  -4107313.89645  23570996.859    23570996.6594   23571003.0314
       153.0004        155.0004
 -16032122.75449 -12469910.20747  21139730.431    21139731.3724   21139738.7274
       196.0004        196.0004
  -2004481.27148  -1555298.16646  23219103.695    23219103.4384   23219108.4834
       166.0004        167.0004
 -20607027.33049 -16039649.29447  20845827.722    20845827.9874   20845832.4874
       205.0004        205.0004
 -14122807.48349 -10985786.33347  21846313.323    21846313.5084   21846319.5634
       196.0004        196.0004
  -8114685.89348  -5993556.29246  22879377.640    22879378.7684   22879384.8844
       173.0004        173.0004
 21  2  6  2  6 30.0000000  0 10G30G28G21G08G04G01G14G07G09G17
 -10353533.41148  -8045208.22146  22318546.214    22318545.5654   22318552.5764
       184.0004        186.0004
   -982178.94647   -755436.49045  23612260.754    23612260.1784   23612264.8734
       154.0004        157.0004
 -14394555.19448 -11051300.52946  21939173.524    21939172.3134   21939178.4264
       184.0004        184.0004
  -9784207.56249  -7609722.90747  22874202.729    22874202.3284   22874210.4534
       198.0004        197.0004
  -5201055.02247  -4030925.68445  23589653.758    23589652.3644   23589658.5694
       153.0004        155.0004
 -16077482.10549 -12505255.15347  21131099.114    21131099.9044   21131107.6514
       196.0004        197.0004
  -2030341.09848  -1575448.66746  23214182.208    23214182.4864   23214187.1974
       165.0004        164.0004
 -20661717.74149 -16082265.21447  20835421.216    20835421.5624   20835425.0114
       205.0004        205.0004
 -14055249.76149 -10933143.96247  21859169.222    21859169.7544   21859175.4814
       196.0004        197.0004
  -8185831.26248  -6048994.21846  22865840.312    22865840.3234   22865844.6004
       173.0004        174.0004
 21  2  6  2  7  0.0000000  0 10G30G28G21G08G04G01G14G07G09G17
 -10437891.05548  -8110941.43946  22302493.505    22302493.3154   22302500.0084
       185.0004        186.0004
   -997216.55447   -767154.09945  23609398.537    23609398.7204   23609403.6464
       154.0004        157.0004
 -14365661.23748 -11028785.75046  21944671.683    21944671.2334   21944675.7494
       183.0004        183.0004
  -9690149.26849  -7536430.73647  22892100.478    22892100.9184   22892109.4024
       196.0004        196.0004
  -5103033.95847  -3954545.69045  23608304.428    23608305.6854   23608311.8804
       153.0004        155.0004
 -16122390.49049 -12540248.69447  21122553.424    21122553.6514   21122561.8494
       197.0004        196.0004
  -2056226.33247  -1595618.96846  23209256.002    23209255.8794   23209260.9254
       163.0004        163.0004
 -20716070.57749 -16124618.07647  20825077.534    20825077.8854   20825082.3164
       205.0004        205.0004
 -13987423.82949 -10880292.57947  21872076.009    21872076.1424   21872082.1284
       196.0004        196.0004
  -8256604.10248  -6104141.85746  22852373.030    22852373.2684   22852377.9514
       174.0004        175.0004
 21  2  6  2  7 30.0000000  0 10G30G28G21G08G04G01G14G07G09G17
 -10522122.90348  -8176576.64846  22286463.745    22286464.5504   22286469.9844
       185.0004        184.0004
  -1012277.16247   -778889.63445  23606532.954    23606533.0624   23606536.9844
       154.0004        156.0004
 -14336273.70748 -11005886.37246  21950263.588    21950263.4114   21950267.7834
       182.0004        183.0004
  -9596026.66149  -7463088.45847  22910011.415    22910011.7724   22910020.4484
       195.0004        195.0004
  -5005025.90247  -3878175.82945  23626954.255    23626955.3834   23626962.1834
       153.0004        155.0004
 -16166844.92149 -12574888.50647  21114092.940    21114094.4274   21114102.5604
       197.0004        197.0004
  -2082137.68147  -1615809.61046  23204324.392    23204325.2004   23204330.1074
       161.0004        163.0004
 -20770082.95749 -16166705.65747  20814799.758    20814800.4014   20814804.0514
       206.0004        207.0004
 -13919332.42449 -10827234.35847  21885032.730    21885033.2824   21885039.7254
       195.0004        195.0004
  -8327002.83948  -6158997.99446  22838976.351    22838976.8554   22838982.2724
       176.0004        178.0004
 21  2  6  2  8  0.0000000  0 10G30G28G21G08G04G01G14G07G09G17
 -10606226.72748  -8242112.09646  22270460.465    22270459.9364   22270466.2444
       185.0004        186.0004
  -1027362.59647   -790644.48845  23603662.538    23603661.8134   23603666.6454
       154.0004        156.0004
 -14306393.08548 -10982602.76146  21955949.534    21955948.9714   21955954.1164
       183.0004        183.0004
  -9501842.24049  -7389698.00247  22927936.207    22927935.7004   22927943.3154
       196.0004        196.0004
  -4907033.91547  -3801818.48845  23645601.549    23645601.8434   23645609.1544
       152.0004        154.0004
 -16210843.07549 -12609172.77747  21105721.970    21105722.6734   21105729.8954
       197.0004        198.0004
  -2108076.43247  -1636021.58746  23199388.460    23199389.7124   23199395.3634
       163.0004        166.0004
 -20823752.35949 -16208525.96447  20804586.779    20804587.3804   20804591.2764
       206.0004        207.0004
 -13850978.87148 -10773971.84147  21898039.487    21898039.7344   21898047.1774
       193.0004        193.0004
  -8397026.67248  -6213562.00446  22825650.769    22825651.8394   22825657.1504
       175.0004        175.0004
 21  2  6  2  8 30.0000000  0 10G30G28G21G08G04G01G14G07G09G17
 -10690200.22648  -8307545.98347  22254480.065    22254480.3064   22254487.1484
       186.0004        188.0004
  -1042474.63147   -802420.08245  23600786.413    23600786.4764   23600790.2644
       154.0004        156.0004
 -14276020.49248 -10958935.80346  21961729.257    21961728.5874   21961733.8794
       182.0004        183.0004
  -9407598.99349  -7316261.71547  22945870.997    22945869.8434   22945877.3494
       196.0004        197.0004
  -4809060.84047  -3725475.87845  23664245.029    23664245.9894   23664252.8764
       151.0004        153.0004
 -16254382.42949 -12643099.52847  21097437.291    21097436.7454   21097444.7154
       197.0004        197.0004
  -2134043.72047  -1656255.83146  23194448.086    23194447.5244   23194452.9644
       163.0004        163.0004
 -20877076.68449 -16250077.39247  20794439.733    20794440.0224   20794444.0104
       206.0004        207.0004
 -13782366.34748 -10720507.54647  21911095.571    21911096.2774   21911103.8004
       191.0004        191.0004
  -8466674.35348  -6267832.92246  22812397.815    22812397.4274   22812402.7604
       174.0004        175.0004
 21  2  6  2  9  0.0000000  0 10G30G28G21G08G04G01G14G07G09G17
 -10774042.02048  -8372877.23247  22238525.185    22238525.9334   22238532.2494
       187.0004        188.0004
  -1057615.57447   -814218.18145  23597904.812    23597904.8534   23597910.4504
       152.0004        154.0004
 -14245156.63948 -10934886.04746  21967603.161    21967602.3614   21967606.6614
       182.0004        182.0004
  -9313300.13249  -7242782.08447  22963813.981    22963813.8514   22963821.8354
       197.0004        197.0004
  -4711110.55447  -3649151.03745  23682886.030    23682885.6834   23682891.5384
       152.0004        154.0004
 -16297461.49949 -12676667.61947  21089238.342    21089239.4714   21089246.4954
       197.0004        197.0004
  -2160041.65347  -1676513.93045  23189498.166    23189499.6794   23189506.7534
       160.0004        160.0004
 -20930053.74349 -16291358.21747  20784358.335    20784359.0104   20784362.5794
       206.0004        207.0004
 -13713499.03948 -10666844.72147  21924199.712    21924200.4474   21924208.2094
       190.0004        190.0004
  -8535945.26148  -6321810.21146  22799215.884    22799216.4044   22799220.9184
       173.0004        173.0004
 21  2  6  2  9 30.0000000  0 10G30G28G21G08G04G01G14G07G09G17
 -10857748.02948  -8438102.70947  22222596.675    22222597.1574   22222603.9314
       188.0004        189.0004
  -1072785.22947   -826038.68245  23595019.130    23595018.8454   23595022.0814
       152.0004        155.0004
 -14213801.09448 -10910453.15846  21973569.274    21973568.7424   21973573.9054
       182.0004        182.0004
  -9218947.29249  -7169260.39947  22981768.630    22981768.4744   22981776.2264
       196.0004        195.0004
  -4613184.13547  -3572844.77545  23701519.788    23701521.2014   23701526.9124
       154.0004        158.0004
 -16340076.03949 -12709873.75247  21081129.635    21081129.8174   21081137.3624
       197.0004        197.0004
  -2186069.59747  -1696795.44145  23184546.911    23184547.1914   23184553.5334
       159.0004        161.0004
 -20982679.48449 -16332365.29847  20774343.686    20774344.0144   20774348.5084
       206.0004        207.0004
 -13644378.36648 -10612984.48647  21937354.014    21937354.0474   21937362.0074
       190.0004        191.0004
  -8604838.04148  -6375492.89846  22786105.627    22786106.6794   22786110.7054
       173.0004        173.0004
 21  2  6  2 10  0.0000000  0 10G30G28G21G08G04G01G14G07G09G17
 -10941315.94248  -8503220.55047  22206694.414    22206694.4224   22206701.2914
       188.0004        188.0004
  -1087985.16647   -837882.79045  23592126.219    23592125.7464   23592130.2304
       153.0004        155.0004
 -14181954.13748 -10885637.33346  21979629.748    21979629.3634   21979634.3554
       182.0004        183.0004
  -9124542.82949  -7095698.48947  22999732.533    22999732.0904   22999741.3564
       195.0004        195.0004
  -4515284.48547  -3496559.38545  23720149.355    23720151.1494   23720156.7814
       156.0004        158.0004
 -16382223.61549 -12742716.01347  21073108.087    21073108.8544   21073116.4914
       196.0004        196.0004
  -2212128.61747  -1717101.20245  23179588.893    23179589.1824   23179592.8094
       159.0004        162.0004
 -21034951.32049 -16373096.59647  20764396.870    20764397.0884   20764401.4894
       207.0004        207.0004
 -13575007.52748 -10558929.30047  21950555.339    21950555.5014   21950562.9344
       192.0004        193.0004
  -8673351.73948  -6428880.17146  22773068.460    22773068.1564   22773072.8414
       173.0004        174.0004
 21  2  6  2 10 30.0000000  0 10G30G28G21G08G04G01G14G07G09G17
 -11024742.97948  -8568228.61547  22190818.570    22190818.3914   22190826.2344
       188.0004        188.0004
  -1103216.73847   -849751.51945  23589227.856    23589227.6234   23589232.1304
       152.0004        155.0004
 -14149615.99848 -10860438.77846  21985783.709    21985782.5894   21985788.6674
       182.0004        182.0004
  -9030088.72748  -7022097.91247  23017705.304    23017706.2704   23017714.7304
       194.0004        195.0004
  -4417414.00347  -3420296.73045  23738774.322    23738774.3504   23738781.9324
       156.0004        158.0004
 -16423901.41049 -12775192.21047  21065177.695    21065178.3724   21065185.7404
       196.0004        196.0004
  -2238219.52447  -1737431.78446  23174623.348    23174624.6974   23174629.5924
       161.0004        163.0004
 -21086866.54949 -16413550.02647  20754517.602    20754518.1104   20754522.1684
       207.0004        207.0004
 -13505389.37948 -10504681.39947  21963804.477    21963804.9404   21963811.2674
       194.0004        197.0004
  -8741484.47548  -6481970.60146  22760103.554    22760103.6354   22760106.9854
       172.0004        172.0004
 21  2  6  2 11  0.0000000  0 10G30G28G21G08G04G01G14G07G09G17
 -11108026.31248  -8633124.72146  22174969.841    22174969.6904   22174976.4014
       187.0004        187.0004
  -1118480.99647   -861645.75145  23586321.992    23586321.8454   23586326.1124
       150.0004        152.0004
 -14116786.18048 -10834857.08746  21992030.437    21992030.4034   21992034.6384
       182.0004        182.0004
  -8935587.50049  -6948460.59147  23035688.012    23035689.0334   23035697.9194
       195.0004        195.0004
  -4319575.05447  -3344058.64945  23757392.837    23757392.9954   23757399.1414
       155.0004        156.0004
 -16465106.49949 -12807300.05247  21057336.853    21057337.0364   21057344.5134
       196.0004        196.0004
  -2264342.76947  -1757787.53946  23169652.160    23169653.2794   23169658.4124
       163.0004        166.0004
 -21138422.11549 -16453723.19447  20744706.629    20744707.2524   20744711.5154
       207.0004        207.0004
 -13435526.50849 -10450242.79947  21977099.521    21977099.4224   21977104.8894
       196.0004        196.0004
  -8809234.69248  -6534762.93946  22747209.769    22747209.5044   22747215.5734
       171.0004        171.0004
 21  2  6  2 11 30.0000000  0 10G30G28G21G08G04G01G14G07G09G17
 -11191164.13148  -8697907.43047  22159149.377    22159150.1284   22159156.7364
       188.0004        189.0004
  -1133779.84247   -873566.94045  23583411.701    23583412.1024   23583414.5164
       147.0004        149.0004
 -14083466.79648 -10808893.91946  21998371.794    21998371.2514   21998374.3614
       182.0004        183.0004
  -8841042.38149  -6874789.08247  23053682.837    23053682.3854   23053688.6954
       195.0004        196.0004
  -4221770.99047  -3267847.72445  23776003.356    23776003.8604   23776011.5214
       153.0004        155.0004
 -16505837.08549 -12839038.15547  21049586.326    21049586.2504   21049593.7414
       195.0004        196.0004
  -2290500.15648  -1778169.88346  23164676.048    23164676.3074   23164680.5174
       166.0004        169.0004
 -21189616.13749 -16493614.66447  20734965.121    20734965.3684   20734969.7284
       207.0004        207.0004
 -13365422.75049 -10395616.47447  21990439.303    21990439.9164   21990445.4874
       197.0004        197.0004
  -8876602.61548  -6587257.42646  22734390.360    22734391.2524   22734394.5864
       171.0004        173.0004
 21  2  6  2 12  0.0000000  0 10G30G28G21G08G04G01G14G07G09G17
 -11274154.75348  -8762575.44247  22143357.112    22143357.1904   22143363.9594
       188.0004        188.0004
  -1149115.62247   -885516.88345  23580493.791    23580493.1084   23580497.9634
       146.0004        150.0004
 -14049658.86648 -10782550.07546  22004805.317    22004804.2424   22004809.5964
       182.0004        183.0004
  -8746456.35849  -6801085.69547  23071679.622    23071680.2184   23071687.9524
       195.0004        195.0004
  -4124005.30647  -3191666.74045  23794607.748    23794608.1654   23794615.2144
       152.0004        153.0004
 -16546091.40449 -12870405.15147  21041925.887    21041926.2644   21041933.9064
       195.0004        195.0004
  -2316693.39248  -1798580.13946  23159693.199    23159693.0574   23159695.1544
       168.0004        170.0004
 -21240446.63649 -16533222.83947  20725292.488    20725292.9804   20725297.0234
       207.0004        208.0004
 -13295081.94049 -10340805.44647  22003824.528    22003825.1854   22003831.1004
       197.0004        197.0004
  -8943588.10448  -6639453.91046  22721644.144    22721644.5044   22721647.6004
       172.0004        172.0004
 21  2  6  2 12 30.0000000  0 10G30G28G21G08G04G01G14G07G09G17
 -11356994.62648  -8827125.99447  22127593.694    22127594.1154   22127600.0904
       188.0004        188.0004
  -1164488.80247   -897495.97945  23577567.562    23577566.8574   23577572.7244
       148.0004        151.0004
 -14015361.65548 -10755824.96246  22011331.223    22011330.4754   22011335.3584
       183.0004        183.0004
  -8651831.19449  -6727351.81047  23089685.645    23089686.3194   23089695.7624
       195.0004        195.0004
  -4026279.64847  -3115516.90945  23813204.009    23813204.7174   23813211.8764
       153.0004        156.0004
 -16585865.99649 -12901398.33047  21034355.965    21034356.9714   21034364.8664
       195.0004        195.0004
  -2342922.34248  -1819018.26246  23154700.195    23154699.9934   23154704.2944
       168.0004        168.0004
 -21290910.11249 -16572545.03147  20715689.727    20715690.2284   20715693.9394
       207.0004        208.0004
 -13224506.18949 -10285811.35247  22017254.305    22017254.5524   22017261.0164
       197.0004        195.0004
  -9010188.92248  -6691350.63046  22708970.918    22708971.0524   22708975.0964
       172.0004        174.0004
 21  2  6  2 13  0.0000000  0 10G30G28G21G08G04G01G14G07G09G17
 -11439680.30048  -8891556.39746  22111858.971    22111859.2454   22111865.7134
       188.0004        187.0004
  -1179899.72147   -909504.48045  23574634.401    23574634.3564   23574638.2354
       145.0004        147.0004
 -13980575.04048 -10728718.51746  22017950.253    22017950.7084   22017954.7144
       183.0004        183.0004
  -8557168.52548  -6653588.70447  23107699.926    23107699.5684   23107709.6014
       194.0004        194.0004
  -3928595.77047  -3039399.64945  23831792.593    23831793.2804   23831800.6834
       155.0004        157.0004
 -16625157.41749 -12932015.01447  21026880.010    21026880.5444   21026887.9204
       195.0004        196.0004
  -2369186.99747  -1839484.22746  23149698.654    23149700.2734   23149706.9104
       163.0004        163.0004
 -21341003.09249 -16611578.53147  20706157.190    20706157.7544   20706161.8114
       208.0004        208.0004
 -13153697.54748 -10230635.78647  22030727.679    22030728.2804   22030735.2014
       194.0004        193.0004
  -9076403.54448  -6742946.42946  22696369.696    22696370.0154   22696374.7794
       173.0004        174.0004
 21  2  6  2 13 30.0000000  0 10G30G28G21G08G04G01G14G07G09G17
 -11522209.24548  -8955864.65447  22096153.756    22096154.0124   22096161.5184
       188.0004        188.0004
  -1195350.11347   -921543.71145  23571695.775    23571694.6554   23571699.6304
       143.0004        147.0004
 -13945300.03848 -10701231.50546  22024664.137    22024663.8594   22024667.9684
       183.0004        183.0004
  -8462470.68948  -6579798.18947  23125720.984    23125720.6294   23125729.3894
       194.0004        194.0004
  -3830956.33547  -2963317.03145  23850374.157    23850374.3274   23850380.4874
       156.0004        157.0004
 -16663963.18949 -12962253.26747  21019494.057    21019495.0764   21019503.7824
       195.0004        196.0004
  -2395488.22947  -1859978.72645  23144694.046    23144695.9514   23144701.2674
       160.0004        161.0004
 -21390722.63249 -16650321.03047  20696695.789    20696696.5064   20696700.5824
       208.0004        209.0004
 -13082659.11048 -10175281.16347  22044245.407    22044245.7714   22044253.8074
       192.0004        192.0004
  -9142230.51248  -6794240.16046  22683842.527    22683843.5754   22683847.1764
       172.0004        171.0004
 21  2  6  2 14  0.0000000  0 10G30G28G21G08G04G01G14G07G09G17
 -11604580.44148  -9020049.99746  22080478.689    22080479.3664   22080486.5924
       187.0004        187.0004
  -1210842.44547   -933615.64245  23568747.841    23568747.5534   23568750.3504
       145.0004        150.0004
 -13909537.81148 -10673364.81546  22031470.036    22031468.6094   22031472.5014
       182.0004        183.0004
  -8367741.80148  -6505983.47447  23143745.532    23143746.6634   23143756.3204
       194.0004        195.0004
  -3733365.44047  -2887272.24545  23868944.504    23868945.8444   23868951.8714
       155.0004        156.0004
 -16702282.37649 -12992112.35647  21012202.620    21012203.9964   21012211.3894
       195.0004        196.0004
  -2421828.58347  -1880503.66546  23139685.367    23139685.3464   23139689.0154
       160.0004        163.0004
 -21440067.76949 -16688771.79347  20687306.066    20687306.5084   20687310.1784
       208.0004        209.0004
 -13011395.44148 -10119751.04347  22057806.804    22057806.9424   22057814.9974
       192.0004        192.0004
  -9207670.75348  -6845232.55946  22671390.703    22671391.2144   22671395.4114
       173.0004        175.0004
 21  2  6  2 14 30.0000000  0 11G30G28G21G08G04G01G14G07G09G22G17
 -11686790.36448  -9084109.66546  22064835.644    22064835.0014   22064841.8554
       187.0004        187.0004
  -1226377.34547   -945720.75145  23565789.967    23565790.5774   23565795.0314
       149.0004        154.0004
 -13873288.48048 -10645118.58946  22038365.764    22038366.2884   22038370.6194
       182.0004        183.0004
  -8272983.03148  -6432145.48047  23161777.915    23161778.6954   23161787.9294
       194.0004        195.0004
  -3635824.74947  -2811266.58245  23887506.246    23887506.5834   23887513.6134
       153.0004        153.0004
 -16740111.59949 -13021589.65747  21005004.977    21005004.9664   21005012.4834
       195.0004        196.0004
  -2448207.95647  -1901058.96546  23134666.606    23134666.0324   23134669.9304
       164.0004        167.0004
 -21489035.07749 -16726928.14747  20677987.996    20677988.5104   20677992.0824
       208.0004        209.0004
 -12939908.64048 -10064047.05247  22071409.524    22071410.7634   22071418.0264
       191.0004        191.0004
  -1860960.92054  -1434136.559 5                                  24578486.710
        74.0004        146.000
  -9272722.33848  -6895922.10246  22659012.491    22659012.5594   22659017.4404
       174.0004        176.0004
 21  2  6  2 15  0.0000000  0 10G30G28G21G08G04G01G14G07G09G17
 -11768836.74948  -9148041.91347  22049222.684    22049222.6074   22049229.5554
       188.0004        190.0004
  -1241956.13847   -957860.08345  23562825.694    23562826.1174   23562830.3504
       150.0004        153.0004
 -13836553.16248 -10616493.65946  22045357.688    22045356.8644   22045361.6984
       182.0004        183.0004
  -8178197.30548  -6358286.47847  23179817.111    23179816.8034   23179824.7374
       194.0004        194.0004
  -3538337.20747  -2735302.32545  23906057.573    23906058.6694   23906064.5294
       150.0004        152.0004
 -16777448.68949 -13050683.49647  20997900.159    20997900.4654   20997908.0724
       196.0004        196.0004
  -2474627.45848  -1921645.58146  23129637.642    23129637.5094   23129642.1244
       165.0004        166.0004
 -21537622.02749 -16764788.11847  20668742.294    20668742.6554   20668746.5154
       208.0004        209.0004
 -12868202.08348 -10008171.82947  22085056.146    22085056.8114   22085063.1394
       191.0004        192.0004
  -9337384.64848  -6946308.29646  22646707.016    22646707.2614   22646711.8644
       175.0004        176.0004
 21  2  6  2 15 30.0000000  0 10G30G28G21G08G04G01G14G07G09G17
 -11850716.85648  -9211844.60546  22033640.744    22033641.1574   22033646.8824
       188.0004        187.0004
  -1257580.26547   -970034.70845  23559853.502    23559853.1374   23559857.3274
       149.0004        152.0004
 -13799332.52948 -10587490.55746  22052440.859    22052439.9734   22052444.7404
       182.0004        182.0004
  -8083386.81548  -6284408.17547  23197858.826    23197858.9954   23197866.6354
       194.0004        194.0004
  -3440905.25247  -2659381.36845  23924596.511    23924598.5134   23924604.1374
       148.0004        150.0004
 -16814291.10649 -13079391.86247  20990888.550    20990889.4244   20990896.9784
       196.0004        196.0004
  -2501087.79947  -1942264.02446  23124600.614    23124601.0264   23124606.4994
       164.0004        166.0004
 -21585825.99249 -16802349.64947  20659569.337    20659569.6104   20659573.4354
       209.0004        210.0004
 -12796278.63848  -9952127.59247  22098743.809    22098743.9484   22098750.0764
       192.0004        193.0004
  -9401656.62248  -6996390.35646  22634476.818    22634476.7144   22634481.3934
       176.0004        177.0004
 21  2  6  2 16  0.0000000  0 10G30G28G21G08G04G01G14G07G09G17
 -11932427.85648  -9275515.51246  22018092.129    22018092.0364   22018098.3964
       187.0004        187.0004
  -1273250.88947   -982245.54945  23556871.991    23556871.1744   23556875.5844
       149.0004        151.0004
 -13761627.17348 -10558109.75546  22059616.225    22059615.2424   22059619.3604
       182.0004        182.0004
  -7988553.66148  -6210512.23547  23215906.099    23215905.3314   23215912.1674
       193.0004        192.0004
  -3343531.12947  -2583505.46545  23943128.042    23943129.6044   23943133.1134
       148.0004        152.0004
 -16850636.20249 -13107712.70347  20983973.272    20983973.7014   20983980.4404
       196.0004        197.0004
  -2527589.54947  -1962914.73646  23119557.693    23119558.0574   23119563.9734
       164.0004        166.0004
 -21633644.21049 -16839610.60247  20650469.541    20650469.9214   20650473.8114
       209.0004        209.0004
 -12724141.12448  -9895916.52547  22112470.847    22112471.0864   22112477.1464
       192.0004        192.0004
  -9465537.19748  -7046167.40546  22622318.842    22622319.7864   22622324.2004
       175.0004        174.0004
 21  2  6  2 16 30.0000000  0 10G30G28G21G08G04G01G14G07G09G17
 -12013968.06248  -9339053.32746  22002575.480    22002575.4894   22002583.0234
       187.0004        187.0004
  -1288970.05847   -994494.25045  23553879.612    23553879.4294   23553883.3534
       148.0004        150.0004
 -13723437.41548 -10528351.49446  22066882.664    22066882.7154   22066886.3664
       182.0004        182.0004
  -7893701.33548  -6136601.33147  23233955.202    23233954.4254   23233961.9504
       192.0004        192.0004
  -3246218.35647  -2507677.34845  23961645.897    23961646.8584   23961653.5404
       148.0004        151.0004
 -16886482.45349 -13135644.83247  20977151.300    20977151.8364   20977159.9964
       197.0004        197.0004
  -2554134.45047  -1983599.04146  23114507.172    23114507.4784   23114512.3074
       163.0004        164.0004
 -21681074.68449 -16876569.41947  20641443.122    20641444.0234   20641448.2074
       208.0004        209.0004
 -12651793.40048  -9839541.68447  22126236.916    22126236.6864   22126244.7254
       191.0004        190.0004
  -9529026.58048  -7095639.63946  22610238.526    22610238.8344   22610243.6154
       175.0004        178.0004
 21  2  6  2 17  0.0000000  0 10G30G28G21G08G04G01G14G07G09G17
 -12095333.72548  -9402455.13447  21987090.942    21987091.4404   21987098.8864
       188.0004        188.0004
  -1304737.82447  -1006780.80145  23550879.024    23550878.2274   23550883.6514
       148.0004        151.0004
 -13684763.51948 -10498215.98046  22074242.111    22074241.6694   22074246.1934
       182.0004        182.0004
  -7798830.63448  -6062676.12747  23252008.487    23252007.5964   23252015.6124
       191.0004        191.0004
  -3148968.28247  -2431898.11845  23980151.819    23980152.2154   23980160.3994
       148.0004        151.0004
 -16921826.39549 -13163185.56447  20970424.540    20970425.8684   20970433.7554
       197.0004        198.0004
  -2580722.21347  -2004316.76045  23109446.299    23109446.5004   23109452.6914
       161.0004        161.0004
 -21728114.15049 -16913223.55747  20632492.863    20632493.0224   20632496.9074
       209.0004        210.0004
 -12579237.43048  -9783004.56847  22140042.442    22140043.8674   22140052.2154
       190.0004        190.0004
  -9592122.71548  -7144805.44146  22598232.217    22598231.8304   22598236.9764
       177.0004        179.0004
 21  2  6  2 17 30.0000000  0 11G30G28G21G08G04G01G14G07G09G19G17
 -12176522.34348  -9465719.00147  21971642.718    21971642.8944   21971648.4884
       189.0004        190.0004
  -1320555.96347  -1019106.62145  23547868.790    23547868.0274   23547874.0214
       148.0004        151.0004
 -13645606.27848 -10467703.83846  22081693.489    22081693.2434   22081698.0404
       182.0004        182.0004
  -7703944.40448  -5988738.79847  23270061.510    23270062.5454   23270072.1084
       191.0004        191.0004
  -3051783.64947  -2356169.91345  23998645.907    23998646.1254   23998652.5974
       147.0004        149.0004
 -16956665.78149 -13190333.12947  20963795.420    20963796.1014   20963803.5974
       197.0004        198.0004
  -2607353.75247  -2025068.60045  23104378.793    23104379.4294   23104384.5854
       160.0004        161.0004
 -21774759.80549 -16949570.82747  20623616.150    20623616.7444   20623620.6714
       209.0004        210.0004
 -12506476.34048  -9726307.62947  22153890.321    22153890.7804   22153897.8834
       190.0004        191.0004
   -397031.10256   -284177.54645  24849081.953                    24849085.4714
       130.0004        153.0004
  -9654824.89648  -7193664.26346  22586299.148    22586299.9394   22586304.9244
       176.0004        176.0004
 21  2  6  2 18  0.0000000  0 11G30G28G21G08G04G01G14G07G09G19G17
 -12257530.39848  -9528842.16947  21956227.684    21956227.7434   21956234.2484
       190.0004        192.0004
  -1336424.54647  -1031471.74745  23544848.885    23544848.9714   23544853.2374
       149.0004        153.0004
 -13605965.93548 -10436815.25646  22089237.140    22089235.9264   22089241.3944
       182.0004        182.0004
  -7609044.17348  -5914790.57947  23288119.613    23288121.0564   23288131.0774
       190.0004        190.0004
  -2954666.05647  -2280493.92545  24017126.986    24017127.8424   24017132.7884
       146.0004        149.0004
 -16990997.37849 -13217085.01547  20957262.768    20957263.3794   20957270.4234
       198.0004        198.0004
  -2634028.97347  -2045854.48546  23099303.062    23099303.9374   23099308.3204
       161.0004        164.0004
 -21821008.03249 -16985608.41247  20614814.939    20614815.5304   20614819.9624
       209.0004        210.0004
 -12433512.24248  -9669452.48447  22167774.732    22167775.2004   22167782.1154
       189.0004        190.0004
   -488440.30147   -355405.35145  24831686.586    24831685.9044   24831691.8134
       146.0004        152.0004
  -9717130.94648  -7242214.42946  22574443.656    22574444.1834   22574448.1404
       177.0004        178.0004
 21  2  6  2 18 30.0000000  0 11G30G28G21G08G04G01G14G07G09G19G17
 -12338358.18048  -9591824.85847  21940846.195    21940846.1744   21940853.1704
       191.0004        191.0004
  -1352347.91947  -1043879.54445  23541818.789    23541818.5114   23541822.6774
       151.0004        155.0004
 -13565846.33048 -10405553.22546  22096871.015    22096870.9334   22096875.1394
       181.0004        181.0004
  -7514134.86048  -5840835.27347  23306181.205    23306182.2494   23306191.6384
       189.0004        189.0004
  -2857620.93647  -2204874.37645  24035593.796    24035594.8254   24035600.6024
       144.0004        147.0004
 -17024821.77549 -13243441.68047  20950826.448    20950827.2684   20950834.3834
       198.0004        198.0004
  -2660751.55847  -2066677.27846  23094218.465    23094218.7694   23094224.1694
       163.0004        165.0004
 -21866859.27649 -17021336.66547  20606089.935    20606090.3824   20606094.6144
       209.0004        209.0004
 -12360351.09048  -9612443.80547  22181697.542    22181697.9084   22181704.0534
       189.0004        190.0004
   -579645.25047   -426474.05245  24814330.216    24814330.2194   24814334.9374
       148.0004        151.0004
  -9779043.48348  -7290457.94546  22562661.147    22562661.2804   22562667.2394
       177.0004        178.0004
 21  2  6  2 19  0.0000000  0 11G30G28G21G08G04G01G14G07G09G19G17
 -12419001.49148  -9654663.78847  21925499.407    21925499.9164   21925507.3184
       190.0004        190.0004
  -1368325.61847  -1056329.70945  23538778.458    23538779.3744   23538782.7564
       153.0004        156.0004
 -13525246.21148 -10373916.76346  22104597.338    22104597.4664   22104601.3824
       181.0004        181.0004
  -7419217.09648  -5766873.38546  23324242.923    23324244.4844   23324253.6494
       188.0004        187.0004
  -2760649.17947  -2129312.01145  24054047.923    24054048.2184   24054054.0634
       144.0004        148.0004
 -17058135.12349 -13269400.13047  20944486.433    20944487.7794   20944495.2834
       198.0004        199.0004
  -2687520.75047  -2087536.37446  23089123.692    23089125.2234   23089129.6054
       164.0004        166.0004
 -21912309.36949 -17056752.32247  20597441.825    20597442.1294   20597445.9384
       209.0004        210.0004
 -12286994.34548  -9555282.70347  22195656.241    22195656.5914   22195663.3014
       188.0004        188.0004
   -670643.02747   -497381.29445  24797013.475    24797011.3254   24797017.7984
       144.0004        147.0004
  -9840560.20248  -7338393.03346  22550954.803    22550955.1634   22550961.3294
       178.0004        178.0004
 21  2  6  2 19 30.0000000  0 11G30G28G21G08G04G01G14G07G09G19G17
 -12499457.07748  -9717356.46347  21910190.012    21910189.7914   21910196.2084
       190.0004        191.0004
  -1384358.01447  -1068822.47045  23535728.112    23535726.6244   23535732.3154
       152.0004        154.0004
 -13484165.49148 -10341905.80146  22112415.303    22112414.1364   22112419.1494
       181.0004        181.0004
  -7324293.07148  -5692906.64246  23342309.794    23342309.5454   23342317.0024
       187.0004        187.0004
  -2663752.72847  -2053808.31645  24072486.999    24072485.6704   24072492.4684
       144.0004        147.0004
 -17090934.51649 -13294958.08947  20938246.437    20938246.6704   20938253.6194
       199.0004        199.0004
  -2714336.74047  -2108431.93246  23084021.448    23084021.4494   23084027.1944
       163.0004        163.0004
 -21957355.29749 -17091853.05047  20588869.456    20588869.5764   20588874.0414
       209.0004        210.0004
 -12213444.48348  -9497971.11647  22209653.000    22209653.2274   22209659.9104
       189.0004        190.0004
   -761431.36547   -568125.29545  24779736.241    24779736.0644   24779743.7074
       143.0004        147.0004
  -9901679.65448  -7386018.56446  22539325.696    22539325.8794   22539330.2374
       179.0004        181.0004
 21  2  6  2 20  0.0000000  0 11G30G28G21G08G04G01G14G07G09G19G17
 -12579723.03548  -9779901.36047  21894915.521    21894915.7154   21894923.0254
       191.0004        193.0004
  -1400447.74847  -1081359.91445  23532665.489    23532665.8694   23532669.8354
       149.0004        151.0004
 -13442606.43048 -10309522.12246  22120322.642    22120322.5584   22120327.2894
       180.0004        181.0004
  -7229365.50548  -5618937.12847  23360376.820    23360374.6524   23360382.1254
       188.0004        189.0004
  -2566934.80247  -1978365.83345  24090911.659    24090910.6654   24090917.0644
       144.0004        149.0004
 -17123218.44849 -13320114.39847  20932102.623    20932102.8154   20932110.0344
       199.0004        200.0004
  -2741200.89347  -2129365.03446  23078909.792    23078910.0464   23078914.0474
       164.0004        165.0004
 -22001995.30049 -17126637.48047  20580375.031    20580375.0884   20580379.1104
       209.0004        210.0004
 -12139705.16248  -9440511.91147  22223683.931    22223684.6214   22223692.1344
       189.0004        190.0004
   -852009.19747   -638705.38245  24762500.390    24762500.2774   24762504.2644
       141.0004        145.0004
  -9962401.91148  -7433334.60946  22527769.560    22527770.1944   22527775.1164
       181.0004        181.0004
 21  2  6  2 20 30.0000000  0 11G30G28G21G08G04G01G14G07G09G19G17
 -12659796.15948  -9842296.00047  21879678.514    21879678.9314   21879686.0354
       193.0004        194.0004
  -1416595.26847  -1093942.41745  23529593.017    23529592.4494   23529597.3214
       147.0004        150.0004
 -13400568.71648 -10276765.45046  22128322.008    22128322.2894   22128326.4604
       180.0004        181.0004
  -7134435.89748  -5544966.03247  23378441.576    23378439.6944   23378445.6474
       188.0004        189.0004
  -2470197.25947  -1902985.97045  24109317.579    24109319.6024   24109324.9204
       145.0004        149.0004
 -17154984.12249 -13344866.86747  20926057.258    20926057.7934   20926065.2314
       199.0004        199.0004
  -2768113.42147  -2150335.83346  23073788.169    23073787.6614   23073792.7474
       164.0004        165.0004
 -22046225.83249 -17161102.83147  20571957.767    20571958.3364   20571962.0754
       209.0004        209.0004
 -12065778.90648  -9382907.03047  22237752.615    22237752.2944   22237759.6414
       189.0004        189.0004
   -942374.42547   -709119.75345  24745304.136    24745303.9764   24745308.9124
       143.0004        146.0004
 -10022725.22448  -7480339.78646  22516290.512    22516290.7914   22516295.4564
       180.0004        180.0004
 21  2  6  2 21  0.0000000  0 11G30G28G21G08G04G01G14G07G09G19G17
 -12739672.93148  -9904537.64247  21864478.863    21864479.0234   21864486.1584
       194.0004        194.0004
  -1432801.03947  -1106570.25645  23526510.214    23526509.5624   23526513.5064
       148.0004        152.0004
 -13358052.71448 -10243636.09846  22136412.519    22136412.5694   22136417.3184
       180.0004        180.0004
  -7039506.17748  -5470994.83147  23396502.400    23396503.1694   23396509.4184
       189.0004        189.0004
  -2373541.82147  -1827670.09345  24127710.788    24127712.1464   24127719.0454
       147.0004        150.0004
 -17186228.49649 -13369213.12447  20920111.921    20920112.5664   20920119.6054
       200.0004        200.0004
  -2795074.37447  -2171344.34246  23068655.838    23068656.8914   23068662.6654
       163.0004        165.0004
 -22090044.18549 -17195247.01147  20563620.170    20563620.1784   20563623.8234
       209.0004        210.0004
 -11991667.86148  -9325158.17347  22251854.903    22251855.3044   22251862.4644
       189.0004        189.0004
  -1032524.93847   -779366.81545  24728150.347    24728149.7144   24728152.4904
       141.0004        145.0004
 -10082648.65048  -7527033.34946  22504888.299    22504888.8574   22504892.2054
       181.0004        182.0004
 21  2  6  2 21 30.0000000  0 11G30G28G21G08G04G01G14G07G09G19G17
 -12819350.46048  -9966624.02647  21849316.488    21849316.5584   21849323.0124
       193.0004        193.0004
  -1449066.03647  -1119244.25545  23523413.547    23523413.9854   23523419.4884
       148.0004        151.0004
 -13315058.92048 -10210134.43046  22144594.412    22144593.6514   22144598.4814
       179.0004        179.0004
  -6944577.86848  -5397024.72246  23414567.199    23414566.3914   23414573.8424
       187.0004        187.0004
  -2276970.59147  -1752419.84745  24146090.681    24146089.1824   24146095.2294
       147.0004        151.0004
 -17216949.07649 -13393151.23647  20914266.324    20914266.4284   20914273.8044
       200.0004        200.0004
  -2822084.03648  -2192390.81146  23063517.701    23063518.7814   23063523.1354
       165.0004        166.0004
 -22133447.09349 -17229067.47047  20555359.997    20555360.7254   20555364.5824
       209.0004        210.0004
 -11917374.77948  -9267267.46347  22265992.285    22265993.1954   22265999.8224
       188.0004        189.0004
  -1122458.61847   -849444.94145  24711038.036    24711037.1934   24711038.8344
       142.0004        146.0004
 -10142170.95548  -7573414.34846  22493561.220    22493561.7524   22493564.8504
       181.0004        182.0004
 21  2  6  2 22  0.0000000  0 11G30G28G21G08G04G01G14G07G09G19G17
 -12898827.18748 -10028553.95947  21834191.701    21834192.7044   21834198.4484
       192.0004        193.0004
  -1465391.82347  -1131965.63145  23520307.965    23520307.9064   23520311.2684
       148.0004        151.0004
 -13271589.37948 -10176262.05846  22152866.640    22152866.3264   22152870.3834
       179.0004        180.0004
  -6849654.46548  -5323058.46246  23432629.378    23432629.5504   23432638.2324
       187.0004        187.0004
  -2180487.17447  -1677238.01045  24164448.986    24164449.1434   24164455.1964
       147.0004        150.0004
 -17247144.87849 -13416680.42247  20908519.348    20908520.3394   20908527.8034
       200.0004        200.0004
  -2849144.33447  -2213476.74546  23058368.548    23058368.7314   23058373.8264
       164.0004        164.0004
 -22176432.82949 -17262562.84847  20547180.315    20547180.7314   20547184.8014
       210.0004        211.0004
 -11842903.84948  -9209238.16347  22280164.163    22280164.6684   22280172.2174
       188.0004        189.0004
  -1212174.43047   -919353.25545  24693963.852    24693963.3634   24693966.1624
       142.0004        146.0004
 -10201292.55748  -7619483.12646  22482310.834    22482310.6284   22482316.1624
       182.0004        182.0004
 21  2  6  2 22 30.0000000  0 11G30G28G21G08G04G01G14G07G09G19G17
 -12978100.43148 -10090325.31347  21819107.048    21819107.0734   21819114.0354
       193.0004        194.0004
  -1481780.33047  -1144735.90745  23517188.784    23517189.2364   23517193.3734
       148.0004        152.0004
 -13227644.64948 -10142019.40846  22161228.077    22161228.0744   22161233.2634
       179.0004        180.0004
  -6754738.28948  -5249097.82646  23450692.506    23450691.9124   23450699.2184
       185.0004        185.0004
  -2084093.94847  -1602126.48245  24182791.720    24182791.9734   24182797.6994
       147.0004        150.0004
 -17276813.65449 -13439798.94347  20902873.602    20902874.4974   20902882.0754
       200.0004        200.0004
  -2876255.94048  -2234602.66446  23053207.207    23053209.4174   23053214.9134
       165.0004        167.0004
 -22218999.20249 -17295731.45747  20539080.396    20539080.6174   20539084.5304
       210.0004        210.0004
 -11768258.00848  -9151072.57746  22294369.014    22294368.8634   22294375.7144
       187.0004        187.0004
  -1301671.76547   -989091.34945  24676933.650    24676931.9874   24676935.4114
       141.0004        144.0004
 -10260012.91548  -7665239.23946  22471137.300    22471137.1624   22471141.4004
       182.0004        181.0004
 21  2  6  2 23  0.0000000  0 11G30G28G21G08G04G01G14G07G09G19G17
 -13057166.29048 -10151935.07147  21804061.164    21804061.6964   21804068.3884
       194.0004        195.0004
  -1498231.35547  -1157554.87945  23514058.353    23514058.6274   23514062.9824
       150.0004        153.0004
 -13183224.74648 -10107406.49746  22169680.774    22169680.6034   22169685.0634
       179.0004        179.0004
  -6659830.25248  -5175143.52646  23468752.013    23468751.6694   23468760.4924
       185.0004        185.0004
  -1987792.16347  -1527086.17245  24201116.686    24201118.4434   24201123.1554
       146.0004        149.0004
 -17305952.10749 -13462504.22647  20897328.901    20897329.3804   20897337.1064
       200.0004        200.0004
  -2903418.34848  -2255768.16446  23048040.666    23048040.8154   23048045.4554
       166.0004        168.0004
 -22261142.88049 -17328570.69347  20531060.965    20531061.1804   20531065.0084
       210.0004        211.0004
 -11693439.13248  -9092772.15046  22308605.463    22308605.6724   22308612.4384
       185.0004        184.0004
  -1390947.41147  -1058656.68145  24659942.282    24659941.3594   24659947.7824
       140.0004        144.0004
 -10318329.66748  -7710680.86246  22460038.522    22460039.5034   22460043.7934
       181.0004        181.0004
 21  2  6  2 23 30.0000000  0 11G30G28G21G08G04G01G14G07G09G19G17
 -13136022.48949 -10213381.46147  21789055.528    21789055.3524   21789062.4104
       195.0004        196.0004
  -1514746.67447  -1170423.96845  23510914.113    23510914.1934   23510918.7744
       147.0004        148.0004
 -13138331.39648 -10072424.65546  22178224.272    22178223.7694   22178228.1274
       179.0004        179.0004
  -6564933.28048  -5101197.85246  23486808.098    23486808.8204   23486818.4104
       184.0004        183.0004
  -1891584.57247  -1452119.29145  24219425.846    24219426.5774   24219431.0144
       148.0004        152.0004
 -17334558.46749 -13484794.89347  20891885.105    20891885.6124   20891893.4654
       200.0004        199.0004
  -2930632.64848  -2276974.09846  23042860.956    23042861.9434   23042867.5634
       166.0004        168.0004
 -22302861.56149 -17361078.76147  20523122.267    20523122.1254   20523125.9664
       210.0004        211.0004
 -11618450.50348  -9034339.45346  22322875.750    22322876.2024   22322882.9594
       184.0004        185.0004
  -1480000.43047  -1128048.60345  24642995.999    24642994.6634   24642999.8574
       137.0004        141.0004
 -10376243.43748  -7755808.47246  22449017.825    22449018.8554   22449022.6604
       180.0004        181.0004
 21  2  6  2 24  0.0000000  0 11G30G28G21G08G04G01G14G07G09G19G17
 -13214666.62449 -10274662.60347  21774090.228    21774089.9994   21774097.5814
       195.0004        196.0004
  -1531327.78647  -1183344.31045  23507760.490    23507760.0514   23507764.8824
       146.0004        151.0004
 -13092965.18448 -10037074.36246  22186857.018    22186857.2644   22186862.1554
       179.0004        180.0004
  -6470049.45048  -5027262.38246  23504864.501    23504865.9894   23504874.5144
       186.0004        187.0004
  -1795473.94347  -1377227.94145  24237714.568    24237715.4314   24237720.6564
       149.0004        151.0004
 -17362631.02049 -13506669.60247  20886543.717    20886544.2374   20886551.2944
       200.0004        200.0004
  -2957899.79248  -2298221.21246  23037672.236    23037672.3074   23037678.0574
       166.0004        166.0004
 -22344152.83249 -17393253.78747  20515264.560    20515264.4894   20515268.7524
       210.0004        210.0004
 -11543295.51348  -8975777.12446  22337176.631    22337177.5174   22337184.8534
       184.0004        184.0004
  -1568829.31047  -1197265.83845  24626093.718    24626093.1694   24626095.6204
       136.0004        140.0004
 -10433753.56548  -7800621.54146  22438075.422    22438074.8394   22438079.3004
       181.0004        182.0004
