     2.11           OBSERVATION DATA    G (GPS)             RINEX VERSION / TYPE
teqc  2018Jun8                          20210202 03:10:40UTCPGM / RUN BY / DATE
Linux2.6.32-573.12.1.el6.x86_64|x86_64|gcc|Win64-MinGW64|=+ COMMENT
BIT 2 OF LLI FLAGS DATA COLLECTED UNDER A/S CONDITION       COMMENT
-Unknown-                                                   MARKER NAME
CRNO                                                        MARKER NUMBER
-Unknown-           -Unknown-                               OBSERVER / AGENCY
-Unknown-           ASHTECH             -Unknown-           REC # / TYPE / VERS
-Unknown-           -Unknown-                               ANT # / TYPE
   408078.9651 -6158371.1334  1605162.4106                  APPROX POSITION XYZ
        0.0000        0.0000        0.0000                  ANTENNA: DELTA H/E/N
     1     1                                                WAVELENGTH FACT L1/2
     7    L1    L2    C1    P1    P2    S1    S2            # / TYPES OF OBSERV
    30.0000                                                 INTERVAL
Forced Modulo Decimation to 30 seconds                      COMMENT
 SNR is mapped to RINEX snr flag value [1-9]                COMMENT
  L1: 1 -> 1;  90 -> 5; 210 -> 9                            COMMENT
  L2: 1 -> 1; 150 -> 5; 250 -> 9                            COMMENT
pseudorange smoothing corrections not applied               COMMENT
  2021     2     2     0     0   30.0000000     GPS         TIME OF FIRST OBS
                                                            END OF HEADER
 21  2  2  0  0 30.0000000  0  8G08G27G09G07G03G21G01G04
 -22641323.85249 -17614524.03747  20427246.088    20427246.6764   20427254.3644
       209.0004        209.0004
 -11756504.47849  -9140214.26647  22700784.127    22700785.6954   22700792.2684
       201.0004        201.0004
 -19199856.16049 -14930264.54448  20791539.135    20791539.7064   20791546.5704
       213.0004        213.0004
 -11533054.73448  -8974069.04046  23095841.065    23095840.8524   23095845.3754
       172.0004        174.0004
   1589169.88848   1272021.78946  24749211.941    24749212.9874   24749220.9294
       167.0004        166.0004
 -12777392.13848  -9945434.30046  22257095.140    22257094.3564   22257096.3224
       166.0004        170.0004
  -8473247.35747  -6579221.34545  23357271.253    23357270.7464   23357281.0284
       151.0004        154.0004
 -19385255.78249 -15088237.29747  20847539.116    20847539.5334   20847545.7744
       201.0004        199.0004
 21  2  2  0  1  0.0000000  0  8G08G27G09G07G03G21G01G04
 -22599477.52749 -17581916.50047  20435209.199    20435209.6494   20435217.3404
       209.0004        209.0004
 -11659961.22249  -9064985.74447  22719157.636    22719157.9824   22719163.5784
       201.0004        202.0004
 -19210101.39349 -14938247.83848  20789589.954    20789590.2404   20789597.0354
       213.0004        213.0004
 -11607186.55648  -9031834.08646  23081733.019    23081734.5184   23081737.8674
       172.0004        172.0004
   1634255.23348   1307153.18546  24757791.860    24757792.3074   24757801.0884
       165.0004        166.0004
 -12818974.84348  -9977836.42346  22249181.552    22249180.4924   22249184.2334
       169.0004        170.0004
  -8549862.55447  -6638921.44345  23342692.716    23342693.4194   23342700.5904
       152.0004        156.0004
 -19326145.06249 -15042176.99847  20858787.469    20858788.0454   20858794.4994
       201.0004        199.0004
 21  2  2  0  1 30.0000000  0  8G08G27G09G07G03G21G01G04
 -22557102.51249 -17548896.98547  20443272.892    20443273.2824   20443280.7394
       208.0004        209.0004
 -11563153.36449  -8989551.04447  22737579.062    22737579.6464   22737585.7674
       202.0004        202.0004
 -19219776.87049 -14945787.15648  20787748.117    20787748.7734   20787755.4864
       213.0004        213.0004
 -11681385.72548  -9089651.61146  23067613.620    23067614.6134   23067619.0824
       173.0004        174.0004
   1679069.85448   1342073.64046  24766320.692    24766321.0304   24766330.3794
       166.0004        169.0004
 -12860315.25348 -10010049.70646  22241312.930    22241311.3364   22241317.0974
       168.0004        167.0004
  -8626553.89447  -6698680.89445  23328098.008    23328098.5484   23328106.2714
       152.0004        154.0004
 -19266572.71549 -14995756.98247  20870123.746    20870124.3944   20870130.1224
       201.0004        200.0004
 21  2  2  0  2  0.0000000  0  8G08G27G09G07G03G21G01G04
 -22514200.87649 -17515467.13347  20451437.461    20451437.5054   20451444.7224
       209.0004        209.0004
 -11466083.83049  -8913912.45747  22756051.125    22756051.0704   22756057.2834
       201.0004        200.0004
 -19228882.40849 -14952882.38648  20786016.176    20786016.3854   20786022.8814
       213.0004        213.0004
 -11755650.13948  -9147519.97646  23053482.612    23053483.1614   23053487.2524
       175.0004        177.0004
   1723612.51048   1376782.18446  24774795.192    24774796.2804   24774806.9404
       167.0004        169.0004
 -12901410.24747 -10042071.71745  22233489.179    22233489.5264   22233497.5204
       164.0004        162.0004
  -8703318.60847  -6758497.51045  23313490.125    23313490.6804   23313499.8004
       152.0004        154.0004
 -19206540.85849 -14948978.92147  20881547.332    20881548.0864   20881553.6184
       200.0004        199.0004
 21  2  2  0  2 30.0000000  0  8G08G27G09G07G03G21G01G04
 -22470774.11049 -17481628.07947  20459700.549    20459701.2704   20459708.8004
       208.0004        209.0004
 -11368755.48749  -8838072.20247  22774571.166    22774571.9594   22774578.1304
       200.0004        199.0004
 -19237417.77749 -14959533.32948  20784390.914    20784391.7134   20784398.6824
       212.0004        213.0004
 -11829978.12948  -9205437.90846  23039338.688    23039338.8494   23039343.6364
       176.0004        177.0004
   1767882.01148   1411277.85646  24783220.809    24783221.3234   24783230.6764
       169.0004        172.0004
 -12942257.32447 -10073900.58946  22225717.627    22225717.9984   22225723.4864
       162.0004        165.0004
  -8780153.72247  -6818368.98645  23298870.172    23298869.3904   23298877.9554
       152.0004        155.0004
 -19146051.54349 -14901844.39547  20893058.076    20893058.6194   20893064.3814
       200.0004        199.0004
 21  2  2  0  3  0.0000000  0  8G08G27G09G07G03G21G01G04
 -22426825.55449 -17447382.43547  20468063.929    20468064.1384   20468071.7524
       208.0004        209.0004
 -11271172.44749  -8762033.45747  22793140.027    22793140.7854   22793147.4274
       199.0004        199.0004
 -19245384.06949 -14965740.82348  20782875.528    20782876.1764   20782882.5564
       212.0004        213.0004
 -11904369.12548  -9263404.89246  23025182.597    23025183.1544   23025186.7134
       176.0004        177.0004
   1811876.15148   1445558.94746  24791592.742    24791593.0484   24791601.9634
       169.0004        169.0004
 -12982854.60148 -10105534.78746  22217993.585    22217993.8334   22217999.3874
       165.0004        168.0004
  -8857057.60947  -6878294.05845  23284235.240    23284234.9874   23284243.7244
       152.0004        155.0004
 -19085108.15249 -14854356.03047  20904655.007    20904655.7724   20904662.1904
       200.0004        199.0004
 21  2  2  0  3 30.0000000  0  7G08G27G09G07G21G01G04
 -22382350.11049 -17412726.22147  20476527.499    20476527.7354   20476535.0504
       208.0004        209.0004
 -11173330.24049  -8685792.77347  22811759.295    22811760.1444   22811766.1174
       200.0004        201.0004
 -19252773.71049 -14971498.97648  20781469.930    20781469.8834   20781476.4224
       213.0004        213.0004
 -11978814.07048  -9321413.93446  23011016.505    23011016.3004   23011020.3444
       177.0004        178.0004
 -13023191.74348 -10136966.32146  22210318.600    22210318.5974   22210323.3414
       168.0004        170.0004
  -8934019.96947  -6938264.68945  23269589.345    23269589.5244   23269597.4454
       153.0004        155.0004
 -19023705.38949 -14806509.72647  20916339.805    20916340.1624   20916346.6354
       200.0004        199.0004
 21  2  2  0  4  0.0000000  0  7G08G27G09G07G21G01G04
 -22337358.76249 -17377668.01047  20485089.069    20485089.2244   20485096.5164
       208.0004        208.0004
 -11075241.32049  -8609359.83547  22830424.964    22830425.7754   22830431.4074
       200.0004        199.0004
 -19259596.19449 -14976815.19448  20780170.898    20780171.6394   20780178.2904
       213.0004        214.0004
 -12053320.84348  -9379471.14646  22996837.374    22996838.4324   22996842.3984
       178.0004        180.0004
 -13063275.62748 -10168200.50946  22202691.334    22202690.1194   22202694.0714
       169.0004        171.0004
  -9011047.50047  -6998286.07445  23254930.777    23254931.7824   23254939.5854
       152.0004        155.0004
 -18961854.99249 -14758314.60947  20928109.913    20928110.2764   20928115.7824
       200.0004        198.0004
 21  2  2  0  4 30.0000000  0  7G08G27G09G07G21G01G04
 -22291852.91649 -17342208.90047  20493748.709    20493748.9964   20493756.2374
       208.0004        209.0004
 -10976907.77849  -8532736.30847  22849138.401    22849138.4454   22849144.0804
       200.0004        201.0004
 -19265850.70949 -14981688.83948  20778981.091    20778981.3254   20778988.2524
       213.0004        214.0004
 -12127886.87148  -9437574.54246  22982647.734    22982648.1664   22982652.7514
       178.0004        178.0004
 -13103102.94048 -10199234.77346  22195111.023    22195111.0544   22195115.2774
       169.0004        170.0004
  -9088136.60347  -7058355.47045  23240260.719    23240262.2464   23240270.2954
       153.0004        156.0004
 -18899558.39849 -14709771.81847  20939964.324    20939964.8844   20939971.0444
       200.0004        199.0004
 21  2  2  0  5  0.0000000  0  7G08G27G09G07G21G01G04
 -22245833.32949 -17306349.47147  20502505.535    20502505.9024   20502513.4094
       208.0004        208.0004
 -10878331.14349  -8455923.33847  22867897.467    22867897.1554   22867902.5664
       201.0004        200.0004
 -19271535.75449 -14986118.74448  20777899.725    20777899.9304   20777906.2304
       214.0004        214.0004
 -12202508.43348  -9495721.21946  22968447.951    22968448.3864   22968453.0824
       177.0004        177.0004
 -13142669.48748 -10230065.80546  22187581.900    22187582.1194   22187586.9284
       169.0004        170.0004
  -9165282.83847  -7118469.37745  23225580.306    23225581.3844   23225590.9284
       155.0004        157.0004
 -18836816.35949 -14660881.91947  20951903.627    20951904.2884   20951910.6084
       200.0004        199.0004
 21  2  2  0  5 30.0000000  0  7G08G27G09G07G21G01G04
 -22199302.05349 -17270091.32547  20511360.050    20511360.7624   20511367.8854
       208.0004        208.0004
 -10779514.84349  -8378923.63147  22886701.175    22886700.9714   22886707.2854
       201.0004        201.0004
 -19276651.89249 -14990105.34848  20776925.582    20776925.9674   20776932.5724
       213.0004        213.0004
 -12277184.81248  -9553910.60746  22954237.434    22954237.7304   22954242.6114
       178.0004        179.0004
 -13181973.03048 -10260691.91846  22180102.343    22180101.7004   22180106.9524
       168.0004        168.0004
  -9242483.97647  -7178626.05745  23210889.137    23210890.3194   23210900.1174
       156.0004        159.0004
 -18773631.70449 -14611647.12647  20963927.598    20963928.1834   20963933.8444
       200.0004        198.0004
 21  2  2  0  6  0.0000000  0  7G08G27G09G07G21G01G04
 -22152261.98649 -17233436.70347  20520311.437    20520312.2704   20520319.1034
       208.0004        208.0004
 -10680461.88749  -8301739.49747  22905548.833    22905549.4854   22905556.6444
       200.0004        200.0004
 -19281199.22049 -14993648.70648  20776059.704    20776060.3984   20776067.2024
       213.0004        213.0004
 -12351913.84948  -9612141.00746  22940017.623    22940018.0214   22940021.2624
       179.0004        180.0004
 -13221010.63048 -10291110.79646  22172673.245    22172673.5054   22172678.1114
       167.0004        167.0004
  -9319737.08147  -7238823.26245  23196190.659    23196190.8474   23196198.5954
       158.0004        160.0004
 -18710006.71849 -14562069.21147  20976035.096    20976035.6754   20976041.0144
       200.0004        199.0004
 21  2  2  0  6 30.0000000  0  7G08G27G09G07G21G01G04
 -22104715.09949 -17196387.16847  20529359.850    20529360.3104   20529367.4184
       208.0004        209.0004
 -10581175.21649  -8224373.26047  22924441.362    22924442.6144   22924449.4254
       199.0004        198.0004
 -19285177.88349 -14996748.96148  20775303.365    20775303.7454   20775309.9584
       213.0004        214.0004
 -12426693.81248  -9670411.10746  22925787.816    22925787.9414   22925791.6424
       180.0004        181.0004
 -13259780.13748 -10321320.76946  22165294.862    22165295.6954   22165301.5944
       167.0004        168.0004
  -9397039.39347  -7299058.81445  23181479.220    23181480.0914   23181487.4164
       157.0004        159.0004
 -18645943.74849 -14512150.01347  20988225.978    20988226.3744   20988232.3984
       200.0004        199.0004
 21  2  2  0  7  0.0000000  0  7G08G27G09G07G21G01G04
 -22056662.81749 -17158943.81347  20538503.391    20538503.8194   20538511.4944
       208.0004        208.0004
 -10481657.58849  -8146827.05647  22943380.153    22943380.4354   22943386.9044
       198.0004        198.0004
 -19288587.75249 -14999405.99348  20774654.816    20774654.7994   20774661.2884
       214.0004        214.0004
 -12501522.93648  -9728719.50946  22911547.092    22911548.1304   22911552.4104
       180.0004        181.0004
 -13298278.39648 -10351319.36246  22157970.281    22157969.7784   22157975.4964
       167.0004        170.0004
  -9474387.75647  -7359330.23945  23166761.761    23166761.3554   23166769.9554
       159.0004        162.0004
 -18581444.84749 -14461891.12947  21000499.635    21000499.8434   21000505.6294
       199.0004        198.0004
 21  2  2  0  7 30.0000000  0  7G08G27G09G07G21G01G04
 -22008107.24049 -17121108.28847  20547743.054    20547743.7004   20547751.1664
       207.0004        207.0004
 -10381911.46849  -8069102.80347  22962362.029    22962361.8774   22962368.0814
       198.0004        198.0004
 -19291428.51749 -15001619.57548  20774113.713    20774114.1044   20774121.1114
       214.0004        214.0004
 -12576399.04648  -9787064.52346  22897298.988    22897300.0784   22897303.3414
       180.0004        181.0004
 -13336502.19248 -10381104.09446  22150696.426    22150695.8264   22150701.3494
       168.0004        169.0004
  -9551778.81547  -7419634.93945  23152033.600    23152034.2604   23152042.3114
       160.0004        162.0004
 -18516511.95549 -14411294.06947  21012856.036    21012856.2874   21012862.1094
       199.0004        198.0004
 21  2  2  0  8  0.0000000  0  7G08G27G09G07G21G01G04
 -21959051.51949 -17082883.04747  20557078.567    20557078.7934   20557086.3914
       207.0004        208.0004
 -10281940.76149  -7991203.56047  22981386.270    22981386.0714   22981392.2734
       198.0004        199.0004
 -19293701.29449 -15003390.56748  20773681.056    20773681.5934   20773688.4574
       214.0004        215.0004
 -12651321.00548  -9845445.27246  22883041.729    22883042.2634   22883046.1334
       180.0004        181.0004
 -13374449.86448 -10410673.69046  22143475.936    22143475.3184   22143480.8284
       170.0004        171.0004
  -9629210.53547  -7479971.31746  23137298.731    23137299.0794   23137308.0844
       161.0004        163.0004
 -18451148.28149 -14360361.34847  21025293.970    21025294.6274   21025300.6174
       199.0004        197.0004
 21  2  2  0  8 30.0000000  0  7G08G27G09G07G21G01G04
 -21909497.38149 -17044269.41947  20566508.653    20566509.0054   20566515.8924
       208.0004        208.0004
 -10181747.80349  -7913131.13147  23000451.133    23000452.0094   23000458.3144
       198.0004        198.0004
 -19295405.70049 -15004718.67048  20773356.770    20773357.1744   20773364.0184
       214.0004        214.0004
 -12726286.13148  -9903859.65446  22868776.195    22868776.5684   22868780.1864
       179.0004        178.0004
 -13412117.97448 -10440025.43346  22136307.637    22136306.4794   22136311.9944
       171.0004        173.0004
  -9706679.49047  -7540336.70346  23122557.098    23122557.8844   23122565.9874
       162.0004        163.0004
 -18385355.62549 -14309094.35247  21037813.871    21037814.2494   21037819.9254
       198.0004        196.0004
 21  2  2  0  9  0.0000000  0  7G08G27G09G07G21G01G04
 -21859446.27149 -17005268.54347  20576033.319    20576033.5914   20576040.4604
       208.0004        208.0004
 -10081335.27349  -7834887.60347  23019559.419    23019559.9224   23019566.6694
       197.0004        197.0004
 -19296541.68249 -15005603.84848  20773140.515    20773140.7984   20773147.5934
       213.0004        213.0004
 -12801292.76048  -9962306.37146  22854503.784    22854503.6114   22854508.4244
       178.0004        178.0004
 -13449503.94748 -10469157.34146  22129193.658    22129193.1564   22129197.2964
       172.0004        173.0004
  -9784182.43647  -7600728.59045  23107808.066    23107808.4344   23107817.7784
       160.0004        160.0004
 -18319136.12049 -14257494.74747  21050415.231    21050415.7254   21050421.0984
       198.0004        196.0004
 21  2  2  0  9 30.0000000  0  7G08G27G09G07G21G01G04
 -21808901.77549 -16965883.20347  20585651.331    20585651.9204   20585658.9384
       208.0004        208.0004
  -9980706.77749  -7756475.79347  23038708.382    23038708.8454   23038715.2874
       195.0004        195.0004
 -19297110.17449 -15006046.81948  20773032.472    20773032.9354   20773039.5794
       213.0004        214.0004
 -12876339.60348 -10020784.42646  22840223.700    22840224.0524   22840227.6994
       179.0004        180.0004
 -13486605.48348 -10498067.60046  22122132.241    22122131.9754   22122136.7084
       172.0004        173.0004
  -9861717.14147  -7661145.23345  23093054.164    23093054.5314   23093062.6564
       159.0004        160.0004
 -18252492.80349 -14205564.88147  21063097.034    21063097.2874   21063102.8664
       197.0004        195.0004
 21  2  2  0 10  0.0000000  0  7G08G27G09G07G21G01G04
 -21757865.89049 -16926114.96847  20595362.797    20595363.2444   20595370.6464
       208.0004        207.0004
  -9879865.40449  -7677898.09947  23057899.169    23057898.2304   23057904.7774
       195.0004        194.0004
 -19297111.62349 -15006047.94648  20773032.311    20773032.7944   20773039.3914
       214.0004        214.0004
 -12951424.91248 -10079292.43646  22825933.616    22825934.4314   22825938.3874
       179.0004        179.0004
 -13523420.16748 -10526754.33146  22115125.935    22115126.0224   22115131.0494
       172.0004        173.0004
  -9939280.75547  -7721584.40345  23078293.692    23078294.9194   23078302.8994
       159.0004        162.0004
 -18185428.26849 -14153306.80147  21075858.643    21075859.4404   21075864.5574
       197.0004        195.0004
 21  2  2  0 10 30.0000000  0  7G08G27G09G07G21G01G04
 -21706341.04549 -16885965.72347  20605167.044    20605167.4694   20605175.2094
       207.0004        207.0004
  -9778814.33848  -7599157.01247  23077126.634    23077126.9274   23077134.6714
       194.0004        194.0004
 -19296546.61249 -15005607.66948  20773139.295    20773139.8304   20773146.8614
       214.0004        214.0004
 -13026546.87148 -10137829.02946  22811639.783    22811640.3044   22811642.8344
       179.0004        180.0004
 -13559945.72148 -10555215.79246  22108175.916    22108176.1154   22108181.5544
       171.0004        172.0004
 -10016870.58647  -7782044.00646  23063530.667    23063530.3244   23063537.6474
       161.0004        164.0004
 -18117945.18149 -14100722.56847  21088700.475    21088700.9594   21088706.7684
       197.0004        196.0004
 21  2  2  0 11  0.0000000  0  7G08G27G09G07G21G01G04
 -21654330.39549 -16845437.93947  20615064.413    20615064.8734   20615072.7064
       206.0004        206.0004
  -9677557.01548  -7520255.21147  23096396.110    23096395.8714   23096402.8034
       194.0004        194.0004
 -19295415.92949 -15004726.60548  20773354.895    20773355.2524   20773361.9864
       214.0004        215.0004
 -13101704.24248 -10196393.20846  22797337.041    22797337.2634   22797340.7404
       179.0004        179.0004
 -13596180.38448 -10583450.57846  22101282.161    22101281.5894   22101285.5894
       171.0004        172.0004
 -10094484.18647  -7842522.10046  23048759.944    23048761.0874   23048769.8644
       162.0004        164.0004
 -18050046.40849 -14047814.42747  21101621.468    21101621.7204   21101627.8264
       198.0004        197.0004
 21  2  2  0 11 30.0000000  0  7G08G27G09G07G21G01G04
 -21601835.67949 -16804532.95647  20625054.859    20625055.1704   20625062.0504
       206.0004        207.0004
  -9576095.85749  -7441194.56547  23115703.162    23115703.2774   23115710.4844
       195.0004        194.0004
 -19293719.41749 -15003404.65048  20773677.775    20773678.0254   20773684.8454
       214.0004        215.0004
 -13176894.49648 -10254983.01346  22783026.964    22783027.6444   22783033.3164
       177.0004        178.0004
 -13632120.38048 -10611455.75546  22094441.549    22094441.4084   22094446.7494
       170.0004        170.0004
 -10172118.07847  -7903016.02746  23033986.395    23033986.9644   23033995.4304
       162.0004        163.0004
 -17981733.91149 -13994583.90947  21114620.186    21114621.0104   21114627.7094
       198.0004        196.0004
 21  2  2  0 12  0.0000000  0  7G08G27G09G07G21G01G04
 -21548856.02649 -16763250.10447  20635136.581    20635136.8674   20635144.0574
       207.0004        208.0004
  -9474431.36848  -7361975.49847  23135049.117    23135049.4774   23135056.5554
       193.0004        193.0004
 -19291455.14349 -15001640.28048  20774108.546    20774109.0344   20774115.8254
       214.0004        215.0004
 -13252113.39748 -10313595.13746  22768714.839    22768714.7524   22768719.2554
       177.0004        178.0004
 -13667761.14948 -10639227.77446  22087659.724    22087659.3354   22087664.3654
       170.0004        172.0004
 -10249766.85847  -7963521.55345  23019211.046    23019211.1194   23019218.6554
       161.0004        162.0004
 -17913007.78649 -13941031.10647  21127698.333    21127698.8504   21127705.3784
       197.0004        196.0004
 21  2  2  0 12 30.0000000  0  7G08G27G09G07G21G01G04
 -21495396.10849 -16721593.01247  20645310.023    20645309.9384   20645316.8004
       207.0004        208.0004
  -9372568.22348  -7282601.61647  23154431.864    23154433.0424   23154440.9064
       191.0004        191.0004
 -19288625.19449 -14999435.12548  20774647.081    20774647.5224   20774654.4394
       214.0004        215.0004
 -13327360.88848 -10372229.53446  22754396.645    22754397.2624   22754399.9884
       178.0004        179.0004
 -13703101.92548 -10666766.01946  22080935.199    22080934.2694   22080939.7604
       171.0004        172.0004
 -10327429.21947  -8024037.66846  23004431.068    23004431.6934   23004439.7894
       161.0004        163.0004
 -17843872.20449 -13887159.23347  21140854.644    21140855.1214   21140861.1334
       197.0004        195.0004
 21  2  2  0 13  0.0000000  0  7G08G27G09G07G21G01G04
 -21441459.69949 -16679564.62247  20655573.228    20655573.4894   20655580.3094
       207.0004        207.0004
  -9270510.32748  -7203075.99247  23173852.982    23173852.9614   23173862.0084
       190.0004        190.0004
 -19285231.01949 -14996790.31248  20775293.008    20775293.4234   20775300.2054
       214.0004        215.0004
 -13402635.78748 -10430885.28646  22740072.191    22740071.8624   22740075.8234
       178.0004        179.0004
 -13738140.09248 -10694068.46446  22074266.608    22074266.5844   22074271.7634
       171.0004        171.0004
 -10405103.21847  -8084562.82846  22989651.316    22989651.6134   22989660.3174
       161.0004        163.0004
 -17774330.66549 -13832971.02747  21154088.257    21154088.7874   21154094.8244
       197.0004        196.0004
 21  2  2  0 13 30.0000000  0  7G08G27G09G07G21G01G04
 -21387048.93349 -16637166.60947  20665926.655    20665926.7924   20665934.3704
       206.0004        205.0004
  -9168261.08048  -7123401.24047  23193311.059    23193311.3984   23193320.0204
       190.0004        192.0004
 -19281273.57049 -14993706.58448  20776046.089    20776046.5954   20776053.2304
       214.0004        214.0004
 -13477936.62348 -10489561.24546  22725741.556    22725742.1614   22725746.0284
       177.0004        177.0004
 -13772874.93148 -10721134.55146  22067656.409    22067656.2564   22067661.9574
       170.0004        171.0004
 -10482786.24547  -8145095.01945  22974869.064    22974869.2244   22974877.4184
       161.0004        162.0004
 -17704386.13749 -13778468.80547  21167399.028    21167398.7334   21167404.5484
       197.0004        195.0004
 21  2  2  0 14  0.0000000  0  7G08G27G09G07G21G01G04
 -21332166.57149 -16594401.13547  20676370.063    20676370.5324   20676377.7524
       205.0004        205.0004
  -9065823.27048  -7043579.59247  23212804.405    23212804.0054   23212812.2464
       189.0004        188.0004
 -19276753.27949 -14990184.27448  20776905.936    20776906.4224   20776913.5064
       214.0004        215.0004
 -13553261.39848 -10548255.85946  22711407.907    22711408.5554   22711412.5224
       177.0004        178.0004
 -13807303.03148 -10747961.62246  22061106.076    22061105.3104   22061110.5704
       171.0004        172.0004
 -10560475.27947  -8205631.90145  22960084.288    22960085.3454   22960093.0264
       160.0004        162.0004
 -17634041.05049 -13723654.44847  21180784.423    21180785.1224   21180791.0204
       196.0004        195.0004
 21  2  2  0 14 30.0000000  0  7G08G27G09G07G21G01G04
 -21276813.92549 -16551269.20047  20686904.028    20686904.1264   20686911.3084
       205.0004        206.0004
  -8963199.32148  -6963612.90747  23232332.829    23232333.6294   23232341.5194
       189.0004        190.0004
 -19271670.17049 -14986223.39948  20777873.584    20777873.8624   20777880.4114
       214.0004        214.0004
 -13628607.81648 -10606967.34746  22697070.153    22697070.6154   22697074.7704
       178.0004        180.0004
 -13841421.66048 -10774547.54546  22054613.322    22054612.9014   22054617.8074
       172.0004        173.0004
 -10638166.76047  -8266170.68845  22945300.477    22945300.6434   22945308.9434
       160.0004        161.0004
 -17563297.42449 -13668529.55147  21194246.500    21194246.8554   21194252.6964
       197.0004        195.0004
 21  2  2  0 15  0.0000000  0  7G08G27G09G07G21G01G04
 -21220993.80349 -16507772.99447  20697526.784    20697526.8014   20697533.7064
       205.0004        206.0004
  -8860391.85348  -6883503.18447  23251896.640    23251896.9874   23251904.9554
       189.0004        189.0004
 -19266024.43149 -14981824.12548  20778948.315    20778948.6564   20778954.9104
       214.0004        215.0004
 -13703973.28248 -10665693.67746  22682728.207    22682729.4114   22682732.9304
       179.0004        179.0004
 -13875227.95748 -10800890.07346  22048179.976    22048180.2984   22048184.5964
       172.0004        173.0004
 -10715857.33447  -8326708.77345  22930514.940    22930516.5804   22930525.7064
       160.0004        162.0004
 -17492157.45649 -13613095.81847  21207784.078    21207784.0974   21207790.5704
       196.0004        195.0004
 21  2  2  0 15 30.0000000  0  7G08G27G09G07G21G01G04
 -21164707.88949 -16463913.83547  20708237.759    20708237.7224   20708244.5654
       206.0004        206.0004
  -8757403.56048  -6803252.58847  23271495.042    23271494.6524   23271502.1754
       188.0004        188.0004
 -19259816.51749 -14976986.78648  20780129.330    20780129.4444   20780136.3604
       214.0004        214.0004
 -13779355.65648 -10724433.19346  22668383.862    22668384.2174   22668388.5674
       179.0004        180.0004
 -13908718.86448 -10826986.87646  22041807.773    22041807.2184   22041811.2754
       173.0004        173.0004
 -10793543.76147  -8387243.62846  22915732.438    22915734.1134   22915741.4064
       161.0004        163.0004
 -17420623.52849 -13557355.10447  21221396.921    21221397.0734   21221403.4874
       196.0004        196.0004
 21  2  2  0 16  0.0000000  0  7G08G27G09G07G21G01G04
 -21107959.94149 -16419694.64047  20719036.485    20719036.6094   20719043.3044
       206.0004        206.0004
  -8654238.60248  -6722864.29547  23291125.004    23291126.7474   23291134.6964
       188.0004        189.0004
 -19253048.27949 -14971712.83448  20781417.106    20781417.6004   20781424.2704
       214.0004        214.0004
 -13854754.06948 -10783185.18246  22654035.685    22654036.5364   22654040.5174
       178.0004        179.0004
 -13941893.07248 -10852836.87946  22035494.649    22035494.8344   22035498.9254
       173.0004        174.0004
 -10871224.24347  -8447773.84646  22900951.867    22900951.8584   22900960.0524
       162.0004        163.0004
 -17348699.47449 -13501310.39247  21235082.516    21235083.4944   21235089.6144
       196.0004        194.0004
 21  2  2  0 16 30.0000000  0  7G08G27G09G07G21G01G04
 -21050752.12549 -16375117.10947  20729922.209    20729922.5634   20729929.4974
       205.0004        205.0004
  -8550899.36248  -6642340.22547  23310790.108    23310791.0894   23310799.1314
       189.0004        189.0004
 -19245719.82649 -14966002.35148  20782811.155    20782811.7474   20782818.7864
       213.0004        214.0004
 -13930166.51448 -10841948.10646  22639684.746    22639685.3044   22639689.9944
       179.0004        180.0004
 -13974747.51148 -10878437.72746  22029242.567    22029241.8504   22029247.1274
       174.0004        174.0004
 -10948895.25647  -8508296.67845  22886170.526    22886171.1624   22886179.1014
       161.0004        162.0004
 -17276387.37249 -13444963.30347  21248843.770    21248844.2544   21248849.4014
       195.0004        193.0004
 21  2  2  0 17  0.0000000  0  7G08G27G09G07G21G01G04
 -20993086.22049 -16330182.62847  20740895.248    20740895.6504   20740902.9774
       205.0004        205.0004
  -8447388.61948  -6561682.51247  23330489.230    23330489.0734   23330496.3304
       189.0004        189.0004
 -19237831.70149 -14959855.75748  20784312.732    20784313.0444   20784319.8074
       213.0004        214.0004
 -14005590.43548 -10900719.96846  22625332.067    22625332.3594   22625336.7904
       180.0004        181.0004
 -14007280.39448 -10903788.01146  22023051.658    22023050.7804   22023056.4354
       174.0004        173.0004
 -11026553.50447  -8568809.58545  22871393.221    22871393.0034   22871401.7614
       160.0004        161.0004
 -17203689.68449 -13388315.75147  21262677.570    21262677.6104   21262683.6804
       195.0004        193.0004
 21  2  2  0 17 30.0000000  0  7G08G27G09G07G21G01G04
 -20934966.79949 -16284894.78247  20751955.058    20751955.3894   20751962.4664
       204.0004        204.0004
  -8343710.47548  -6480894.34447  23350217.935    23350218.3564   23350225.6214
       188.0004        188.0004
 -19229385.88049 -14953274.60748  20785919.673    20785920.1134   20785926.7124
       213.0004        213.0004
 -14081025.03948 -10959500.20446  22610978.581    22610978.9174   22610981.5214
       181.0004        182.0004
 -14039489.89048 -10928886.31046  22016921.826    22016921.2284   22016927.1224
       174.0004        175.0004
 -11104197.26347  -8629311.19245  22856617.954    22856618.8594   22856626.0544
       159.0004        162.0004
 -17130610.27149 -13331370.77147  21276583.781    21276584.4154   21276590.6004
       195.0004        193.0004
 21  2  2  0 18  0.0000000  0  7G08G27G09G07G21G01G04
 -20876395.93349 -16239255.13847  20763101.132    20763101.2034   20763108.0874
       204.0004        204.0004
  -8239867.61548  -6399977.84847  23369978.218    23369978.6324   23369987.2694
       189.0004        190.0004
 -19220382.84849 -14946259.25048  20787633.457    20787633.5394   20787640.1474
       213.0004        214.0004
 -14156468.21748 -11018287.09346  22596621.976    22596623.0024   22596626.4414
       182.0004        182.0004
 -14071373.43348 -10953730.61546  22010855.380    22010855.4894   22010860.0354
       174.0004        175.0004
 -11181823.19347  -8689798.88746  22841848.120    22841846.8444   22841854.7334
       161.0004        163.0004
 -17057151.49548 -13274130.17047  21290563.535    21290563.7744   21290568.8404
       194.0004        193.0004
 21  2  2  0 18 30.0000000  0  7G08G27G09G07G21G01G04
 -20817376.01749 -16193265.58747  20774332.066    20774332.6894   20774339.4684
       204.0004        205.0004
  -8135863.14448  -6318935.39147  23389771.349    23389770.9254   23389778.2214
       191.0004        191.0004
 -19210823.50049 -14938810.40248  20789451.941    20789452.4194   20789459.2684
       213.0004        213.0004
 -14231917.89148 -11077079.03846  22582264.818    22582265.1924   22582269.0624
       183.0004        185.0004
 -14102928.04248 -10978318.61346  22004851.303    22004850.2284   22004855.6064
       174.0004        174.0004
 -11259428.31947  -8750270.38546  22827078.672    22827079.3994   22827086.5754
       162.0004        164.0004
 -16983316.13049 -13216596.12547  21304613.426    21304614.1434   21304619.6524
       195.0004        194.0004
 21  2  2  0 19  0.0000000  0  7G08G27G09G07G21G01G04
 -20757908.63549 -16146927.34747  20785648.774    20785648.9594   20785655.6354
       205.0004        205.0004
  -8031698.93648  -6237768.48647  23409593.221    23409592.7174   23409600.1934
       191.0004        192.0004
 -19200707.64549 -14930927.91648  20791376.909    20791377.2254   20791383.8444
       213.0004        213.0004
 -14307371.22348 -11135873.81146  22567906.133    22567906.4594   22567910.2824
       184.0004        184.0004
 -14134151.15348 -11002648.28646  21998909.593    21998908.9174   21998913.1154
       174.0004        173.0004
 -11337008.71147  -8810722.60046  22812314.076    22812314.9714   22812323.8434
       162.0004        164.0004
 -16909105.92749 -13158769.99647  21318734.776    21318734.9934   21318741.5564
       195.0004        194.0004
 21  2  2  0 19 30.0000000  0  7G08G27G09G07G21G01G04
 -20697996.17349 -16100242.30247  20797048.998    20797049.3954   20797056.8634
       205.0004        204.0004
  -7927377.43048  -6156479.00747  23429443.898    23429444.3254   23429451.8554
       191.0004        191.0004
 -19190035.66949 -14922612.09148  20793408.109    20793408.3984   20793414.9544
       213.0004        214.0004
 -14382825.48948 -11194669.33346  22553547.381    22553548.2074   22553551.8564
       184.0004        184.0004
 -14165039.12448 -11026716.80646  21993030.766    21993030.5994   21993035.2254
       173.0004        175.0004
 -11414560.73647  -8871152.70846  22797557.744    22797557.9574   22797566.5664
       163.0004        165.0004
 -16834523.03849 -13100653.47047  21332927.919    21332928.4624   21332933.8504
       195.0004        193.0004
 21  2  2  0 20  0.0000000  0  7G08G27G09G07G21G01G04
 -20637641.87349 -16053212.97247  20808534.055    20808534.4484   20808541.9184
       204.0004        204.0004
  -7822902.65548  -6075070.08947  23449325.567    23449325.5584   23449331.8404
       191.0004        190.0004
 -19178809.53949 -14913864.45648  20795544.198    20795544.4304   20795551.1324
       213.0004        214.0004
 -14458279.81748 -11253464.90446  22539189.422    22539189.4694   22539193.0914
       184.0004        184.0004
 -14195591.52448 -11050523.86646  21987216.981    21987216.0744   21987221.3434
       172.0004        172.0004
 -11492082.49247  -8931559.24546  22782805.168    22782806.7214   22782814.4624
       164.0004        166.0004
 -16759571.28148 -13042249.49747  21347190.660    21347191.0294   21347197.0064
       194.0004        192.0004
 21  2  2  0 20 30.0000000  0  7G08G27G09G07G21G01G04
 -20576848.24249 -16005841.30747  20820103.213    20820103.3424   20820110.6184
       204.0004        204.0004
  -7718276.92748  -5993543.55447  23469233.876    23469234.8144   23469241.9524
       190.0004        190.0004
 -19167029.59349 -14904685.27248  20797785.809    20797786.4154   20797793.1184
       213.0004        214.0004
 -14533731.37548 -11312258.31746  22524831.076    22524831.5894   22524835.3834
       184.0004        185.0004
 -14225805.05348 -11074066.84346  21981466.200    21981466.9814   21981472.4304
       172.0004        173.0004
 -11569570.21848  -8991939.26746  22768060.902    22768060.9954   22768068.9304
       166.0004        168.0004
 -16684252.78648 -12983559.77347  21361523.607    21361523.9964   21361529.4954
       194.0004        193.0004
 21  2  2  0 21  0.0000000  0  7G08G27G09G07G21G01G04
 -20515617.71249 -15958129.20447  20831754.572    20831754.6214   20831761.9314
       203.0004        203.0004
  -7613503.48848  -5911901.91747  23489172.899    23489173.0364   23489179.0034
       189.0004        190.0004
 -19154697.01549 -14895075.46848  20800132.555    20800133.0094   20800139.8434
       213.0004        214.0004
 -14609178.67748 -11371048.41346  22510474.100    22510474.5064   22510478.2564
       185.0004        186.0004
 -14255677.71448 -11097344.20446  21975781.972    21975782.2694   21975787.0434
       173.0004        173.0004
 -11647021.24048  -9052290.68446  22753321.839    22753322.1414   22753330.8494
       168.0004        170.0004
 -16608570.63248 -12924586.67447  21375925.168    21375925.6354   21375930.8904
       194.0004        192.0004
 21  2  2  0 21 30.0000000  0  7G08G27G09G07G21G01G04
 -20453953.25349 -15910078.95847  20843488.675    20843489.3044   20843495.8114
       203.0004        203.0004
  -7508585.10348  -5830147.33347  23509137.107    23509137.5594   23509144.5894
       189.0004        189.0004
 -19141812.69249 -14885035.73448  20802584.594    20802584.8054   20802591.3674
       214.0004        214.0004
 -14684619.59548 -11429833.53446  22496118.061    22496118.2384   22496122.1324
       185.0004        185.0004
 -14285207.19048 -11120354.16846  21970163.239    21970162.8244   21970168.1644
       173.0004        174.0004
 -11724432.35948  -9112610.99646  22738591.161    22738591.1364   22738599.4894
       167.0004        169.0004
 -16532527.43548 -12865332.22847  21390394.982    21390395.6054   21390401.5534
       193.0004        191.0004
 21  2  2  0 22  0.0000000  0  7G08G27G09G07G21G01G04
 -20391857.38849 -15861692.56447  20855306.207    20855306.2884   20855312.7624
       203.0004        204.0004
  -7403524.53848  -5748281.96147  23529130.592    23529130.1004   23529136.4664
       188.0004        188.0004
 -19128377.50749 -14874566.76248  20805141.447    20805141.5614   20805148.1644
       213.0004        214.0004
 -14760051.86948 -11488611.92446  22481764.111    22481763.7094   22481768.4814
       185.0004        185.0004
 -14314390.71048 -11143094.53746  21964609.355    21964608.9134   21964614.3454
       172.0004        172.0004
 -11801800.35948  -9172897.71246  22723869.250    22723869.2414   22723877.2234
       168.0004        169.0004
 -16456125.77448 -12805798.47747  21404934.586    21404935.2984   21404940.7844
       193.0004        193.0004
 21  2  2  0 22 30.0000000  0  7G08G27G09G07G21G01G04
 -20329333.05749 -15812972.29747  20867203.828    20867204.0054   20867211.2604
       204.0004        204.0004
  -7298325.25248  -5666308.51147  23549149.092    23549148.7234   23549155.9494
       188.0004        190.0004
 -19114392.98449 -14863669.73348  20807802.108    20807802.6674   20807809.4114
       213.0004        214.0004
 -14835473.84548 -11547382.29546  22467411.366    22467411.7534   22467414.9334
       185.0004        185.0004
 -14343226.76348 -11165564.17346  21959122.416    21959122.0794   21959127.3564
       172.0004        174.0004
 -11879122.68548  -9233148.85146  22709154.709    22709155.0604   22709163.0684
       167.0004        168.0004
 -16379369.02148 -12745988.02747  21419541.251    21419541.5194   21419547.3494
       193.0004        192.0004
 21  2  2  0 23  0.0000000  0  7G08G27G09G07G21G01G04
 -20266381.57449 -15763919.18747  20879182.816    20879183.0364   20879190.4064
       203.0004        203.0004
  -7192989.21548  -5584228.47747  23569192.536    23569193.1234   23569200.5024
       188.0004        188.0004
 -19099859.20549 -14852344.70648  20810568.261    20810568.6934   20810575.1504
       214.0004        214.0004
 -14910882.37748 -11606142.18246  22453061.643    22453062.5144   22453065.6094
       186.0004        187.0004
 -14371711.95248 -11187760.39546  21953701.744    21953701.3134   21953707.4294
       172.0004        172.0004
 -11956395.27348  -9293361.21346  22694449.922    22694450.2304   22694459.2704
       168.0004        170.0004
 -16302258.96748 -12685902.26847  21434213.882    21434214.5144   21434220.7674
       193.0004        192.0004
 21  2  2  0 23 30.0000000  0  7G08G27G09G07G21G01G04
 -20203006.34049 -15714535.88847  20891242.598    20891243.0894   20891250.0894
       202.0004        203.0004
  -7087519.23448  -5502044.08647  23589263.027    23589263.7214   23589271.0444
       189.0004        189.0004
 -19084777.21749 -14840592.50548  20813437.520    20813438.0874   20813444.9354
       213.0004        213.0004
 -14986275.16548 -11664889.81046  22438714.591    22438715.0654   22438719.0154
       186.0004        187.0004
 -14399844.12848 -11209681.54946  21948348.120    21948348.6374   21948354.2154
       173.0004        174.0004
 -12033615.00648  -9353532.40246  22679755.223    22679755.5724   22679763.5104
       169.0004        171.0004
 -16224798.36948 -12625543.35647  21448954.923    21448955.3334   21448961.3294
       193.0004        192.0004
 21  2  2  0 24  0.0000000  0  7G08G27G09G07G21G01G04
 -20139210.02649 -15664824.47047  20903382.700    20903382.8274   20903390.2474
       202.0004        202.0004
  -6981918.12848  -5419757.50646  23609357.720    23609359.1754   23609365.6424
       186.0004        185.0004
 -19069148.03449 -14828413.91948  20816412.426    20816412.6294   20816418.7564
       213.0004        213.0004
 -15061650.77048 -11723624.02247  22424371.731    22424371.5064   22424376.0984
       187.0004        188.0004
 -14427620.71948 -11231325.63346  21943062.757    21943062.8154   21943067.9054
       174.0004        175.0004
 -12110778.67148  -9413659.90646  22665071.167    22665072.0434   22665079.6134
       169.0004        170.0004
 -16146989.93648 -12564913.40547  21463761.176    21463761.7404   21463767.3094
       193.0004        191.0004
 21  2  2  0 24 30.0000000  0  7G08G27G09G07G21G01G04
 -20074995.88049 -15614787.47247  20915602.452    20915602.6664   20915609.4584
       202.0004        202.0004
  -6876189.40748  -5337371.51846  23629477.946    23629478.3324   23629486.1634
       185.0004        184.0004
 -19052973.38949 -14815810.31048  20819489.677    20819490.2934   20819497.1894
       213.0004        213.0004
 -15137006.98448 -11782343.14046  22410031.343    22410031.8874   22410036.0914
       187.0004        187.0004
 -14455040.13148 -11252691.39846  21937845.284    21937845.6484   21937850.2414
       175.0004        176.0004
 -12187883.80148  -9473741.80846  22650397.030    22650399.2104   22650406.3134
       169.0004        170.0004
 -16068837.11748 -12504015.11647  21478632.803    21478633.2604   21478639.0794
       192.0004        191.0004
 21  2  2  0 25  0.0000000  0  8G30G08G27G09G07G21G01G04
    219100.00554    203547.334 4                                  24774736.069
        74.0004        119.000
 -20010366.44749 -15564426.85547  20927900.476    20927900.4654   20927908.2114
       202.0004        201.0004
  -6770336.04148  -5254888.37646  23649622.906    23649622.3474   23649628.7104
       184.0004        183.0004
 -19036254.49149 -14802782.59548  20822671.550    20822671.9254   20822678.7264
       213.0004        213.0004
 -15212342.16048 -11841045.85546  22395694.526    22395695.7454   22395699.8334
       186.0004        185.0004
 -14482100.22048 -11273777.15646  21932696.380    21932695.0004   21932700.9854
       175.0004        175.0004
 -12264927.33548  -9533775.69046  22635737.269    22635738.0804   22635747.0644
       170.0004        172.0004
 -15990342.79348 -12442850.71247  21493570.220    21493570.2234   21493576.5254
       192.0004        191.0004
 21  2  2  0 25 30.0000000  0  8G30G08G27G09G07G21G01G04
  -1704163.78846  -1301338.54445  24334405.498                    24334412.5744
       130.0004        147.0004
 -19945324.85049 -15513745.08547  20940277.226    20940277.4954   20940285.1024
       201.0004        201.0004
  -6664361.46248  -5172310.79546  23669788.751    23669788.5904   23669795.5374
       183.0004        184.0004
 -19018993.15049 -14789332.20048  20825955.728    20825956.5954   20825963.5094
       213.0004        214.0004
 -15287654.57948 -11899730.84946  22381363.531    22381364.7194   22381368.3044
       185.0004        187.0004
 -14508799.45748 -11294581.75446  21927615.004    21927614.4494   21927619.4334
       175.0004        176.0004
 -12341906.78548  -9593759.64046  22621089.475    22621090.2534   22621098.7324
       171.0004        172.0004
 -15911510.38848 -12381422.86947  21508570.665    21508571.4304   21508577.6694
       192.0004        190.0004
 21  2  2  0 26  0.0000000  0  8G30G08G27G09G07G21G01G04
  -1787943.35747  -1366621.30745  24318463.014    24318463.4344   24318469.5254
       142.0004        148.0004
 -19879876.41849 -15462746.30447  20952731.539    20952732.1194   20952739.5464
       200.0004        201.0004
  -6558270.98548  -5089642.88146  23689977.564    23689977.2894   23689982.8704
       184.0004        184.0004
 -19001192.92749 -14775461.90048  20829344.109    20829344.4914   20829350.6804
       213.0004        214.0004
 -15362944.43048 -11958398.26146  22367037.445    22367037.2514   22367040.4994
       186.0004        187.0004
 -14535137.81948 -11315105.14546  21922603.457    21922601.8954   21922607.4814
       175.0004        176.0004
 -12418821.33348  -9653693.02946  22606453.358    22606453.3994   22606461.6994
       171.0004        171.0004
 -15832345.12848 -12319735.65147  21523635.725    21523636.4734   21523642.3774
       192.0004        190.0004
 21  2  2  0 26 30.0000000  0  8G30G08G27G09G07G21G01G04
  -1871836.22847  -1431992.38845  24302499.261    24302499.4524   24302506.0144
       144.0004        149.0004
 -19814023.60049 -15411432.41347  20965263.199    20965263.5944   20965270.7154
       201.0004        201.0004
  -6452066.83148  -5006886.42246  23710188.074    23710188.2524   23710193.4114
       185.0004        187.0004
 -18982854.48049 -14761172.20448  20832833.274    20832833.8004   20832840.2624
       213.0004        214.0004
 -15438208.89948 -12017045.89946  22352714.644    22352715.0944   22352718.9264
       186.0004        186.0004
 -14561112.60048 -11335345.22646  21917659.990    21917659.5074   21917664.6784
       176.0004        177.0004
 -12495667.36348  -9713573.00046  22591829.360    22591829.5474   22591838.4554
       170.0004        172.0004
 -15752849.30948 -12257790.85047  21538763.502    21538763.1484   21538769.7384
       191.0004        191.0004
 21  2  2  0 27  0.0000000  0  8G30G08G27G09G07G21G01G04
  -1955839.20847  -1497449.23745  24286514.482    24286513.0344   24286521.2644
       147.0004        151.0004
 -19747767.01849 -15359803.89847  20977871.090    20977871.4244   20977879.1184
       200.0004        200.0004
  -6345749.95648  -4924042.09446  23730420.361    23730419.1654   23730424.9594
       185.0004        185.0004
 -18963977.14149 -14746462.58848  20836424.736    20836425.5214   20836432.3504
       213.0004        213.0004
 -15513444.07848 -12075670.70446  22338397.069    22338397.7244   22338401.4464
       185.0004        185.0004
 -14586719.96848 -11355299.00846  21912786.454    21912786.6164   21912791.4434
       176.0004        177.0004
 -12572439.74948  -9773395.61146  22577219.412    22577220.3784   22577228.0144
       169.0004        170.0004
 -15673023.79648 -12195589.16047  21553953.796    21553954.1714   21553959.8044
       191.0004        191.0004
 21  2  2  0 27 30.0000000  0  8G30G08G27G09G07G21G01G04
  -2039949.48447  -1562989.70545  24270509.589    24270508.8954   24270515.4824
       150.0004        154.0004
 -19681108.04049 -15307861.83447  20990556.473    20990556.5904   20990564.1324
       200.0004        201.0004
  -6239321.64948  -4841110.95746  23750672.412    23750671.7994   23750677.3134
       184.0004        185.0004
 -18944560.69149 -14731332.89448  20840120.363    20840120.7004   20840127.7914
       214.0004        215.0004
 -15588645.96148 -12134269.56646  22324086.775    22324087.1114   22324091.8584
       185.0004        187.0004
 -14611956.24548 -11374963.62946  21907984.704    21907984.9114   21907988.9264
       177.0004        177.0004
 -12649133.85548  -9833157.21546  22562625.296    22562625.5084   22562633.1534
       169.0004        170.0004
 -15592870.00848 -12133131.67047  21569206.224    21569206.9044   21569213.3434
       192.0004        190.0004
 21  2  2  0 28  0.0000000  0  8G30G08G27G09G07G21G01G04
  -2124165.11747  -1628612.26145  24254482.562    24254482.4254   24254489.8434
       152.0004        154.0004
 -19614048.53049 -15255607.67347  21003317.064    21003317.4094   21003325.2124
       200.0004        200.0004
  -6132784.14748  -4758094.74246  23770942.849    23770943.9234   23770950.8094
       184.0004        183.0004
 -18924605.73449 -14715783.58548  20843918.084    20843918.3634   20843925.1714
       214.0004        215.0004
 -15663811.98748 -12192840.47746  22309783.702    22309784.2344   22309788.1284
       186.0004        187.0004
 -14636818.18048 -11394336.56046  21903254.359    21903254.1414   21903258.6504
       178.0004        178.0004
 -12725745.88548  -9892854.87746  22548046.390    22548047.2054   22548055.3704
       168.0004        169.0004
 -15512390.14648 -12070420.09547  21584521.385    21584522.1934   21584528.3554
       192.0004        191.0004
 21  2  2  0 28 30.0000000  0  8G30G08G27G09G07G21G01G04
  -2208484.76947  -1694315.87345  24238437.241    24238436.7814   24238443.7754
       151.0004        154.0004
 -19546591.13149 -15203043.46247  21016153.398    21016153.9724   21016161.4014
       199.0004        199.0004
  -6026140.16248  -4674995.53046  23791237.144    23791237.0904   23791244.7694
       183.0004        183.0004
 -18904113.53449 -14699815.63848  20847817.238    20847817.8234   20847824.2944
       214.0004        214.0004
 -15738939.88048 -12251381.68946  22295487.996    22295487.6604   22295491.5214
       187.0004        187.0004
 -14661303.88748 -11413416.30046  21898594.818    21898594.8514   21898599.0134
       178.0004        180.0004
 -12802272.59748  -9952486.05546  22533484.969    22533484.9444   22533492.9304
       169.0004        171.0004
 -15431586.95548 -12007456.56947  21599897.126    21599897.8554   21599904.3744
       191.0004        190.0004
 21  2  2  0 29  0.0000000  0  8G30G08G27G09G07G21G01G04
  -2292907.99747  -1760100.18245  24222371.569    24222371.3744   24222378.0514
       151.0004        155.0004
 -19478740.13049 -15150172.54547  21029065.046    21029065.3824   21029072.9574
       199.0004        199.0004
  -5919393.52948  -4591816.35646  23811548.670    23811550.2954   23811557.6954
       181.0004        180.0004
 -18883086.30949 -14683430.79648  20851818.655    20851819.0564   20851825.5014
       213.0004        213.0004
 -15814028.20948 -12309892.07746  22281198.183    22281199.0014   22281203.1414
       186.0004        186.0004
 -14685411.98448 -11432201.81746  21894006.962    21894007.2584   21894011.2834
       179.0004        179.0004
 -12878711.67748 -10012048.94946  22518938.353    22518939.6684   22518947.0804
       170.0004        171.0004
 -15350464.26848 -11944244.09547  21615334.116    21615335.2494   21615341.0244
       191.0004        189.0004
 21  2  2  0 29 30.0000000  0  8G30G08G27G09G07G21G01G04
  -2377433.74047  -1825964.37545  24206287.199    24206287.2124   24206293.9464
       153.0004        157.0004
 -19410498.42149 -15096997.18647  21042051.228    21042051.4854   21042058.8154
       199.0004        199.0004
  -5812547.21748  -4508559.46946  23831881.110    23831882.3634   23831889.8924
       179.0004        180.0004
 -18861525.73849 -14666630.34648  20855921.250    20855921.7114   20855928.2404
       213.0004        213.0004
 -15889074.90248 -12368370.00246  22266917.573    22266918.2724   22266922.0544
       187.0004        187.0004
 -14709140.66248 -11450691.66646  21889491.951    21889491.4034   21889495.9244
       178.0004        179.0004
 -12955060.25348 -10071541.30246  22504409.624    22504409.1874   22504418.8584
       169.0004        170.0004
 -15269025.19048 -11880785.07047  21630832.497    21630832.6984   21630838.5234
       191.0004        190.0004
 21  2  2  0 30  0.0000000  0  8G30G08G27G09G07G21G01G04
  -2462060.53147  -1891907.32645  24190181.638    24190182.9614   24190191.1104
       155.0004        158.0004
 -19341868.46149 -15043519.29047  21055110.863    21055111.4164   21055118.7884
       199.0004        199.0004
  -5705603.91048  -4425227.05346  23852233.438    23852234.4224   23852238.8714
       179.0004        180.0004
 -18839433.08349 -14649415.29648  20860125.526    20860125.8594   20860132.1374
       213.0004        213.0004
 -15964077.64548 -12426813.71146  22252645.622    22252645.1864   22252649.2824
       187.0004        187.0004
 -14732487.73648 -11468884.18046  21885048.018    21885048.2904   21885053.1694
       178.0004        178.0004
 -13031315.06748 -10130960.59946  22489898.622    22489898.2614   22489907.4264
       169.0004        171.0004
 -15187272.49648 -11817081.68047  21646389.255    21646389.4744   21646395.3604
       190.0004        189.0004
 21  2  2  0 30 30.0000000  0  8G30G08G27G09G07G21G01G04
  -2546787.76947  -1957928.53145  24174059.145    24174059.9834   24174068.0824
       156.0004        158.0004
 -19272853.81649 -14989741.63247  21068244.000    21068244.4224   21068251.9214
       198.0004        198.0004
  -5598567.15048  -4341821.76846  23872602.085    23872601.9914   23872609.2974
       179.0004        180.0004
 -18816810.45149 -14631787.27748  20864430.604    20864431.0354   20864437.5594
       213.0004        214.0004
 -16039034.94548 -12485221.98046  22238380.553    22238381.1844   22238385.1294
       186.0004        186.0004
 -14755451.78548 -11486778.23546  21880678.325    21880677.9564   21880683.6664
       178.0004        178.0004
 -13107473.53748 -10190304.85046  22475406.357    22475407.0544   22475415.3444
       170.0004        172.0004
 -15105209.83848 -11753136.75347  21662005.593    21662005.7524   21662011.9864
       191.0004        191.0004
 21  2  2  0 31  0.0000000  0  8G30G08G27G09G07G21G01G04
  -2631613.79247  -2024026.71945  24157918.400    24157918.1014   24157925.4464
       156.0004        159.0004
 -19203457.33949 -14935666.45447  21081449.383    21081449.9224   21081458.1564
       198.0004        198.0004
  -5491439.49848  -4258345.69046  23892987.138    23892987.7704   23892994.5644
       181.0004        182.0004
 -18793658.97849 -14613747.17748  20868836.017    20868836.4374   20868842.9824
       213.0004        214.0004
 -16113944.39848 -12543592.96946  22224125.449    22224126.1694   22224130.0264
       186.0004        187.0004
 -14778030.72048 -11504372.21446  21876381.862    21876381.6884   21876387.1184
       178.0004        178.0004
 -13183532.22248 -10249571.32646  22460933.646    22460934.2904   22460940.9794
       171.0004        173.0004
 -15022839.75948 -11688952.28447  21677679.535    21677679.8824   21677686.3264
       191.0004        191.0004
 21  2  2  0 31 30.0000000  0  8G30G08G27G09G07G21G01G04
  -2716538.17747  -2090201.55145  24141758.076    24141757.6234   24141764.7874
       157.0004        159.0004
 -19133682.39649 -14881296.37647  21094727.352    21094727.1154   21094735.8554
       197.0004        197.0004
  -5384224.73648  -4174801.73646  23913388.542    23913389.4004   23913397.7794
       180.0004        179.0004
 -18769981.17049 -14595296.94348  20873341.412    20873342.0924   20873349.0874
       213.0004        213.0004
 -16188804.26148 -12601925.32847  22209880.000    22209880.9024   22209884.7034
       187.0004        188.0004
 -14800223.27448 -11521665.11746  21872158.693    21872158.9344   21872164.1794
       178.0004        179.0004
 -13259488.97548 -10308758.37946  22446477.753    22446479.1624   22446486.8654
       170.0004        170.0004
 -14940166.26048 -11624531.37747  21693411.341    21693412.2424   21693418.3744
       191.0004        189.0004
 21  2  2  0 32  0.0000000  0  8G30G08G27G09G07G21G01G04
  -2801558.11147  -2156450.85145  24125578.565    24125578.8584   24125585.7904
       157.0004        159.0004
 -19063530.55149 -14826632.58747  21108076.871    21108077.1614   21108085.2354
       197.0004        197.0004
  -5276924.07248  -4091190.81646  23933808.908    23933808.2354   23933816.2814
       178.0004        179.0004
 -18745776.99949 -14576436.54648  20877947.886    20877948.0754   20877955.0414
       213.0004        213.0004
 -16263611.40148 -12660216.59847  22195645.502    22195645.8584   22195649.6944
       188.0004        189.0004
 -14822025.96648 -11538654.20446  21868011.310    21868010.2554   21868015.0434
       179.0004        180.0004
 -13335339.10748 -10367862.35946  22432044.938    22432045.7584   22432053.1794
       169.0004        171.0004
 -14857190.71248 -11559875.09747  21709201.934    21709202.0654   21709207.4614
       190.0004        189.0004
 21  2  2  0 32 30.0000000  0  8G30G08G27G09G07G21G01G04
  -2886672.99447  -2222774.13045  24109380.972    24109382.0714   24109388.8514
       156.0004        157.0004
 -18993005.56349 -14771678.05047  21121497.374    21121497.8594   21121505.3614
       197.0004        198.0004
  -5169541.12148  -4007515.81246  23954244.330    23954243.6134   23954249.3644
       177.0004        177.0004
 -18721048.81649 -14557167.83848  20882653.303    20882653.6864   20882660.4934
       213.0004        213.0004
 -16338364.07548 -12718465.43347  22181420.451    22181420.8384   22181425.1824
       189.0004        189.0004
 -14843437.54148 -11555338.53846  21863935.785    21863935.0824   21863940.3304
       179.0004        179.0004
 -13411080.17748 -10426881.34146  22417632.747    22417632.6824   22417639.6734
       171.0004        172.0004
 -14773916.84048 -11494986.38047  21725047.856    21725048.4844   21725054.8904
       189.0004        188.0004
 21  2  2  0 33  0.0000000  0  8G30G08G27G09G07G21G01G04
  -2971881.88347  -2289170.65945  24093167.994    24093167.5174   24093173.4674
       156.0004        158.0004
 -18922110.83349 -14716435.40447  21134988.386    21134988.8304   21134996.4154
       197.0004        197.0004
  -5062079.11148  -3923779.18046  23974691.699    23974692.0434   23974699.2454
       177.0004        177.0004
 -18695798.58149 -14537492.33248  20887458.915    20887458.9224   20887465.2784
       213.0004        213.0004
 -16413060.32248 -12776670.30247  22167206.446    22167207.2844   22167210.4554
       188.0004        189.0004
 -14864456.35848 -11571716.81646  21859934.934    21859934.5574   21859940.0264
       177.0004        177.0004
 -13486709.40848 -10485813.18246  22403239.719    22403240.9214   22403248.6914
       171.0004        172.0004
 -14690348.05248 -11429867.84147  21740951.361    21740951.5054   21740956.9174
       190.0004        189.0004
 21  2  2  0 33 30.0000000  0  8G30G08G27G09G07G21G01G04
  -3057182.32347  -2355638.51245  24076935.421    24076934.8784   24076942.4264
       156.0004        159.0004
 -18850847.73749 -14660905.71547  21148549.828    21148549.6144   21148557.4124
       197.0004        196.0004
  -4954539.78648  -3839982.33946  23995155.508    23995156.4014   23995162.8804
       175.0004        175.0004
 -18670026.84349 -14517410.46548  20892362.974    20892363.1194   20892369.5334
       213.0004        213.0004
 -16487696.90448 -12834828.66947  22153003.499    22153003.6244   22153007.4314
       188.0004        188.0004
 -14885079.34348 -11587786.65746  21856010.853    21856011.2464   21856014.8594
       177.0004        177.0004
 -13562222.62048 -10544654.61646  22388869.718    22388870.9144   22388877.5894
       170.0004        171.0004
 -14606486.23248 -11364520.97646  21756909.565    21756909.9784   21756914.8674
       189.0004        187.0004
 21  2  2  0 34  0.0000000  0  8G30G08G27G09G07G21G01G04
  -3142572.98247  -2422176.64945  24060685.903    24060685.9424   24060692.7234
       157.0004        160.0004
 -18779219.36149 -14605091.40747  21162179.711    21162179.7894   21162187.7714
       196.0004        196.0004
  -4846925.96848  -3756127.42546  24015634.240    24015634.0524   24015640.5974
       173.0004        173.0004
 -18643735.29449 -14496923.55148  20897365.645    20897365.9144   20897372.6864
       212.0004        213.0004
 -16562271.69048 -12892938.88047  22138811.956    22138812.2564   22138816.9984
       189.0004        190.0004
 -14905304.59348 -11603546.58846  21852162.253    21852161.7684   21852166.7304
       177.0004        178.0004
 -13637616.64748 -10603403.20646  22374522.387    22374523.3244   22374531.3004
       171.0004        174.0004
 -14522334.42548 -11298948.14847  21772922.760    21772923.1284   21772929.7624
       189.0004        188.0004
 21  2  2  0 34 30.0000000  0  8G30G08G27G09G07G21G01G04
  -3228052.47747  -2488784.00645  24044418.377    24044419.3834   24044426.4444
       158.0004        160.0004
 -18707229.02149 -14548995.03947  21175878.135    21175878.8404   21175887.1264
       196.0004        196.0004
  -4739240.39748  -3672216.61746  24036125.628    24036126.6154   24036133.3234
       173.0004        174.0004
 -18616925.54849 -14476032.84847  20902467.355    20902467.8294   20902474.5574
       212.0004        212.0004
 -16636782.23048 -12950999.03447  22124632.560    22124633.9274   22124638.0724
       190.0004        192.0004
 -14925130.33448 -11618995.19946  21848390.185    21848389.4894   21848394.1434
       178.0004        180.0004
 -13712888.36448 -10662056.47446  22360198.606    22360199.6714   22360207.9384
       172.0004        173.0004
 -14437895.61848 -11233151.67746  21788991.231    21788991.2374   21788996.7494
       188.0004        187.0004
 21  2  2  0 35  0.0000000  0  8G30G08G27G09G07G21G01G04
  -3313619.08047  -2555459.27946  24028136.058    24028137.1104   24028144.4214
       160.0004        163.0004
 -18634879.05849 -14492618.44247  21189646.810    21189647.1794   21189654.5874
       196.0004        197.0004
  -4631485.62748  -3588251.86446  24056630.717    24056630.5144   24056637.2844
       171.0004        171.0004
 -18589599.05049 -14454739.47647  20907666.744    20907667.5384   20907674.5984
       212.0004        212.0004
 -16711226.19848 -13009007.31747  22110467.702    22110467.6614   22110471.6934
       191.0004        191.0004
 -14944554.52448 -11634130.92246  21844694.443    21844693.6904   21844698.5604
       179.0004        180.0004
 -13788034.24448 -10720611.69946  22345900.429    22345900.8674   22345908.3814
       173.0004        175.0004
 -14353172.54348 -11167133.68346  21805112.470    21805112.9884   21805119.4964
       187.0004        186.0004
 21  2  2  0 35 30.0000000  0  8G30G08G27G09G07G21G01G04
  -3399272.43247  -2622202.13045  24011837.610    24011837.4064   24011844.1044
       160.0004        161.0004
 -18562173.17849 -14435964.49847  21203482.678    21203482.6664   21203489.7244
       196.0004        196.0004
  -4523665.36748  -3504236.11946  24077149.326    24077148.9524   24077155.3004
       172.0004        173.0004
 -18561758.41749 -14433045.48547  20912965.343    20912965.9144   20912972.5144
       212.0004        212.0004
 -16785601.86048 -13066962.37847  22096314.727    22096314.3144   22096318.8384
       191.0004        190.0004
 -14963576.32748 -11648953.08946  21841074.022    21841074.0114   21841078.2364
       179.0004        180.0004
 -13863052.12648 -10779067.16646  22331625.164    22331625.3584   22331633.0764
       174.0004        175.0004
 -14268169.19148 -11100897.30946  21821289.123    21821289.2464   21821295.0754
       187.0004        186.0004
 21  2  2  0 36  0.0000000  0  8G30G08G27G09G07G21G01G04
  -3485010.57747  -2689011.04945  23995521.599    23995521.2904   23995529.1904
       157.0004        157.0004
 -18489114.02949 -14379035.28247  21217384.889    21217384.6914   21217392.6584
       195.0004        195.0004
  -4415781.96648  -3420171.10446  24097677.599    24097678.3354   24097684.9334
       174.0004        175.0004
 -18533404.90149 -14410951.84247  20918360.851    20918361.2514   20918367.6794
       212.0004        212.0004
 -16859906.61848 -13124862.18647  22082174.369    22082174.6434   22082178.4684
       190.0004        191.0004
 -14982193.23848 -11663459.75746  21837530.739    21837530.5114   21837535.3624
       179.0004        180.0004
 -13937938.30948 -10837420.02346  22317373.927    22317373.9444   22317383.2864
       174.0004        176.0004
 -14182888.04448 -11034444.46646  21837517.584    21837517.8134   21837522.7964
       187.0004        186.0004
 21  2  2  0 36 30.0000000  0  8G30G08G27G09G07G21G01G04
  -3570831.74747  -2755884.68845  23979191.234    23979190.4304   23979196.6854
       153.0004        155.0004
 -18415704.34049 -14321832.94747  21231353.547    21231354.1504   21231362.5344
       195.0004        195.0004
  -4307837.80148  -3336058.78646  24118218.174    24118219.3764   24118226.6114
       173.0004        173.0004
 -18504539.93549 -14388459.67047  20923853.605    20923853.8994   20923860.7434
       212.0004        212.0004
 -16934138.02048 -13182704.83547  22068048.670    22068049.4114   22068052.4674
       191.0004        191.0004
 -15000403.13648 -11677649.27446  21834065.798    21834065.3294   21834071.0064
       179.0004        180.0004
 -14012689.26748 -10895667.52046  22303148.611    22303149.6714   22303157.7224
       174.0004        174.0004
 -14097331.80648 -10967777.27046  21853797.699    21853797.8554   21853804.0004
       186.0004        185.0004
 21  2  2  0 37  0.0000000  0  8G30G08G27G09G07G21G01G04
  -3656734.22147  -2822821.68045  23962844.724    23962844.9404   23962851.5344
       154.0004        157.0004
 -18341946.96149 -14264359.66747  21245390.029    21245390.6574   21245397.9304
       195.0004        195.0004
  -4199835.32748  -3251900.99746  24138771.487    24138771.7344   24138778.2704
       173.0004        174.0004
 -18475164.98049 -14365570.09647  20929443.512    20929443.6934   20929450.3414
       211.0004        212.0004
 -17008292.93648 -13240487.88047  22053937.149    22053937.9234   22053942.2944
       192.0004        193.0004
 -15018203.82448 -11691519.92946  21830678.757    21830678.4744   21830683.4614
       179.0004        180.0004
 -14087301.52148 -10953806.93046  22288950.338    22288951.2794   22288959.3284
       174.0004        175.0004
 -14011503.18048 -10900897.82746  21870130.711    21870130.6884   21870136.5924
       186.0004        184.0004
 21  2  2  0 37 30.0000000  0  9G30G08G27G09G07G21G01G04G17
  -3742717.04047  -2889821.26145  23946480.877    23946481.8974   23946489.3394
       156.0004        159.0004
 -18267844.97149 -14206617.85147  21259491.304    21259491.4154   21259498.8214
       195.0004        195.0004
  -4091777.81148  -3167700.36746  24159334.039    24159335.1554   24159341.6314
       174.0004        175.0004
 -18445282.33149 -14342284.92547  20935129.412    20935130.3554   20935137.2594
       211.0004        211.0004
 -17082369.93248 -13298210.21947  22039841.288    22039841.4464   22039844.6814
       192.0004        192.0004
 -15035594.45448 -11705071.06046  21827369.233    21827369.0514   21827373.6514
       179.0004        179.0004
 -14161772.35848 -11011836.14146  22274780.299    22274779.8624   22274788.7594
       174.0004        174.0004
 -13925405.71448 -10833808.89746  21886513.743    21886514.8414   21886520.8514
       185.0004        184.0004
    910933.68854    725599.322 4                                  24709919.638
        74.0004        130.000
 21  2  2  0 38  0.0000000  0  8G30G08G27G09G07G21G01G04
  -3828778.05447  -2956881.75645  23930104.851    23930104.3974   23930112.4574
       156.0004        158.0004
 -18193400.37549 -14148609.06547  21273657.573    21273657.9324   21273665.0764
       195.0004        195.0004
  -3983667.16848  -3083458.29946  24179906.069    24179906.9314   24179913.6064
       173.0004        174.0004
 -18414893.05649 -14318604.98247  20940913.355    20940913.7604   20940919.7584
       211.0004        212.0004
 -17156366.04848 -13355869.53547  22025759.075    22025759.6724   22025764.0374
       191.0004        191.0004
 -15052571.82148 -11718300.17046  21824136.929    21824137.4914   21824142.7704
       179.0004        180.0004
 -14236097.91448 -11069752.13046  22260636.032    22260635.9574   22260645.0104
       174.0004        175.0004
 -13839041.68348 -10766512.24546  21902948.906    21902949.1984   21902955.1364
       185.0004        184.0004
 21  2  2  0 38 30.0000000  0  8G30G08G27G09G07G21G01G04
  -3914915.80547  -3024002.04645  23913712.872    23913713.9484   23913720.5054
       155.0004        158.0004
 -18118617.15048 -14090336.41447  21287887.067    21287887.6644   21287895.9414
       194.0004        195.0004
  -3875506.29548  -2999177.12846  24200488.980    24200489.6534   24200496.3624
       174.0004        175.0004
 -18383999.10749 -14294531.77347  20946791.101    20946791.6824   20946799.1404
       211.0004        211.0004
 -17230278.93848 -13413463.98947  22011693.972    22011695.0634   22011699.2364
       191.0004        192.0004
 -15069134.44048 -11731206.09946  21820986.580    21820987.0114   21820991.3524
       179.0004        180.0004
 -14310274.99248 -11127552.44346  22246520.159    22246521.9804   22246529.1914
       175.0004        176.0004
 -13752414.25748 -10699010.34846  21919433.501    21919433.8434   21919440.5784
       185.0004        185.0004
 21  2  2  0 39  0.0000000  0  9G30G08G27G09G07G21G01G04G17
  -4001131.09447  -3091182.79445  23897308.408    23897308.5884   23897313.9664
       157.0004        160.0004
 -18043499.52648 -14031803.20647  21302182.286    21302182.7014   21302190.3274
       194.0004        195.0004
  -3767300.17848  -2914860.68546  24221080.159    24221080.8234   24221086.6114
       176.0004        178.0004
 -18352604.60849 -14270068.52947  20952766.084    20952766.5634   20952772.6654
       211.0004        211.0004
 -17304108.54248 -13470993.54247  21997645.607    21997646.0354   21997649.9154
       192.0004        193.0004
 -15085282.68748 -11743789.13246  21817915.093    21817913.9054   21817918.4754
       180.0004        181.0004
 -14384302.72448 -11185236.37846  22232434.175    22232435.1004   22232441.2734
       175.0004        177.0004
 -13665528.78848 -10631307.39846  21935967.224    21935967.8124   21935973.4344
       185.0004        184.0004
  -1081058.25447   -823806.84745  24320445.084    24320445.9804   24320452.8994
       140.0004        145.0004
 21  2  2  0 39 30.0000000  0  9G30G08G27G09G07G21G01G04G17
  -4087424.11347  -3158424.09545  23880887.337    23880887.2074   23880893.2304
       159.0004        161.0004
 -17968052.81548 -13973013.56247  21316540.651    21316540.3044   21316547.2004
       194.0004        195.0004
  -3659053.22348  -2830512.41146  24241678.556    24241679.6644   24241685.6704
       176.0004        177.0004
 -18320713.13349 -14245218.03047  20958834.968    20958835.0644   20958841.5694
       211.0004        211.0004
 -17377854.07048 -13528457.58847  21983612.190    21983612.8414   21983616.1874
       192.0004        193.0004
 -15101017.03048 -11756049.64146  21814919.131    21814919.7734   21814924.0804
       180.0004        180.0004
 -14458179.57348 -11242802.72446  22218375.261    22218375.8414   22218383.5144
       175.0004        177.0004
 -13578389.86448 -10563406.94646  21952549.176    21952549.1164   21952555.5004
       185.0004        184.0004
  -1179186.91447   -900270.61445  24301772.575    24301773.3194   24301779.3534
       140.0004        144.0004
 21  2  2  0 40  0.0000000  0  9G30G08G27G09G07G21G01G04G17
  -4173788.26247  -3225720.80145  23864451.884    23864452.2554   23864458.9454
       156.0004        156.0004
 -17892274.54749 -13913965.56047  21330961.039    21330961.1794   21330967.5394
       195.0004        196.0004
  -3550763.01348  -2746130.41646  24262286.120    24262286.5874   24262293.6344
       179.0004        180.0004
 -18288321.40149 -14219977.73747  20964998.061    20964998.7674   20965005.9204
       210.0004        211.0004
 -17451507.90148 -13585850.18247  21969595.875    21969596.6844   21969600.7424
       192.0004        192.0004
 -15116330.34848 -11767982.09346  21812005.343    21812005.4834   21812009.4544
       180.0004        180.0004
 -14531897.18648 -11300245.00846  22204346.409    22204346.5484   22204355.9774
       175.0004        176.0004
 -13490995.45548 -10495307.41846  21969180.093    21969180.4064   21969186.3324
       185.0004        184.0004
  -1277103.30447   -976568.95845  24283139.846    24283139.4664   24283147.7824
       138.0004        142.0004
 21  2  2  0 40 30.0000000  0  9G30G08G27G09G07G21G01G04G17
  -4260221.03447  -3293070.99645  23848003.535    23848003.1714   23848010.5144
       153.0004        154.0004
 -17816166.92949 -13854660.92047  21345442.934    21345444.0514   21345450.2924
       195.0004        196.0004
  -3442431.25548  -2661716.08346  24282902.262    24282901.8364   24282908.2704
       180.0004        181.0004
 -18255430.43949 -14194348.41747  20971258.282    20971258.2674   20971264.8504
       211.0004        212.0004
 -17525066.76848 -13643168.79047  21955598.938    21955599.2924   21955602.7084
       192.0004        192.0004
 -15131219.90948 -11779584.32946  21809172.379    21809172.5364   21809176.9334
       181.0004        181.0004
 -14605451.39348 -11357559.94646  22190349.636    22190350.5774   22190358.6054
       176.0004        176.0004
 -13403347.60648 -10427010.39646  21985858.883    21985859.4124   21985864.7764
       184.0004        182.0004
  -1374804.79147  -1052699.88245  24264547.854    24264547.9364   24264555.0324
       137.0004        141.0004
 21  2  2  0 41  0.0000000  0  9G30G08G27G09G07G21G01G04G17
  -4346721.47347  -3360473.92745  23831543.546    23831543.3634   23831549.9734
       151.0004        154.0004
 -17739733.34349 -13795102.27847  21359987.131    21359987.8884   21359994.9134
       195.0004        194.0004
  -3334061.23248  -2577271.90646  24303523.398    24303523.2014   24303529.7034
       176.0004        175.0004
 -18222042.76349 -14168332.06047  20977611.167    20977611.3114   20977618.4074
       211.0004        211.0004
 -17598528.93348 -13700412.03747  21941618.875    21941619.6774   21941623.2404
       192.0004        192.0004
 -15145684.54248 -11790855.45646  21806419.710    21806419.4274   21806424.9274
       181.0004        182.0004
 -14678839.57548 -11414745.53546  22176384.356    22176385.3034   22176393.4764
       177.0004        177.0004
 -13315450.03948 -10358518.78646  22002584.693    22002585.2954   22002591.7954
       184.0004        184.0004
  -1472289.44446  -1128661.84045  24245996.632    24245997.7214   24246002.9794
       132.0004        136.0004
 21  2  2  0 41 30.0000000  0  9G30G08G27G09G07G21G01G04G17
  -4433288.97647  -3427929.11145  23815068.772    23815070.1634   23815077.7854
       152.0004        155.0004
 -17662977.93948 -13735292.87047  21374593.603    21374593.7774   21374601.0464
       194.0004        193.0004
  -3225656.57048  -2492800.70546  24324152.335    24324152.1844   24324158.0874
       174.0004        174.0004
 -18188161.23749 -14141930.86847  20984058.354    20984058.8654   20984065.4534
       211.0004        211.0004
 -17671892.71548 -13757578.61447  21927658.732    21927659.1084   21927663.1924
       193.0004        194.0004
 -15159723.57148 -11801794.94946  21803747.823    21803747.5824   21803752.0764
       180.0004        180.0004
 -14752059.45248 -11471799.97646  22162452.031    22162452.6374   22162459.9054
       176.0004        176.0004
 -13227306.70848 -10289835.68046  22019358.949    22019359.0974   22019364.9384
       184.0004        184.0004
  -1569555.92146  -1204453.83445  24227487.909    24227487.6194   24227490.9764
       130.0004        136.0004
 21  2  2  0 42  0.0000000  0  9G30G08G27G09G07G21G01G04G17
  -4519922.00947  -3495435.33645  23798584.702    23798584.3204   23798592.0894
       154.0004        158.0004
 -17585903.73748 -13675235.03947  21389260.504    21389260.7854   21389268.1954
       194.0004        195.0004
  -3117219.81448  -2408304.56746  24344787.416    24344787.3024   24344792.4494
       172.0004        171.0004
 -18153787.88849 -14115146.43647  20990599.857    20990600.6644   20990606.3044
       211.0004        211.0004
 -17745155.75348 -13814666.69147  21913718.120    21913717.8204   21913721.5674
       194.0004        195.0004
 -15173335.38848 -11812401.54346  21801157.870    21801157.4464   21801162.4644
       180.0004        180.0004
 -14825107.81648 -11528720.75246  22148549.725    22148551.3134   22148559.4684
       177.0004        177.0004
 -13138920.61948 -10220963.40346  22036177.444    22036178.0004   22036183.2954
       184.0004        182.0004
  -1666602.04247  -1280074.08045  24209020.791    24209021.7514   24209026.0554
       135.0004        143.0004
 21  2  2  0 42 30.0000000  0  9G30G08G27G09G07G21G01G04G17
  -4606619.42747  -3562991.76845  23782087.668    23782087.0944   23782094.7004
       157.0004        160.0004
 -17508514.10748 -13614931.43747  21403987.274    21403987.8004   21403994.9674
       194.0004        194.0004
  -3008754.24648  -2323785.90346  24365427.372    24365427.8814   24365432.6214
       171.0004        172.0004
 -18118925.14149 -14087980.68047  20997234.189    20997234.3514   20997240.1394
       210.0004        211.0004
 -17818316.26548 -13871674.87047  21899794.183    21899794.8714   21899799.8084
       194.0004        193.0004
 -15186519.21448 -11822674.63946  21798648.646    21798648.2404   21798653.2044
       180.0004        179.0004
 -14897981.87448 -11585505.72646  22134682.256    22134683.9014   22134692.5574
       176.0004        177.0004
 -13050295.36348 -10151904.76646  22053042.716    22053043.3784   22053048.7894
       183.0004        183.0004
  -1763426.51447  -1355521.55945  24190596.501    24190596.1904   24190601.6414
       142.0004        147.0004
 21  2  2  0 43  0.0000000  0  9G30G08G27G09G07G21G01G04G17
  -4693379.65247  -3630597.14245  23765576.943    23765576.8434   23765584.9464
       158.0004        161.0004
 -17430811.67948 -13554384.09147  21418773.062    21418773.8454   21418781.3054
       194.0004        194.0004
  -2900262.42048  -2239246.80946  24386072.415    24386072.9084   24386078.4264
       171.0004        171.0004
 -18083575.02749 -14060435.13647  21003960.028    21003960.3374   21003967.9594
       210.0004        210.0004
 -17891371.95748 -13928601.37647  21885892.179    21885892.8344   21885897.5144
       193.0004        193.0004
 -15199273.00648 -11832612.64246  21796221.993    21796221.6794   21796225.8674
       180.0004        180.0004
 -14970678.37048 -11642152.32346  22120848.767    22120849.6024   22120859.4744
       177.0004        177.0004
 -12961433.92848 -10082662.09546  22069951.416    22069952.0414   22069958.8664
       183.0004        183.0004
  -1860026.98747  -1430794.54145  24172211.879    24172211.6754   24172217.5534
       143.0004        147.0004
 21  2  2  0 43 30.0000000  0  9G30G08G27G09G07G21G01G04G17
  -4780200.50647  -3698249.72245  23749055.008    23749054.8184   23749063.3144
       159.0004        161.0004
 -17352799.49448 -13493595.38147  21433619.114    21433618.8074   21433625.8814
       193.0004        194.0004
  -2791746.35848  -2154688.89346  24406721.798    24406722.7364   24406728.8654
       171.0004        172.0004
 -18047738.98249 -14032510.95747  21010779.357    21010780.1274   21010787.1814
       210.0004        210.0004
 -17964319.76048 -13985443.82847  21872011.300    21872011.3434   21872015.8074
       193.0004        194.0004
 -15211594.85848 -11842214.07446  21793878.291    21793877.7834   21793881.8364
       180.0004        181.0004
 -15043193.57848 -11698657.66946  22107050.364    22107051.1544   22107058.7114
       177.0004        178.0004
 -12872338.78248 -10013237.31746  22086906.007    22086906.4774   22086913.0684
       183.0004        182.0004
  -1956400.62647  -1505890.77645  24153873.998    24153874.2574   24153878.8874
       144.0004        149.0004
 21  2  2  0 44  0.0000000  0  9G30G08G27G09G07G21G01G04G17
  -4867080.16247  -3765948.11445  23732521.911    23732522.6644   23732529.7084
       158.0004        160.0004
 -17274479.86948 -13432567.09247  21448521.923    21448522.8994   21448530.3264
       193.0004        193.0004
  -2683208.53048  -2070113.96246  24427375.834    24427377.2244   24427381.8014
       169.0004        170.0004
 -18011418.81349 -14004209.52747  21017691.725    21017691.9984   21017698.5324
       210.0004        210.0004
 -18037156.80648 -14042199.96347  21858150.705    21858151.0324   21858155.8314
       194.0004        195.0004
 -15223482.78048 -11851477.36946  21791615.088    21791614.9184   21791620.2534
       181.0004        182.0004
 -15115523.93148 -11755018.97446  22093286.663    22093287.1714   22093294.4144
       178.0004        179.0004
 -12783012.74748  -9943632.60846  22103904.417    22103904.7204   22103910.5584
       183.0004        182.0004
  -2052545.30747  -1580808.56345  24135576.895    24135577.3014   24135583.7174
       147.0004        151.0004
 21  2  2  0 44 30.0000000  0  9G30G08G27G09G07G21G01G04G17
  -4954016.53247  -3833690.73845  23715978.940    23715979.1704   23715985.8904
       157.0004        158.0004
 -17195855.48548 -13371301.35147  21463484.340    21463484.8844   21463492.1304
       193.0004        193.0004
  -2574651.01048  -1985523.70046  24448034.011    24448034.4544   24448041.1814
       169.0004        169.0004
 -17974616.23549 -13975532.20447  21024694.854    21024694.9674   21024701.8504
       210.0004        210.0004
 -18109880.36349 -14098867.67547  21844312.776    21844312.9524   21844316.9304
       195.0004        195.0004
 -15234934.93948 -11860401.11746  21789436.361    21789436.3994   21789441.6084
       182.0004        183.0004
 -15187665.82248 -11811233.42446  22079558.845    22079559.1794   22079567.3444
       178.0004        179.0004
 -12693458.50248  -9873850.08846  22120945.611    22120946.3404   22120953.0284
       183.0004        183.0004
  -2148458.22547  -1655545.78845  24117325.314    24117325.9384   24117332.5684
       148.0004        152.0004
 21  2  2  0 45  0.0000000  0  9G30G08G27G09G07G21G01G04G17
  -5041009.21447  -3901477.24745  23699425.547    23699425.6844   23699432.3554
       156.0004        159.0004
 -17116930.43148 -13309801.30847  21478503.459    21478503.5484   21478510.9444
       193.0004        193.0004
  -2466077.63248  -1900921.11746  24468695.788    24468695.9824   24468700.5344
       168.0004        169.0004
 -17937334.47549 -13946481.48547  21031789.597    21031789.5524   21031796.5354
       210.0004        210.0004
 -18182489.01149 -14155445.83947  21830495.020    21830495.7134   21830499.4934
       195.0004        194.0004
 -15245950.70648 -11868984.81046  21787339.600    21787339.2404   21787344.6244
       182.0004        182.0004
 -15259617.18948 -11867299.40346  22065866.978    22065867.2274   22065876.5984
       178.0004        179.0004
 -12603680.24748  -9803893.01246  22138030.826    22138030.9614   22138037.0954
       184.0004        183.0004
  -2244138.46847  -1730101.66845  24099118.555    24099118.5694   24099124.1024
       149.0004        153.0004
 21  2  2  0 45 30.0000000  0  9G30G08G27G09G07G21G01G04G17
  -5128056.88147  -3969306.57245  23682860.690    23682860.5604   23682866.7014
       156.0004        158.0004
 -17037708.31148 -13248069.78147  21493578.609    21493579.0924   21493585.8314
       192.0004        192.0004
  -2357491.20648  -1816308.31746  24489358.543    24489358.5714   24489364.9224
       169.0004        171.0004
 -17899575.98449 -13917059.28747  21038974.610    21038974.7994   21038981.6914
       210.0004        210.0004
 -18254980.66849 -14211932.84347  21816701.169    21816700.9594   21816705.3994
       195.0004        195.0004
 -15256529.00648 -11877227.64346  21785326.476    21785326.6284   21785332.1074
       182.0004        182.0004
 -15331375.07248 -11923214.62646  22052210.563    22052211.6994   22052219.6184
       178.0004        179.0004
 -12513681.35648  -9733764.00146  22155156.171    22155156.9124   22155163.2094
       184.0004        182.0004
  -2339584.19447  -1804474.83045  24080956.926    24080956.2314   24080961.7214
       151.0004        154.0004
 21  2  2  0 46  0.0000000  0  9G30G08G27G09G07G21G01G04G17
  -5215157.36147  -4037177.08445  23666285.698    23666286.2554   23666291.8554
       156.0004        158.0004
 -16958191.15548 -13186108.36647  21508709.779    21508710.2794   21508717.2874
       191.0004        191.0004
  -2248893.99348  -1731687.18146  24510023.485    24510023.5444   24510030.6984
       169.0004        170.0004
 -17861342.39949 -13887266.88447  21046249.876    21046250.5244   21046257.0444
       209.0004        209.0004
 -18327352.31748 -14268326.33647  21802928.489    21802929.6304   21802933.0774
       194.0004        195.0004
 -15266668.09348 -11885128.22746  21783397.510    21783397.1764   21783400.9234
       181.0004        180.0004
 -15402935.76148 -11978976.19646  22038594.814    22038595.0484   22038601.1274
       178.0004        179.0004
 -12423464.44448  -9663465.11746  22172324.366    22172324.6504   22172330.7874
       182.0004        181.0004
  -2434792.75347  -1878663.20945  24062838.261    24062838.5604   24062842.5014
       150.0004        152.0004
 21  2  2  0 46 30.0000000  0  9G30G08G27G09G07G21G01G04G17
  -5302308.02347  -4105086.69845  23649701.437    23649702.0314   23649709.0744
       158.0004        162.0004
 -16878381.41048 -13123918.95747  21523897.074    21523897.6344   21523904.7924
       191.0004        191.0004
  -2140287.56748  -1647058.79446  24530688.854    24530690.3574   24530696.8594
       168.0004        170.0004
 -17822634.86549 -13857105.18147  21053616.095    21053616.3874   21053622.8404
       209.0004        209.0004
 -18399600.47049 -14324623.60447  21789180.419    21789181.0704   21789184.4134
       195.0004        195.0004
 -15276365.17948 -11892684.38346  21781551.966    21781551.5064   21781554.9334
       180.0004        180.0004
 -15474295.01748 -12034580.80046  22025013.778    22025015.2294   22025022.4864
       178.0004        179.0004
 -12333031.53648  -9592997.93446  22189533.547    22189534.0904   22189539.2274
       182.0004        182.0004
  -2529761.03747  -1952664.36045  24044767.157    24044767.8604   24044770.2544
       149.0004        152.0004
 21  2  2  0 47  0.0000000  0  9G30G08G27G09G07G21G01G04G17
  -5389507.22747  -4173034.13045  23633106.889    23633107.5004   23633115.0634
       159.0004        161.0004
 -16798282.04048 -13061503.86947  21539139.577    21539140.5024   21539147.8944
       191.0004        192.0004
  -2031674.43648  -1562425.20946  24551354.317    24551357.0794   24551366.6544
       166.0004        166.0004
 -17783455.62249 -13826575.90847  21061071.750    21061072.2004   21061078.4134
       209.0004        210.0004
 -18471722.48049 -14380822.57447  21775456.091    21775456.2714   21775460.4554
       195.0004        195.0004
 -15285618.96448 -11899895.11446  21779790.468    21779790.7884   21779794.6544
       180.0004        181.0004
 -15545449.66448 -12090025.97646  22011473.400    22011474.3954   22011483.4514
       178.0004        179.0004
 -12242385.74548  -9522364.85546  22206781.871    22206782.6164   22206788.4184
       181.0004        180.0004
  -2624487.06647  -2026476.74645  24026740.957    24026740.9134   24026745.1854
       147.0004        149.0004
 21  2  2  0 47 30.0000000  0 10G30G08G27G14G09G07G21G01G04G17
  -5476752.19347  -4241017.18445  23616505.502    23616505.9744   23616513.4074
       159.0004        161.0004
 -16717894.58448 -12998864.29947  21554438.105    21554438.5114   21554444.4214
       192.0004        192.0004
  -1923055.93748  -1477787.48446  24572026.892    24572027.5294   24572035.8734
       167.0004        169.0004
  -1418518.67754  -1093772.39443  23605610.457
        74.0004         74.0004
 -17743805.69249 -13795679.86747  21068616.249    21068616.9294   21068623.4084
       209.0004        209.0004
 -18543715.10949 -14436920.72747  21761756.306    21761756.3904   21761760.6314
       195.0004        195.0004
 -15294426.91648 -11906758.44546  21778114.958    21778115.3214   21778118.1724
       181.0004        182.0004
 -15616395.30848 -12145308.27646  21997973.326    21997974.5024   21997982.2324
       178.0004        180.0004
 -12151529.02148  -9451567.41946  22224071.836    22224072.5624   22224078.1004
       180.0004        180.0004
  -2718967.91647  -2100098.12045  24008761.265    24008761.7504   24008765.6794
       149.0004        153.0004
 21  2  2  0 48  0.0000000  0  9G30G08G14G09G07G21G01G04G17
  -5564042.69447  -4309035.73146  23599895.510    23599895.4314   23599902.7944
       160.0004        163.0004
 -16637224.08748 -12936004.16847  21569789.007    21569789.1314   21569796.0884
       192.0004        191.0004
  -1445747.16144  -1114989.03945  23600428.395
        74.0004        135.0004
 -17703688.88449 -13764420.01847  21076250.451    21076250.8624   21076257.8294
       209.0004        209.0004
 -18615577.22949 -14492917.18647  21748081.010    21748081.7404   21748085.6184
       195.0004        195.0004
 -15302789.04548 -11913274.38246  21776522.849    21776523.1014   21776526.9454
       181.0004        182.0004
 -15687130.26148 -12200426.40146  21984513.912    21984514.5184   21984521.3064
       179.0004        180.0004
 -12060465.95648  -9380609.17746  22241400.026    22241400.6244   22241407.0274
       180.0004        180.0004
  -2813202.60547  -2173527.61445  23990828.524    23990828.4774   23990833.4174
       149.0004        153.0004
 21  2  2  0 48 30.0000000  0  9G30G08G14G09G07G21G01G04G17
  -5651377.65547  -4377088.94346  23583276.499    23583276.9554   23583282.8974
       162.0004        164.0004
 -16556273.81949 -12872926.03547  21585192.811    21585192.9304   21585199.5034
       205.0004        208.0004
  -1472916.17346  -1136159.83745  23595257.760                    23595261.7714
       127.0004        140.0004
 -17663107.98049 -13732798.53347  21083973.324    21083973.2394   21083979.7874
       209.0004        209.0004
 -18687306.89949 -14548810.43347  21734431.880    21734432.2304   21734436.2424
       195.0004        196.0004
 -15310704.51948 -11919442.27046  21775016.785    21775016.9424   21775021.1584
       182.0004        182.0004
 -15757651.87348 -12255378.30046  21971093.619    21971094.3644   21971101.8844
       179.0004        181.0004
 -11969200.18848  -9309493.00846  22258767.942    22258768.6994   22258773.8894
       180.0004        179.0004
  -2907189.23647  -2246763.84545  23972943.411    23972943.1834   23972948.3074
       151.0004        154.0004
 21  2  2  0 49  0.0000000  0  9G30G08G14G09G07G21G01G04G17
  -5738754.36247  -4445174.69046  23566649.645    23566649.2824   23566655.5474
       162.0004        163.0004
 -16475046.17049 -12809631.76947  21600649.637    21600650.2524   21600656.4964
       209.0004        208.0004
  -1500026.08647  -1157284.38745  23590097.760    23590101.1664   23590101.0294
       136.0004        143.0004
 -17622064.23849 -13700816.39947  21091782.916    21091783.4404   21091790.2924
       209.0004        209.0004
 -18758900.64649 -14604597.76047  21720808.036    21720808.1204   21720812.1774
       196.0004        196.0004
 -15318171.15948 -11925260.41946  21773595.813    21773596.3194   21773600.9504
       182.0004        181.0004
 -15827955.92048 -12310160.63846  21957714.775    21957715.7444   21957723.2394
       179.0004        180.0004
 -11877733.79048  -9238220.49946  22276173.330    22276173.5864   22276180.2414
       179.0004        177.0004
  -3000925.72347  -2319805.13645  23955105.486    23955105.9334   23955113.0724
       153.0004        156.0004
 21  2  2  0 49 30.0000000  0  9G30G08G14G09G07G21G01G04G17
  -5826170.89747  -4513291.48546  23550014.578    23550014.1374   23550021.0904
       163.0004        165.0004
 -16393543.41849 -12746123.12548  21616160.501    21616160.1834   21616166.2544
       218.0004        223.0004
  -1527078.06047  -1178363.80245  23584952.417    23584953.0354   23584956.6264
       140.0004        145.0004
 -17580559.73449 -13668475.24147  21099681.191    21099681.5734   21099688.2194
       209.0004        209.0004
 -18830355.67149 -14660277.00047  21707210.207    21707210.8514   21707215.1614
       196.0004        195.0004
 -15325187.43848 -11930727.62946  21772262.149    21772261.0234   21772266.2494
       182.0004        183.0004
 -15898038.94348 -12364770.77446  21944378.863    21944379.3184   21944387.3974
       179.0004        180.0004
 -11786069.69948  -9166793.94946  22293615.892    22293616.7484   22293622.7134
       177.0004        177.0004
  -3094409.62247  -2392649.62745  23937317.290    23937317.3094   23937322.2914
       155.0004        158.0004
 21  2  2  0 50  0.0000000  0  9G30G08G14G09G07G21G01G04G17
  -5913626.82047  -4581438.95046  23533371.004    23533370.7524   23533378.5454
       163.0004        165.0004
 -16311770.22149 -12682403.75048  21631720.737    21631720.9034   21631727.4634
       222.0004        223.0004
  -1554074.72747  -1199400.10545  23579814.637    23579815.7104   23579821.3444
       141.0004        145.0004
 -17538597.96949 -13635777.76547  21107666.549    21107666.9924   21107673.6804
       209.0004        210.0004
 -18901670.69949 -14715847.14947  21693639.457    21693640.0284   21693643.5824
       195.0004        195.0004
 -15331753.05448 -11935843.66846  21771012.498    21771011.7044   21771017.3044
       182.0004        183.0004
 -15967899.02748 -12419207.18346  21931085.216    21931085.6874   21931093.3414
       180.0004        181.0004
 -11694212.24848  -9095216.72746  22311096.934    22311096.5684   22311102.3604
       176.0004        177.0004
  -3187639.98047  -2465296.54145  23919575.148    23919575.2484   23919581.0074
       155.0004        157.0004
 21  2  2  0 50 30.0000000  0  9G30G08G14G09G07G21G01G04G17
  -6001119.31247  -4649614.89546  23516722.702    23516721.6374   23516729.9634
       164.0004        165.0004
 -16229728.62049 -12618475.24048  21647332.279    21647332.4434   21647339.8364
       223.0004        222.0004
  -1581016.25447  -1220393.46945  23574687.297    23574688.8484   23574697.9624
       146.0004        152.0004
 -17496180.35349 -13602725.08647  21115738.358    21115738.6064   21115745.3934
       209.0004        209.0004
 -18972841.94549 -14771305.27747  21680095.466    21680096.3734   21680100.7284
       196.0004        196.0004
 -15337865.77148 -11940606.80946  21769847.886    21769848.3484   21769853.8894
       182.0004        183.0004
 -16037531.84348 -12473466.51646  21917833.534    21917834.6954   21917841.9644
       179.0004        181.0004
 -11602163.41748  -9023490.37946  22328613.702    22328613.8314   22328619.0794
       177.0004        178.0004
  -3280613.74347  -2537743.52345  23901883.046    23901883.3094   23901888.9024
       156.0004        158.0004
 21  2  2  0 51  0.0000000  0  9G30G08G14G09G07G21G01G04G17
  -6088646.25547  -4717817.67446  23500067.119    23500066.4874   23500073.0584
       164.0004        166.0004
 -16147421.09949 -12554339.50848  21662994.162    21662994.5474   21663002.1514
       222.0004        221.0004
  -1607903.74147  -1241344.76445  23569571.484    23569571.7134   23569579.8744
       151.0004        156.0004
 -17453308.72349 -13569318.61647  21123896.361    21123896.6074   21123903.4804
       209.0004        209.0004
 -19043867.06349 -14826649.52647  21666580.290    21666580.8154   21666584.5984
       196.0004        196.0004
 -15343523.97648 -11945015.79046  21768771.631    21768771.1164   21768776.4904
       182.0004        182.0004
 -16106933.78348 -12527545.92846  21904627.178    21904628.1154   21904636.7874
       180.0004        181.0004
 -11509925.94048  -8951617.02646  22346165.156    22346165.9204   22346171.7494
       178.0004        177.0004
  -3373328.45047  -2609988.65645  23884239.048    23884239.6064   23884244.8524
       156.0004        157.0004
 21  2  2  0 51 30.0000000  0  9G30G08G14G09G07G21G01G04G17
  -6176205.44947  -4786045.61846  23483404.559    23483404.9094   23483410.9574
       164.0004        165.0004
 -16064850.38849 -12489998.69448  21678706.771    21678707.5834   21678715.0164
       222.0004        221.0004
  -1634737.96847  -1262254.55345  23564466.328    23564466.8944   23564472.7834
       155.0004        157.0004
 -17409985.05949 -13535559.92747  21132141.491    21132141.4604   21132147.3204
       209.0004        209.0004
 -19114742.81349 -14881877.38547  21653093.461    21653094.1444   21653097.9124
       196.0004        196.0004
 -15348726.01648 -11949069.31646  21767781.123    21767781.8674   21767785.8544
       182.0004        182.0004
 -16176101.25148 -12581442.63346  21891465.176    21891465.9384   21891474.2384
       181.0004        182.0004
 -11417502.45848  -8879598.73746  22363751.957    22363753.2424   22363758.8364
       177.0004        175.0004
  -3465781.80547  -2682030.14845  23866646.076    23866646.8164   23866651.2184
       156.0004        158.0004
 21  2  2  0 52  0.0000000  0  9G30G08G14G09G07G21G01G04G17
  -6263795.66748  -4854297.73746  23466737.045    23466737.1234   23466743.2424
       165.0004        166.0004
 -15982019.31149 -12425455.00448  21694470.765    21694470.6114   21694477.0624
       223.0004        222.0004
  -1661520.86747  -1283124.34545  23559369.056    23559369.6844   23559374.2284
       153.0004        154.0004
 -17366212.22049 -13501451.21947  21140470.596    21140470.6534   21140477.2714
       208.0004        208.0004
 -19185467.34549 -14936987.40447  21639634.484    21639634.9764   21639638.9234
       196.0004        196.0004
 -15353471.19848 -11952766.85146  21766879.590    21766878.8124   21766883.3884
       182.0004        183.0004
 -16245031.49848 -12635154.50446  21878347.945    21878348.7434   21878356.9164
       181.0004        181.0004
 -11324896.58648  -8807438.31246  22381373.961    22381374.6394   22381380.4494
       175.0004        174.0004
  -3557972.09647  -2753866.67045  23849103.611    23849103.8434   23849108.4104
       158.0004        160.0004
 21  2  2  0 52 30.0000000  0  9G30G08G14G09G07G21G01G04G17
  -6351415.22147  -4922572.71946  23450063.324    23450063.7244   23450069.6154
       164.0004        165.0004
 -15898931.70549 -12360711.42048  21710281.281    21710281.5804   21710288.2424
       223.0004        223.0004
  -1688253.89147  -1303955.23745  23554281.809    23554282.2284   23554286.8484
       151.0004        154.0004
 -17321992.63949 -13466994.41247  21148884.344    21148885.3744   21148892.2354
       208.0004        209.0004
 -19256037.83249 -14991977.38447  21626205.228    21626205.7584   21626210.2944
       196.0004        197.0004
 -15357758.29648 -11956107.42846  21766064.346    21766063.0984   21766067.5234
       183.0004        182.0004
 -16313721.37548 -12688679.06646  21865276.566    21865277.2974   21865285.1204
       181.0004        182.0004
 -11232111.43148  -8735138.20146  22399031.921    22399031.4164   22399038.1914
       175.0004        176.0004
  -3649897.53847  -2825496.82445  23831610.783    23831611.1064   23831615.8074
       157.0004        158.0004
 21  2  2  0 53  0.0000000  0  9G30G08G14G09G07G21G01G04G17
  -6439062.76647  -4990869.51146  23433383.294    23433383.8594   23433390.5794
       163.0004        164.0004
 -15815590.80449 -12295770.46948  21726140.150    21726140.4034   21726147.2654
       223.0004        222.0004
  -1714938.77247  -1324748.62245  23549203.492    23549204.0084   23549209.1194
       153.0004        157.0004
 -17277329.23349 -13432191.76347  21157384.586    21157384.8784   21157391.5844
       209.0004        210.0004
 -19326451.98849 -15046845.56747  21612805.588    21612806.2114   21612810.7964
       197.0004        197.0004
 -15361586.33248 -11959090.31146  21765334.950    21765334.4894   21765338.7634
       183.0004        183.0004
 -16382168.14248 -12742014.20346  21852251.922    21852252.3374   21852260.3484
       181.0004        182.0004
 -11139150.59548  -8662701.20746  22416720.633    22416721.2104   22416727.9944
       175.0004        177.0004
  -3741556.70247  -2896919.49745  23814167.450    23814168.0594   23814172.9624
       154.0004        154.0004
 21  2  2  0 53 30.0000000  0  9G30G08G14G09G07G21G01G04G17
  -6526734.30647  -5059184.98946  23416700.194    23416700.5004   23416707.8134
       163.0004        164.0004
 -15731997.57649 -12230632.87648  21742047.200    21742047.5494   21742054.3764
       221.0004        220.0004
  -1741574.71947  -1345503.87445  23544134.411    23544135.5754   23544140.9924
       157.0004        159.0004
 -17232222.18649 -13397043.41647  21165967.294    21165967.7914   21165975.2554
       209.0004        209.0004
 -19396705.62449 -15101588.66447  21599438.024    21599438.0844   21599441.8954
       197.0004        197.0004
 -15364952.41248 -11961713.20746  21764694.271    21764693.4124   21764697.8524
       183.0004        183.0004
 -16450366.38848 -12795155.67346  21839274.498    21839274.7524   21839282.2574
       181.0004        182.0004
 -11046014.95748  -8590127.96846  22434444.812    22434444.5454   22434451.1534
       176.0004        177.0004
  -3832945.42747  -2968131.38745  23796775.291    23796776.8764   23796781.8024
       149.0004        151.0004
 21  2  2  0 54  0.0000000  0  9G30G08G14G09G07G21G01G04G17
  -6614428.88847  -5127518.42146  23400012.896    23400012.8414   23400020.6154
       164.0004        166.0004
 -15648155.50349 -12165301.40948  21758002.166    21758002.0844   21758009.0974
       221.0004        220.0004
  -1768163.89347  -1366222.69345  23539075.213    23539076.3434   23539080.4964
       156.0004        157.0004
 -17186674.79249 -13361551.95247  21174635.323    21174635.6184   21174642.1294
       209.0004        209.0004
 -19466796.69549 -15156205.08747  21586099.840    21586100.2254   21586104.3214
       198.0004        199.0004
 -15367856.06848 -11963975.79946  21764140.959    21764141.6374   21764146.4304
       183.0004        183.0004
 -16518313.75248 -12848101.64746  21826344.986    21826344.9594   21826352.7684
       182.0004        183.0004
 -10952708.41548  -8517421.56046  22452200.129    22452200.4804   22452207.0504
       177.0004        177.0004
  -3924062.69347  -3039131.76745  23779438.996    23779437.4864   23779442.9544
       149.0004        153.0004
 21  2  2  0 54 30.0000000  0  9G30G08G14G09G07G21G01G04G17
  -6702145.39248  -5195868.93046  23383320.827    23383321.2694   23383328.2094
       165.0004        166.0004
 -15564068.72549 -12099779.25648  21774003.424    21774003.7894   21774010.5814
       221.0004        221.0004
  -1794708.34847  -1386906.65845  23534024.502    23534025.1374   23534029.3244
       156.0004        158.0004
 -17140690.20849 -13325719.81147  21183385.705    21183386.2124   21183393.0084
       209.0004        209.0004
 -19536723.48749 -15210693.48747  21572792.696    21572793.1274   21572797.8094
       198.0004        198.0004
 -15370296.89248 -11965877.73046  21763677.640    21763677.1124   21763682.3334
       185.0004        186.0004
 -16586007.72248 -12900850.17646  21813462.707    21813463.0084   21813471.1744
       183.0004        184.0004
 -10859234.78848  -8444584.95346  22469987.430    22469988.7224   22469993.7184
       176.0004        175.0004
  -4014906.80647  -3109919.31045  23762152.611    23762152.1314   23762154.9884
       154.0004        157.0004
 21  2  2  0 55  0.0000000  0  9G30G08G14G09G07G21G01G04G17
  -6789881.76347  -5264234.94145  23366624.806    23366625.3214   23366631.9904
       163.0004        162.0004
 -15479739.91749 -12034068.49148  21790051.121    21790051.5994   21790057.5904
       222.0004        221.0004
  -1821209.15247  -1407556.61845  23528980.232    23528981.3464   23528986.4884
       157.0004        159.0004
 -17094270.68249 -13289548.74647  21192218.654    21192219.2664   21192226.3714
       209.0004        209.0004
 -19606483.04849 -15265051.58447  21559518.121    21559518.7854   21559522.6094
       198.0004        198.0004
 -15372273.41148 -11967417.85746  21763301.387    21763300.9894   21763307.1354
       186.0004        187.0004
 -16653444.86948 -12953398.59546  21800629.482    21800629.6004   21800637.7934
       183.0004        184.0004
 -10765596.89648  -8371620.35746  22487806.492    22487807.3954   22487811.8774
       175.0004        176.0004
  -4105475.93847  -3180492.57845  23744915.834    23744916.2964   23744920.7764
       155.0004        158.0004
 21  2  2  0 55 30.0000000  0  9G30G08G14G09G07G21G01G04G17
  -6877635.82447  -5332614.72246  23349926.074    23349926.9814   23349934.0224
       162.0004        164.0004
 -15395171.83649 -11968171.28848  21806144.135    21806143.8954   21806150.4754
       221.0004        220.0004
  -1847667.31647  -1428173.35246  23523947.470    23523947.4444   23523952.1514
       161.0004        164.0004
 -17047418.34149 -13253040.43047  21201135.016    21201135.3954   21201141.9364
       208.0004        208.0004
 -19676072.71449 -15319277.31447  21546275.855    21546276.2454   21546279.8704
       198.0004        197.0004
 -15373783.99148 -11968594.91646  21763013.987    21763012.9234   21763019.9324
       187.0004        186.0004
 -16720621.62248 -13005744.09446  21787845.291    21787846.3464   21787855.0364
       183.0004        184.0004
 -10671797.48248  -8298529.90446  22505655.858    22505655.7814   22505661.7044
       176.0004        176.0004
  -4195768.08647  -3250850.03545  23727733.501    23727734.7634   23727741.1014
       157.0004        160.0004
 21  2  2  0 56  0.0000000  0  9G30G08G14G09G07G21G01G04G17
  -6965405.31947  -5401006.51046  23333224.658    23333225.4384   23333231.6654
       164.0004        167.0004
 -15310366.79549 -11902089.43948  21822280.820    21822281.3674   21822288.2304
       220.0004        219.0004
  -1874083.80147  -1448757.61846  23518919.821    23518920.0124   23518924.8334
       164.0004        166.0004
 -17000135.33149 -13216196.53247  21210132.596    21210132.9584   21210139.1924
       208.0004        208.0004
 -19745489.34849 -15373368.18547  21533066.084    21533066.0004   21533070.4294
       197.0004        197.0004
 -15374827.52948 -11969408.04247  21762814.482    21762814.4294   21762820.7834
       187.0004        188.0004
 -16787534.40648 -13057883.90046  21775112.757    21775113.8394   21775122.0344
       184.0004        184.0004
 -10577839.27448  -8225315.71846  22523534.977    22523535.5784   22523542.1224
       176.0004        176.0004
  -4285780.74847  -3320989.71145  23710606.223    23710606.2504   23710610.4604
       158.0004        159.0004
 21  2  2  0 56 30.0000000  0  9G30G08G14G09G07G21G01G04G17
  -7053188.87948  -5469409.26846  23316519.387    23316519.6364   23316527.5284
       165.0004        166.0004
 -15225328.52349 -11835825.86848  21838463.544    21838463.6644   21838470.4474
       220.0004        219.0004
  -1900460.34647  -1469310.74246  23513899.553    23513900.3094   23513905.7454
       164.0004        164.0004
 -16952424.58749 -13179019.32647  21219211.211    21219211.7524   21219218.7774
       208.0004        208.0004
 -19814730.74149 -15427322.52047  21519889.571    21519890.6744   21519894.6324
       198.0004        199.0004
 -15375403.85948 -11969857.10647  21762705.092    21762705.1164   21762711.7664
       187.0004        189.0004
 -16854180.53148 -13109815.93446  21762430.230    21762431.4234   21762439.5244
       184.0004        184.0004
 -10483725.79148  -8151980.54546  22541443.659    22541444.8774   22541450.9274
       176.0004        175.0004
  -4375512.37647  -3390910.40745  23693531.435    23693531.1974   23693534.4984
       157.0004        158.0004
 21  2  2  0 57  0.0000000  0  9G30G08G14G09G07G21G01G04G17
  -7140984.31048  -5537821.27746  23299812.473    23299813.2024   23299820.4214
       165.0004        167.0004
 -15140059.45749 -11769382.43648  21854689.696    21854689.9534   21854696.5184
       219.0004        219.0004
  -1926798.04447  -1489833.61846  23508888.448    23508889.3604   23508894.1804
       163.0004        165.0004
 -16904288.34549 -13141510.57147  21228371.940    21228372.1324   21228378.6504
       207.0004        208.0004
 -19883793.78949 -15481137.88847  21506748.881    21506748.5484   21506751.5724
       199.0004        198.0004
 -15375510.84548 -11969940.44946  21762684.638    21762684.3164   21762692.0574
       187.0004        187.0004
 -16920556.42648 -13161537.40046  21749800.887    21749801.6274   21749808.1574
       184.0004        186.0004
 -10389459.79048  -8078526.50846  22559382.419    22559382.7584   22559389.1114
       176.0004        176.0004
  -4464960.66847  -3460610.31645  23676508.032    23676508.0204   23676512.8954
       154.0004        156.0004
 21  2  2  0 57 30.0000000  0  9G30G08G14G09G07G21G01G04G17
  -7228788.82048  -5606240.35046  23283104.339    23283103.6404   23283111.6804
       165.0004        166.0004
 -15054562.14649 -11702761.16948  21870960.009    21870959.8974   21870966.2214
       219.0004        219.0004
  -1953097.18047  -1510326.44046  23503884.572    23503884.1524   23503889.6644
       162.0004        164.0004
 -16855728.18449 -13103671.49847  21237612.281    21237612.7604   21237619.0104
       207.0004        207.0004
 -19952675.23749 -15534811.74147  21493639.516    21493640.3104   21493644.2584
       198.0004        199.0004
 -15375146.72148 -11969656.70347  21762754.306    21762753.9704   21762760.4724
       187.0004        188.0004
 -16986657.97048 -13213045.08946  21737221.785    21737222.2764   21737229.3374
       185.0004        184.0004
 -10295043.37248  -8004955.28346  22577349.820    22577350.1904   22577355.1794
       176.0004        176.0004
  -4554122.96247  -3530087.39445  23659539.798    23659539.3944   23659546.1464
       154.0004        155.0004
 21  2  2  0 58  0.0000000  0  9G30G08G14G09G07G21G01G04G17
  -7316601.79448  -5674666.02546  23266393.646    23266393.7904   23266401.2114
       165.0004        167.0004
 -14968840.54449 -11635965.11348  21887272.060    21887272.4154   21887278.6134
       220.0004        219.0004
  -1979360.47447  -1530791.32246  23498886.473    23498887.0124   23498891.0964
       162.0004        163.0004
 -16806748.02649 -13065505.14447  21246932.577    21246933.0714   21246940.1504
       207.0004        207.0004
 -20021373.73849 -15588343.04147  21480567.768    21480567.4784   21480571.4084
       199.0004        199.0004
 -15374311.40448 -11969005.79046  21762913.276    21762912.6954   21762918.9814
       187.0004        186.0004
 -17052483.28848 -13264337.51946  21724693.958    21724694.8414   21724704.0854
       184.0004        184.0004
 -10200480.94748  -7931270.28346  22595344.125    22595344.2864   22595350.6144
       176.0004        175.0004
  -4642998.70647  -3599341.13645  23642627.866    23642629.3094   23642632.8064
       154.0004        157.0004
 21  2  2  0 58 30.0000000  0  9G30G08G14G09G07G21G01G04G17
  -7404420.21948  -5743095.96546  23249682.373    23249682.4954   23249689.7594
       167.0004        170.0004
 -14882896.89649 -11568996.03348  21903626.834    21903626.7704   21903632.8694
       219.0004        218.0004
  -2005588.10247  -1551228.39546  23493895.784    23493895.5474   23493900.8174
       163.0004        164.0004
 -16757349.30149 -13027012.63347  21256333.119    21256333.3604   21256340.4274
       207.0004        207.0004
 -20089885.25949 -15641728.64347  21467529.651    21467530.0284   21467533.5174
       198.0004        198.0004
 -15373003.84748 -11967986.89646  21763162.383    21763161.6884   21763166.9514
       186.0004        185.0004
 -17118028.11348 -13315411.39446  21712221.610    21712222.4234   21712230.6484
       184.0004        185.0004
 -10105774.50848  -7857473.03446  22613366.236    22613367.0384   22613372.1424
       175.0004        175.0004
  -4731585.06747  -3668369.42145  23625771.959    23625772.1874   23625774.6994
       155.0004        157.0004
 21  2  2  0 59  0.0000000  0  9G30G08G14G09G07G21G01G04G17
  -7492243.20248  -5811529.43646  23232969.255    23232970.4224   23232977.6624
       168.0004        168.0004
 -14796735.23449 -11501857.07648  21920021.874    21920022.4544   21920028.5094
       218.0004        217.0004
  -2031782.38147  -1571639.50646  23488910.353    23488911.5324   23488915.4904
       162.0004        164.0004
 -16707535.62249 -12988196.78747  21265812.309    21265813.0064   21265819.4764
       207.0004        207.0004
 -20158208.85449 -15694967.81047  21454527.671    21454528.3234   21454532.1854
       198.0004        198.0004
 -15371223.72448 -11966599.78146  21763500.976    21763500.6634   21763505.6724
       185.0004        184.0004
 -17183290.22748 -13366264.98346  21699804.506    21699804.4164   21699811.8964
       185.0004        186.0004
 -10010928.07548  -7783566.72646  22631415.338    22631414.4224   22631420.9864
       175.0004        175.0004
  -4819881.10747  -3737171.52045  23608967.458    23608967.9514   23608973.6194
       154.0004        154.0004
 21  2  2  0 59 30.0000000  0  9G30G08G14G09G07G21G01G04G17
  -7580067.28148  -5879963.77746  23216257.743    23216257.8014   23216264.9814
       166.0004        167.0004
 -14710356.58449 -11434549.05048  21936459.668    21936459.8584   21936466.1164
       218.0004        218.0004
  -2057943.03347  -1592024.41446  23483932.010    23483932.8764   23483937.4674
       163.0004        164.0004
 -16657308.00549 -12949058.39147  21275370.510    21275370.6374   21275377.9184
       207.0004        207.0004
 -20226340.03549 -15748057.03947  21441562.705    21441563.2414   21441567.5684
       198.0004        199.0004
 -15368968.54748 -11964842.47946  21763929.978    21763929.4494   21763933.8214
       184.0004        184.0004
 -17248264.86548 -13416894.56046  21687439.825    21687440.3974   21687448.0074
       186.0004        186.0004
  -9915943.15048  -7709552.49846  22649489.173    22649489.8954   22649496.7674
       174.0004        174.0004
  -4907883.38147  -3805744.67345  23592223.160    23592223.6754   23592227.2344
       154.0004        158.0004
 21  2  2  1  0  0.0000000  0  9G30G08G14G09G07G21G01G04G17
  -7667891.39548  -5948398.15446  23199546.088    23199545.9544   23199552.9564
       168.0004        170.0004
 -14623764.51549 -11367074.70748  21952937.818    21952937.9564   21952944.5594
       218.0004        218.0004
  -2084072.39347  -1612384.91546  23478960.630    23478961.3284   23478965.6134
       164.0004        166.0004
 -16606670.05149 -12909600.24647  21285006.669    21285006.8424   21285013.8084
       207.0004        208.0004
 -20294277.28149 -15800995.15447  21428635.147    21428635.6354   21428639.7754
       199.0004        199.0004
 -15366238.47048 -11962715.13646  21764448.616    21764448.5794   21764453.3704
       183.0004        182.0004
 -17312949.90448 -13467298.46746  21675128.763    21675130.4634   21675138.1864
       185.0004        184.0004
  -9820823.80248  -7635433.53246  22667588.588    22667589.6194   22667597.7784
       173.0004        173.0004
  -4995591.03547  -3874088.25745  23575534.214    23575534.0074   23575537.1404
       158.0004        161.0004
 21  2  2  1  0 30.0000000  0  9G30G08G14G09G07G21G01G04G17
  -7755713.89548  -6016831.25046  23182833.792    23182833.6274   23182840.7934
       169.0004        171.0004
 -14536962.85949 -11299437.04448  21969454.920    21969455.3774   21969462.2024
       218.0004        216.0004
  -2110171.93747  -1632722.19046  23473992.916    23473993.6964   23473999.1274
       164.0004        165.0004
 -16555624.60549 -12869824.57347  21294720.390    21294720.5224   21294727.4484
       207.0004        207.0004
 -20362017.88949 -15853780.04347  21415744.580    21415744.7364   21415749.2184
       199.0004        199.0004
 -15363032.78148 -11960217.18646  21765058.725    21765058.7054   21765062.9044
       182.0004        181.0004
 -17377342.29748 -13517474.35546  21662876.054    21662877.1694   21662884.6414
       185.0004        186.0004
  -9725573.26948  -7561212.36246  22685716.278    22685716.7014   22685722.5334
       172.0004        172.0004
  -5083002.62047  -3942201.13945  23558898.992    23558899.6734   23558904.2444
       159.0004        161.0004
 21  2  2  1  1  0.0000000  0  9G30G08G14G09G07G21G01G04G17
  -7843531.65248  -6085260.68546  23166122.880    23166122.7164   23166129.4014
       169.0004        170.0004
 -14449953.38949 -11231637.46048  21986013.096    21986012.6644   21986019.9564
       217.0004        217.0004
  -2136241.78247  -1653036.32246  23469032.509    23469033.4394   23469037.9894
       163.0004        163.0004
 -16504173.13049 -12829732.51947  21304510.542    21304511.1444   21304518.0464
       206.0004        206.0004
 -20429558.09349 -15906408.76947  21402891.811    21402892.2834   21402896.7894
       199.0004        200.0004
 -15359349.27548 -11957346.92046  21765760.615    21765760.1464   21765763.0464
       182.0004        182.0004
 -17441437.75248 -13567418.86246  21650679.518    21650680.3544   21650688.3944
       186.0004        187.0004
  -9630193.46948  -7486890.44346  22703866.127    22703866.3974   22703872.7164
       172.0004        172.0004
  -5170114.67647  -4010080.61745  23542323.661    23542322.3964   23542327.3904
       159.0004        161.0004
 21  2  2  1  1 30.0000000  0  9G30G08G14G09G07G21G01G04G17
  -7931344.32148  -6153686.14646  23149411.982    23149412.0964   23149419.6344
       171.0004        173.0004
 -14362740.76049 -11163679.59148  22002608.740    22002608.8274   22002615.6294
       217.0004        216.0004
  -2162284.95447  -1673329.69846  23464076.617    23464077.0814   23464082.1074
       162.0004        164.0004
 -16452319.95249 -12789327.45447  21314377.399    21314377.8004   21314385.3774
       205.0004        205.0004
 -20496896.76849 -15958880.47247  21390078.065    21390078.4174   21390082.5374
       200.0004        200.0004
 -15355188.85948 -11954105.03746  21766552.349    21766551.5264   21766554.9354
       182.0004        182.0004
 -17505234.76148 -13617130.79346  21638538.563    21638539.0664   21638547.3994
       186.0004        186.0004
  -9534689.04848  -7412471.43846  22722040.420    22722039.8814   22722047.7914
       171.0004        170.0004
  -5256927.16947  -4077726.68445  23525800.693    23525801.3844   23525807.0814
       156.0004        156.0004
 21  2  2  1  2  0.0000000  0  9G30G08G14G09G07G21G01G04G17
  -8019147.85448  -6222104.47546  23132703.253    23132704.0644   23132710.4374
       171.0004        171.0004
 -14275325.48749 -11095563.79248  22019243.963    22019243.6434   22019250.1074
       217.0004        217.0004
  -2188300.57647  -1693601.59446  23459125.667    23459126.6014   23459131.7274
       162.0004        163.0004
 -16400065.59149 -12748609.77947  21324321.332    21324321.8234   21324329.4004
       205.0004        206.0004
 -20564029.14949 -16011191.41447  21377303.339    21377303.8974   21377307.8404
       200.0004        200.0004
 -15350548.73248 -11950489.33246  21767435.810    21767435.2214   21767438.8424
       182.0004        183.0004
 -17568728.02848 -13666606.05346  21626455.710    21626457.1864   21626465.0444
       185.0004        186.0004
  -9439060.97048  -7337956.08146  22740237.683    22740237.2014   22740244.2874
       170.0004        170.0004
  -5343436.74847  -4145136.70545  23509338.307    23509339.1944   23509345.2534
       155.0004        158.0004
 21  2  2  1  2 30.0000000  0  9G30G08G14G09G07G21G01G04G17
  -8106940.55648  -6290514.37446  23115998.332    23115998.2334   23116005.1774
       172.0004        174.0004
 -14187711.02349 -11027292.79448  22035915.736    22035916.0884   22035922.6814
       217.0004        217.0004
  -2214290.27647  -1713853.27946  23454179.609    23454180.9624   23454185.8714
       161.0004        163.0004
 -16347413.06149 -12707581.85447  21334341.412    21334341.8304   21334348.3154
       205.0004        205.0004
 -20630953.03149 -16063339.90247  21364567.813    21364568.1924   21364572.7484
       200.0004        200.0004
 -15345428.26148 -11946499.35346  21768409.444    21768409.5174   21768412.8944
       182.0004        182.0004
 -17631914.74348 -13715842.44146  21614433.417    21614433.8474   21614441.2014
       186.0004        187.0004
  -9343312.57448  -7263346.97046  22758457.419    22758458.6404   22758464.8624
       170.0004        170.0004
  -5429641.69547  -4212309.35545  23492935.141    23492935.4574   23492940.4774
       156.0004        158.0004
 21  2  2  1  3  0.0000000  0  9G30G08G14G09G07G21G01G04G17
  -8194720.53648  -6358914.34246  23099294.026    23099293.7664   23099300.8904
       172.0004        172.0004
 -14099901.00849 -10958869.40248  22052624.739    22052625.3814   22052632.4464
       217.0004        216.0004
  -2240255.41847  -1734085.84046  23449239.156    23449240.0244   23449244.4004
       162.0004        163.0004
 -16294365.20049 -12666245.85747  21344436.264    21344436.5824   21344443.2844
       205.0004        206.0004
 -20697666.11149 -16115324.12947  21351873.273    21351873.8984   21351877.5154
       201.0004        202.0004
 -15339827.13048 -11942134.84146  21769474.180    21769474.4294   21769478.6204
       181.0004        181.0004
 -17694791.84048 -13764837.56147  21602468.669    21602468.6944   21602476.2294
       187.0004        188.0004
  -9247447.00048  -7188646.52146  22776700.597    22776701.1074   22776706.9034
       169.0004        170.0004
  -5515540.30947  -4279243.30045  23476589.450    23476589.7394   23476592.5634
       155.0004        157.0004
 21  2  2  1  3 30.0000000  0  9G30G08G14G09G07G21G01G04G17
  -8282485.51348  -6427302.65446  23082591.951    23082592.2254   23082598.5364
       169.0004        169.0004
 -14011897.27549 -10890295.07148  22069371.391    22069371.4384   22069378.7434
       216.0004        214.0004
  -2266197.03647  -1754300.09446  23444303.592    23444303.5654   23444308.3094
       161.0004        163.0004
 -16240924.38149 -12624603.66747  21354605.593    21354606.3774   21354612.8014
       205.0004        206.0004
 -20764165.24149 -16167141.62847  21339218.768    21339218.9774   21339223.0604
       201.0004        202.0004
 -15333744.17548 -11937394.85946  21770633.264    21770632.2804   21770636.0314
       181.0004        183.0004
 -17757355.94748 -13813588.79047  21590562.563    21590563.2964   21590570.9704
       187.0004        188.0004
  -9151467.04248  -7113856.93346  22794964.933    22794965.8504   22794970.8864
       170.0004        170.0004
  -5601130.59347  -4345936.97845  23460301.275    23460301.3084   23460306.2064
       155.0004        157.0004
 21  2  2  1  4  0.0000000  0  9G30G08G14G09G07G21G01G04G17
  -8370233.61948  -6495677.81946  23065894.157    23065893.8504   23065902.1394
       169.0004        172.0004
 -13923703.38549 -10821572.56648  22086154.078    22086154.6934   22086161.8074
       215.0004        215.0004
  -2292116.54647  -1774497.09845  23439369.621    23439370.2954   23439375.4414
       159.0004        160.0004
 -16187093.49449 -12582657.51547  21364849.212    21364849.6254   21364856.3544
       205.0004        205.0004
 -20830448.07649 -16218790.60047  21326605.590    21326605.9744   21326609.8404
       201.0004        201.0004
 -15327178.76948 -11932278.95446  21771881.625    21771881.5854   21771886.3084
       182.0004        182.0004
 -17819604.03148 -13862093.77347  21578717.790    21578718.1794   21578725.2844
       188.0004        189.0004
  -9055375.90648  -7038980.73546  22813248.948    22813249.9374   22813256.1964
       168.0004        168.0004
  -5686410.70447  -4412388.96645  23444072.437    23444073.9704   23444077.6844
       157.0004        161.0004
 21  2  2  1  4 30.0000000  0  9G30G08G14G09G07G21G01G04G17
  -8457961.79748  -6564037.41546  23049200.029    23049200.1734   23049207.7154
       171.0004        173.0004
 -13835321.15749 -10752703.30048  22102973.003    22102973.7934   22102980.3324
       216.0004        216.0004
  -2318014.21647  -1794677.04445  23434441.151    23434442.3794   23434448.0104
       158.0004        159.0004
 -16132874.20249 -12540408.72247  21375166.288    21375167.1124   21375173.7254
       204.0004        205.0004
 -20896510.59949 -16270267.89047  21314034.323    21314034.8054   21314038.2164
       201.0004        201.0004
 -15320129.01648 -11926785.62446  21773222.941    21773222.6844   21773227.8304
       182.0004        182.0004
 -17881531.90248 -13910349.23746  21566931.473    21566932.4904   21566939.8284
       188.0004        187.0004
  -8959175.50148  -6964019.39646  22831556.331    22831556.6674   22831562.6584
       167.0004        169.0004
  -5771378.34847  -4478597.48745  23427906.005    23427905.6884   23427908.8574
       159.0004        162.0004
 21  2  2  1  5  0.0000000  0  9G30G08G14G09G07G21G01G04G17
  -8545669.96148  -6632381.43046  23032509.446    23032509.3684   23032517.0914
       171.0004        172.0004
 -13746755.66949 -10683691.24248  22119826.353    22119827.0074   22119833.9084
       216.0004        215.0004
  -2343893.26147  -1814842.53145  23429518.092    23429518.5114   23429522.2314
       158.0004        161.0004
 -16078271.22049 -12497860.95247  21385557.589    21385557.9384   21385564.5374
       204.0004        204.0004
 -20962352.18149 -16321573.02847  21301504.372    21301505.0864   21301509.4574
       201.0004        201.0004
 -15312596.34348 -11920916.01246  21774656.684    21774657.1224   21774661.1694
       182.0004        183.0004
 -17943138.42448 -13958354.31746  21555208.176    21555208.9464   21555216.9164
       187.0004        187.0004
  -8862870.92748  -6888976.87646  22849883.112    22849883.3574   22849889.6384
       168.0004        168.0004
  -5856033.65347  -4544562.65045  23411794.261    23411795.5224   23411800.7034
       160.0004        162.0004
 21  2  2  1  5 30.0000000  0  9G30G08G14G09G07G21G01G04G17
  -8633354.71248  -6700707.22246  23015824.540    23015824.4114   23015831.2934
       172.0004        173.0004
 -13658008.16449 -10614537.34348  22136714.878    22136714.8454   22136721.7964
       215.0004        214.0004
  -2369753.62947  -1834993.45245  23424595.020    23424597.6414   23424601.3184
       157.0004        159.0004
 -16023285.98649 -12455015.31947  21396021.293    21396021.6054   21396028.1214
       204.0004        205.0004
 -21027968.99249 -16372703.01147  21289017.955    21289018.5184   21289023.5184
       201.0004        202.0004
 -15304579.24848 -11914668.90246  21776183.104    21776182.6594   21776186.8604
       183.0004        183.0004
 -18004419.14848 -14006105.50946  21543548.109    21543548.2514   21543555.5534
       187.0004        187.0004
  -8766463.79848  -6813854.45046  22868228.633    22868228.7094   22868235.4434
       167.0004        167.0004
  -5940373.50347  -4610281.96746  23395745.249    23395745.7574   23395751.2264
       162.0004        166.0004
 21  2  2  1  6  0.0000000  0  9G30G08G14G09G07G21G01G04G17
  -8721014.43248  -6769013.51246  22999143.930    22999143.5564   22999150.5524
       173.0004        173.0004
 -13569082.16549 -10545244.37847  22153636.637    22153636.2374   22153643.7994
       213.0004        212.0004
  -2395596.96847  -1855131.08345  23419678.013    23419678.5004   23419683.3724
       158.0004        160.0004
 -15967921.72249 -12411874.34747  21406557.013    21406556.8114   21406563.6254
       204.0004        204.0004
 -21093358.78349 -16423656.09947  21276574.766    21276575.1574   21276579.4334
       201.0004        201.0004
 -15296076.82248 -11908043.63446  21777799.731    21777800.0014   21777804.9074
       183.0004        183.0004
 -18065371.40148 -14053600.76746  21531949.255    21531949.8944   21531956.6094
       187.0004        187.0004
  -8669957.57148  -6738654.80646  22886593.719    22886593.6514   22886599.6944
       167.0004        169.0004
  -6024396.69947  -4675754.55846  23379756.751    23379756.6074   23379761.5634
       163.0004        164.0004
 21  2  2  1  6 30.0000000  0 10G28G30G08G14G09G07G21G01G04G17
   -221219.36856   -166581.34845  23719427.610    23719428.3295   23719434.0944
       130.0004        141.0004
  -8808647.19248  -6837298.79046  22982467.153    22982466.4154   22982474.2234
       172.0004        172.0004
 -13479980.37049 -10475814.42047  22170591.706    22170591.7374   22170599.4434
       212.0004        212.0004
  -2421424.66447  -1875256.54045  23414762.959    23414764.1114   23414768.8764
       159.0004        161.0004
 -15912181.26649 -12368440.23547  21417163.002    21417163.5824   21417170.1944
       204.0004        204.0004
 -21158518.76649 -16474430.11447  21264175.580    21264175.8194   21264179.7864
       201.0004        201.0004
 -15287088.67048 -11901039.86246  21779510.503    21779510.1244   21779515.2884
       184.0004        184.0004
 -18125992.16648 -14100837.71846  21520413.700    21520413.3164   21520421.5254
       187.0004        187.0004
  -8573355.36548  -6663380.37046  22904977.049    22904976.6234   22904982.7934
       169.0004        169.0004
  -6108101.51447  -4740979.03646  23363828.976    23363828.9214   23363833.5694
       164.0004        166.0004
 21  2  2  1  7  0.0000000  0 10G28G30G08G14G09G07G21G01G04G17
   -236461.63847   -178458.40745  23716529.092    23716528.4184   23716534.8684
       135.0004        142.0004
  -8896251.10148  -6905561.55646  22965797.267    22965797.0064   22965804.1224
       173.0004        175.0004
 -13390706.74449 -10406250.55347  22187579.669    22187579.9824   22187587.6064
       212.0004        212.0004
  -2447238.25647  -1895371.00045  23409850.987    23409851.6184   23409856.5934
       159.0004        162.0004
 -15856067.64649 -12324715.33347  21427841.452    21427841.9704   21427848.4974
       203.0004        203.0004
 -21223446.73249 -16525023.34347  21251820.823    21251820.8224   21251824.8974
       202.0004        202.0004
 -15277614.73148 -11893657.55546  21781313.386    21781313.0574   21781318.3914
       184.0004        185.0004
 -18186278.58748 -14147814.12946  21508939.630    21508940.5794   21508948.6994
       186.0004        187.0004
  -8476660.42748  -6588033.66346  22923374.472    22923376.4854   22923383.0094
       167.0004        167.0004
  -6191486.66748  -4805954.41646  23347959.029    23347960.5684   23347966.2694
       165.0004        166.0004
 21  2  2  1  7 30.0000000  0 10G28G30G08G14G09G07G21G01G04G17
   -251672.74347   -190311.22545  23713635.277    23713634.9084   23713638.1464
       135.0004        140.0004
  -8983825.42948  -6973801.29646  22949131.706    22949131.3554   22949138.2204
       172.0004        171.0004
 -13301264.58049 -10336555.38047  22204600.154    22204600.4804   22204607.9444
       212.0004        212.0004
  -2473040.26747  -1915476.46045  23404942.486    23404942.4954   23404946.8794
       160.0004        162.0004
 -15799584.99449 -12280702.89847  21438589.287    21438590.3214   21438596.7874
       203.0004        204.0004
 -21288141.37749 -16575434.76947  21239509.027    21239509.2724   21239513.6414
       202.0004        202.0004
 -15267655.84348 -11885897.37446  21783208.255    21783208.1174   21783213.7134
       184.0004        185.0004
 -18246228.87848 -14194528.61747  21497532.408    21497532.7224   21497541.7564
       187.0004        189.0004
  -8379877.03048  -6512618.04246  22941794.857    22941793.9994   22941800.4034
       167.0004        168.0004
  -6274551.94548  -4870680.57446  23332153.325    23332154.2414   23332158.9904
       165.0004        168.0004
 21  2  2  1  8  0.0000000  0 10G28G30G08G14G09G07G21G01G04G17
   -266853.70646   -202140.52545  23710745.596    23710745.3434   23710749.0544
       130.0004        135.0004
  -9071367.66948  -7042016.02546  22932472.370    22932472.7754   22932480.5124
       169.0004        171.0004
 -13211657.08749 -10266731.36247  22221653.721    22221653.2884   22221659.4274
       213.0004        212.0004
  -2498831.55847  -1935573.55245  23400033.467    23400034.1534   23400038.6504
       157.0004        157.0004
 -15742735.66949 -12236404.72247  21449408.300    21449408.4984   21449415.1714
       203.0004        203.0004
 -21352599.42049 -16625661.80947  21227244.043    21227243.7994   21227247.5714
       202.0004        202.0004
 -15257210.81248 -11877758.36946  21785196.040    21785195.4304   21785201.1614
       185.0004        185.0004
 -18305839.52348 -14240978.46547  21486191.155    21486191.0224   21486198.4054
       191.0004        193.0004
  -8283007.80348  -6437135.52746  22960227.810    22960227.7764   22960233.0284
       168.0004        169.0004
  -6357295.11848  -4935155.74646  23316409.353    23316409.2044   23316415.1154
       168.0004        170.0004
 21  2  2  1  8 30.0000000  0 10G28G30G08G14G09G07G21G01G04G17
   -282005.19346   -213946.83044  23707859.075    23707859.7684   23707861.5734
       124.0004        131.0004
  -9158874.55448  -7110203.18146  22915819.878    22915820.1854   22915827.6274
       169.0004        170.0004
 -13121886.05049 -10196779.91947  22238735.957    22238735.7904   22238742.6644
       212.0004        212.0004
  -2524612.18747  -1955662.32745  23395127.142    23395127.4194   23395133.6114
       155.0004        156.0004
 -15685521.37049 -12191822.15547  21460295.489    21460295.5634   21460302.3134
       203.0004        203.0004
 -21416816.74049 -16675701.28447  21215023.101    21215023.5494   21215027.5864
       202.0004        203.0004
 -15246278.02148 -11869239.29946  21787276.264    21787276.5064   21787281.5634
       185.0004        186.0004
 -18365106.30248 -14287160.37347  21474912.608    21474912.9254   21474919.6944
       193.0004        193.0004
  -8186054.62348  -6361587.60746  22978677.620    22978677.6654   22978682.7144
       168.0004        168.0004
  -6439713.50748  -4999377.84046  23300724.022    23300724.7464   23300731.2104
       168.0004        168.0004
 21  2  2  1  9  0.0000000  0 10G28G30G08G14G09G07G21G01G04G17
   -297124.63346   -225728.20045  23704984.793    23704984.3964   23704990.8254
       126.0004        134.0004
  -9246339.76548  -7178357.91146  22899175.861    22899176.7314   22899184.1824
       169.0004        170.0004
 -13031949.87049 -10126699.79647  22255848.384    22255849.0934   22255856.8384
       211.0004        211.0004
  -2550379.28347  -1975740.57345  23390224.587    23390224.5224   23390229.8844
       153.0004        154.0004
 -15627940.74549 -12146954.14447  21471251.565    21471251.9644   21471259.6324
       202.0004        202.0004
 -21480786.98549 -16725548.23547  21202849.652    21202850.1064   21202854.2684
       202.0004        202.0004
 -15234852.90348 -11860336.61646  21789450.503    21789450.6134   21789455.7484
       185.0004        186.0004
 -18424022.02948 -14333068.73047  21463698.820    21463700.2024   21463707.5604
       191.0004        189.0004
  -8089016.27548  -6285973.31646  22997142.939    22997143.2384   22997148.6124
       167.0004        167.0004
  -6521801.51748  -5063342.49846  23285103.755    23285104.8694   23285110.0844
       166.0004        166.0004
 21  2  2  1  9 30.0000000  0 10G28G30G08G14G09G07G21G01G04G17
   -312215.64946   -237487.42745  23702113.638    23702113.6524   23702118.8534
       129.0004        138.0004
  -9333763.49948  -7246480.29746  22882538.976    22882539.4624   22882548.3634
       170.0004        171.0004
 -12941853.67849 -10056494.97047  22272993.817    22272994.0514   22273001.4244
       211.0004        211.0004
  -2576136.27947  -1995810.97845  23385322.802    23385323.0994   23385328.5014
       153.0004        156.0004
 -15569998.93749 -12101804.69447  21482277.054    21482278.1094   21482285.7154
       201.0004        201.0004
 -21544509.60049 -16775202.22747  21190723.809    21190724.3024   21190728.5024
       202.0004        202.0004
 -15222937.44848 -11851051.83346  21791719.563    21791718.7014   21791722.9924
       186.0004        187.0004
 -18482585.90448 -14378702.89046  21452553.735    21452554.4124   21452563.0074
       188.0004        186.0004
  -7991898.06848  -6210296.78046  23015623.255    23015623.5344   23015629.6514
       167.0004        169.0004
  -6603559.43748  -5127049.94246  23269546.023    23269547.0204   23269551.0324
       165.0004        166.0004
 21  2  2  1 10  0.0000000  0 10G28G30G08G14G09G07G21G01G04G17
   -327281.05846   -249226.66745  23699246.106    23699245.7484   23699249.8984
       130.0004        136.0004
  -9421144.26648  -7314569.19146  22865912.624    22865912.7134   22865919.3404
       171.0004        173.0004
 -12851601.36949  -9986168.51247  22290169.537    22290169.3274   22290176.0854
       211.0004        211.0004
  -2601885.12047  -2015875.02345  23380423.764    23380423.6254   23380428.0314
       154.0004        157.0004
 -15511699.42749 -12056376.51047  21493372.886    21493373.0494   21493379.6194
       201.0004        201.0004
 -21607982.50849 -16824661.64347  21178646.265    21178646.3004   21178649.8774
       202.0004        203.0004
 -15210531.53748 -11841384.88646  21794078.921    21794078.7004   21794084.4054
       186.0004        186.0004
 -18540795.54248 -14424061.02747  21441477.006    21441477.4634   21441486.8494
       187.0004        188.0004
  -7894703.59448  -6134560.83346  23034119.025    23034119.4314   23034125.4004
       167.0004        168.0004
  -6684986.35748  -5190499.48046  23254050.835    23254051.4344   23254055.1354
       165.0004        167.0004
 21  2  2  1 10 30.0000000  0 10G28G30G08G14G09G07G21G01G04G17
   -342320.85546   -260945.97445  23696384.654    23696383.5804   23696388.0374
       132.0004        139.0004
  -9508478.45848  -7382621.78846  22849293.195    22849293.4154   22849300.6874
       171.0004        173.0004
 -12761193.84749  -9915721.09747  22307371.551    22307372.8094   22307379.8444
       210.0004        209.0004
  -2627625.59547  -2035932.52945  23375524.948    23375524.9954   23375530.6204
       153.0004        155.0004
 -15453043.60849 -12010670.68547  21504534.085    21504534.5724   21504541.4954
       201.0004        202.0004
 -21671201.46349 -16873923.17047  21166615.145    21166615.4904   21166619.7054
       203.0004        203.0004
 -15197633.44948 -11831334.42246  21796533.107    21796532.8944   21796538.6744
       186.0004        186.0004
 -18598646.39148 -14469139.60047  21430470.318    21430470.8194   21430478.1394
       188.0004        190.0004
  -7797434.37048  -6058766.62646  23052628.250    23052629.5664   23052634.9644
       166.0004        166.0004
  -6766079.80548  -5253689.16046  23238620.485    23238620.2904   23238622.4894
       165.0004        166.0004
 21  2  2  1 11  0.0000000  0 10G28G30G08G14G09G07G21G01G04G17
   -357338.47747   -272648.02345  23693526.176    23693526.3954   23693529.8724
       135.0004        140.0004
  -9595765.61948  -7450637.76446  22832684.131    22832683.8334   22832689.8674
       172.0004        173.0004
 -12670636.15249  -9845156.66247  22324604.522    22324604.4834   22324612.5384
       209.0004        208.0004
  -2653360.65747  -2055985.80845  23370626.751    23370627.8274   23370632.7654
       153.0004        155.0004
 -15394036.10549 -11964690.82247  21515762.776    21515763.2104   21515770.4604
       201.0004        202.0004
 -21734165.56049 -16922986.09747  21154633.018    21154633.6224   21154638.0594
       202.0004        202.0004
 -15184244.46248 -11820901.44346  21799081.075    21799081.0914   21799086.4054
       186.0004        186.0004
 -18656137.20348 -14513937.62447  21419530.693    21419530.9524   21419537.9314
       191.0004        192.0004
  -7700095.16148  -5982917.88346  23071151.523    23071151.8534   23071157.0964
       167.0004        168.0004
  -6846839.51447  -5316618.77245  23223250.578    23223251.0924   23223253.8334
       162.0004        162.0004
 21  2  2  1 11 30.0000000  0 10G28G30G08G14G09G07G21G01G04G17
   -372334.28247   -284333.05845  23690672.360    23690671.7744   23690677.5244
       136.0004        142.0004
  -9683002.59648  -7518614.62946  22816082.210    22816083.2764   22816089.0704
       171.0004        173.0004
 -12579929.94149  -9774476.50547  22341864.314    22341865.2164   22341872.9434
       208.0004        207.0004
  -2679090.38747  -2076034.92145  23365730.513    23365731.6514   23365736.6424
       154.0004        158.0004
 -15334678.71849 -11918438.31547  21527058.151    21527058.3544   21527065.7324
       202.0004        202.0004
 -21796870.98849 -16971847.48147  21142701.430    21142701.9964   21142705.3574
       203.0004        203.0004
 -15170363.16548 -11810084.84546  21801722.700    21801722.3254   21801727.4054
       185.0004        185.0004
 -18713263.78548 -14558451.84947  21408659.283    21408660.2304   21408666.7164
       192.0004        193.0004
  -7602687.78648  -5907016.05446  23089688.814    23089688.7054   23089693.2314
       167.0004        167.0004
  -6927262.87047  -5379286.30445  23207946.771    23207947.2354   23207949.8514
       159.0004        159.0004
 21  2  2  1 12  0.0000000  0 10G28G30G08G14G09G07G21G01G04G17
   -387310.23747   -296002.62045  23687823.723    23687823.4954   23687826.7564
       137.0004        142.0004
  -9770187.50848  -7586550.93146  22799493.192    22799492.3814   22799499.6024
       175.0004        178.0004
 -12489078.66449  -9703683.31147  22359154.487    22359154.4214   22359161.1604
       208.0004        208.0004
  -2704816.33047  -2096081.08445  23360836.899    23360836.3284   23360840.9034
       157.0004        160.0004
 -15274974.69849 -11871915.71747  21538420.470    21538420.5894   21538426.8994
       202.0004        203.0004
 -21859315.68749 -17020505.69647  21130818.110    21130818.7264   21130823.1954
       203.0004        203.0004
 -15155989.50248 -11798884.59346  21804457.901    21804457.5004   21804462.9954
       185.0004        185.0004
 -18770023.59648 -14602680.26547  21397859.536    21397859.5254   21397865.9904
       193.0004        193.0004
  -7505215.62048  -5831063.72046  23108235.033    23108236.9204   23108242.3134
       165.0004        165.0004
  -7007348.66947  -5441690.82045  23192706.693    23192706.8324   23192708.7074
       156.0004        156.0004
 21  2  2  1 12 30.0000000  0 10G28G30G08G14G09G07G21G01G04G17
   -402268.73747   -307658.58345  23684975.336    23684975.1494   23684978.7354
       137.0004        141.0004
  -9857318.65048  -7654445.31246  22782911.854    22782912.0254   22782918.2234
       177.0004        178.0004
 -12398085.61449  -9632779.63947  22376470.167    22376469.7794   22376476.8104
       208.0004        208.0004
  -2730540.21247  -2116125.66345  23355940.992    23355941.5994   23355945.0534
       159.0004        161.0004
 -15214927.33649 -11825125.56047  21549846.398    21549846.8644   21549854.0194
       203.0004        203.0004
 -21921497.06249 -17068958.71947  21118984.947    21118986.1064   21118990.3274
       203.0004        203.0004
 -15141123.76448 -11787300.89246  21807287.215    21807287.0674   21807292.0394
       185.0004        186.0004
 -18826413.96748 -14646620.80447  21387127.543    21387128.0134   21387135.8994
       193.0004        192.0004
  -7407682.01047  -5755063.52446  23126796.700    23126797.3464   23126803.0854
       163.0004        164.0004
  -7087096.10347  -5503831.68445  23177530.402    23177531.5834   23177534.0864
       155.0004        158.0004
 21  2  2  1 13  0.0000000  0 10G28G30G08G14G09G07G21G01G04G17
   -417210.71247   -319301.65745  23682132.508    23682131.8534   23682136.9924
       138.0004        143.0004
  -9944393.39148  -7722295.75246  22766342.022    22766342.3724   22766348.3244
       178.0004        179.0004
 -12306952.82649  -9561767.07847  22393811.481    22393811.9184   22393819.0164
       208.0004        207.0004
  -2756262.86547  -2136169.25745  23351045.803    23351046.2084   23351050.9364
       159.0004        161.0004
 -15154539.16949 -11778069.85547  21561337.923    21561338.5054   21561345.1944
       203.0004        203.0004
 -21983412.39449 -17117204.42747  21107204.782    21107203.8004   21107208.0884
       203.0004        203.0004
 -15125765.15648 -11775333.15046  21810209.146    21810209.9154   21810214.0334
       185.0004        186.0004
 -18882431.54548 -14690270.84647  21376467.740    21376467.9724   21376475.8504
       192.0004        192.0004
  -7310089.52247  -5679017.42346  23145369.663    23145368.8164   23145374.8774
       163.0004        165.0004
  -7166503.31947  -5565707.42846  23162421.305    23162421.8354   23162425.3444
       159.0004        164.0004
 21  2  2  1 13 30.0000000  0 10G28G30G08G14G09G07G21G01G04G17
   -432138.10847   -330933.38145  23679292.754    23679292.3354   23679297.0084
       138.0004        144.0004
 -10031409.69748  -7790100.65546  22749783.190    22749783.3334   22749789.8294
       178.0004        179.0004
 -12215683.47149  -9490648.10247  22411178.650    22411179.0304   22411186.9584
       206.0004        206.0004
  -2781985.46547  -2156212.82045  23346151.537    23346151.4784   23346156.3224
       159.0004        160.0004
 -15093813.23949 -11730750.93947  21572893.554    21572894.1954   21572900.4124
       202.0004        203.0004
 -22045058.60649 -17165240.43847  21095471.998    21095473.0634   21095477.1114
       203.0004        203.0004
 -15109913.66648 -11762981.32446  21813225.193    21813224.7564   21813230.7164
       185.0004        185.0004
 -18938073.50148 -14733628.19747  21365879.747    21365879.3554   21365887.1454
       191.0004        190.0004
  -7212441.22447  -5602927.85346  23163947.919    23163949.7524   23163956.1984
       162.0004        163.0004
  -7245568.86147  -5627316.91446  23147375.355    23147376.1144   23147380.2134
       163.0004        167.0004
 21  2  2  1 14  0.0000000  0 10G28G30G08G14G09G07G21G01G04G17
   -447050.84947   -342553.68045  23676454.546    23676454.7664   23676459.1694
       140.0004        144.0004
 -10118364.01048  -7857857.25946  22733236.816    22733236.8224   22733243.2754
       179.0004        181.0004
 -12124279.13449  -9419423.95547  22428572.239    22428573.2364   22428580.5674
       206.0004        205.0004
  -2807707.96747  -2176256.31545  23341256.185    23341256.7574   23341260.8064
       158.0004        160.0004
 -15032751.12249 -11683170.07547  21584514.504    21584514.3574   21584521.1824
       203.0004        204.0004
 -22106431.94849 -17213063.81247  21083792.790    21083793.6704   21083798.2314
       203.0004        203.0004
 -15093567.56648 -11750244.09646  21816336.442    21816336.6074   21816341.0654
       185.0004        185.0004
 -18993335.49348 -14776689.47747  21355362.635    21355362.8754   21355371.5604
       190.0004        190.0004
  -7114738.76847  -5526796.08246  23182541.081    23182541.6814   23182548.7414
       162.0004        163.0004
  -7324289.83948  -5688657.93546  23132394.860    23132395.5804   23132401.6824
       168.0004        170.0004
 21  2  2  1 14 30.0000000  0 10G28G30G08G14G09G07G21G01G04G17
   -461951.93147   -354164.90745  23673618.198    23673618.5354   23673624.0094
       142.0004        146.0004
 -10205255.18648  -7925564.66946  22716702.080    22716702.7034   22716708.6354
       181.0004        182.0004
 -12032744.30949  -9348098.12147  22445991.817    22445991.7314   22445999.5104
       206.0004        207.0004
  -2833432.67247  -2196301.52645  23336360.728    23336361.8854   23336365.2284
       158.0004        161.0004
 -14971356.86049 -11635330.39447  21596195.650    21596196.4214   21596203.6904
       203.0004        203.0004
 -22167530.74449 -17260673.28547  21072167.365    21072167.5804   21072170.8524
       203.0004        203.0004
 -15076727.85848 -11737122.25546  21819540.725    21819540.6834   21819545.0414
       184.0004        184.0004
 -19048215.64148 -14819453.23347  21344919.035    21344919.3144   21344928.1634
       189.0004        190.0004
  -7016986.14547  -5450625.23846  23201142.336    23201143.5584   23201150.0534
       162.0004        163.0004
  -7402666.05148  -5749730.28546  23117479.862    23117480.5124   23117487.6214
       169.0004        170.0004
 21  2  2  1 15  0.0000000  0 10G28G30G08G14G09G07G21G01G04G17
   -476841.88947   -365767.46945  23670784.202    23670785.8654   23670790.3954
       143.0004        147.0004
 -10292079.98348  -7993220.33846  22700179.577    22700179.2764   22700186.0764
       180.0004        179.0004
 -11941079.68449  -9276671.13047  22463433.183    22463434.3354   22463443.0784
       207.0004        207.0004
  -2859159.74847  -2216348.58645  23331465.484    23331465.5334   23331469.6344
       159.0004        160.0004
 -14909632.33149 -11587233.36347  21607942.528    21607942.6494   21607949.1754
       203.0004        202.0004
 -22228351.22449 -17308065.87247  21060593.611    21060594.1004   21060597.4764
       203.0004        204.0004
 -15059393.19148 -11723614.70846  21822839.283    21822839.1414   21822844.7894
       184.0004        185.0004
 -19102709.97348 -14861916.33047  21334548.721    21334549.3864   21334558.1184
       189.0004        189.0004
  -6919185.24147  -5374416.75846  23219754.122    23219755.2414   23219760.5414
       162.0004        163.0004
  -7480694.98348  -5810532.00246  23102631.434    23102632.3084   23102638.7904
       170.0004        170.0004
 21  2  2  1 15 30.0000000  0 10G28G30G08G14G09G07G21G01G04G17
   -491722.81447   -377362.96045  23667954.666    23667954.1324   23667957.9564
       145.0004        149.0004
 -10378836.72748  -8060822.99946  22683670.517    22683670.4124   22683676.6544
       178.0004        179.0004
 -11849289.28549  -9205146.15647  22480902.159    22480902.1114   22480909.7574
       206.0004        206.0004
  -2884890.85847  -2236398.80345  23326568.001    23326568.6864   23326574.1104
       159.0004        160.0004
 -14847581.04749 -11538881.71447  21619750.330    21619750.5294   21619757.0524
       202.0004        201.0004
 -22288891.55549 -17355240.14947  21049072.619    21049072.8404   21049077.4414
       203.0004        203.0004
 -15041563.99748 -11709721.82846  21826232.112    21826231.6204   21826236.9544
       184.0004        184.0004
 -19156816.09648 -14904076.93547  21324253.066    21324253.7884   21324261.8204
       190.0004        191.0004
  -6821339.55647  -5298173.37345  23238374.225    23238374.3884   23238380.2654
       161.0004        162.0004
  -7558375.63448  -5871062.36346  23087850.384    23087851.1124   23087856.4554
       170.0004        172.0004
 21  2  2  1 16  0.0000000  0 10G28G30G08G14G09G07G21G01G04G17
   -506597.73747   -388953.79545  23665123.628    23665123.1024   23665128.2134
       148.0004        152.0004
 -10465524.48248  -8128371.90346  22667174.360    22667174.1814   22667179.3024
       177.0004        178.0004
 -11757377.14049  -9133526.30747  22498392.437    22498392.6664   22498399.6204
       206.0004        205.0004
  -2910628.47947  -2256454.08145  23321671.977    23321671.6564   23321675.7344
       160.0004        161.0004
 -14785207.28049 -11490278.78047  21631619.514    21631619.8604   21631626.6674
       201.0004        200.0004
 -22349150.34449 -17402195.06347  21037606.377    21037606.5654   21037610.0814
       203.0004        204.0004
 -15023241.43348 -11695444.50646  21829718.553    21829718.3344   21829723.8974
       184.0004        184.0004
 -19210532.31348 -14945933.72347  21314032.274    21314032.8464   21314039.8164
       191.0004        191.0004
  -6723453.32647  -5221898.38545  23257000.676    23257001.0424   23257006.8214
       161.0004        162.0004
  -7635707.59348  -5931320.98446  23073135.301    23073135.4684   23073140.6704
       171.0004        172.0004
 21  2  2  1 16 30.0000000  0 10G28G30G08G14G09G07G21G01G04G17
   -521467.10147   -400540.28445  23662292.929    23662293.1014   23662298.0184
       148.0004        151.0004
 -10552139.77848  -8195864.35746  22650691.783    22650691.6614   22650698.4424
       180.0004        182.0004
 -11665344.55649  -9061812.61647  22515905.498    22515905.4934   22515912.6594
       205.0004        204.0004
  -2936372.66647  -2276514.46545  23316772.465    23316773.2014   23316775.9564
       158.0004        159.0004
 -14722512.78749 -11441425.93147  21643549.348    21643549.8264   21643557.0764
       200.0004        201.0004
 -22409123.56749 -17448927.44847  21026193.481    21026193.6884   21026197.5504
       204.0004        204.0004
 -15004423.97848 -11680781.54546  21833299.622    21833299.2914   21833305.3824
       184.0004        184.0004
 -19263854.57348 -14987483.52747  21303884.284    21303885.0214   21303892.7214
       192.0004        192.0004
  -6625528.20347  -5145593.10346  23275634.864    23275636.1414   23275642.0714
       161.0004        163.0004
  -7712689.03648  -5991306.48446  23058485.206    23058485.8734   23058491.0114
       170.0004        172.0004
 21  2  2  1 17  0.0000000  0 10G28G30G08G14G09G07G21G01G04G17
   -536331.79747   -412123.14945  23659464.474    23659464.5784   23659469.5814
       148.0004        151.0004
 -10638679.79348  -8263298.12646  22634223.734    22634224.1284   22634230.9464
       182.0004        182.0004
 -11573194.19449  -8990007.14647  22533440.164    22533440.6234   22533448.1654
       203.0004        203.0004
  -2962123.85747  -2296580.31745  23311872.423    23311872.9624   23311877.2074
       157.0004        160.0004
 -14659499.88249 -11392324.97647  21655541.117    21655540.9544   21655547.9364
       200.0004        200.0004
 -22468807.71949 -17495434.57347  21014835.997    21014836.2874   21014840.2474
       204.0004        204.0004
 -14985111.01448 -11665732.49046  21836974.134    21836974.6784   21836979.4834
       184.0004        184.0004
 -19316779.34648 -15028723.60147  21293813.541    21293813.9514   21293821.9464
       192.0004        193.0004
  -6527566.48447  -5069259.32346  23294276.830    23294276.6284   23294283.0974
       162.0004        163.0004
  -7789317.74248  -6051017.15746  23043903.297    23043903.4734   23043908.1934
       169.0004        167.0004
 21  2  2  1 17 30.0000000  0 10G28G30G08G14G09G07G21G01G04G17
   -551192.53147   -423702.93545  23656637.750    23656637.5334   23656641.3734
       149.0004        152.0004
 -10725141.60948  -8330670.96246  22617770.725    22617770.6574   22617777.3164
       181.0004        181.0004
 -11480927.76449  -8918111.22847  22550998.754    22550998.9794   22551006.5554
       203.0004        204.0004
  -2987882.64147  -2316652.08845  23306970.084    23306971.6084   23306975.5464
       157.0004        159.0004
 -14596171.00449 -11342977.79747  21667591.766    21667591.5794   21667599.4894
       200.0004        199.0004
 -22528199.34649 -17541713.77047  21003534.383    21003534.7724   21003538.3684
       204.0004        204.0004
 -14965302.10248 -11650296.95246  21840745.049    21840744.5864   21840748.9684
       184.0004        185.0004
 -19369303.10148 -15069651.19347  21283818.681    21283819.7144   21283827.6094
       193.0004        194.0004
  -6429570.56247  -4992898.87146  23312923.600    23312925.0044   23312931.4974
       162.0004        163.0004
  -7865591.66948  -6110451.36046  23029387.560    23029388.9074   23029394.2024
       168.0004        169.0004
 21  2  2  1 18  0.0000000  0 10G28G30G08G14G09G07G21G01G04G17
   -566052.37247   -435282.01645  23653809.037    23653808.5674   23653813.4704
       150.0004        152.0004
 -10811524.13648  -8397982.02046  22601332.898    22601332.5084   22601339.2574
       181.0004        182.0004
 -11388549.68549  -8846128.31647  22568578.008    22568577.7414   22568585.8234
       204.0004        204.0004
  -3013651.36247  -2336731.62145  23302066.760    23302067.4244   23302071.1474
       157.0004        159.0004
 -14532530.30349 -11293387.65547  21679701.322    21679702.1444   21679709.0844
       199.0004        199.0004
 -22587297.20149 -17587764.05747  20992288.333    20992288.6664   20992292.1974
       204.0004        204.0004
 -14944997.89748 -11634475.49346  21844608.160    21844608.2294   21844613.2534
       184.0004        185.0004
 -19421424.19148 -15110265.01947  21273901.520    21273901.5504   21273908.8004
       194.0004        195.0004
  -6331544.42747  -4916514.88245  23331579.365    23331578.7884   23331584.4454
       161.0004        162.0004
  -7941510.52548  -6169608.88346  23014941.586    23014942.2064   23014946.9984
       168.0004        169.0004
 21  2  2  1 18 30.0000000  0 10G28G30G08G14G09G07G21G01G04G17
   -580913.18047   -446861.85345  23650981.116    23650981.2444   23650984.9584
       149.0004        152.0004
 -10897825.11048  -8465229.53546  22584909.788    22584909.2854   22584916.0954
       180.0004        181.0004
 -11296062.74149  -8774060.58747  22586176.548    22586177.6164   22586185.3834
       204.0004        204.0004
  -3039431.14347  -2356819.76245  23297160.774    23297160.5524   23297165.7834
       156.0004        158.0004
 -14468580.70649 -11243556.81947  21691872.016    21691871.6264   21691878.3584
       199.0004        199.0004
 -22646098.80749 -17633583.49247  20981098.552    20981099.0304   20981102.7004
       204.0004        204.0004
 -14924198.67048 -11618268.29246  21848566.478    21848565.5954   21848571.5294
       185.0004        185.0004
 -19473139.64448 -15150562.77947  21264059.792    21264060.3404   21264067.7614
       194.0004        194.0004
  -6233491.02247  -4840109.66045  23350236.689    23350237.6864   23350243.2194
       160.0004        160.0004
  -8017072.95948  -6228488.66346  23000563.438    23000563.0944   23000567.3254
       168.0004        170.0004
 21  2  2  1 19  0.0000000  0 10G28G30G08G14G09G07G21G01G04G17
   -595774.83447   -458442.35845  23648153.617    23648153.2094   23648157.0554
       152.0004        155.0004
 -10984040.87548  -8532410.65146  22568503.210    22568503.5954   22568510.3874
       180.0004        180.0004
 -11203467.82049  -8701908.71847  22603797.138    22603797.4784   22603805.8494
       203.0004        202.0004
  -3065221.74547  -2376916.32245  23292254.051    23292254.0084   23292258.7314
       158.0004        161.0004
 -14404323.92649 -11193486.61047  21704099.482    21704099.7064   21704106.0984
       199.0004        199.0004
 -22704599.88549 -17679168.75547  20969966.699    20969966.8954   20969970.3794
       204.0004        204.0004
 -14902903.01348 -11601674.26146  21852618.406    21852618.7174   21852622.8404
       185.0004        185.0004
 -19524445.31149 -15190541.21547  21254296.292    21254296.9084   21254304.2294
       195.0004        195.0004
  -6135411.80847  -4763684.31945  23368901.316    23368902.1974   23368907.6564
       160.0004        161.0004
  -8092276.22648  -6287088.59246  22986251.688    22986252.5074   22986255.3884
       169.0004        170.0004
 21  2  2  1 19 30.0000000  0 10G28G30G08G14G09G07G21G01G04G17
   -610639.41147   -470025.13945  23645324.929    23645324.5844   23645328.2304
       151.0004        153.0004
 -11070169.83648  -8599524.13246  22552112.995    22552113.6714   22552120.5174
       179.0004        179.0004
 -11110768.78849  -8629675.73847  22621437.369    22621437.6174   22621445.6794
       202.0004        201.0004
  -3091025.07347  -2397022.80645  23287342.475    23287342.7534   23287347.5224
       159.0004        160.0004
 -14339763.64549 -11143179.89447  21716384.211    21716384.5094   21716391.7474
       199.0004        199.0004
 -22762798.43449 -17724518.27847  20958891.656    20958891.9234   20958895.4904
       204.0004        204.0004
 -14881111.54048 -11584693.88846  21856766.159    21856765.3484   21856770.1064
       185.0004        184.0004
 -19575339.04848 -15230198.66847  21244611.444    21244611.9764   21244619.6364
       194.0004        194.0004
  -6037310.41547  -4687241.68645  23387570.519    23387569.9434   23387574.7804
       160.0004        161.0004
  -8167120.10748  -6345408.49946  22972010.470    22972010.7414   22972012.9934
       168.0004        169.0004
 21  2  2  1 20  0.0000000  0 10G28G30G08G14G09G07G21G01G04G17
   -625509.04547   -481611.82245  23642495.786    23642495.3614   23642499.8464
       151.0004        155.0004
 -11156209.92148  -8666568.33546  22535740.831    22535740.6694   22535747.9024
       179.0004        179.0004
 -11017968.20049  -8557363.59847  22639096.302    22639097.0574   22639104.9954
       202.0004        202.0004
  -3116842.47347  -2417140.24445  23282429.823    23282430.3364   23282433.4294
       159.0004        161.0004
 -14274903.11549 -11092639.23447  21728727.248    21728727.4414   21728734.3834
       199.0004        200.0004
 -22820692.08849 -17769630.22547  20947874.039    20947874.8914   20947878.6054
       204.0004        204.0004
 -14858824.51148 -11567327.36146  21861005.859    21861006.1784   21861011.2624
       184.0004        184.0004
 -19625818.24348 -15269533.10247  21235005.256    21235005.9034   21235013.8834
       194.0004        194.0004
  -5939189.93447  -4610784.17845  23406242.572    23406242.8914   23406247.7644
       159.0004        160.0004
  -8241603.43348  -6403447.43046  22957836.264    22957836.9774   22957840.2684
       169.0004        172.0004
 21  2  2  1 20 30.0000000  0 10G28G30G08G14G09G07G21G01G04G17
   -640385.21747   -493203.61745  23639664.395    23639663.2324   23639669.0324
       152.0004        154.0004
 -11242158.74848  -8733541.46146  22519385.769    22519385.1124   22519391.1444
       177.0004        177.0004
 -10925069.44949  -8484974.96447  22656773.634    22656774.8164   22656782.8724
       201.0004        202.0004
  -3142674.98147  -2437269.47746  23277513.844    23277515.5334   23277519.0504
       160.0004        163.0004
 -14209745.29549 -11041866.91247  21741126.201    21741126.3764   21741134.0874
       199.0004        199.0004
 -22878278.24549 -17814502.56347  20936916.356    20936916.4534   20936920.8734
       204.0004        205.0004
 -14836042.13248 -11549574.84946  21865341.712    21865341.9024   21865346.5514
       185.0004        185.0004
 -19675880.01748 -15308542.26647  21225479.405    21225479.5514   21225487.4564
       194.0004        193.0004
  -5841053.19747  -4534314.01245  23424915.687    23424915.9994   23424922.1124
       158.0004        156.0004
  -8315724.70348  -6461204.27246  22943731.868    22943731.7894   22943736.2444
       172.0004        175.0004
 21  2  2  1 21  0.0000000  0 10G28G30G08G14G09G07G21G01G04G17
   -655268.10447   -504800.66645  23636831.695    23636832.2054   23636836.4164
       150.0004        151.0004
 -11328012.63148  -8800440.59346  22503048.075    22503047.7964   22503055.0544
       178.0004        181.0004
 -10832073.44249  -8412510.54747  22674471.900    22674470.9124   22674479.1834
       201.0004        200.0004
  -3168522.41647  -2457410.28446  23272595.436    23272595.2794   23272601.5504
       161.0004        163.0004
 -14144291.85749 -10990864.23147  21753581.522    21753582.4374   21753589.1074
       199.0004        200.0004
 -22935552.69249 -17859132.00647  20926017.426    20926018.0554   20926021.9094
       204.0004        205.0004
 -14812763.00248 -11531435.25146  21869771.007    21869771.0204   21869776.4674
       184.0004        184.0004
 -19725520.20148 -15347222.91347  21216032.732    21216033.2064   21216040.9954
       193.0004        193.0004
  -5742901.63347  -4457832.27745  23443593.215    23443593.3734   23443600.3904
       156.0004        159.0004
  -8389481.50648  -6518677.07846  22929695.113    22929696.0324   22929699.9004
       171.0004        170.0004
 21  2  2  1 21 30.0000000  0 10G28G30G08G14G09G07G21G01G04G17
   -670159.34647   -516404.22345  23633997.996    23633998.5134   23634003.2354
       149.0004        152.0004
 -11413769.61048  -8867264.22346  22486728.370    22486728.9084   22486735.1774
       179.0004        181.0004
 -10738983.44249  -8339972.90947  22692185.936    22692185.5804   22692194.2044
       200.0004        200.0004
  -3194386.16947  -2477563.85845  23267672.537    23267673.4574   23267678.4034
       160.0004        160.0004
 -14078546.15349 -10939633.83347  21766091.839    21766092.5744   21766099.8924
       199.0004        198.0004
 -22992513.03849 -17903516.70247  20915178.435    20915178.6234   20915182.6974
       205.0004        206.0004
 -14788987.81948 -11512909.13546  21874295.673    21874295.9584   21874299.9284
       184.0004        184.0004
 -19774736.37248 -15385573.17647  21206665.686    21206666.9664   21206674.8974
       192.0004        192.0004
  -5644738.50747  -4381341.56745  23462273.591    23462274.5354   23462279.1644
       157.0004        159.0004
  -8462872.85448  -6575865.14546  22915729.789    22915730.0564   22915734.0274
       170.0004        172.0004
 21  2  2  1 22  0.0000000  0 10G28G30G08G14G09G07G21G01G04G17
   -685060.88547   -528015.80545  23631161.643    23631162.3724   23631167.2964
       149.0004        152.0004
 -11499427.34848  -8934010.50746  22470427.855    22470428.9994   22470435.9914
       180.0004        180.0004
 -10645801.92049  -8267363.94547  22709917.759    22709917.1124   22709926.1714
       199.0004        198.0004
  -3220267.35347  -2497731.01345  23262749.213    23262749.4944   23262752.5434
       159.0004        160.0004
 -14012511.25749 -10888178.06747  21778658.734    21778659.0074   21778665.7614
       198.0004        198.0004
 -23049156.96049 -17947654.82347  20904399.105    20904399.7654   20904403.7234
       205.0004        206.0004
 -14764716.34348 -11493996.28346  21878915.255    21878914.8704   21878918.7214
       184.0004        185.0004
 -19823525.68348 -15423590.81347  21197382.851    21197383.7024   21197390.9934
       193.0004        193.0004
  -5546566.64847  -4304844.02145  23480954.747    23480956.1684   23480960.7914
       156.0004        156.0004
  -8535897.43648  -6632767.39046  22901833.716    22901833.5904   22901838.6834
       170.0004        172.0004
 21  2  2  1 22 30.0000000  0 10G28G30G08G14G09G07G21G01G04G17
   -699973.99247   -539636.41045  23628324.741    23628324.1714   23628329.3764
       151.0004        154.0004
 -11584983.61548  -9000677.71046  22454147.205    22454147.1714   22454155.5014
       179.0004        180.0004
 -10552532.16049  -8194686.22347  22727665.699    22727666.4444   22727675.1974
       199.0004        200.0004
  -3246167.22447  -2517912.73145  23257819.911    23257820.1454   23257824.8204
       159.0004        161.0004
 -13946190.30249 -10836499.40747  21791279.468    21791279.5044   21791286.6444
       198.0004        199.0004
 -23105481.40249 -17991544.00447  20893681.285    20893681.5264   20893685.7154
       205.0004        206.0004
 -14739949.15148 -11474697.16546  21883628.320    21883627.9424   21883632.3444
       184.0004        184.0004
 -19871885.55748 -15461273.81647  21188180.060    21188180.5474   21188188.7024
       193.0004        194.0004
  -5448388.96147  -4228341.94245  23499638.733    23499637.5874   23499643.1184
       154.0004        155.0004
  -8608554.55648  -6689383.30646  22888007.431    22888007.4504   22888013.1144
       172.0004        174.0004
 21  2  2  1 23  0.0000000  0 10G28G30G08G14G09G07G21G01G04G17
   -714901.10947   -551267.92445  23625483.460    23625484.2354   23625487.9874
       150.0004        153.0004
 -11670436.66648  -9067264.48646  22437886.925    22437886.7694   22437894.2514
       180.0004        181.0004
 -10459177.14849  -8121942.07347  22745431.062    22745430.9734   22745439.8774
       200.0004        200.0004
  -3272087.44547  -2538110.31346  23252888.631    23252888.5264   23252892.5004
       162.0004        165.0004
 -13879586.96749 -10784600.69747  21803953.662    21803953.9884   21803959.7774
       197.0004        197.0004
 -23161484.71349 -18035182.95247  20883023.455    20883024.1514   20883028.4984
       205.0004        206.0004
 -14714686.80348 -11455012.20446  21888434.843    21888434.6484   21888439.2114
       184.0004        185.0004
 -19919813.82148 -15498620.49947  21179059.601    21179060.3474   21179068.2514
       194.0004        195.0004
  -5350208.90947  -4151838.00245  23518320.652    23518321.4654   23518326.9404
       153.0004        156.0004
  -8680843.54348  -6745712.38346  22874251.977    22874251.4144   22874256.3264
       174.0004        174.0004
 21  2  2  1 23 30.0000000  0 10G28G30G08G14G09G07G21G01G04G17
   -729842.41447   -562910.48445  23622641.523    23622640.5874   23622644.7414
       150.0004        152.0004
 -11755782.86548  -9133768.01846  22421645.231    22421645.5854   22421652.2134
       180.0004        181.0004
 -10365738.69149  -8049132.88347  22763209.532    22763210.9494   22763219.9604
       199.0004        198.0004
  -3298027.82847  -2558323.57646  23247951.151    23247952.0314   23247956.8794
       164.0004        166.0004
 -13812702.97949 -10732483.30247  21816680.524    21816681.2694   21816688.1294
       197.0004        198.0004
 -23217162.80449 -18078568.48647  20872429.117    20872429.3124   20872433.0784
       205.0004        205.0004
 -14688928.11348 -11434940.49246  21893335.876    21893336.7194   21893340.9464
       185.0004        184.0004
 -19967306.44449 -15535627.72347  21170022.620    21170023.1834   21170030.7434
       195.0004        196.0004
  -5252028.05147  -4075333.45845  23537004.548    23537004.4164   23537010.4914
       154.0004        156.0004
  -8752761.63248  -6801752.42546  22860566.069    22860566.1214   22860570.7834
       172.0004        173.0004
 21  2  2  1 24  0.0000000  0 10G28G30G08G14G09G07G21G01G04G17
   -744799.80247   -574565.58445  23619794.377    23619793.8544   23619799.9134
       150.0004        154.0004
 -11841020.24548  -9200186.76146  22405425.342    22405425.7054   22405432.4974
       181.0004        182.0004
 -10272219.51949  -7976260.82047  22781007.641    22781007.4634   22781016.3194
       197.0004        197.0004
  -3323989.90847  -2578553.75146  23243011.608    23243011.8164   23243016.3004
       164.0004        165.0004
 -13745541.85849 -10680149.97747  21829461.490    21829461.6594   21829468.3244
       197.0004        198.0004
 -23272513.32349 -18121698.77347  20861895.664    20861896.0924   20861900.1024
       205.0004        206.0004
 -14662673.98248 -11414482.71346  21898333.502    21898332.4374   21898336.5554
       184.0004        185.0004
 -20014361.16649 -15572293.73447  21161068.328    21161068.9754   21161076.7204
       196.0004        197.0004
  -5153849.64747  -3998830.82245  23555687.779    23555686.9424   23555693.6874
       155.0004        158.0004
  -8824308.33748  -6857503.08446  22846950.075    22846950.5304   22846955.7914
       173.0004        174.0004
 21  2  2  1 24 30.0000000  0 10G28G30G08G14G09G07G21G01G04G17
   -759774.92947   -586234.50745  23616944.680    23616944.0694   23616949.6734
       151.0004        154.0004
 -11926146.53048  -9266518.93746  22389227.625    22389227.2034   22389233.0704
       181.0004        182.0004
 -10178622.14749  -7903327.81747  22798818.170    22798818.7204   22798827.7894
       196.0004        196.0004
  -3349974.82148  -2598801.72546  23238067.025    23238067.6744   23238072.2594
       166.0004        168.0004
 -13678106.71549 -10627603.12547  21842294.774    21842294.8684   21842301.3494
       198.0004        198.0004
 -23327533.85449 -18164571.92547  20851425.623    20851426.0714   20851430.2224
       205.0004        205.0004
 -14635924.87948 -11393639.25146  21903422.429    21903422.7034   21903427.2504
       184.0004        184.0004
 -20060975.33449 -15608616.46647  21152197.619    21152198.4014   21152206.0314
       196.0004        196.0004
  -5055676.54747  -3922332.31045  23574369.175    23574369.9414   23574375.1504
       155.0004        157.0004
  -8895482.62548  -6912963.56546  22833407.836    22833408.0234   22833411.9084
       175.0004        177.0004
 21  2  2  1 25  0.0000000  0 10G28G30G08G14G09G07G21G01G04G17
   -774769.06747   -597918.23745  23614093.015    23614092.9494   23614096.5734
       153.0004        156.0004
 -12011159.07548  -9332762.47746  22373050.491    22373050.0254   22373056.2044
       182.0004        183.0004
 -10084949.43049  -7830336.11147  22816643.616    22816643.6904   22816652.4584
       195.0004        195.0004
  -3375983.38448  -2619068.13946  23233117.978    23233117.8764   23233123.1434
       167.0004        167.0004
 -13610400.34449 -10574844.91747  21855178.240    21855178.1724   21855185.3364
       197.0004        196.0004
 -23382221.44349 -18207185.64347  20841019.682    20841019.8824   20841023.2434
       205.0004        206.0004
 -14608680.42948 -11372409.81146  21908606.305    21908606.4814   21908612.0464
       184.0004        183.0004
 -20107145.97149 -15644593.57247  21143411.376    21143412.3214   21143419.8054
       196.0004        196.0004
  -4957511.27947  -3845839.89945  23593048.966    23593048.3604   23593054.8094
       154.0004        156.0004
  -8966282.63448  -6968132.37346  22819934.059    22819934.3104   22819939.0874
       175.0004        175.0004
 21  2  2  1 25 30.0000000  0 10G28G30G08G14G09G07G21G01G04G17
   -789783.61747   -609617.86345  23611234.563    23611234.1824   23611239.6864
       153.0004        156.0004
 -12096055.34448  -9398915.40746  22356893.878    22356894.5584   22356900.7054
       183.0004        185.0004
  -9991203.82249  -7757287.59547  22834483.464    22834483.7924   22834491.2294
       196.0004        197.0004
  -3402016.52748  -2639353.69746  23228163.752    23228164.6654   23228168.3764
       166.0004        167.0004
 -13542425.74649 -10521877.69347  21868113.184    21868113.5114   21868119.8114
       196.0004        196.0004
 -23436573.32949 -18249537.76247  20830676.066    20830676.4354   20830680.8874
       205.0004        206.0004
 -14580940.91248 -11350794.59946  21913886.274    21913885.5274   21913890.1934
       183.0004        183.0004
 -20152870.29649 -15680222.90247  21134710.328    21134711.2284   21134718.8654
       197.0004        197.0004
  -4859356.53647  -3769355.70145  23611727.438    23611727.4194   23611732.0044
       153.0004        155.0004
  -9036707.75948  -7023009.06646  22806532.199    22806532.6294   22806537.5434
       173.0004        174.0004
 21  2  2  1 26  0.0000000  0 10G28G30G08G14G09G07G21G01G04G17
   -804819.84447   -621334.38545  23608374.275    23608372.4444   23608378.1054
       154.0004        157.0004
 -12180832.61648  -9464975.62946  22340761.098    22340761.7704   22340767.8274
       184.0004        185.0004
  -9897387.69849  -7684184.12147  22852335.789    22852336.0334   22852344.0484
       196.0004        197.0004
  -3428074.92548  -2659658.95146  23223205.440    23223205.6964   23223209.5204
       167.0004        167.0004
 -13474185.58949 -10468703.55047  21881098.763    21881098.8294   21881106.5314
       195.0004        195.0004
 -23490586.62249 -18291626.05247  20820397.701    20820398.2904   20820402.7914
       206.0004        207.0004
 -14552706.41548 -11328793.67546  21919259.135    21919259.0554   21919263.9254
       183.0004        184.0004
 -20198145.32349 -15715502.14247  21126095.300    21126096.0524   21126103.8604
       197.0004        197.0004
  -4761214.80147  -3692881.62245  23630401.617    23630402.5144   23630407.9684
       152.0004        154.0004
  -9106756.61248  -7077592.56446  22793202.783    22793202.5584   22793208.2584
       173.0004        174.0004
 21  2  2  1 26 30.0000000  0 10G28G30G08G14G09G07G21G01G04G17
   -819879.44547   -633069.12945  23605507.151    23605507.4794   23605511.9514
       154.0004        156.0004
 -12265488.76248  -9530941.45946  22324652.589    22324652.5704   22324657.6994
       185.0004        186.0004
  -9803504.01249  -7611028.01547  22870201.189    22870201.3554   22870210.0044
       196.0004        196.0004
  -3454159.92448  -2679984.91546  23218240.861    23218240.8414   23218244.3964
       165.0004        164.0004
 -13405683.19648 -10415325.07347  21894133.088    21894133.6864   21894141.9394
       194.0004        193.0004
 -23544258.87849 -18333448.59447  20810185.129    20810185.1154   20810188.7634
       207.0004        207.0004
 -14523977.33948 -11306407.37346  21924725.442    21924725.5774   21924730.2114
       183.0004        183.0004
 -20242968.63849 -15750429.39247  21117565.402    21117566.0064   21117573.6744
       197.0004        198.0004
  -4663089.14747  -3616420.08145  23649075.293    23649075.3714   23649080.8004
       152.0004        154.0004
  -9176427.95948  -7131881.91246  22779945.116    22779944.8894   22779950.2174
       173.0004        174.0004
 21  2  2  1 27  0.0000000  0 10G28G30G08G14G09G07G21G01G04G17
   -834962.97447   -644822.52345  23602637.461    23602637.2924   23602641.0504
       154.0004        157.0004
 -12350020.39648  -9596810.27146  22308566.169    22308566.5684   22308573.3294
       186.0004        187.0004
  -9709554.40749  -7537820.54247  22888079.294    22888079.6114   22888087.9994
       195.0004        194.0004
  -3480271.58547  -2700331.66345  23213271.047    23213271.2534   23213275.8964
       162.0004        161.0004
 -13336920.72148 -10361743.94047  21907217.854    21907218.4564   21907226.1614
       192.0004        192.0004
 -23597586.47749 -18375002.58347  20800036.473    20800037.2494   20800040.8884
       207.0004        207.0004
 -14494753.14348 -11283635.27746  21930286.716    21930287.1004   21930292.1334
       183.0004        183.0004
 -20287336.66849 -15785001.87747  21109122.200    21109123.3104   21109130.9164
       197.0004        198.0004
  -4564981.17447  -3539972.34545  23667744.251    23667744.6504   23667750.7394
       152.0004        154.0004
  -9245719.76748  -7185875.52246  22766759.558    22766759.1294   22766764.2984
       174.0004        174.0004
 21  2  2  1 27 30.0000000  0 10G28G30G08G14G09G07G21G01G04G17
   -850073.10447   -656596.62245  23599762.997    23599762.1664   23599766.3214
       154.0004        156.0004
 -12434426.18348  -9662581.01046  22292503.567    22292503.7024   22292510.5664
       185.0004        185.0004
  -9615541.89248  -7464564.05747  22905968.981    22905969.4724   22905977.8714
       194.0004        193.0004
  -3506412.02547  -2720700.82346  23208296.435    23208297.1444   23208303.6194
       163.0004        165.0004
 -13267902.29148 -10307963.38147  21920351.516    21920352.4884   21920359.8984
       191.0004        191.0004
 -23650567.71549 -18416286.67247  20789954.480    20789954.9154   20789959.0014
       206.0004        207.0004
 -14465035.60448 -11260478.74846  21935942.969    21935941.7904   21935946.7324
       184.0004        183.0004
 -20331247.86349 -15819218.38947  21100766.899    21100767.3484   21100775.0414
       198.0004        199.0004
  -4466894.91347  -3463541.48445  23686409.521    23686410.1544   23686415.6964
       154.0004        157.0004
  -9314632.38548  -7239573.66146  22753645.221    22753645.6144   22753649.3424
       172.0004        171.0004
 21  2  2  1 28  0.0000000  0 10G28G30G08G14G09G07G21G01G04G17
   -865210.20347   -668391.73545  23596882.159    23596881.0264   23596886.2394
       153.0004        155.0004
 -12518703.05048  -9728251.29046  22276467.049    22276467.0604   22276473.4524
       186.0004        187.0004
  -9521469.36748  -7391260.80447  22923870.379    22923870.9464   22923879.4014
       194.0004        195.0004
  -3532581.59047  -2741092.66646  23203317.970    23203317.7804   23203321.9694
       164.0004        166.0004
 -13198630.42648 -10253985.30847  21933534.834    21933535.0514   21933542.3704
       192.0004        194.0004
 -23703199.45149 -18457298.42047  20779938.995    20779939.5424   20779943.7584
       207.0004        207.0004
 -14434823.95648 -11236937.18546  21941690.475    21941690.1924   21941695.8694
       184.0004        183.0004
 -20374699.00549 -15853076.40147  21092498.137    21092498.3394   21092506.7604
       198.0004        198.0004
  -4368832.43847  -3387129.16545  23705069.450    23705070.7524   23705077.3294
       157.0004        160.0004
  -9383164.00848  -7292974.90646  22740604.142    22740604.5954   22740608.7714
       171.0004        170.0004
 21  2  2  1 28 30.0000000  0 10G28G30G08G14G09G07G21G01G04G17
   -880375.38847   -680208.74445  23593995.755    23593995.0804   23594000.2464
       153.0004        155.0004
 -12602847.87948  -9793818.71447  22260454.516    22260455.1784   22260461.8694
       186.0004        188.0004
  -9427338.17848  -7317911.83847  22941782.776    22941782.8454   22941791.6674
       193.0004        193.0004
  -3558780.65547  -2761507.52146  23198331.176    23198330.7664   23198337.1494
       163.0004        164.0004
 -13129107.48249 -10199811.58547  21946765.441    21946765.5194   21946773.0704
       195.0004        197.0004
 -23755478.46549 -18498035.32847  20769991.033    20769991.3934   20769995.6064
       207.0004        207.0004
 -14404118.46148 -11213010.82246  21947534.540    21947533.8534   21947538.8684
       183.0004        182.0004
 -20417686.81649 -15886573.40847  21084317.550    21084318.4194   21084326.2254
       198.0004        197.0004
  -4270795.81347  -3310736.98945  23723725.410    23723726.0604   23723733.5974
       157.0004        159.0004
  -9451313.01048  -7346078.01946  22727634.937    22727635.8114   22727639.7344
       170.0004        170.0004
 21  2  2  1 29  0.0000000  0 10G28G30G08G14G09G07G21G01G04G17
   -895570.56547   -692049.14545  23591103.501    23591103.3564   23591107.5504
       153.0004        156.0004
 -12686858.79448  -9859281.74947  22244466.959    22244467.7174   22244475.1634
       187.0004        188.0004
  -9333151.42848  -7244519.58447  22959707.838    22959707.3434   22959714.9174
       194.0004        195.0004
  -3585010.76747  -2781946.55345  23193340.046    23193340.6264   23193345.8254
       161.0004        162.0004
 -13059337.07949 -10145445.03647  21960042.697    21960043.1114   21960049.3674
       196.0004        197.0004
 -23807402.38649 -18538495.52247  20760110.096    20760110.5794   20760114.3024
       207.0004        207.0004
 -14372920.01348 -11188700.33746  21953470.530    21953470.1604   21953475.8044
       183.0004        182.0004
 -20460209.25549 -15919707.76647  21076225.517    21076226.4814   21076234.3704
       197.0004        198.0004
  -4172788.23347  -3234367.46645  23742376.482    23742376.7594   23742384.1084
       157.0004        159.0004
  -9519078.94648  -7398882.62046  22714740.448    22714740.8634   22714744.7984
       171.0004        174.0004
 21  2  2  1 29 30.0000000  0 10G28G30G08G14G09G07G21G01G04G17
   -910796.98247   -703913.86445  23588206.875    23588205.4604   23588210.5064
       152.0004        155.0004
 -12770732.96048  -9924638.24047  22228508.349    22228507.5494   22228514.5034
       189.0004        191.0004
  -9238911.73248  -7171086.06247  22977640.103    22977640.6054   22977647.9654
       193.0004        193.0004
  -3611272.52747  -2802410.27845  23188342.832    23188343.4204   23188347.6654
       160.0004        162.0004
 -12989321.96449 -10090887.80347  21973366.906    21973366.9854   21973372.3284
       197.0004        198.0004
 -23858968.68049 -18578677.05147  20750297.032    20750297.6044   20750301.8034
       207.0004        207.0004
 -14341228.34948 -11164005.52446  21959502.020    21959501.6614   21959507.0364
       183.0004        183.0004
 -20502263.42149 -15952477.23047  21068222.466    21068223.5484   21068231.4134
       197.0004        197.0004
  -4074812.18447  -3158022.49045  23761020.086    23761021.4134   23761027.4274
       155.0004        156.0004
  -9586460.64448  -7451387.81846  22701917.564    22701918.0074   22701921.8424
       172.0004        172.0004
 21  2  2  1 30  0.0000000  0 10G28G30G08G14G09G07G21G01G04G17
   -926056.59647   -715804.47745  23585302.259    23585302.8554   23585306.7544
       151.0004        153.0004
 -12854468.40348  -9989886.65347  22212573.395    22212573.3344   22212580.1984
       190.0004        191.0004
  -9144622.14948  -7097613.68347  22995582.869    22995582.4884   22995591.2354
       193.0004        193.0004
  -3637567.51947  -2822899.88845  23183338.176    23183339.1994   23183344.4484
       161.0004        162.0004
 -12919065.72549 -10036142.68047  21986736.218    21986736.0244   21986741.7324
       198.0004        198.0004
 -23910175.03449 -18618578.11747  20740553.432    20740553.6804   20740557.4394
       207.0004        208.0004
 -14309044.67948 -11138927.32746  21965626.354    21965625.6614   21965630.7184
       183.0004        183.0004
 -20543847.28049 -15984880.24047  21060309.652    21060310.7624   21060318.2984
       196.0004        197.0004
  -3976870.88347  -3081704.61545  23779658.011    23779658.6834   23779664.5004
       153.0004        155.0004
  -9653457.55148  -7503593.19146  22689167.280    22689167.9684   22689173.4724
       170.0004        171.0004
 21  2  2  1 30 30.0000000  0 10G28G30G08G14G09G07G21G01G04G17
   -941349.91447   -727721.36045  23582392.682    23582392.1924   23582396.1044
       149.0004        149.0004
 -12938061.82748 -10055024.36947  22196665.693    22196665.2684   22196672.9804
       190.0004        190.0004
  -9050284.13848  -7024103.58647  23013535.194    23013534.6324   23013542.3684
       193.0004        193.0004
  -3663895.71747  -2843415.36846  23178329.105    23178329.2184   23178334.1644
       163.0004        165.0004
 -12848570.57449  -9981211.39747  22000150.141    22000150.1384   22000156.2114
       198.0004        197.0004
 -23961018.05849 -18658196.05947  20730877.739    20730878.2904   20730882.5284
       207.0004        208.0004
 -14276368.69248 -11113465.51846  21971843.671    21971843.3374   21971848.9464
       183.0004        183.0004
 -20584957.42649 -16016914.11147  21052486.855    21052487.6264   21052495.2844
       196.0004        197.0004
  -3878966.08747  -3005415.16045  23798288.406    23798289.0684   23798294.1384
       152.0004        155.0004
  -9720067.63248  -7555497.12446  22676493.894    22676494.5604   22676497.4584
       173.0004        175.0004
 21  2  2  1 31  0.0000000  0 10G28G30G08G14G09G07G21G01G04G17
   -956679.18447   -739666.21645  23579475.472    23579475.5144   23579479.1074
       147.0004        150.0004
 -13021511.41648 -10120050.03447  22180786.351    22180785.8914   22180792.0194
       189.0004        188.0004
  -8955900.99648  -6950558.28047  23031494.749    23031495.5494   23031503.4834
       193.0004        194.0004
  -3690258.88948  -2863958.08246  23173312.941    23173313.5514   23173317.6264
       165.0004        168.0004
 -12777840.26949  -9926096.87747  22013608.324    22013608.7344   22013616.2924
       196.0004        195.0004
 -24011495.63849 -18697529.24647  20721272.598    20721273.1494   20721276.8274
       208.0004        208.0004
 -14243201.52448 -11087620.96446  21978155.219    21978155.3654   21978160.4064
       182.0004        182.0004
 -20625592.05249 -16048577.45447  21044754.781    21044755.3034   21044762.9434
       196.0004        196.0004
  -3781101.21447  -2929156.83745  23816911.399    23816912.0064   23816918.7904
       154.0004        156.0004
  -9786290.86048  -7607099.63346  22663892.738    22663892.3704   22663894.9714
       174.0004        174.0004
 21  2  2  1 31 30.0000000  0 10G28G30G08G14G09G07G21G01G04G17
   -972045.83647   -751640.22245  23576550.302    23576550.5304   23576555.0744
       148.0004        151.0004
 -13104814.79748 -10184961.77347  22164933.423    22164933.7724   22164940.4364
       188.0004        189.0004
  -8861475.37848  -6876979.88847  23049464.169    23049464.4184   23049471.8714
       194.0004        194.0004
  -3716658.07648  -2884528.83146  23168290.646    23168291.4104   23168293.3684
       168.0004        170.0004
 -12706878.02048  -9870801.62347  22027112.003    22027112.4994   22027119.8934
       193.0004        193.0004
 -24061605.46849 -18736575.86247  20711736.952    20711736.9984   20711741.5864
       208.0004        209.0004
 -14209543.86648 -11061394.19946  21984560.707    21984559.9324   21984565.6044
       183.0004        184.0004
 -20665748.79349 -16079868.40947  21037112.909    21037113.1684   21037120.8764
       196.0004        196.0004
  -3683279.07647  -2852931.79645  23835527.527    23835527.9494   23835533.2504
       156.0004        159.0004
  -9852126.42548  -7658400.04546  22651362.014    22651362.8444   22651367.0714
       172.0004        172.0004
 21  2  2  1 32  0.0000000  0 10G28G30G08G14G09G07G21G01G04G17
   -987450.59947   -763643.95045  23573619.126    23573619.7734   23573622.6924
       146.0004        148.0004
 -13187969.02648 -10249757.26746  22149109.564    22149109.3184   22149116.7444
       187.0004        187.0004
  -8767009.64048  -6803370.23947  23067440.962    23067440.6604   23067447.9224
       194.0004        194.0004
  -3743093.72848  -2905128.01046  23163260.012    23163260.5844   23163263.1824
       170.0004        170.0004
 -12635686.44748  -9815327.67947  22040658.554    22040659.1414   22040667.7244
       192.0004        192.0004
 -24111344.36749 -18775333.45447  20702272.129    20702272.4794   20702276.4134
       208.0004        209.0004
 -14175395.78448 -11034785.30546  21991058.615    21991058.2184   21991063.1994
       183.0004        184.0004
 -20705424.66149 -16110784.66847  21029561.884    21029562.8164   21029571.3824
       195.0004        196.0004
  -3585501.74547  -2776741.70845  23854135.005    23854134.3544   23854139.8194
       157.0004        158.0004
  -9917572.86148  -7709397.25846  22638908.659    22638909.3164   22638914.2104
       172.0004        175.0004
 21  2  2  1 32 30.0000000  0 10G28G30G08G14G09G07G21G01G04G17
  -1002895.65747   -775679.03045  23570680.806    23570680.1204   23570683.6104
       143.0004        147.0004
 -13270972.04148 -10314434.93347  22133314.894    22133314.7314   22133322.0234
       187.0004        188.0004
  -8672506.24148  -6729731.24647  23085423.686    23085423.5204   23085432.1824
       193.0004        194.0004
  -3769567.22948  -2925756.71546  23158219.772    23158219.1944   23158225.4574
       167.0004        165.0004
 -12564269.08948  -9759677.80647  22054248.130    22054249.2634   22054257.2734
       191.0004        191.0004
 -24160710.30449 -18813800.42247  20692878.046    20692878.5464   20692882.2654
       208.0004        209.0004
 -14140758.32148 -11007795.07446  21997650.202    21997649.3354   21997654.6824
       183.0004        183.0004
 -20744617.68249 -16141324.67947  21022104.746    21022105.2514   21022112.8774
       196.0004        196.0004
  -3487772.50947  -2700589.08845  23872730.192    23872731.3204   23872738.3964
       154.0004        155.0004
  -9982629.76048  -7760090.95146  22626529.865    22626530.4684   22626533.8804
       173.0004        175.0004
 21  2  2  1 33  0.0000000  0 10G28G30G08G14G09G07G21G01G04G17
  -1018380.25447   -787744.93645  23567735.005    23567733.9684   23567737.6024
       144.0004        149.0004
 -13353819.37348 -10378991.30847  22117549.280    22117549.7354   22117556.2114
       187.0004        188.0004
  -8577966.01748  -6656063.54947  23103413.035    23103413.1694   23103422.9664
       193.0004        193.0004
  -3796077.51747  -2946414.11346  23153172.257    23153174.0844   23153180.5384
       163.0004        164.0004
 -12492627.07548  -9703852.88247  22067882.975    22067883.9294   22067889.7654
       191.0004        192.0004
 -24209698.65049 -18851973.16747  20683556.024    20683556.4664   20683560.0134
       209.0004        209.0004
 -14105630.11648 -10980422.44746  22004335.693    22004335.3674   22004339.0474
       183.0004        184.0004
 -20783323.42549 -16171484.99147  21014737.849    21014739.3534   21014747.6974
       196.0004        196.0004
  -3390091.97747  -2624474.41045  23891319.820    23891319.0224   23891325.5724
       153.0004        154.0004
 -10047294.50448  -7810479.05546  22614224.641    22614225.0554   22614228.5274
       175.0004        177.0004
 21  2  2  1 33 30.0000000  0 10G28G30G08G14G09G07G21G01G04G17
  -1033906.99147   -799843.69245  23564779.596    23564779.1554   23564783.7134
       148.0004        153.0004
 -13436509.52848 -10443425.20547  22101813.739    22101814.1004   22101821.1304
       188.0004        189.0004
  -8483392.23348  -6582369.70447  23121410.592    23121410.6824   23121419.1994
       192.0004        192.0004
  -3822626.64947  -2967101.76546  23148123.798    23148124.2304   23148128.6844
       164.0004        165.0004
 -12420764.55348  -9647856.12847  22081559.055    22081559.0924   22081565.5224
       192.0004        193.0004
 -24258308.08049 -18889850.65347  20674305.729    20674305.8694   20674310.3664
       209.0004        210.0004
 -14070013.07548 -10952668.89846  22011112.471    22011112.6834   22011116.8434
       183.0004        183.0004
 -20821540.52349 -16201264.54447  21007466.318    21007467.4864   21007474.8454
       196.0004        196.0004
  -3292463.80347  -2548400.52045  23909896.631    23909897.1284   23909902.8764
       151.0004        153.0004
 -10111567.07648  -7860561.57746  22601994.144    22601993.5464   22601999.0094
       177.0004        178.0004
 21  2  2  1 34  0.0000000  0 10G28G30G08G14G09G07G21G01G04G17
  -1049477.14947   -811976.29345  23561815.943    23561815.7804   23561820.1904
       150.0004        153.0004
 -13519039.78848 -10507734.49747  22086110.398    22086109.5084   22086116.0634
       188.0004        189.0004
  -8388787.65948  -6508651.86747  23139412.339    23139412.9574   23139422.9294
       192.0004        193.0004
  -3849215.33948  -2987820.19946  23143066.226    23143065.9524   23143068.8334
       165.0004        167.0004
 -12348684.34848  -9591689.72547  22095275.204    22095275.7574   22095281.8584
       193.0004        194.0004
 -24306535.67849 -18927430.59647  20665128.058    20665128.6744   20665132.7204
       209.0004        209.0004
 -14033907.49748 -10924534.67246  22017982.963    22017982.4394   22017986.8454
       183.0004        183.0004
 -20859266.35349 -16230661.27347  21000286.613    21000287.8674   21000296.1264
       196.0004        197.0004
  -3194890.45047  -2472369.36345  23928464.369    23928465.0734   23928470.3294
       150.0004        153.0004
 -10175446.24148  -7910337.54946  22589837.291    22589837.6264   22589843.2634
       176.0004        177.0004
 21  2  2  1 34 30.0000000  0 10G28G30G08G14G09G07G21G01G04G17
  -1065091.71947   -824143.47945  23558845.131    23558844.6564   23558849.3134
       149.0004        150.0004
 -13601407.63948 -10571917.23946  22070434.539    22070434.8334   22070442.2144
       188.0004        187.0004
  -8294154.04648  -6434911.37647  23157419.738    23157421.1014   23157430.4344
       193.0004        193.0004
  -3875844.40848  -3008570.07946  23137997.434    23137997.8664   23138002.0724
       166.0004        166.0004
 -12276389.58648  -9535356.14747  22109031.584    22109032.0604   22109039.3914
       193.0004        193.0004
 -24354378.57549 -18964710.79047  20656024.220    20656024.5034   20656028.5084
       209.0004        210.0004
 -13997314.05048 -10896020.29146  22024947.609    22024947.1444   22024950.8154
       183.0004        183.0004
 -20896498.50149 -16259673.33647  20993202.180    20993203.1834   20993210.9634
       196.0004        196.0004
  -3097374.55547  -2396382.94645  23947021.222    23947021.4014   23947028.5244
       150.0004        153.0004
 -10238931.40548  -7959806.49546  22577756.788    22577756.9284   22577762.0334
       177.0004        179.0004
 21  2  2  1 35  0.0000000  0 10G28G30G08G14G09G07G21G01G04G17
  -1080752.11647   -836346.36145  23555864.914    23555864.9514   23555868.6794
       148.0004        151.0004
 -13683610.55148 -10635971.43847  22054791.482    22054792.0034   22054798.9834
       187.0004        188.0004
  -8199494.32748  -6361150.55447  23175434.857    23175434.7474   23175442.7174
       192.0004        192.0004
  -3902514.71347  -3029352.16546  23132920.687    23132920.7794   23132925.5314
       163.0004        163.0004
 -12203883.33148  -9478857.76847  22122828.412    22122829.0374   22122836.7024
       192.0004        192.0004
 -24401834.43749 -19001689.38347  20646993.525    20646993.9164   20646997.7574
       209.0004        210.0004
 -13960233.19448 -10867126.10046  22032003.376    22032003.4594   22032006.5484
       183.0004        184.0004
 -20933234.63849 -16288298.87947  20986212.349    20986212.7564   20986220.5954
       197.0004        198.0004
  -2999918.70947  -2320443.33545  23965565.598    23965566.9804   23965574.7604
       150.0004        152.0004
 -10302022.14948  -8008968.09946  22565751.097    22565751.6134   22565756.1564
       177.0004        177.0004
 21  2  2  1 35 30.0000000  0 10G28G30G08G14G09G07G21G01G04G17
  -1096459.42947   -848585.82745  23552875.706    23552875.6154   23552878.9094
       148.0004        151.0004
 -13765645.45848 -10699894.75047  22039181.879    22039182.1874   22039188.4784
       188.0004        189.0004
  -8104810.46848  -6287370.94247  23193452.543    23193452.9294   23193460.1364
       191.0004        191.0004
  -3929226.72247  -3050166.71846  23127837.105    23127838.3324   23127843.3814
       164.0004        167.0004
 -12131168.21748  -9422196.65747  22136666.414    22136666.2954   22136673.8254
       191.0004        192.0004
 -24448900.28849 -19038364.07847  20638037.472    20638037.6224   20638041.6464
       209.0004        210.0004
 -13922665.39648 -10837852.48846  22039151.991    22039151.6874   22039156.2694
       183.0004        183.0004
 -20969471.90049 -16316535.69447  20979317.495    20979317.8314   20979324.8854
       198.0004        199.0004
  -2902525.02947  -2244552.19245  23984099.840    23984099.9704   23984106.2194
       149.0004        152.0004
 -10364716.96948  -8057821.19346  22553820.054    22553820.6154   22553825.1364
       176.0004        178.0004
 21  2  2  1 36  0.0000000  0 11G28G30G08G19G14G09G07G21G01G04G17
  -1112215.58747   -860863.34045  23549876.865    23549876.9724   23549881.6264
       148.0004        151.0004
 -13847510.41248 -10763685.63746  22023603.718    22023603.1524   22023609.7634
       188.0004        187.0004
  -8010105.46648  -6213574.85047  23211474.030    23211474.3124   23211482.4354
       190.0004        190.0004
  -1510329.59654  -1157211.74745  24841827.739
        74.0004        153.0004
  -3955981.90148  -3071014.90146  23122745.862    23122747.2294   23122752.3154
       165.0004        166.0004
 -12058247.87148  -9365375.63147  22150542.844    22150543.0514   22150550.3634
       191.0004        192.0004
 -24495574.11549 -19074733.29947  20629155.364    20629155.9094   20629159.7854
       209.0004        210.0004
 -13884611.93248 -10808200.43446  22046392.745    22046392.5734   22046397.9534
       182.0004        183.0004
 -21005208.57049 -16344382.43447  20972515.231    20972516.1714   20972524.3834
       198.0004        198.0004
  -2805196.66347  -2168711.95545  24002621.794    24002621.7494   24002628.1034
       147.0004        149.0004
 -10427015.69048  -8106365.64146  22541965.343    22541965.7274   22541969.8474
       177.0004        178.0004
 21  2  2  1 36 30.0000000  0 11G28G30G08G19G14G09G07G21G01G04G17
  -1128021.29047   -873179.46845  23546869.891    23546869.8564   23546874.5284
       148.0004        151.0004
 -13929202.52248 -10827341.81547  22008057.070    22008056.7904   22008064.6544
       187.0004        188.0004
  -7915381.42148  -6139763.92347  23229501.245    23229499.9244   23229507.5544
       190.0004        190.0004
  -1601846.09047  -1228523.21845  24824411.688    24824410.2644   24824416.6804
       142.0004        153.0004
  -3982780.74347  -3091897.10146  23117646.026    23117646.2484   23117652.6624
       163.0004        163.0004
 -11985125.08148  -9308396.83447  22164457.933    22164457.7204   22164464.6864
       191.0004        191.0004
 -24541853.32449 -19110795.02547  20620348.549    20620349.2174   20620353.4784
       210.0004        210.0004
 -13846073.11748 -10778170.18446  22053726.172    22053726.4504   22053731.1164
       182.0004        182.0004
 -21040441.92649 -16371836.98647  20965810.060    20965811.9484   20965819.4794
       198.0004        198.0004
  -2707935.86947  -2092924.35045  24021128.675    24021129.5624   24021133.6344
       146.0004        149.0004
 -10488916.78848  -8154600.24446  22530186.463    22530186.5404   22530190.9674
       178.0004        179.0004
 21  2  2  1 37  0.0000000  0 11G28G30G08G19G14G09G07G21G01G04G17
  -1143879.80747   -885536.75145  23543852.292    23543851.7074   23543855.9314
       149.0004        152.0004
 -14010720.89148 -10890862.62047  21992545.682    21992545.7704   21992552.2024
       188.0004        189.0004
  -7820641.95348  -6065940.96547  23247527.832    23247528.0204   23247535.8024
       189.0004        189.0004
  -1693158.64647  -1299675.81245  24807034.227    24807033.9014   24807039.4704
       149.0004        153.0004
  -4009625.80047  -3112815.32945  23112537.332    23112537.4944   23112544.5344
       161.0004        162.0004
 -11911804.55548  -9251263.97047  22178409.977    22178410.3904   22178417.5424
       191.0004        191.0004
 -24587736.66449 -19146548.28347  20611617.335    20611617.9554   20611622.2034
       210.0004        210.0004
 -13807051.54348 -10747763.76046  22061152.338    22061152.2354   22061157.7344
       182.0004        183.0004
 -21075171.40849 -16398898.90447  20959201.990    20959202.8344   20959210.8714
       198.0004        198.0004
  -2610746.84947  -2017192.65445  24039622.638    24039623.4444   24039629.8714
       144.0004        147.0004
 -10550421.52148  -8202525.99846  22518480.782    22518481.7674   22518487.4864
       178.0004        179.0004
 21  2  2  1 37 30.0000000  0 11G28G30G08G19G14G09G07G21G01G04G17
  -1159791.14947   -897935.17045  23540823.353    23540823.6304   23540828.2754
       150.0004        153.0004
 -14092061.38248 -10954244.81147  21977066.002    21977066.8704   21977073.3594
       189.0004        189.0004
  -7725888.30748  -5992106.97447  23265559.420    23265558.7784   23265566.9484
       189.0004        189.0004
  -1784264.05147  -1370667.00645  24789698.121    24789697.0614   24789701.0414
       146.0004        147.0004
  -4036516.32947  -3133768.97245  23107420.694    23107420.5954   23107426.9044
       160.0004        161.0004
 -11838287.84748  -9193978.22747  22192400.789    22192400.7464   22192406.8364
       190.0004        190.0004
 -24633220.19849 -19181990.00247  20602962.930    20602963.1124   20602966.7674
       210.0004        210.0004
 -13767546.46548 -10716980.56846  22068670.202    22068669.3674   22068674.4274
       182.0004        182.0004
 -21109393.13749 -16425565.16247  20952690.797    20952690.7934   20952698.2934
       198.0004        199.0004
  -2513630.69547  -1941517.73845  24058105.839    24058104.1084   24058110.6804
       144.0004        148.0004
 -10611527.79548  -8250141.26646  22506854.639    22506854.7994   22506859.3894
       180.0004        182.0004
 21  2  2  1 38  0.0000000  0 11G28G30G08G19G14G09G07G21G01G04G17
  -1175756.11847   -910375.40345  23537785.167    23537786.2134   23537790.8844
       152.0004        156.0004
 -14173221.26748 -11017486.29347  21961622.791    21961622.5234   21961629.3094
       190.0004        191.0004
  -7631122.70748  -5918263.66247  23283588.833    23283590.9194   23283600.7204
       188.0004        188.0004
  -1875160.76647  -1441495.54345  24772399.620    24772399.7864   24772404.3224
       143.0004        146.0004
  -4063453.00547  -3154758.60146  23102295.604    23102296.2844   23102300.6574
       162.0004        165.0004
 -11764577.84148  -9136541.87147  22206427.032    22206426.9634   22206434.3544
       191.0004        191.0004
 -24678301.20549 -19217118.05747  20594383.659    20594383.9154   20594388.3864
       209.0004        210.0004
 -13727558.29948 -10685820.95546  22076279.219    22076279.2204   22076283.5554
       182.0004        181.0004
 -21143104.69049 -16451833.89247  20946275.188    20946275.7214   20946283.5014
       199.0004        199.0004
  -2416589.72547  -1865901.42245  24076571.461    24076570.2804   24076576.9664
       144.0004        148.0004
 -10672234.69448  -8297445.32746  22495301.699    22495301.6394   22495307.4524
       181.0004        181.0004
 21  2  2  1 38 30.0000000  0 11G28G30G08G19G14G09G07G21G01G04G17
  -1191775.17547   -922857.77845  23534738.819    23534738.0134   23534742.4384
       152.0004        154.0004
 -14254197.03548 -11080584.29047  21946213.811    21946213.7944   21946220.5534
       190.0004        191.0004
  -7536346.23848  -5844411.87046  23301625.819    23301626.4084   23301636.2894
       187.0004        187.0004
  -1965846.05147  -1512159.35945  24755143.279    24755143.2694   24755148.1404
       140.0004        144.0004
  -4090435.73048  -3175784.10046  23097160.337    23097161.4504   23097166.5834
       165.0004        168.0004
 -11690676.69348  -9078956.57347  22220488.362    22220489.2634   22220496.8614
       190.0004        191.0004
 -24722976.29549 -19251929.81247  20585882.097    20585882.3984   20585886.7844
       209.0004        210.0004
 -13687087.30748 -10654285.10746  22083979.733    22083980.0474   22083984.4354
       181.0004        180.0004
 -21176302.94449 -16477702.64747  20939957.567    20939958.2704   20939966.3174
       199.0004        199.0004
  -2319625.53247  -1790344.92845  24095023.537    24095023.9534   24095027.6474
       145.0004        149.0004
 -10732540.48648  -8344436.85146  22483825.562    22483825.9594   22483831.2354
       181.0004        182.0004
 21  2  2  1 39  0.0000000  0 11G28G30G08G19G14G09G07G21G01G04G17
  -1207849.33547   -935383.09745  23531677.984    23531678.5974   23531683.1754
       149.0004        151.0004
 -14334985.91048 -11143536.66347  21930840.404    21930840.1704   21930847.1644
       191.0004        192.0004
  -7441561.61548  -5770553.73546  23319662.260    23319663.7944   23319672.9344
       187.0004        187.0004
  -2056318.38247  -1582657.26445  24737927.540    24737927.4144   24737931.7524
       141.0004        145.0004
  -4117465.11548  -3196845.97046  23092018.476    23092018.5084   23092023.0074
       166.0004        167.0004
 -11616587.29848  -9021224.57647  22234587.310    22234587.8344   22234594.9714
       189.0004        189.0004
 -24767242.70649 -19286423.12347  20577458.192    20577458.7284   20577462.9474
       209.0004        210.0004
 -13646133.95348 -10622373.40546  22091774.304    22091773.9394   22091778.4744
       181.0004        181.0004
 -21208985.46749 -16503169.53247  20933738.608    20933739.2454   20933746.6614
       199.0004        200.0004
  -2222740.50447  -1714850.10745  24113457.630    24113459.9754   24113464.2984
       146.0004        150.0004
 -10792444.31548  -8391115.14046  22472427.058    22472427.3354   22472432.2114
       182.0004        184.0004
 21  2  2  1 39 30.0000000  0 11G28G30G08G19G14G09G07G21G01G04G17
  -1223980.65247   -947952.96045  23528609.730    23528608.4994   23528613.2554
       147.0004        149.0004
 -14415585.99248 -11206341.92547  21915501.942    21915501.7044   21915508.9234
       191.0004        191.0004
  -7346771.75048  -5696691.52446  23337701.996    23337702.0554   23337710.4794
       185.0004        185.0004
  -2146576.44947  -1652988.15845  24720751.919    24720751.1664   24720754.4674
       141.0004        145.0004
  -4144542.72347  -3217945.36746  23086864.009    23086864.8484   23086870.0344
       164.0004        163.0004
 -11542313.41848  -8963348.85347  22248722.327    22248722.3084   22248729.5434
       189.0004        190.0004
 -24811098.58749 -19320596.53647  20569113.370    20569113.7544   20569117.6554
       209.0004        210.0004
 -13604699.37348 -10590086.72446  22099658.558    22099657.9744   22099662.9734
       181.0004        181.0004
 -21241150.73649 -16528233.36947  20927617.773    20927617.9834   20927625.7764
       199.0004        200.0004
  -2125937.83347  -1639419.47845  24131881.433    24131881.4194   24131886.3664
       147.0004        150.0004
 -10851945.72348  -8437479.87146  22461104.493    22461105.3284   22461109.1044
       182.0004        181.0004
 21  2  2  1 40  0.0000000  0 11G28G30G08G19G14G09G07G21G01G04G17
  -1240170.28847   -960568.23245  23525528.895    23525528.7894   23525532.4654
       147.0004        151.0004
 -14495994.76748 -11268998.11747  21900200.621    21900201.1404   21900207.5654
       191.0004        192.0004
  -7251978.91548  -5622826.98346  23355742.485    23355741.3834   23355750.0634
       186.0004        187.0004
  -2236619.19147  -1723151.30645  24703619.255    24703618.5234   24703620.0364
       142.0004        147.0004
  -4171669.29547  -3239082.97346  23081704.211    23081703.3084   23081707.6004
       164.0004        166.0004
 -11467858.24148  -8905331.82547  22262890.785    22262890.8414   22262898.1444
       189.0004        189.0004
 -24854541.71449 -19354448.31847  20560845.968    20560846.1394   20560850.5794
       209.0004        210.0004
 -13562785.12548 -10557426.25746  22107635.104    22107634.7284   22107638.7384
       180.0004        180.0004
 -21272796.67549 -16552892.53347  20921595.279    20921596.3314   20921603.5224
       199.0004        199.0004
  -2029220.13447  -1564055.06845  24150284.364    24150285.6324   24150290.7174
       147.0004        151.0004
 -10911045.14648  -8483531.33846  22449857.332    22449858.3854   22449862.2294
       181.0004        181.0004
 21  2  2  1 40 30.0000000  0 11G28G30G08G19G14G09G07G21G01G04G17
  -1256420.84547   -973230.98645  23522435.152    23522435.2964   23522441.7244
       148.0004        151.0004
 -14576210.62648 -11331503.98247  21884936.398    21884936.6044   21884943.2604
       193.0004        194.0004
  -7157186.21048  -5548962.56247  23373783.039    23373780.9894   23373788.6404
       187.0004        188.0004
  -2326445.99247  -1793146.17745  24686525.430    24686524.6774   24686525.3414
       143.0004        147.0004
  -4198846.73048  -3260260.20446  23076532.407    23076531.8964   23076536.5204
       165.0004        167.0004
 -11393225.83348  -8847176.71446  22277092.376    22277092.9914   22277099.5724
       188.0004        187.0004
 -24897570.63549 -19387977.34947  20552657.642    20552658.3614   20552662.3484
       209.0004        210.0004
 -13520393.05248 -10524393.48246  22115701.703    22115701.2474   22115705.3404
       180.0004        180.0004
 -21303922.11549 -16577146.11247  20915672.607    20915673.0314   20915680.7634
       199.0004        200.0004
  -1932590.87647  -1488759.56345  24168673.039    24168672.3894   24168679.4324
       147.0004        150.0004
 -10969742.72648  -8529269.71346  22438688.628    22438689.1644   22438692.9344
       182.0004        184.0004
 21  2  2  1 41  0.0000000  0 11G28G30G08G19G14G09G07G21G01G04G17
  -1272733.06347   -985941.78445  23519332.884    23519333.1574   23519336.1444
       148.0004        150.0004
 -14656230.41148 -11393857.06147  21869708.431    21869708.9994   21869716.4284
       194.0004        194.0004
  -7062395.55448  -5475099.75447  23391821.389    23391820.0134   23391825.2844
       188.0004        188.0004
  -2416054.77147  -1862971.17745  24669472.392    24669471.5854   24669474.0254
       141.0004        145.0004
  -4226075.24148  -3281477.21646  23071348.707    23071349.5324   23071355.4194
       165.0004        166.0004
 -11318418.62748  -8788885.40846  22291327.232    22291327.6484   22291334.0804
       186.0004        186.0004
 -24940182.69249 -19421181.55947  20544549.761    20544549.8524   20544553.5754
       210.0004        210.0004
 -13477523.33148 -10490988.50446  22123859.346    22123859.5764   22123863.4544
       180.0004        180.0004
 -21334524.36849 -16600992.02247  20909850.014    20909850.2394   20909857.1264
       200.0004        200.0004
  -1836051.99247  -1413534.49145  24187042.712    24187042.5874   24187048.5224
       145.0004        148.0004
 -11028036.97448  -8574693.79946  22427595.034    22427595.4904   22427600.0664
       182.0004        182.0004
 21  2  2  1 41 30.0000000  0 11G28G30G08G19G14G09G07G21G01G04G17
  -1289106.62647   -998700.39745  23516216.004    23516215.6244   23516220.2384
       148.0004        151.0004
 -14736050.22648 -11456054.30547  21854520.190    21854520.1034   21854526.7684
       194.0004        194.0004
  -6967607.92748  -5401239.26946  23409854.320    23409855.5144   23409861.8174
       187.0004        187.0004
  -2505442.74547  -1932624.06245  24652461.613    24652460.9794   24652464.9474
       141.0004        145.0004
  -4253354.26948  -3302733.59046  23066158.735    23066158.9014   23066163.7864
       166.0004        166.0004
 -11243438.47448  -8730459.31946  22305594.984    22305595.5484   22305602.3494
       185.0004        185.0004
 -24982373.68349 -19454057.64947  20536520.655    20536521.0394   20536524.6774
       210.0004        210.0004
 -13434175.76948 -10457211.17346  22132108.591    22132108.1204   22132112.6244
       180.0004        181.0004
 -21364600.05949 -16624427.61447  20904126.483    20904127.0654   20904134.0674
       200.0004        200.0004
  -1739604.64347  -1338380.74145  24205396.774    24205397.1044   24205401.9404
       146.0004        149.0004
 -11085925.94348  -8619802.08846  22416579.440    22416579.9344   22416583.6804
       182.0004        183.0004
 21  2  2  1 42  0.0000000  0 11G28G30G08G19G14G09G07G21G01G04G17
  -1305542.47447  -1011507.55645  23513088.911    23513089.1214   23513093.5184
       150.0004        154.0004
 -14815666.80948 -11518093.20847  21839369.978    21839369.7124   21839375.9514
       194.0004        194.0004
  -6872825.14548  -5327382.57146  23427892.388    23427891.8494   23427900.2424
       187.0004        187.0004
  -2594607.87147  -2002103.35345  24635493.755    24635492.8024   24635498.2024
       138.0004        142.0004
  -4280684.02448  -3324029.48846  23060957.932    23060958.4284   23060963.1074
       165.0004        166.0004
 -11168287.79048  -8671900.35346  22319896.489    22319896.3014   22319904.3864
       185.0004        186.0004
 -25024140.12949 -19486602.94047  20528573.331    20528573.2044   20528577.2284
       210.0004        211.0004
 -13390351.08948 -10423062.07746  22140447.298    22140447.3964   22140452.2624
       180.0004        179.0004
 -21394146.39549 -16647450.72347  20898503.958    20898504.0654   20898511.5804
       200.0004        200.0004
  -1643250.71347  -1263299.77745  24223731.780    24223732.5364   24223737.3894
       147.0004        150.0004
 -11143408.68348  -8664593.83946  22405640.397    22405640.8824   22405644.0374
       181.0004        181.0004
 21  2  2  1 42 30.0000000  0 11G28G30G08G19G14G09G07G21G01G04G17
  -1322041.92347  -1024364.27545  23509947.444    23509948.0544   23509952.0644
       148.0004        149.0004
 -14895077.80748 -11579971.91547  21824257.710    21824257.7194   21824264.8204
       194.0004        195.0004
  -6778049.48348  -5253531.44046  23445927.723    23445927.5284   23445934.4194
       185.0004        184.0004
  -2683548.72947  -2071407.92745  24618569.807    24618569.0124   24618570.5494
       138.0004        143.0004
  -4308065.37348  -3345365.61046  23055747.076    23055748.4724   23055752.7454
       165.0004        167.0004
 -11092969.89148  -8613211.09646  22334228.464    22334229.0204   22334236.2674
       186.0004        186.0004
 -25065480.51549 -19518816.23747  20520705.610    20520706.1604   20520710.1334
       210.0004        210.0004
 -13346049.84748 -10388541.60946  22148877.786    22148877.1744   22148882.2504
       179.0004        178.0004
 -21423161.62549 -16670059.98647  20892981.810    20892982.3414   20892990.7634
       200.0004        200.0004
  -1546992.87447  -1188293.68145  24242048.100    24242048.8364   24242055.2944
       147.0004        150.0004
 -11200484.87748  -8709068.78446  22394779.966    22394780.3574   22394782.7314
       181.0004        181.0004
 21  2  2  1 43  0.0000000  0 11G28G30G08G19G14G09G07G21G01G04G17
  -1338606.77047  -1037271.93245  23506796.065    23506795.6974   23506801.3924
       146.0004        149.0004
 -14974281.46748 -11641689.04347  21809185.573    21809185.9914   21809192.6634
       194.0004        195.0004
  -6683284.50148  -5179688.59246  23463959.423    23463959.9764   23463968.2964
       184.0004        185.0004
  -2772265.03047  -2140537.46445  24601685.557    24601683.1094   24601688.8724
       136.0004        140.0004
  -4335500.02548  -3366743.25746  23050527.193    23050528.1234   23050532.1354
       166.0004        168.0004
 -11017488.70848  -8554394.59846  22348592.703    22348592.9474   22348599.4214
       185.0004        185.0004
 -25106392.75549 -19550695.90847  20512920.625    20512921.1374   20512924.8304
       210.0004        211.0004
 -13301273.93648 -10353651.30446  22157398.680    22157397.7704   22157401.8764
       179.0004        179.0004
 -21451644.53249 -16692254.44647  20887561.616    20887562.3884   20887570.3804
       200.0004        200.0004
  -1450834.49547  -1113365.06645  24260346.098    24260346.1314   24260354.0444
       148.0004        151.0004
 -11257154.74048  -8753227.11346  22383995.510    22383995.5744   22383999.8934
       181.0004        182.0004
 21  2  2  1 43 30.0000000  0 11G28G30G08G19G14G09G07G21G01G04G17
  -1355237.72447  -1050231.10245  23503631.484    23503632.0044   23503636.2204
       148.0004        152.0004
 -15053274.22849 -11703241.84647  21794154.500    21794154.4324   21794160.6444
       195.0004        196.0004
  -6588531.07048  -5105854.77546  23481990.020    23481990.2634   23481999.2584
       183.0004        184.0004
  -2860753.78747  -2209489.71345  24584848.185    24584847.4804   24584850.9024
       136.0004        141.0004
  -4362987.73948  -3388162.23946  23045295.405    23045296.2494   23045302.0334
       167.0004        168.0004
 -10941846.38948  -8495452.53646  22362987.241    22362987.4804   22362994.0674
       186.0004        186.0004
 -25146874.03949 -19582239.75647  20505217.381    20505217.4704   20505221.7844
       210.0004        212.0004
 -13256024.17648 -10318391.74646  22166009.346    22166008.6294   22166013.4234
       179.0004        179.0004
 -21479592.20649 -16714031.84147  20882243.954    20882244.4014   20882251.9354
       200.0004        200.0004
  -1354776.98647  -1038515.07945  24278625.842    24278627.2924   24278633.7314
       148.0004        151.0004
 -11313416.67148  -8797067.57046  22373288.615    22373288.9264   22373293.0784
       181.0004        180.0004
 21  2  2  1 44  0.0000000  0 11G28G30G08G19G14G09G07G21G01G04G17
  -1371936.73947  -1063243.32445  23500454.023    23500452.9004   23500458.5404
       149.0004        152.0004
 -15132054.20649 -11764628.85447  21779162.663    21779162.9174   21779169.8204
       195.0004        196.0004
  -6493792.40548  -5032032.43346  23500018.218    23500019.4374   23500027.7084
       185.0004        187.0004
  -2949014.55947  -2278264.29345  24568054.252    24568053.3694   24568056.0464
       142.0004        148.0004
  -4390530.00948  -3409623.77146  23040054.461    23040055.3114   23040060.3874
       166.0004        167.0004
 -10866046.71748  -8436387.86846  22377412.059    22377411.9834   22377418.5594
       186.0004        187.0004
 -25186922.48249 -19613446.34547  20497595.871    20497596.5014   20497600.8654
       210.0004        211.0004
 -13210301.71948 -10282763.85146  22174709.882    22174709.3714   22174714.5324
       179.0004        179.0004
 -21507003.34449 -16735391.16747  20877027.842    20877027.8624   20877035.7114
       199.0004        199.0004
  -1258823.63747   -963746.26145  24296885.144    24296885.6164   24296892.7634
       147.0004        150.0004
 -11369271.93148  -8840591.14246  22362660.323    22362661.0454   22362664.1824
       180.0004        181.0004
 21  2  2  1 44 30.0000000  0 11G28G30G08G19G14G09G07G21G01G04G17
  -1388705.20047  -1076309.63645  23497261.974    23497263.0804   23497267.3724
       149.0004        152.0004
 -15210619.09149 -11825848.24047  21764212.660    21764212.5194   21764218.7374
       195.0004        195.0004
  -6399071.12548  -4958223.66246  23518044.638    23518044.2604   23518052.1224
       186.0004        186.0004
  -3037046.34847  -2346860.48445  24551301.788    24551300.9484   24551305.4154
       146.0004        151.0004
  -4418127.82148  -3431128.54946  23034803.504    23034803.6324   23034809.2234
       166.0004        168.0004
 -10790093.05848  -8377203.20346  22391863.957    22391864.5324   22391871.8204
       185.0004        184.0004
 -25226536.06349 -19644314.06947  20490058.003    20490058.3854   20490062.4904
       210.0004        211.0004
 -13164107.89548 -10246768.68346  22183500.205    22183500.5314   22183504.4954
       179.0004        179.0004
 -21533876.27749 -16756331.10447  20871912.831    20871913.7494   20871922.0774
       199.0004        199.0004
  -1162977.13347   -889060.72145  24315122.087    24315123.8194   24315130.2334
       145.0004        148.0004
 -11424719.69848  -8883797.19546  22352108.288    22352108.5734   22352112.9414
       180.0004        180.0004
 21  2  2  1 45  0.0000000  0 11G28G30G08G19G14G09G07G21G01G04G17
  -1405543.77747  -1089430.60945  23494059.139    23494058.4674   23494063.7134
       151.0004        156.0004
 -15288965.83749 -11886897.66047  21749304.152    21749303.9014   21749309.8474
       195.0004        196.0004
  -6304369.09348  -4884429.89646  23536065.087    23536066.4194   23536073.5024
       187.0004        187.0004
  -3124846.94747  -2415276.51445  24534594.071    24534593.1434   24534597.9344
       148.0004        152.0004
  -4445781.57648  -3452676.89346  23029539.198    23029540.4894   23029546.6694
       166.0004        168.0004
 -10713988.10348  -8317900.67146  22406347.021    22406347.5284   22406354.4724
       184.0004        185.0004
 -25265711.85849 -19674840.66147  20482602.838    20482603.2564   20482607.4884
       210.0004        212.0004
 -13117443.71048 -10210406.95746  22192379.465    22192379.5974   22192384.5984
       178.0004        178.0004
 -21560208.70649 -16776849.86647  20866903.115    20866903.4574   20866911.1994
       199.0004        199.0004
  -1067239.46047   -814459.95245  24333341.124    24333342.8274   24333348.1334
       144.0004        146.0004
 -11479759.06048  -8926684.99646  22341634.410    22341635.0894   22341639.5154
       180.0004        181.0004
 21  2  2  1 45 30.0000000  0 11G28G30G08G19G14G09G07G21G01G04G17
  -1422454.09047  -1102607.47745  23490842.655    23490842.2584   23490845.5234
       155.0004        158.0004
 -15367092.07349 -11947775.24247  21734436.426    21734436.7814   21734443.7184
       195.0004        196.0004
  -6209688.07148  -4810652.47846  23554082.463    23554083.4304   23554091.1274
       187.0004        187.0004
  -3212415.52247  -2483511.71645  24517930.706    24517930.0284   24517932.8794
       150.0004        153.0004
  -4473492.14848  -3474269.56646  23024268.200    23024268.9634   23024273.0194
       167.0004        169.0004
 -10637735.17848  -8258482.80746  22420856.822    22420857.6324   22420864.1824
       183.0004        183.0004
 -25304447.69849 -19705024.44247  20475231.458    20475232.1334   20475236.6294
       211.0004        212.0004
 -13070310.65348 -10173679.89346  22201348.757    22201348.9064   22201353.3724
       178.0004        179.0004
 -21585998.93149 -16796946.12347  20861994.779    20861995.6174   20862003.2554
       199.0004        199.0004
   -971613.31347   -739946.11445  24351540.119    24351541.2774   24351545.2284
       142.0004        146.0004
 -11534389.99148  -8969254.53446  22331239.663    22331239.8394   22331242.7764
       181.0004        182.0004
 21  2  2  1 46  0.0000000  0 11G28G30G08G19G14G09G07G21G01G04G17
  -1439437.28047  -1115841.10645  23487609.686    23487608.8684   23487613.8244
       154.0004        156.0004
 -15444995.11249 -12008478.90147  21719612.046    21719612.4684   21719619.5464
       196.0004        196.0004
  -6115030.97948  -4736893.74046  23572096.549    23572096.4254   23572104.1764
       187.0004        187.0004
  -3299750.63947  -2551565.04145  24501309.791    24501309.6924   24501313.6234
       149.0004        152.0004
  -4501260.22048  -3495907.02746  23018984.221    23018984.7654   23018988.4004
       167.0004        168.0004
 -10561337.23348  -8198951.95746  22435394.544    22435396.0294   22435402.1964
       182.0004        183.0004
 -25342741.67849 -19734863.93047  20467944.674    20467945.2504   20467949.4264
       211.0004        212.0004
 -13022709.89348 -10136588.39546  22210408.195    22210407.0394   22210411.9574
       179.0004        179.0004
 -21611244.99649 -16816618.37047  20857190.917    20857191.5204   20857198.9484
       199.0004        199.0004
   -876101.03547   -665520.98645  24369714.701    24369716.6254   24369721.7094
       141.0004        145.0004
 -11588611.86848  -9011505.34146  22320920.616    22320921.6544   22320925.9374
       182.0004        182.0004
 21  2  2  1 46 30.0000000  0 11G28G30G08G19G14G09G07G21G01G04G17
  -1456494.77147  -1129132.64645  23484363.096    23484363.7464   23484367.2974
       154.0004        157.0004
 -15522672.50549 -12069006.74147  21704830.995    21704830.8024   21704837.4164
       196.0004        197.0004
  -6020400.00548  -4663155.34746  23590102.933    23590103.5184   23590110.4604
       185.0004        185.0004
  -3386850.78047  -2619435.27245  24484734.911    24484734.0804   24484738.9244
       151.0004        154.0004
  -4529086.62148  -3517589.91746  23013687.005    23013688.2044   23013693.5644
       166.0004        167.0004
 -10484797.52548  -8139310.63146  22449961.376    22449961.1244   22449967.4454
       183.0004        184.0004
 -25380591.25249 -19764357.12547  20460741.905    20460742.5034   20460746.8114
       211.0004        212.0004
 -12974642.33148 -10099133.16146  22219554.902    22219554.5414   22219558.7284
       178.0004        179.0004
 -21635945.22149 -16835865.28247  20852490.056    20852490.9874   20852499.5774
       199.0004        200.0004
   -780705.18547   -591186.55745  24387867.660    24387867.4234   24387876.1954
       140.0004        145.0004
 -11642424.56748  -9053437.31546  22310680.149    22310680.5274   22310685.7224
       181.0004        181.0004
 21  2  2  1 47  0.0000000  0 11G28G30G08G19G14G09G07G21G01G04G17
  -1473626.26447  -1142481.84445  23481104.779    23481105.2004   23481107.5534
       156.0004        159.0004
 -15600120.32349 -12129355.69647  21690092.948    21690093.1144   21690099.6234
       197.0004        197.0004
  -5925795.92548  -4589437.89346  23608105.462    23608105.7094   23608114.3314
       184.0004        184.0004
  -3473713.29547  -2687120.31045  24468205.081    24468204.7904   24468209.7844
       148.0004        151.0004
  -4556970.84048  -3539317.86846  23008383.260    23008383.5564   23008386.6524
       166.0004        166.0004
 -10408117.85948  -8079560.25346  22464551.835    22464552.2344   22464559.5744
       183.0004        184.0004
 -25417992.97549 -19793501.34247  20453624.945    20453625.5214   20453629.6074
       211.0004        212.0004
 -12926107.82848 -10061314.06346  22228790.034    22228790.0524   22228794.2444
       178.0004        179.0004
 -21660096.48149 -16854684.43747  20847894.527    20847895.2904   20847903.2554
       200.0004        200.0004
   -685426.86947   -516943.74245  24405997.783    24405998.7784   24406005.9824
       139.0004        143.0004
 -11695826.18348  -9095048.95646  22300517.093    22300518.4334   22300523.3024
       181.0004        182.0004
 21  2  2  1 47 30.0000000  0 11G28G30G08G19G14G09G07G21G01G04G17
  -1490833.54547  -1155890.08645  23477831.213    23477830.5784   23477833.4254
       156.0004        157.0004
 -15677336.41049 -12189524.07747  21675399.133    21675399.2224   21675406.2204
       197.0004        197.0004
  -5831221.46148  -4515743.51546  23626101.251    23626101.5534   23626111.6544
       183.0004        183.0004
  -3560337.31747  -2754619.55045  24451722.273    24451721.8474   24451724.8294
       147.0004        150.0004
  -4584913.89848  -3561091.69346  23003065.490    23003065.6364   23003069.0504
       165.0004        166.0004
 -10331301.69548  -8019703.52346  22479170.546    22479170.9574   22479176.9594
       183.0004        184.0004
 -25454944.95449 -19822295.09447  20446593.230    20446593.3244   20446597.8874
       211.0004        212.0004
 -12877108.41948 -10023132.71246  22238114.495    22238114.0794   22238118.8204
       178.0004        178.0004
 -21683697.39949 -16873074.76047  20843403.082    20843403.7174   20843412.0254
       199.0004        199.0004
   -590268.87447   -442794.71645  24424107.057    24424107.9954   24424114.3544
       138.0004        143.0004
 -11748817.39248  -9136340.80446  22290435.519    22290435.6784   22290439.7954
       183.0004        185.0004
 21  2  2  1 48  0.0000000  0 11G28G30G08G19G14G09G07G21G01G04G17
  -1508117.83847  -1169358.34645  23474540.856    23474540.0744   23474543.3634
       151.0004        151.0004
 -15754318.09649 -12249509.80547  21660750.060    21660750.2474   21660756.6794
       196.0004        196.0004
  -5736678.80148  -4442073.92546  23644091.601    23644093.4894   23644101.5364
       184.0004        184.0004
  -3646721.73247  -2821932.04245  24435283.842    24435283.3824   24435287.3754
       148.0004        151.0004
  -4612916.47648  -3582911.87846  22997735.822    22997736.4314   22997741.3084
       165.0004        167.0004
 -10254352.09948  -7959742.80746  22493813.327    22493813.0924   22493820.6894
       183.0004        183.0004
 -25491444.87649 -19850736.59747  20439647.436    20439647.7444   20439651.9254
       211.0004        212.0004
 -12827645.26448  -9984589.98546  22247526.609    22247526.9244   22247531.6994
       178.0004        179.0004
 -21706746.17149 -16891034.82847  20839017.725    20839018.1704   20839025.4694
       199.0004        199.0004
   -495233.53747   -368741.24745  24442193.667    24442193.5604   24442199.7154
       139.0004        144.0004
 -11801397.71848  -9177312.46346  22280429.194    22280429.7624   22280434.3114
       184.0004        186.0004
 21  2  2  1 48 30.0000000  0 11G28G30G08G19G14G09G07G21G01G04G17
  -1525479.91247  -1182887.26645  23471232.714    23471233.0564   23471239.7384
       147.0004        149.0004
 -15831062.54649 -12309310.65947  21646145.984    21646145.4894   21646153.1544
       196.0004        196.0004
  -5642169.67948  -4368430.44446  23662077.986    23662077.3444   23662086.6604
       182.0004        181.0004
  -3732864.48847  -2889056.23345  24418891.107    24418890.9964   24418894.8204
       149.0004        152.0004
  -4640979.01348  -3604778.76146  22992396.932    22992397.5204   22992401.8394
       167.0004        169.0004
 -10177271.89948  -7899680.32846  22508479.921    22508480.5184   22508488.2374
       182.0004        182.0004
 -25527490.20249 -19878823.87248  20432788.402    20432788.8784   20432792.8384
       211.0004        213.0004
 -12777719.16748  -9945686.53246  22257028.117    22257027.5934   22257032.6334
       178.0004        179.0004
 -21729240.83049 -16908563.11747  20834736.282    20834737.4584   20834745.0234
       198.0004        198.0004
   -400323.09647   -294785.10745  24460254.347    24460255.3204   24460259.8684
       138.0004        143.0004
 -11853566.17748  -9217963.19546  22270501.234    22270501.8074   22270506.9134
       185.0004        186.0004
 21  2  2  1 49  0.0000000  0 11G28G30G08G19G14G09G07G21G01G04G17
  -1542920.61447  -1196477.45345  23467914.525    23467916.0394   23467921.4194
       147.0004        152.0004
 -15907566.87749 -12368924.41247  21631587.202    21631587.6944   21631594.3654
       196.0004        197.0004
  -5547696.28648  -4294814.82146  23680055.771    23680055.7224   23680063.8824
       182.0004        183.0004
  -3818764.26547  -2955991.14545  24402545.846    24402545.0554   24402548.4284
       149.0004        152.0004
  -4669101.95548  -3626692.73446  22987044.303    22987044.7554   22987049.9714
       168.0004        169.0004
 -10100063.97348  -7839518.30446  22523172.734    22523173.2354   22523179.9524
       182.0004        182.0004
 -25563078.55949 -19906555.06247  20426016.289    20426016.5314   20426020.7764
       212.0004        212.0004
 -12727331.54648  -9906423.44946  22266614.744    22266615.2334   22266620.6324
       178.0004        178.0004
 -21751179.39749 -16925658.09547  20830562.561    20830562.8854   20830570.3594
       198.0004        199.0004
   -305539.60847   -220927.87245  24478289.753    24478289.5904   24478296.8064
       137.0004        142.0004
 -11905322.85748  -9258293.07746  22260652.892    22260653.0604   22260657.5884
       185.0004        186.0004
 21  2  2  1 49 30.0000000  0 11G28G30G08G19G14G09G07G21G01G04G17
  -1560441.33447  -1210129.92545  23464585.862    23464584.5314   23464587.0484
       151.0004        155.0004
 -15983828.41049 -12428348.99947  21617076.008    21617075.9074   21617082.0914
       197.0004        197.0004
  -5453260.47348  -4221228.50146  23698026.753    23698025.4734   23698034.9744
       181.0004        181.0004
  -3904419.41047  -3022735.41445  24386246.633    24386245.9434   24386248.4364
       150.0004        153.0004
  -4697285.89448  -3648654.25146  22981681.584    22981681.7554   22981685.8914
       166.0004        166.0004
 -10022731.28448  -7779259.08146  22537889.554    22537889.7804   22537896.0644
       182.0004        183.0004
 -25598207.78449 -19933928.48848  20419331.139    20419331.7184   20419335.7124
       212.0004        213.0004
 -12676483.23648  -9866801.39546  22276291.821    22276291.7714   22276297.6404
       178.0004        179.0004
 -21772560.09649 -16942318.36647  20826492.212    20826493.3834   20826501.7504
       198.0004        198.0004
   -210885.36047   -147171.36145  24496302.394    24496301.7844   24496308.3134
       137.0004        143.0004
 -11956667.48248  -9298301.87046  22250881.548    22250882.5934   22250886.7524
       185.0004        186.0004
 21  2  2  1 50  0.0000000  0 11G28G30G08G19G14G09G07G21G01G04G17
  -1578044.15147  -1223846.40445  23461235.549    23461234.7134   23461237.3904
       153.0004        156.0004
 -16059845.83749 -12487583.35647  21602610.356    21602609.8374   21602616.1124
       196.0004        196.0004
  -5358865.78848  -4147674.22046  23715987.027    23715987.5854   23715996.9744
       179.0004        179.0004
  -3989830.03047  -3089289.09345  24369992.841    24369991.8584   24369994.9584
       151.0004        154.0004
  -4725532.76348  -3670664.79946  22976305.957    22976306.8314   22976310.9684
       168.0004        170.0004
  -9945278.16748  -7718906.00446  22552628.080    22552627.8744   22552635.9354
       183.0004        184.0004
 -25632876.89149 -19960943.38247  20412733.737    20412734.2664   20412738.1554
       211.0004        212.0004
 -12625177.33448  -9826822.76746  22286055.138    22286055.0204   22286059.9954
       178.0004        178.0004
 -21793382.53649 -16958543.63747  20822530.710    20822531.1514   20822539.2154
       198.0004        198.0004
   -116364.02647    -73518.42945  24514288.744    24514289.1514   24514294.7424
       138.0004        142.0004
 -12007600.57648  -9337989.98246  22241190.433    22241189.7374   22241194.3734
       186.0004        186.0004
 21  2  2  1 50 30.0000000  0 11G28G30G08G19G14G09G07G21G01G04G17
  -1595728.67247  -1237626.55545  23457867.423    23457866.9144   23457872.2854
       153.0004        153.0004
 -16135614.70149 -12546624.02347  21588190.822    21588191.5434   21588198.4414
       196.0004        196.0004
  -5264512.49448  -4074152.17846  23733940.131    23733941.9304   23733951.1684
       178.0004        178.0004
  -4074993.05447  -3155649.86045  24353787.002    24353785.8944   24353790.0044
       152.0004        155.0004
  -4753841.33748  -3692723.41946  22970919.113    22970919.4074   22970925.1744
       170.0004        171.0004
  -9867705.87548  -7658460.08746  22567389.166    22567389.5174   22567396.7064
       183.0004        183.0004
 -25667081.70849 -19987596.49648  20406225.283    20406225.7734   20406229.4494
       212.0004        213.0004
 -12573412.80648  -9786486.77746  22295905.138    22295905.3774   22295910.2834
       177.0004        177.0004
 -21813643.29349 -16974331.23347  20818675.145    20818676.0454   20818683.3384
       198.0004        198.0004
    -21976.07947        30.59045  24532248.971    24532249.4214   24532257.5104
       137.0004        141.0004
 -12058120.17848  -9377355.88646  22231576.749    22231576.7554   22231581.8634
       186.0004        187.0004
 21  2  2  1 51  0.0000000  0 11G28G30G08G19G14G09G07G21G01G04G17
  -1613495.15647  -1251470.55745  23454483.958    23454485.8364   23454491.1224
       150.0004        153.0004
 -16211131.45049 -12605468.24747  21573821.378    21573821.6034   21573827.6684
       196.0004        197.0004
  -5170201.90448  -4000663.41646  23751888.054    23751889.2244   23751897.9564
       178.0004        178.0004
  -4159906.27447  -3221816.00445  24337627.267    24337626.7224   24337631.3504
       151.0004        154.0004
  -4782211.39448  -3714829.95746  22965520.659    22965520.8724   22965525.8894
       170.0004        170.0004
  -9790016.58048  -7597922.98146  22582171.695    22582172.8134   22582179.9404
       181.0004        181.0004
 -25700819.23649 -20013885.48648  20399805.303    20399805.5364   20399809.5334
       212.0004        213.0004
 -12521190.43548  -9745794.02646  22305843.489    22305843.6204   22305848.4244
       177.0004        178.0004
 -21833339.81149 -16989679.15647  20814927.302    20814928.1854   20814935.6184
       198.0004        199.0004
     72277.05147     73474.55645  24550186.635    24550186.3594   24550194.7314
       138.0004        143.0004
 -12108225.78948  -9416399.21946  22222041.541    22222041.9564   22222046.9254
       186.0004        186.0004
 21  2  2  1 51 30.0000000  0 11G28G30G08G19G14G09G07G21G01G04G17
  -1631345.78547  -1265380.14745  23451089.823    23451089.7794   23451093.1234
       149.0004        152.0004
 -16286394.76049 -12664114.97547  21559498.860    21559499.2244   21559505.9044
       197.0004        198.0004
  -5075937.39948  -3927210.57846  23769828.575    23769827.7054   23769836.6004
       179.0004        180.0004
  -4244569.66547  -3287787.45445  24321517.564    24321516.5364   24321519.9934
       153.0004        156.0004
  -4810644.83848  -3736985.86346  22960110.414    22960110.9544   22960114.9624
       171.0004        172.0004
  -9712214.56648  -7537298.05646  22596978.647    22596978.6374   22596985.8324
       181.0004        182.0004
 -25734088.58949 -20039809.66348  20393473.578    20393474.2654   20393478.5124
       212.0004        213.0004
 -12468512.89948  -9704746.58046  22315867.814    22315867.5734   22315871.5704
       177.0004        177.0004
 -21852471.78849 -17004587.17547  20811285.971    20811287.0174   20811294.5934
       198.0004        199.0004
    166391.80147    146810.67245  24568093.212    24568096.0114   24568101.9764
       138.0004        142.0004
 -12157918.18048  -9455120.53546  22212585.071    22212585.2394   22212590.2674
       186.0004        185.0004
 21  2  2  1 52  0.0000000  0 11G28G30G08G19G14G09G07G21G01G04G17
  -1649282.15747  -1279356.55145  23447677.837    23447677.4434   23447681.2304
       152.0004        156.0004
 -16361402.50349 -12722562.57647  21545225.735    21545225.8524   21545232.2814
       198.0004        198.0004
  -4981721.18948  -3853795.38546  23787755.399    23787756.5124   23787764.4844
       178.0004        178.0004
  -4328982.34447  -3353563.55145  24305453.038    24305452.0334   24305457.8764
       153.0004        155.0004
  -4839142.71948  -3759191.99746  22954686.877    22954687.6454   22954690.7724
       169.0004        169.0004
  -9634303.37548  -7476588.05746  22611804.347    22611804.9094   22611811.7734
       182.0004        184.0004
 -25766888.13349 -20065367.76448  20387232.885    20387233.2184   20387237.0054
       212.0004        214.0004
 -12415381.86348  -9663345.79146  22325978.512    22325978.5424   22325983.0004
       177.0004        177.0004
 -21871038.10149 -17019054.43147  20807752.826    20807754.1114   20807761.5524
       199.0004        199.0004
    260365.34147    220036.78345  24585977.667    24585979.6434   24585985.8724
       138.0004        143.0004
 -12207197.81448  -9493520.25846  22203207.829    22203208.1574   22203212.3474
       185.0004        185.0004
 21  2  2  1 52 30.0000000  0 11G28G30G08G19G14G09G07G21G01G04G17
  -1667305.31147  -1293400.55045  23444246.893    23444246.8184   23444252.3514
       154.0004        157.0004
 -16436151.78949 -12780808.77147  21531001.780    21531001.7374   21531008.1494
       198.0004        199.0004
  -4887555.62148  -3780419.62746  23805673.549    23805674.8774   23805686.1584
       178.0004        179.0004
  -4413143.05547  -3419143.30745  24289437.196    24289436.6354   24289442.0534
       152.0004        153.0004
  -4867705.43348  -3781448.67746  22949251.486    22949252.5584   22949256.1384
       169.0004        168.0004
  -9556285.88648  -7415795.21946  22626650.958    22626651.4594   22626657.6814
       183.0004        183.0004
 -25799215.58849 -20090558.00548  20381080.835    20381081.4164   20381085.5044
       212.0004        213.0004
 -12361798.79548  -9621592.74846  22336174.864    22336173.9774   22336179.9884
       177.0004        179.0004
 -21889037.04549 -17033079.57547  20804328.740    20804329.4454   20804336.9074
       199.0004        200.0004
    354195.58647    293151.21445  24603833.762    24603835.4224   24603839.3844
       137.0004        142.0004
 -12256064.18048  -9531597.94446  22193909.708    22193909.7874   22193913.7094
       186.0004        187.0004
 21  2  2  1 53  0.0000000  0 11G28G30G08G19G14G09G07G21G01G04G17
  -1685415.45547  -1307512.36245  23440802.094    23440801.8724   23440806.2264
       156.0004        159.0004
 -16510639.18049 -12838850.89947  21516827.197    21516827.1524   21516833.5544
       199.0004        199.0004
  -4793441.86648  -3707084.26346  23823584.055    23823585.3164   23823593.9504
       178.0004        179.0004
  -4497049.59947  -3484524.99945  24273471.688    24273470.7814   24273475.1174
       151.0004        153.0004
  -4896332.76448  -3803755.68946  22943804.325    22943803.7504   22943809.6874
       169.0004        170.0004
  -9478164.27948  -7354921.24046  22641516.979    22641517.2424   22641522.9584
       182.0004        180.0004
 -25831068.06449 -20115378.11948  20375019.370    20375019.9174   20375024.2874
       212.0004        213.0004
 -12307764.24248  -9579487.89446  22346456.979    22346456.4064   22346462.1434
       177.0004        177.0004
 -21906466.23149 -17046660.74847  20801011.340    20801011.9424   20801020.4624
       199.0004        198.0004
    447881.11047    366152.88045  24621661.558    24621660.8914   24621667.0574
       136.0004        141.0004
 -12304516.04748  -9569352.62446  22184687.982    22184689.6004   22184693.5394
       185.0004        186.0004
 21  2  2  1 53 30.0000000  0 11G28G30G08G19G14G09G07G21G01G04G17
  -1703614.21247  -1321693.19045  23437338.909    23437339.0124   23437341.6874
       155.0004        158.0004
 -16584862.48049 -12896687.23147  21502703.244    21502703.1734   21502709.7204
       200.0004        201.0004
  -4699382.17748  -3633791.04046  23841483.702    23841483.6774   23841492.4154
       177.0004        176.0004
  -4580701.03847  -3549707.91645  24257553.405    24257552.1174   24257555.8894
       150.0004        152.0004
  -4925025.70448  -3826113.79646  22938343.922    22938344.9944   22938348.8094
       170.0004        171.0004
  -9399941.94348  -7293968.78846  22656401.965    22656402.4114   22656408.8404
       181.0004        182.0004
 -25862443.66649 -20139826.64848  20369048.781    20369049.3144   20369053.4414
       213.0004        214.0004
 -12253279.82848  -9537032.50946  22356825.311    22356824.6354   22356830.4494
       176.0004        177.0004
 -21923324.59449 -17059797.13247  20797803.331    20797804.3824   20797811.6964
       198.0004        198.0004
    541419.21647    439039.67445  24639460.331    24639461.2834   24639467.0124
       135.0004        140.0004
 -12352554.39548  -9606785.11146  22175547.541    22175547.5354   22175552.3304
       186.0004        186.0004
 21  2  2  1 54  0.0000000  0 11G28G30G08G19G14G09G07G21G01G04G17
  -1721903.22747  -1335944.38245  23433858.335    23433857.2764   23433861.8814
       155.0004        158.0004
 -16658819.79349 -12954316.31247  21488629.001    21488629.2344   21488635.9884
       201.0004        201.0004
  -4605379.06048  -3560541.88346  23859373.820    23859373.8244   23859381.2184
       177.0004        178.0004
  -4664097.04047  -3614691.79145  24241684.294    24241682.5624   24241686.7324
       148.0004        150.0004
  -4953785.54648  -3848524.07646  22932871.261    22932872.3684   22932876.1054
       171.0004        173.0004
  -9321622.79148  -7232940.88346  22671304.987    22671305.8814   22671313.2874
       182.0004        184.0004
 -25893341.24349 -20163902.70048  20363169.147    20363169.4464   20363173.5854
       212.0004        213.0004
 -12198348.02348  -9494228.51846  22367277.991    22367277.5084   22367282.9884
       176.0004        176.0004
 -21939611.46449 -17072488.19447  20794704.115    20794705.3864   20794712.5524
       198.0004        199.0004
    634806.85547    511809.23545  24657233.095    24657233.0604   24657239.3744
       136.0004        141.0004
 -12400179.61948  -9643895.67646  22166484.952    22166485.0514   22166489.8464
       186.0004        187.0004
 21  2  2  1 54 30.0000000  0 11G28G30G08G19G14G09G07G21G01G04G17
  -1740282.49947  -1350265.88645  23430360.501    23430360.4994   23430366.2904
       156.0004        158.0004
 -16732507.37549 -13011735.20747  21474607.004    21474607.1634   21474613.6104
       201.0004        201.0004
  -4511434.10448  -3487338.03546  23877249.275    23877249.9824   23877258.3204
       176.0004        177.0004
  -4747235.01547  -3679474.61545  24225862.066    24225863.0124   24225865.8204
       147.0004        151.0004
  -4982611.76048  -3870986.05746  22927385.330    22927385.5774   22927390.2184
       170.0004        169.0004
  -9243208.61448  -7171838.93246  22686227.509    22686227.7944   22686235.5614
       183.0004        183.0004
 -25923757.42549 -20187603.63048  20357381.510    20357381.9934   20357385.9664
       213.0004        214.0004
 -12142969.17748  -9451076.17146  22377815.803    22377815.8494   22377821.6904
       175.0004        176.0004
 -21955324.20449 -17084731.87947  20791714.866    20791715.3254   20791722.9054
       199.0004        200.0004
    728042.99647    584460.76245  24674974.447    24674974.8714   24674982.5584
       136.0004        142.0004
 -12447390.34848  -9680683.23547  22157500.980    22157501.0094   22157505.3894
       187.0004        188.0004
 21  2  2  1 55  0.0000000  0 11G28G30G08G19G14G09G07G21G01G04G17
  -1758752.80947  -1364658.35145  23426845.316    23426846.8044   23426848.9664
       156.0004        158.0004
 -16805922.19349 -13068941.56147  21460637.321    21460636.8634   21460643.2774
       201.0004        202.0004
  -4417548.65548  -3414180.59046  23895116.365    23895116.4564   23895123.5184
       177.0004        179.0004
  -4830113.29947  -3744055.09645  24210091.271    24210091.0764   24210094.0154
       149.0004        152.0004
  -5011504.42948  -3893499.81446  22921887.473    22921888.3764   22921892.8724
       168.0004        168.0004
  -9164702.06148  -7110664.99546  22701167.309    22701166.6804   22701174.0394
       182.0004        182.0004
 -25953689.83749 -20210927.58748  20351685.279    20351685.5774   20351689.9844
       213.0004        214.0004
 -12087144.36148  -9407576.30646  22388440.408    22388440.1324   22388444.3244
       176.0004        176.0004
 -21970461.05749 -17096526.81247  20788833.675    20788834.9054   20788842.1984
       199.0004        200.0004
    821125.74747    656992.73845  24692687.347    24692689.3184   24692695.5604
       138.0004        144.0004
 -12494186.15748  -9717147.48647  22148595.903    22148596.3544   22148601.1264
       188.0004        189.0004
 21  2  2  1 55 30.0000000  0 11G28G30G08G19G14G09G07G21G01G04G17
  -1777314.78847  -1379122.23845  23423314.013    23423313.2704   23423317.7104
       156.0004        158.0004
 -16879061.40649 -13125933.15547  21446718.549    21446718.7854   21446725.6604
       201.0004        202.0004
  -4323724.32548  -3341070.70646  23912969.292    23912970.5174   23912978.7784
       180.0004        182.0004
  -4912730.71247  -3808432.28145  24194369.895    24194369.5334   24194373.4214
       151.0004        155.0004
  -5040463.90748  -3916065.64846  22916375.846    22916376.7164   22916381.2974
       168.0004        168.0004
  -9086105.91448  -7049421.26446  22716122.783    22716123.3424   22716130.1874
       180.0004        181.0004
 -25983136.61649 -20233873.14448  20346081.381    20346082.2234   20346086.0284
       213.0004        214.0004
 -12030874.53948  -9363729.68146  22399147.279    22399148.1304   22399151.7294
       175.0004        176.0004
 -21985020.37049 -17107871.71647  20786062.579    20786063.7914   20786071.7794
       199.0004        200.0004
    914053.13147    729403.61345  24710371.620    24710371.8144   24710375.8494
       139.0004        142.0004
 -12540567.29448  -9753288.62747  22139770.109    22139769.8594   22139774.6624
       189.0004        191.0004
 21  2  2  1 56  0.0000000  0 11G28G30G08G19G14G09G07G21G01G04G17
  -1795970.42647  -1393659.08245  23419764.033    23419762.9714   23419767.2994
       156.0004        158.0004
 -16951923.19349 -13182708.57547  21432853.546    21432853.5184   21432860.2714
       202.0004        202.0004
  -4229964.03548  -3268010.78846  23930812.618    23930811.9134   23930819.7244
       178.0004        177.0004
  -4995086.91247  -3872605.91845  24178698.183    24178697.0254   24178701.2514
       153.0004        157.0004
  -5069491.56448  -3938684.60146  22910854.048    22910853.6784   22910858.2174
       169.0004        170.0004
  -9007424.05848  -6988110.72346  22731095.662    22731095.5194   22731103.3494
       180.0004        180.0004
 -26012096.03549 -20256438.94048  20340570.949    20340571.8444   20340575.6014
       213.0004        215.0004
 -11974162.28048  -9319538.30946  22409938.438    22409938.7474   22409944.4844
       174.0004        176.0004
 -21999001.63349 -17118766.20247  20783403.018    20783403.5224   20783411.2994
       199.0004        200.0004
   1006822.08647    801691.05645  24728023.144    24728025.4724   24728029.8564
       138.0004        144.0004
 -12586534.30748  -9789107.07947  22131022.504    22131023.3864   22131027.0014
       189.0004        189.0004
 21  2  2  1 56 30.0000000  0 10G28G30G08G19G14G09G07G21G01G17
  -1814718.19547  -1408267.71445  23416195.798    23416195.9884   23416200.5324
       156.0004        159.0004
 -17024502.30049 -13239263.72247  21419041.181    21419041.5104   21419048.6214
       201.0004        201.0004
  -4136267.27648  -3195000.30146  23948642.475    23948642.1024   23948650.2744
       178.0004        179.0004
  -5077177.96847  -3936572.92245  24163074.177    24163074.0674   24163080.0694
       153.0004        156.0004
  -5098585.25748  -3961355.00746  22905315.339    22905317.9894   22905322.6304
       170.0004        172.0004
  -8928656.77948  -6926733.63846  22746083.566    22746084.1914   22746091.4374
       179.0004        179.0004
 -26040563.48749 -20278621.36948  20335154.307    20335154.2694   20335158.2274
       213.0004        214.0004
 -11917006.86548  -9275001.60746  22420816.111    22420815.2784   22420819.8734
       175.0004        176.0004
 -22012400.88049 -17129207.16447  20780852.075    20780853.3354   20780861.3684
       199.0004        200.0004
 -12632084.73948  -9824600.91146  22122354.267    22122354.0684   22122359.4184
       188.0004        187.0004
 21  2  2  1 57  0.0000000  0 10G28G30G08G19G14G09G07G21G01G17
  -1833560.42347  -1422949.98245  23412610.631    23412610.5524   23412615.1534
       157.0004        159.0004
 -17096797.56649 -13295597.70747  21405284.134    21405284.6904   21405291.5184
       201.0004        202.0004
  -4042637.17648  -3122041.80546  23966458.012    23966459.5294   23966467.3824
       179.0004        179.0004
  -5159004.00647  -4000333.46645  24147505.752    24147504.4844   24147509.4904
       154.0004        156.0004
  -5127747.00648  -3984078.44546  22899767.292    22899767.6524   22899772.1534
       169.0004        170.0004
  -8849808.62648  -6865293.53946  22761088.788    22761089.2674   22761095.5214
       178.0004        178.0004
 -26068538.65649 -20300420.21448  20329830.278    20329830.8884   20329834.6454
       213.0004        214.0004
 -11859411.39448  -9230122.03246  22431776.121    22431775.5444   22431779.8974
       174.0004        174.0004
 -22025218.31049 -17139194.76847  20778414.605    20778414.8064   20778422.2474
       199.0004        200.0004
 -12677219.71748  -9859771.02347  22113766.005    22113766.1954   22113770.4934
       188.0004        189.0004
 21  2  2  1 57 30.0000000  0 10G28G30G08G19G14G09G07G21G01G17
  -1852498.86847  -1437707.19745  23409007.026    23409006.0824   23409010.9074
       157.0004        159.0004
 -17168807.20249 -13351709.10647  21391581.733    21391581.2744   21391588.5184
       201.0004        201.0004
  -3949077.08548  -3049137.83446  23984263.439    23984263.1144   23984271.0654
       177.0004        177.0004
  -5240565.14847  -4063887.59745  24131982.184    24131982.8704   24131988.4964
       151.0004        153.0004
  -5156978.06548  -4006855.91146  22894204.614    22894204.7924   22894210.0574
       168.0004        169.0004
  -8770883.37148  -6803793.34546  22776108.013    22776108.6754   22776115.3234
       178.0004        179.0004
 -26096020.26349 -20321834.45948  20324600.562    20324601.2154   20324605.2874
       213.0004        215.0004
 -11801377.63948  -9184900.92046  22442819.123    22442818.6914   22442822.9184
       174.0004        174.0004
 -22037453.42649 -17148728.61547  20776085.755    20776086.1824   20776093.7654
       199.0004        199.0004
 -12721940.51548  -9894618.38647  22105255.804    22105255.9254   22105260.4774
       189.0004        190.0004
 21  2  2  1 58  0.0000000  0 10G28G30G08G19G14G09G07G21G01G17
  -1871534.40147  -1452540.07245  23405382.780    23405383.3244   23405388.1074
       156.0004        157.0004
 -17240528.17549 -13407595.58347  21377933.323    21377933.5564   21377940.7454
       201.0004        202.0004
  -3855588.14448  -2976289.33846  24002057.232    24002055.2614   24002061.1534
       176.0004        177.0004
  -5321859.37747  -4127233.72145  24116516.827    24116515.0354   24116519.2564
       153.0004        157.0004
  -5186278.61048  -4029687.50546  22888628.859    22888629.6514   22888633.0384
       168.0004        169.0004
  -8691883.68448  -6742235.15646  22791140.789    22791140.7674   22791148.2384
       178.0004        179.0004
 -26123006.39749 -20342862.61948  20319465.606    20319465.9904   20319469.8274
       213.0004        214.0004
 -11742906.84948  -9139339.25446  22453946.152    22453945.9884   22453950.1274
       173.0004        174.0004
 -22049104.64149 -17157807.47347  20773868.922    20773869.3214   20773876.4704
       199.0004        200.0004
 -12766246.52348  -9929142.54347  22096824.585    22096824.8714   22096829.3924
       190.0004        190.0004
 21  2  2  1 58 30.0000000  0 10G28G30G08G19G14G09G07G21G01G17
  -1890669.31247  -1467450.40345  23401742.934    23401742.9154   23401746.9634
       155.0004        158.0004
 -17311959.23249 -13463256.14447  21364340.448    21364340.5644   21364347.7314
       201.0004        202.0004
  -3762173.42048  -2903498.63946  24019830.162    24019830.0384   24019837.5454
       176.0004        176.0004
  -5402887.26747  -4190372.35245  24101096.719    24101096.1094   24101100.1604
       155.0004        157.0004
  -5215650.43248  -4052574.63346  22883040.053    22883041.0904   22883044.9334
       169.0004        171.0004
  -8612813.83448  -6680622.30246  22806187.588    22806187.5474   22806194.8584
       178.0004        178.0004
 -26149495.92149 -20363503.81548  20314424.963    20314425.4364   20314429.0904
       214.0004        215.0004
 -11684002.62748  -9093439.86746  22465155.923    22465155.0714   22465158.3204
       173.0004        174.0004
 -22060172.06349 -17166431.43947  20771761.939    20771763.2204   20771771.4174
       199.0004        200.0004
 -12810139.52148  -9963344.87947  22088471.480    22088472.0994   22088476.8394
       189.0004        189.0004
 21  2  2  1 59  0.0000000  0 10G28G30G08G19G14G09G07G21G01G17
  -1909901.94547  -1482436.86945  23398082.850    23398083.7684   23398085.6044
       154.0004        156.0004
 -17383095.24949 -13518686.81847  21350804.005    21350804.1814   21350810.5904
       201.0004        201.0004
  -3668832.73348  -2830765.61446  24037591.140    24037591.0234   24037600.2604
       173.0004        174.0004
  -5483645.03647  -4253300.44045  24085727.700    24085727.8634   24085731.4404
       153.0004        155.0004
  -5245091.55548  -4075515.78046  22877436.000    22877436.8394   22877442.2884
       169.0004        169.0004
  -8533674.35048  -6618955.19046  22821246.685    22821247.3994   22821254.3244
       177.0004        177.0004
 -26175484.68349 -20383754.81048  20309479.209    20309479.7454   20309483.9844
       214.0004        215.0004
 -11624663.70848  -9047201.72546  22476446.478    22476445.9214   22476450.2274
       173.0004        174.0004
 -22070652.03649 -17174597.64447  20769768.825    20769768.9844   20769776.8514
       200.0004        201.0004
 -12853616.91648  -9997223.35547  22080198.284    22080198.3984   22080202.8834
       189.0004        189.0004
 21  2  2  1 59 30.0000000  0 10G28G30G08G19G14G09G07G21G01G17
  -1929233.29447  -1497500.24545  23394404.450    23394404.3264   23394408.4844
       156.0004        160.0004
 -17453933.63149 -13573885.55647  21337323.643    21337323.7294   21337330.7714
       201.0004        202.0004
  -3575568.08648  -2758091.86246  24055336.110    24055338.2144   24055348.1324
       177.0004        178.0004
  -5564131.26347  -4316016.95345  24070412.096    24070411.7834   24070416.1974
       155.0004        159.0004
  -5274602.37948  -4098511.24146  22871822.215    22871823.4104   22871827.0954
       169.0004        170.0004
  -8454468.22748  -6557236.12846  22836320.386    22836320.5234   22836327.1164
       176.0004        177.0004
 -26200971.00549 -20403614.29548  20304629.194    20304629.8334   20304633.8114
       214.0004        215.0004
 -11564891.76248  -9000626.18246  22487821.613    22487820.7664   22487824.8734
       173.0004        174.0004
 -22080543.35049 -17182305.15447  20767886.623    20767887.0854   20767894.3004
       200.0004        200.0004
 -12896678.84048 -10030778.09647  22072003.594    22072004.5964   22072008.7284
       189.0004        190.0004
 21  2  2  2  0  0.0000000  0 10G28G30G08G19G14G09G07G21G01G17
  -1948664.44947  -1512641.41745  23390707.176    23390706.0464   23390710.4684
       157.0004        158.0004
 -17524471.83949 -13628850.38847  21323900.679    21323900.8034   21323908.1624
       202.0004        203.0004
  -3482380.91048  -2685478.49946  24073068.516    24073070.3214   24073080.5184
       174.0004        174.0004
  -5644345.47347  -4378521.50645  24055148.353    24055147.9674   24055152.5344
       158.0004        160.0004
  -5304183.50348  -4121561.47446  22866192.049    22866193.1094   22866197.3024
       169.0004        170.0004
  -8375198.51448  -6495467.52646  22851403.909    22851403.7214   22851411.2154
       175.0004        175.0004
 -26225952.87549 -20423080.69548  20299875.506    20299875.9414   20299879.8784
       214.0004        215.0004
 -11504688.80448  -8953714.78746  22499276.554    22499276.7974   22499280.6744
       172.0004        172.0004
 -22089845.02849 -17189553.20847  20766115.731    20766116.6454   20766124.5074
       200.0004        200.0004
 -12939325.77948 -10064009.46447  22063888.397    22063888.6694   22063893.6944
       189.0004        189.0004
 21  2  2  2  0 30.0000000  0 10G28G30G08G19G14G09G07G21G01G17
  -1968196.43747  -1527861.13145  23386989.503    23386988.3454   23386993.4704
       154.0004        156.0004
 -17594707.12649 -13683579.19347  21310536.023    21310535.8834   21310541.9994
       202.0004        202.0004
  -3389273.59248  -2612927.33246  24090788.694    24090789.4314   24090797.9104
       173.0004        174.0004
  -5724286.23747  -4440813.02645  24039936.755    24039935.7804   24039938.8284
       156.0004        157.0004
  -5333835.21948  -4144666.70446  22860549.671    22860550.2974   22860554.8574
       169.0004        168.0004
  -8295868.02748  -6433651.57346  22866498.483    22866500.0214   22866507.3694
       174.0004        175.0004
 -26250428.29649 -20442152.46548  20295218.302    20295218.3884   20295222.6374
       214.0004        215.0004
 -11444056.11148  -8906468.52646  22510815.810    22510815.1464   22510818.3104
       172.0004        173.0004
 -22098555.81549 -17196340.83247  20764458.568    20764459.1464   20764466.6814
       200.0004        200.0004
 -12981557.57048 -10096917.35347  22055852.509    22055852.5774   22055856.7144
       190.0004        191.0004
 21  2  2  2  1  0.0000000  0 10G28G30G08G19G14G09G07G21G01G17
  -1987830.35647  -1543160.28845  23383253.557    23383254.4014   23383257.8524
       155.0004        160.0004
 -17664636.89849 -13738069.93447  21297228.177    21297228.4464   21297235.0364
       202.0004        202.0004
  -3296247.56448  -2540439.51246  24108491.621    24108491.3604   24108501.4464
       173.0004        174.0004
  -5803952.44647  -4502890.59045  24024776.254    24024775.2634   24024777.7994
       155.0004        157.0004
  -5363557.93748  -4167827.27346  22854894.638    22854894.6974   22854899.0884
       169.0004        170.0004
  -8216479.77248  -6371790.61046  22881607.268    22881607.4644   22881614.8864
       174.0004        176.0004
 -26274395.38649 -20460828.13348  20290657.335    20290657.8724   20290661.8504
       214.0004        215.0004
 -11382995.47548  -8858888.79246  22522435.352    22522434.6564   22522438.4434
       172.0004        172.0004
 -22106674.63149 -17202667.18747  20762913.806    20762914.2674   20762921.3184
       200.0004        200.0004
 -13023374.54748 -10129502.00847  22047894.050    22047894.7404   22047899.8904
       190.0004        190.0004
 21  2  2  2  1 30.0000000  0 10G28G30G08G19G14G09G07G21G01G17
  -2007567.53347  -1558539.92645  23379497.811    23379497.4364   23379502.6854
       157.0004        159.0004
 -17734259.34249 -13792321.18347  21283979.708    21283979.6324   21283986.7054
       202.0004        203.0004
  -3203305.81148  -2468017.40646  24126180.467    24126179.3414   24126186.4604
       174.0004        176.0004
  -5883343.92147  -4564754.05445  24009668.884    24009668.4884   24009669.5934
       154.0004        156.0004
  -5393352.88848  -4191044.09246  22849222.391    22849224.0764   22849229.4554
       169.0004        170.0004
  -8137037.46248  -6309887.52446  22896724.038    22896724.6104   22896733.0644
       176.0004        177.0004
 -26297853.36849 -20479107.08448  20286193.149    20286193.5064   20286197.9514
       214.0004        215.0004
 -11321510.23348  -8810978.20846  22534134.914    22534134.8264   22534138.7214
       172.0004        172.0004
 -22114201.22549 -17208532.05247  20761481.330    20761481.9314   20761489.2984
       200.0004        199.0004
 -13064777.75048 -10161764.23547  22040016.351    22040017.0304   22040020.3554
       190.0004        190.0004
 21  2  2  2  2  0.0000000  0 10G28G30G08G19G14G09G07G21G01G17
  -2027409.52147  -1574001.19245  23375721.101    23375720.5734   23375726.5374
       155.0004        157.0004
 -17803572.51649 -13846331.44447  21270789.422    21270790.1534   21270796.8364
       202.0004        203.0004
  -3110450.82448  -2395662.88946  24143849.242    24143849.4754   24143856.9434
       176.0004        177.0004
  -5962460.07147  -4626402.98545  23994611.805    23994611.4884   23994614.4124
       152.0004        154.0004
  -5423221.13848  -4214318.05846  22843540.879    22843541.5674   22843544.7444
       169.0004        169.0004
  -8057544.72648  -6247945.14446  22911851.741    22911852.3754   22911859.8554
       176.0004        177.0004
 -26320801.03649 -20496988.38948  20281826.022    20281826.8454   20281831.2984
       214.0004        216.0004
 -11259601.25248  -8762737.43446  22545916.379    22545916.2784   22545919.5574
       172.0004        173.0004
 -22121135.29249 -17213935.21347  20760162.212    20760162.6244   20760169.8624
       200.0004        200.0004
 -13105767.84548 -10193704.55547  22032215.728    22032215.7304   22032219.9434
       189.0004        189.0004
 21  2  2  2  2 30.0000000  0 10G28G30G08G19G14G09G07G21G01G17
  -2047356.13947  -1589544.01345  23371925.753    23371925.3894   23371930.6324
       155.0004        158.0004
 -17872572.47449 -13900097.65047  21257659.703    21257659.7684   21257666.6734
       203.0004        203.0004
  -3017682.83948  -2323376.15146  24161500.165    24161501.5924   24161509.5184
       175.0004        177.0004
  -6041298.51747  -4687835.54945  23979609.912    23979609.8144   23979613.1394
       154.0004        158.0004
  -5453161.78848  -4237648.44846  22837843.283    22837843.0094   22837847.3754
       169.0004        169.0004
  -7978003.21448  -6185964.75546  22926987.864    22926988.8724   22926995.2304
       175.0004        174.0004
 -26343235.29149 -20514469.63848  20277557.735    20277558.0974   20277561.8404
       215.0004        216.0004
 -11197269.54248  -8714167.25846  22557777.887    22557776.8214   22557781.0564
       173.0004        175.0004
 -22127474.46149 -17218874.81847  20758954.939    20758955.8284   20758963.4824
       200.0004        200.0004
 -13146343.91248 -10225322.26147  22024493.913    22024494.7754   22024498.4984
       189.0004        188.0004
 21  2  2  2  3  0.0000000  0 10G28G30G08G19G14G09G07G21G01G17
  -2067407.58647  -1605168.51245  23368110.399    23368111.5684   23368114.3294
       156.0004        159.0004
 -17941256.08949 -13953617.35747  21244588.736    21244589.2004   21244596.7324
       203.0004        203.0004
  -2925003.41848  -2251158.44146  24179137.159    24179137.6314   24179146.9684
       176.0004        176.0004
  -6119858.03247  -4749050.74145  23964660.259    23964659.9164   23964664.1574
       156.0004        158.0004
  -5483174.68248  -4261035.11346  22832131.291    22832131.4864   22832137.0704
       168.0004        169.0004
  -7898415.25048  -6123948.16346  22942133.206    22942133.7904   22942139.3824
       173.0004        173.0004
 -26365153.61749 -20531548.87648  20273386.864    20273387.3394   20273391.1314
       215.0004        216.0004
 -11134517.26048  -8665269.37946  22569719.239    22569719.0264   22569722.3544
       174.0004        175.0004
 -22133217.27449 -17223349.73947  20757862.001    20757863.1484   20757870.4204
       199.0004        200.0004
 -13186505.77748 -10256617.23747  22016850.661    22016851.3314   22016856.7454
       188.0004        188.0004
 21  2  2  2  3 30.0000000  0 10G28G30G08G19G14G09G07G21G01G17
  -2087565.08147  -1620875.63745  23364274.532    23364273.8874   23364279.0454
       155.0004        157.0004
 -18009620.91649 -14006888.65847  21231579.801    21231579.7474   21231586.7924
       202.0004        203.0004
  -2832414.25448  -2179011.05946  24196756.177    24196756.9034   24196765.1414
       173.0004        174.0004
  -6198137.44747  -4810047.67845  23949764.986    23949764.3684   23949767.3074
       156.0004        158.0004
  -5513260.31148  -4284478.48646  22826407.369    22826407.4434   22826411.2364
       169.0004        171.0004
  -7818784.00648  -6061897.83046  22957287.029    22957287.0744   22957293.4164
       175.0004        177.0004
 -26386554.78549 -20548225.12448  20269314.213    20269314.5504   20269318.3914
       215.0004        216.0004
 -11071345.36048  -8616044.49746  22581740.756    22581740.2174   22581744.2934
       174.0004        175.0004
 -22138362.95449 -17227359.35947  20756882.904    20756883.7064   20756891.4174
       199.0004        200.0004
 -13226254.03448 -10287589.90047  22009288.256    22009289.1034   22009292.5414
       190.0004        191.0004
 21  2  2  2  4  0.0000000  0 10G28G30G08G19G14G09G07G21G01G17
  -2107829.89947  -1636666.39245  23360419.001    23360418.1334   23360422.4964
       155.0004        157.0004
 -18077664.74949 -14059909.82347  21218631.174    21218631.1304   21218638.7304
       203.0004        203.0004
  -2739917.98448  -2106936.06346  24214357.530    24214358.3514   24214367.2284
       173.0004        175.0004
  -6276136.39447  -4870826.07745  23934922.529    23934921.1134   23934925.0124
       156.0004        158.0004
  -5543419.47548  -4307979.12046  22820668.163    22820668.2874   22820673.4024
       170.0004        170.0004
  -7739112.73748  -5999816.31546  22972448.033    22972447.7684   22972454.8384
       176.0004        176.0004
 -26407437.26849 -20564497.18948  20265339.788    20265340.3914   20265344.5414
       215.0004        215.0004
 -11007756.85348  -8566495.01446  22593839.914    22593840.5094   22593844.6294
       174.0004        175.0004
 -22142910.96149 -17230903.25847  20756017.933    20756018.5374   20756026.0044
       199.0004        199.0004
 -13265589.29448 -10318240.72647  22001801.945    22001802.6304   22001807.0524
       189.0004        189.0004
 21  2  2  2  4 30.0000000  0 10G28G30G08G19G14G09G07G21G01G17
  -2128202.82447  -1652541.39845  23356541.217    23356542.4774   23356545.4234
       156.0004        157.0004
 -18145385.01149 -14112678.85747  21205745.001    21205745.2274   21205752.2374
       204.0004        204.0004
  -2647516.06948  -2034934.60446  24231941.390    24231942.3264   24231950.7204
       176.0004        177.0004
  -6353853.79747  -4931385.06945  23920133.299    23920132.3574   23920135.9614
       156.0004        159.0004
  -5573652.58448  -4331537.36446  22814912.857    22814914.2324   22814918.8994
       168.0004        168.0004
  -7659404.37348  -5937705.91246  22987614.978    22987615.5654   22987622.9534
       175.0004        175.0004
 -26427799.70149 -20580364.03148  20261465.442    20261465.8394   20261469.8204
       215.0004        216.0004
 -10943752.39148  -8516621.38846  22606021.021    22606020.7264   22606024.7304
       176.0004        177.0004
 -22146860.47549 -17233980.79047  20755266.742    20755267.0664   20755274.4394
       200.0004        200.0004
 -13304511.68548 -10348569.85447  21994395.426    21994396.4494   21994400.2794
       189.0004        189.0004
 21  2  2  2  5  0.0000000  0 10G28G30G08G19G14G09G07G21G01G17
  -2148683.64647  -1668500.47745  23352644.509    23352644.6664   23352647.4444
       154.0004        156.0004
 -18212777.84449 -14165192.75447  21192920.454    21192920.5784   21192927.2004
       204.0004        204.0004
  -2555209.08848  -1963007.11546  24249506.793    24249507.2204   24249515.9384
       174.0004        175.0004
  -6431287.18647  -4991722.73845  23905397.196    23905396.9974   23905401.9034
       158.0004        161.0004
  -5603958.60448  -4355152.44846  22809147.500    22809147.3664   22809152.3654
       169.0004        169.0004
  -7579660.59148  -5875567.88346  23002789.892    23002790.4994   23002797.3264
       175.0004        176.0004
 -26447638.82449 -20595823.09248  20257690.211    20257690.5584   20257694.6014
       215.0004        216.0004
 -10879333.21448  -8466424.60546  22618278.250    22618277.8194   22618282.5384
       176.0004        176.0004
 -22150209.34549 -17236590.29247  20754628.778    20754629.7084   20754637.4404
       200.0004        200.0004
 -13343020.41548 -10378576.64247  21987068.413    21987068.2834   21987072.7054
       189.0004        190.0004
 21  2  2  2  5 30.0000000  0 10G28G30G08G19G14G09G07G21G01G17
  -2169273.98447  -1684544.90745  23348726.548    23348726.3894   23348729.2804
       154.0004        157.0004
 -18279841.46749 -14217450.13147  21180158.265    21180158.6214   21180165.6224
       203.0004        204.0004
  -2462999.73548  -1891155.69546  24267056.540    24267054.8724   24267062.8014
       175.0004        175.0004
  -6508436.69047  -5051839.24145  23890716.220    23890716.3054   23890719.9544
       159.0004        161.0004
  -5634338.79648  -4378825.30146  22803364.738    22803365.7284   22803371.9044
       168.0004        170.0004
  -7499885.12148  -5813405.17946  23017970.799    23017971.1354   23017977.8004
       175.0004        174.0004
 -26466953.59849 -20610873.57748  20254014.842    20254015.2934   20254019.4344
       215.0004        217.0004
 -10814502.01348  -8415906.78346  22630616.624    22630615.5574   22630620.2184
       176.0004        177.0004
 -22152957.59949 -17238731.78947  20754105.167    20754106.6944   20754114.4374
       200.0004        200.0004
 -13381116.84448 -10408262.16847  21979818.589    21979819.1324   21979823.7324
       190.0004        190.0004
 21  2  2  2  6  0.0000000  0 10G28G30G08G19G14G09G07G21G01G17
  -2189974.37347  -1700675.04445  23344786.140    23344785.9484   23344791.2544
       155.0004        158.0004
 -18346572.83749 -14269448.60147  21167460.295    21167460.1974   21167467.2634
       204.0004        206.0004
  -2370889.13748  -1819381.23746  24284580.660    24284581.8804   24284591.0534
       173.0004        174.0004
  -6585300.96947  -5111733.46246  23876091.724    23876090.6634   23876094.3174
       161.0004        164.0004
  -5664792.97748  -4402555.80546  22797571.088    22797571.2254   22797575.3434
       169.0004        170.0004
  -7420080.31048  -5751219.61346  23033157.926    23033158.3794   23033164.5294
       174.0004        174.0004
 -26485742.02449 -20625513.92348  20250439.448    20250440.0354   20250443.8154
       215.0004        216.0004
 -10749260.31848  -8365069.09146  22643029.632    22643029.7524   22643035.9874
       176.0004        178.0004
 -22155103.99849 -17240404.30547  20753697.174    20753698.0304   20753706.2134
       200.0004        200.0004
 -13418801.00548 -10437626.44247  21972646.588    21972647.1864   21972651.9344
       189.0004        188.0004
 21  2  2  2  6 30.0000000  0 10G28G30G08G19G14G09G07G21G01G17
  -2210784.98047  -1716891.09545  23340825.918    23340825.6474   23340831.2614
       155.0004        157.0004
 -18412969.00749 -14321185.88847  21154825.640    21154825.6964   21154832.5514
       205.0004        206.0004
  -2278878.69648  -1747684.79746  24302091.025    24302091.7654   24302099.7564
       173.0004        175.0004
  -6661878.15647  -5171403.98445  23861518.798    23861517.1834   23861521.8534
       161.0004        162.0004
  -5695321.02748  -4426343.91546  22791761.211    22791762.3024   22791765.6744
       169.0004        169.0004
  -7340248.80148  -5689013.24946  23048349.252    23048348.8594   23048355.8344
       173.0004        173.0004
 -26504002.47549 -20639742.86048  20246964.655    20246965.0074   20246968.9994
       215.0004        217.0004
 -10683609.05648  -8313912.28346  22655523.232    22655522.9604   22655528.8864
       176.0004        177.0004
 -22156647.41249 -17241606.96447  20753403.505    20753404.4794   20753411.7014
       200.0004        200.0004
 -13456072.62948 -10466669.26747  21965554.506    21965554.8044   21965559.7854
       188.0004        189.0004
 21  2  2  2  7  0.0000000  0 10G28G30G08G19G14G09G07G21G01G17
  -2231706.52847  -1733193.58845  23336845.182    23336844.3584   23336849.9634
       155.0004        157.0004
 -18479027.52349 -14372660.05647  21142255.149    21142254.9994   21142261.6084
       205.0004        205.0004
  -2186970.39648  -1676067.93746  24319579.910    24319580.7334   24319589.7264
       172.0004        171.0004
  -6738167.66447  -5230850.33146  23847000.296    23847000.4484   23847005.0944
       161.0004        163.0004
  -5725923.45048  -4450189.96846  22785936.936    22785937.7974   22785942.9464
       168.0004        169.0004
  -7260393.50348  -5626788.33046  23063543.619    23063544.3574   23063551.5154
       172.0004        173.0004
 -26521733.04249 -20653558.89548  20243590.383    20243591.0544   20243595.1524
       215.0004        216.0004
 -10617550.43948  -8262438.03346  22668093.629    22668093.2084   22668098.9994
       176.0004        177.0004
 -22157587.21549 -17242339.27247  20753224.327    20753225.6714   20753233.4674
       200.0004        200.0004
 -13492931.95548 -10495390.81547  21958540.971    21958541.5164   21958546.1194
       191.0004        192.0004
 21  2  2  2  7 30.0000000  0 10G28G30G08G19G14G09G07G21G01G17
  -2252739.71847  -1749583.08945  23332841.904    23332841.7604   23332845.8114
       154.0004        156.0004
 -18544745.56749 -14423868.92947  21129749.843    21129749.4044   21129755.9154
       205.0004        206.0004
  -2095165.49748  -1604531.69146  24337052.102    24337051.1014   24337058.8964
       170.0004        171.0004
  -6814168.17547  -5290071.50246  23832539.119    23832537.9344   23832542.0644
       162.0004        164.0004
  -5756600.24548  -4474093.97446  22780100.249    22780100.9454   22780104.9484
       168.0004        169.0004
  -7180517.05748  -5564546.95346  23078744.745    23078745.1044   23078752.1344
       172.0004        173.0004
 -26538932.28849 -20666960.91148  20240317.216    20240317.8554   20240322.0034
       215.0004        216.0004
 -10551086.53848  -8210647.97846  22680741.309    22680741.0164   22680746.6414
       176.0004        176.0004
 -22157922.46749 -17242600.51247  20753161.641    20753162.0704   20753169.3784
       200.0004        200.0004
 -13529379.24248 -10523791.29947  21951605.421    21951605.1744   21951609.3044
       191.0004        191.0004
 21  2  2  2  8  0.0000000  0 10G28G30G08G19G14G09G07G21G01G17
  -2273886.66147  -1766061.22145  23328817.584    23328817.9894   23328822.8094
       153.0004        156.0004
 -18610121.61549 -14474811.30447  21117308.519    21117308.4374   21117315.8184
       206.0004        207.0004
  -2003466.75948  -1533078.14246  24354500.045    24354500.9944   24354508.7294
       171.0004        173.0004
  -6889880.12647  -5349067.80145  23818130.515    23818129.5834   23818134.3934
       161.0004        162.0004
  -5787352.77648  -4498056.97346  22774249.312    22774249.4534   22774253.0814
       169.0004        171.0004
  -7100623.39248  -5502292.13246  23093947.751    23093947.9164   23093954.5964
       172.0004        173.0004
 -26555599.65549 -20679948.47248  20237145.778    20237146.1454   20237150.6094
       215.0004        217.0004
 -10484219.91148  -8158544.12546  22693464.614    22693464.5664   22693471.2384
       175.0004        175.0004
 -22157653.55549 -17242390.96347  20753212.463    20753212.8804   20753221.1844
       200.0004        200.0004
 -13565416.86048 -10551872.54047  21944746.860    21944747.4514   21944751.6234
       190.0004        190.0004
 21  2  2  2  8 30.0000000  0 10G28G30G08G19G14G09G07G21G01G17
  -2295147.10947  -1782627.78545  23324774.436    23324773.0044   23324776.7494
       154.0004        157.0004
 -18675151.91949 -14525484.26947  21104933.761    21104933.7944   21104941.0884
       206.0004        207.0004
  -1911874.94248  -1461707.94546  24371930.411    24371930.9074   24371937.6234
       171.0004        172.0004
  -6965301.63647  -5407837.81046  23803778.505    23803777.1314   23803781.2304
       161.0004        163.0004
  -5818180.05948  -4522078.21746  22768382.559    22768381.9624   22768387.7554
       169.0004        168.0004
  -7020714.19248  -5440025.21846  23109154.057    23109154.0824   23109161.2064
       173.0004        174.0004
 -26571732.66649 -20692519.65648  20234075.697    20234076.1424   20234080.4914
       215.0004        217.0004
 -10416951.75948  -8106127.39146  22706266.314    22706266.4554   22706271.8824
       175.0004        176.0004
 -22156778.65649 -17241709.21647  20753379.392    20753380.1454   20753387.3484
       200.0004        201.0004
 -13601043.56948 -10579633.60847  21937967.973    21937968.0994   21937972.8084
       191.0004        192.0004
 21  2  2  2  9  0.0000000  0 10G28G30G08G19G14G09G07G21G01G17
  -2316522.60347  -1799284.00145  23320702.643    23320704.7424   23320708.8754
       152.0004        154.0004
 -18739834.79249 -14575886.51747  21092624.928    21092625.0634   21092632.2174
       207.0004        208.0004
  -1820392.40748  -1390422.84946  24389337.318    24389338.0804   24389346.2404
       170.0004        170.0004
  -7040432.36447  -5466381.21545  23789480.499    23789480.5464   23789484.2774
       160.0004        162.0004
  -5849083.28948  -4546158.65046  22762499.209    22762501.3074   22762506.7824
       167.0004        168.0004
  -6940793.21648  -5377749.17146  23124362.574    23124363.0214   23124370.3964
       173.0004        173.0004
 -26587330.30749 -20704673.67548  20231107.515    20231108.1434   20231112.3304
       216.0004        217.0004
 -10349284.22248  -8053399.45046  22719144.418    22719143.3834   22719148.3154
       175.0004        176.0004
 -22155298.04249 -17240555.48547  20753660.593    20753661.3434   20753668.5024
       200.0004        200.0004
 -13636260.69548 -10607075.51747  21931265.998    21931266.3934   21931270.6404
       191.0004        191.0004
 21  2  2  2  9 30.0000000  0 10G28G30G08G19G14G09G07G21G01G17
  -2338011.79747  -1816028.84945  23316615.449    23316616.8344   23316619.7264
       152.0004        155.0004
 -18804165.77049 -14626014.55447  21080382.747    21080383.3254   21080390.5704
       207.0004        207.0004
  -1729019.10448  -1319222.91646  24406723.833    24406725.0414   24406734.8544
       169.0004        170.0004
  -7115269.65847  -5524695.98646  23775241.267    23775240.6704   23775243.3954
       161.0004        164.0004
  -5880060.73648  -4570296.93746  22756606.911    22756607.0674   22756611.7714
       168.0004        170.0004
  -6860861.32548  -5315464.57446  23139573.254    23139573.4584   23139580.0024
       171.0004        171.0004
 -26602388.85149 -20716407.61648  20228242.012    20228242.5484   20228247.1414
       215.0004        217.0004
 -10281217.94148  -8000360.80646  22732095.729    22732096.0254   22732101.6594
       174.0004        174.0004
 -22153209.19349 -17238927.80447  20754058.296    20754058.2324   20754066.0584
       200.0004        200.0004
 -13671066.95048 -10634197.27547  21924643.033    21924643.5804   21924646.9974
       191.0004        191.0004
 21  2  2  2 10  0.0000000  0 10G28G30G08G19G14G09G07G21G01G17
  -2359617.25247  -1832864.25945  23312504.353    23312504.4164   23312508.3444
       154.0004        157.0004
 -18868143.90449 -14675867.66347  21068208.613    21068208.7544   21068215.4374
       207.0004        207.0004
  -1637758.34948  -1248110.64246  24424092.534    24424093.2924   24424100.8624
       169.0004        170.0004
  -7189814.08947  -5582782.55446  23761055.194    23761054.8894   23761058.0574
       161.0004        163.0004
  -5911114.28048  -4594494.49346  22750698.674    22750697.7104   22750703.3084
       170.0004        172.0004
  -6780922.94348  -5253174.96646  23154784.258    23154785.1524   23154792.8184
       170.0004        170.0004
 -26616908.98149 -20727722.02948  20225479.159    20225479.5624   20225484.2274
       216.0004        217.0004
 -10212756.10748  -7947013.93746  22745124.157    22745123.9914   22745128.3794
       173.0004        175.0004
 -22150513.15349 -17236827.00047  20754571.464    20754571.7684   20754579.2784
       200.0004        200.0004
 -13705464.56148 -10661000.61447  21918097.301    21918097.2144   21918101.4694
       191.0004        191.0004
 21  2  2  2 10 30.0000000  0 10G28G30G08G19G14G09G07G21G01G17
  -2381338.96947  -1849790.24945  23308371.021    23308370.7194   23308374.9334
       155.0004        159.0004
 -18931766.12349 -14725443.42647  21056102.364    21056102.3164   21056108.2504
       207.0004        208.0004
  -1546610.81348  -1177086.59746  24441436.964    24441437.7644   24441446.2134
       170.0004        171.0004
  -7264064.41847  -5640639.95245  23746925.009    23746923.7344   23746928.4204
       161.0004        162.0004
  -5942243.59048  -4618751.09546  22744773.844    22744773.8654   22744779.4024
       171.0004        171.0004
  -6700980.43848  -5190882.13746  23169997.073    23169997.8634   23170004.4524
       168.0004        169.0004
 -26630888.75249 -20738615.36148  20222818.887    20222819.2314   20222823.7464
       216.0004        217.0004
 -10143900.31448  -7893360.06346  22758227.246    22758226.1134   22758232.1434
       173.0004        174.0004
 -22147208.94649 -17234252.27947  20755200.323    20755200.4864   20755207.8674
       200.0004        200.0004
 -13739452.98848 -10687485.08547  21911629.002    21911629.4174   21911633.7904
       191.0004        191.0004
 21  2  2  2 11  0.0000000  0 10G28G30G08G19G14G09G07G21G01G17
  -2403177.65647  -1866807.43145  23304217.146    23304216.4394   23304219.6224
       157.0004        159.0004
 -18995029.61749 -14774739.65847  21044063.304    21044063.4404   21044069.9834
       208.0004        208.0004
  -1455578.08148  -1106151.99746  24458762.134    24458761.0484   24458769.5844
       170.0004        171.0004
  -7338019.29247  -5698267.09546  23732852.097    23732851.7394   23732855.4404
       163.0004        166.0004
  -5973448.59648  -4643066.67746  22738835.001    22738835.8314   22738840.6104
       170.0004        170.0004
  -6621036.29848  -5128588.01546  23185212.069    23185211.1734   23185217.7084
       169.0004        171.0004
 -26644326.37349 -20749086.24648  20220261.641    20220262.1014   20220266.3554
       216.0004        217.0004
 -10074652.09448  -7839400.42046  22771403.567    22771403.7144   22771408.8284
       173.0004        173.0004
 -22143295.73549 -17231203.02247  20755945.081    20755945.2574   20755952.6454
       200.0004        200.0004
 -13773033.15648 -10713651.43747  21905239.048    21905239.2464   21905244.0084
       190.0004        190.0004
 21  2  2  2 11 30.0000000  0 10G28G30G08G19G14G09G07G21G01G17
  -2425135.00347  -1883917.02545  23300035.196    23300035.9404   23300041.4674
       155.0004        155.0004
 -19057932.93849 -14823755.23347  21032093.639    21032093.5654   21032099.7724
       208.0004        208.0004
  -1364662.79848  -1035308.94846  24476062.000    24476061.7334   24476070.1804
       172.0004        173.0004
  -7411679.11547  -5755664.33246  23718836.771    23718835.0494   23718837.8914
       164.0004        164.0004
  -6004730.61348  -4667442.27746  22732882.577    22732883.2934   22732887.1214
       170.0004        171.0004
  -6541094.42048  -5066295.65246  23200421.866    23200422.1044   23200430.7034
       170.0004        171.0004
 -26657221.27849 -20759134.23048  20217808.100    20217808.5024   20217812.9654
       216.0004        217.0004
 -10005015.04348  -7785137.79046  22784656.486    22784656.0384   22784660.5734
       173.0004        173.0004
 -22138774.17849 -17227679.71847  20756805.301    20756805.7904   20756812.9304
       200.0004        200.0004
 -13806206.73448 -10739500.96747  21898926.742    21898927.0744   21898930.6854
       190.0004        191.0004
 21  2  2  2 12  0.0000000  0 10G28G30G08G19G14G09G07G21G01G17
  -2447209.90147  -1901118.23945  23295836.144    23295836.5724   23295840.0534
       155.0004        158.0004
 -19120471.61649 -14872486.68547  21020192.854    21020192.9394   21020198.7294
       208.0004        209.0004
  -1273864.50448   -964557.06346  24493338.514    24493339.1444   24493346.6384
       167.0004        167.0004
  -7485041.33447  -5812829.68646  23704875.136    23704875.2774   23704878.8574
       162.0004        165.0004
  -6036087.85948  -4691876.49746  22726914.688    22726915.6294   22726921.7574
       170.0004        171.0004
  -6461155.64948  -5004005.71346  23215633.272    23215634.3564   23215642.4584
       169.0004        170.0004
 -26669570.33649 -20768756.87548  20215458.117    20215458.3324   20215462.8804
       216.0004        217.0004
  -9934988.77148  -7730571.87346  22797981.336    22797980.3564   22797985.8744
       172.0004        172.0004
 -22133641.86749 -17223680.50547  20757782.185    20757782.5734   20757789.7394
       200.0004        200.0004
 -13838971.89048 -10765032.25247  21892691.575    21892691.9454   21892695.9144
       191.0004        191.0004
 21  2  2  2 12 30.0000000  0 10G28G30G08G19G14G09G07G21G01G17
  -2469403.06247  -1918411.60345  23291612.857    23291612.9204   23291617.5174
       156.0004        159.0004
 -19182643.34949 -14920932.19347  21008361.811    21008361.7254   21008368.3094
       209.0004        209.0004
  -1183185.23348   -893897.87246  24510595.368    24510595.6724   24510602.7444
       168.0004        169.0004
  -7558105.39147  -5869762.70745  23690971.991    23690971.1974   23690975.2004
       161.0004        161.0004
  -6067520.70148  -4716369.63346  22720935.483    22720935.0924   22720939.0004
       170.0004        171.0004
  -6381223.01248  -4941720.55746  23230844.626    23230845.2444   23230852.5214
       181.0004        186.0004
 -26681372.61049 -20777953.46348  20213212.290    20213212.6484   20213216.4014
       216.0004        217.0004
  -9864575.71748  -7675704.56346  22811379.642    22811380.3924   22811384.7754
       171.0004        172.0004
 -22127898.66649 -17219205.27347  20758874.576    20758875.2344   20758882.5304
       200.0004        200.0004
 -13871329.98348 -10790246.35147  21886533.357    21886534.4324   21886538.4324
       191.0004        191.0004
 21  2  2  2 13  0.0000000  0 10G28G30G08G19G14G09G07G21G01G17
  -2491715.72947  -1935798.09545  23287368.043    23287367.5474   23287371.1964
       156.0004        157.0004
 -19244446.23349 -14969090.29247  20996600.507    20996600.8534   20996607.6844
       209.0004        209.0004
  -1092626.86948   -823332.93946  24527826.203    24527827.8224   24527836.2634
       165.0004        165.0004
  -7630870.62347  -5926462.87246  23677125.109    23677124.2284   23677127.6004
       161.0004        163.0004
  -6099029.97248  -4740922.30046  22714936.872    22714937.6814   22714943.9174
       168.0004        168.0004
  -6301299.94148  -4879442.83247  23246054.995    23246054.5364   23246061.4764
       186.0004        188.0004
 -26692626.95749 -20786723.09548  20211070.706    20211071.0174   20211075.1184
       216.0004        217.0004
  -9793778.09148  -7620537.57846  22824854.140    22824853.1234   22824856.5614
       171.0004        171.0004
 -22121544.79149 -17214254.19347  20760083.753    20760084.3094   20760091.7554
       200.0004        200.0004
 -13903282.16948 -10815144.15947  21880453.531    21880453.7704   21880458.1224
       190.0004        191.0004
 21  2  2  2 13 30.0000000  0 10G28G30G08G19G14G09G07G21G01G17
  -2514148.70547  -1953278.32145  23283097.119    23283097.7534   23283101.8994
       154.0004        157.0004
 -19305877.24349 -15016958.62447  20984910.385    20984910.6134   20984917.9124
       209.0004        209.0004
  -1002190.99847   -752863.46346  24545037.228    24545036.5774   24545044.7514
       163.0004        164.0004
  -7703336.35847  -5982929.66346  23663336.013    23663335.6844   23663339.1604
       164.0004        167.0004
  -6130615.28748  -4765534.20746  22708926.378    22708926.9624   22708932.4614
       167.0004        168.0004
  -6221388.68349  -4817174.32847  23261258.949    23261260.7084   23261268.4384
       195.0004        201.0004
 -26703331.74449 -20795064.49948  20209033.012    20209033.5824   20209038.1314
       216.0004        217.0004
  -9722597.83248  -7565072.44846  22838399.343    22838397.3844   22838402.0894
       170.0004        169.0004
 -22114579.39549 -17208826.60547  20761408.925    20761409.6954   20761417.4854
       200.0004        200.0004
 -13934828.51848 -10839725.73247  21874450.101    21874450.3614   21874455.2504
       190.0004        191.0004
 21  2  2  2 14  0.0000000  0 10G28G30G08G19G14G09G07G21G01G17
  -2536702.41147  -1970852.63645  23278806.416    23278806.5054   23278811.3824
       155.0004        158.0004
 -19366934.26349 -15064535.53847  20973292.610    20973292.1734   20973298.6084
       209.0004        209.0004
   -911879.07947   -682490.61046  24562224.149    24562223.2694   24562231.7034
       164.0004        166.0004
  -7775501.73847  -6039162.40346  23649602.018    23649600.4944   23649605.1794
       164.0004        164.0004
  -6162277.17248  -4790205.81446  22702902.831    22702903.6544   22702908.6074
       169.0004        172.0004
  -6141492.39549  -4754917.51347  23276465.354    23276465.2434   23276472.0294
       200.0004        201.0004
 -26713486.16949 -20802977.06048  20207101.759    20207101.8594   20207105.7914
       216.0004        217.0004
  -9651037.84448  -7509311.44546  22852013.620    22852014.5694   22852019.2714
       169.0004        170.0004
 -22107002.54949 -17202922.56647  20762851.299    20762851.7284   20762859.1244
       200.0004        200.0004
 -13965969.86648 -10863991.72047  21868524.715    21868524.7884   21868529.3144
       191.0004        192.0004
 21  2  2  2 14 30.0000000  0 10G28G30G08G19G14G09G07G21G01G17
  -2559376.76147  -1988520.94445  23274491.331    23274491.7654   23274496.0274
       156.0004        158.0004
 -19427613.95449 -15111818.42247  20961745.418    20961745.1134   20961751.5994
       208.0004        208.0004
   -821692.09847   -612215.06446  24579386.410    24579385.4514   24579393.9274
       164.0004        164.0004
  -7847365.29947  -6095160.00846  23635927.059    23635926.2194   23635930.1644
       162.0004        164.0004
  -6194014.90548  -4814936.50746  22696863.729    22696863.6584   22696868.8104
       171.0004        172.0004
  -6061612.98249  -4692673.80647  23291665.585    23291665.5104   23291672.2074
       200.0004        201.0004
 -26723087.92249 -20810458.95148  20205273.835    20205274.4064   20205278.7484
       216.0004        217.0004
  -9579098.60048  -7453254.87346  22865704.135    22865703.9854   22865707.8704
       167.0004        169.0004
 -22098813.14949 -17196541.19647  20764409.736    20764410.0204   20764417.6804
       200.0004        200.0004
 -13996706.60848 -10887942.40847  21862676.293    21862676.1484   21862679.8884
       192.0004        193.0004
 21  2  2  2 15  0.0000000  0 10G28G30G08G19G14G09G07G21G01G17
  -2582173.56547  -2006284.70745  23270152.609    23270153.0984   23270157.4314
       156.0004        159.0004
 -19487914.81549 -15158806.09747  20950270.088    20950270.1564   20950277.4124
       208.0004        209.0004
   -731632.20247   -542038.58446  24596525.578    24596524.2664   24596531.9584
       162.0004        163.0004
  -7918927.30647  -6150922.57246  23622309.396    23622309.2304   23622311.6824
       162.0004        163.0004
  -6225829.58948  -4839727.15646  22690808.258    22690808.7024   22690813.4804
       170.0004        170.0004
  -5981754.17549  -4630446.15447  23306861.659    23306862.0034   23306868.9484
       200.0004        199.0004
 -26732137.25649 -20817510.38748  20203552.186    20203552.3654   20203556.9544
       216.0004        218.0004
  -9506783.35448  -7396905.33546  22879467.122    22879465.7964   22879470.1404
       167.0004        169.0004
 -22090011.90249 -17189683.06347  20766084.376    20766084.7934   20766092.3544
       200.0004        200.0004
 -14027040.05948 -10911578.84947  21856902.901    21856903.6034   21856908.4884
       192.0004        192.0004
 21  2  2  2 15 30.0000000  0 10G28G30G08G19G14G09G07G21G01G17
  -2605092.64147  -2024143.72145  23265791.726    23265791.5664   23265795.8634
       156.0004        159.0004
 -19547833.57949 -15205496.04847  20938868.066    20938868.1354   20938875.2134
       209.0004        209.0004
   -641700.61247   -471962.06246  24613638.641    24613638.0584   24613646.0114
       162.0004        163.0004
  -7990186.39647  -6206449.15345  23608748.686    23608747.9024   23608751.6274
       161.0004        162.0004
  -6257720.51048  -4864577.24446  22684740.656    22684740.6804   22684745.1684
       169.0004        168.0004
  -5901917.94749  -4568236.11047  23322053.696    23322054.2734   23322061.1714
       199.0004        199.0004
 -26740632.19949 -20824129.83348  20201935.503    20201935.8044   20201940.3494
       216.0004        218.0004
  -9434093.44748  -7340263.84846  22893298.702    22893298.5764   22893301.7664
       167.0004        167.0004
 -22080597.78849 -17182347.38447  20767875.499    20767876.3154   20767883.5514
       200.0004        200.0004
 -14056970.07648 -10934900.93747  21851207.443    21851207.6844   21851212.5084
       190.0004        189.0004
 21  2  2  2 16  0.0000000  0 10G28G30G08G19G14G09G07G21G01G17
  -2628134.87347  -2042098.71545  23261406.970    23261406.9114   23261411.2094
       156.0004        160.0004
 -19607368.07649 -15251886.58447  20927539.150    20927539.4664   20927545.9044
       209.0004        210.0004
   -551899.01557   -401986.86346  24630724.684    24630725.0605   24630735.3324
       161.0004        163.0004
  -8061141.94447  -6261739.20946  23595246.358    23595245.5254   23595250.5444
       163.0004        165.0004
  -6289688.14948  -4889487.08946  22678656.485    22678656.5894   22678662.0484
       168.0004        169.0004
  -5822107.35849  -4506046.03847  23337240.557    23337241.2364   23337248.6024
       199.0004        199.0004
 -26748571.32049 -20830316.17548  20200424.167    20200425.0034   20200429.0694
       216.0004        217.0004
  -9361031.21348  -7283332.25746  22907201.557    22907201.5194   22907204.4454
       167.0004        168.0004
 -22070570.97749 -17174534.28647  20769783.138    20769784.1434   20769791.7084
       199.0004        200.0004
 -14086497.87548 -10957909.62247  21845587.857    21845588.4144   21845593.3004
       189.0004        189.0004
