     2.11           OBSERVATION DATA    G (GPS)             RINEX VERSION / TYPE
teqc  2018Jun8                          20210202 03:10:35UTCPGM / RUN BY / DATE
Linux2.6.32-573.12.1.el6.x86_64|x86_64|gcc|Win64-MinGW64|=+ COMMENT
BIT 2 OF LLI FLAGS DATA COLLECTED UNDER A/S CONDITION       COMMENT
-Unknown-                                                   MARKER NAME
CRNO                                                        MARKER NUMBER
-Unknown-           -Unknown-                               OBSERVER / AGENCY
-Unknown-           ASHTECH             -Unknown-           REC # / TYPE / VERS
-Unknown-           -Unknown-                               ANT # / TYPE
   408078.8839 -6158372.2308  1605163.4997                  APPROX POSITION XYZ
        0.0000        0.0000        0.0000                  ANTENNA: DELTA H/E/N
     1     1                                                WAVELENGTH FACT L1/2
     7    L1    L2    C1    P1    P2    S1    S2            # / TYPES OF OBSERV
    30.0000                                                 INTERVAL
Forced Modulo Decimation to 30 seconds                      COMMENT
 SNR is mapped to RINEX snr flag value [1-9]                COMMENT
  L1: 1 -> 1;  90 -> 5; 210 -> 9                            COMMENT
  L2: 1 -> 1; 150 -> 5; 250 -> 9                            COMMENT
pseudorange smoothing corrections not applied               COMMENT
  2021     2     4     0     0   30.0000000     GPS         TIME OF FIRST OBS
                                                            END OF HEADER
 21  2  4  0  0 30.0000000  0  9G08G07G16G04G22G27G21G09G03
 -23254997.49949 -17775352.40647  20180813.763    20180814.1034   20180821.6144
       212.0004        212.0004
  -2061196.83047  -1591967.04845  24398053.458    24398054.0494   24398057.9394
       159.0004        162.0004
  -7330649.22047  -5691638.95145  23586009.077    23586010.7194   23586016.4004
       139.0004        143.0004
 -22637278.66449 -17627640.48448  20223744.841    20223745.3404   20223750.8274
       217.0004        216.0004
  -2242307.16447  -1404713.41045  24432309.232    24432309.1124   24432316.1504
       144.0004        148.0004
 -22792972.73849 -17702001.13148  21234935.191    21234935.5804   21234942.5334
       213.0004        216.0004
  -7929991.90847  -6153710.47245  23171735.482    23171736.7354   23171742.4494
       150.0004        153.0004
 -15263189.59149 -11872906.91847  21516155.403    21516156.0594   21516163.2334
       198.0004        199.0004
  -3980463.86848  -2749748.02546  23706052.458    23706052.6484   23706059.7234
       165.0004        171.0004
 21  2  4  0  1  0.0000000  0  9G08G07G16G04G22G27G21G09G03
 -23269835.28549 -17786914.30047  20177990.033    20177990.4004   20177998.0854
       212.0004        212.0004
  -2122944.55047  -1640082.11845  24386303.396    24386303.0354   24386307.8924
       159.0004        160.0004
  -7246216.60947  -5625847.34945  23602077.510    23602077.1994   23602083.5854
       138.0004        144.0004
 -22631867.38649 -17623423.90548  20224774.745    20224775.0814   20224780.6404
       217.0004        216.0004
  -2189352.84347  -1363450.33345  24442386.965    24442385.3334   24442391.6084
       144.0004        149.0004
 -22736395.53749 -17657914.98848  21245701.132    21245701.8244   21245708.8674
       217.0004        216.0004
  -7981818.57147  -6194094.75845  23161874.252    23161874.4654   23161881.1934
       150.0004        153.0004
 -15325652.85849 -11921579.58547  21504270.494    21504270.8004   21504276.9354
       199.0004        201.0004
  -3917162.00148  -2700421.88746  23718096.278    23718097.9934   23718106.9114
       170.0004        173.0004
 21  2  4  0  1 30.0000000  0  9G08G07G16G04G22G27G21G09G03
 -23284068.42449 -17798005.03648  20175281.431    20175282.0534   20175289.8434
       212.0004        213.0004
  -2184858.78247  -1688326.96345  24374521.552    24374521.9994   24374526.3814
       157.0004        158.0004
  -7161877.43647  -5560128.50645  23618128.203    23618127.6824   23618130.9974
       139.0004        143.0004
 -22625883.06249 -17618760.79448  20225913.010    20225913.6514   20225919.2344
       217.0004        215.0004
  -2136604.09547  -1322347.44745  24452425.178    24452423.7174   24452429.0804
       142.0004        147.0004
 -22679287.47449 -17613415.17348  21256569.076    21256569.0334   21256575.9934
       225.0004        229.0004
  -8033663.36447  -6234493.21045  23152011.139    23152009.5704   23152014.4784
       152.0004        156.0004
 -15387674.73649 -11969908.30647  21492468.427    21492468.6524   21492474.2594
       200.0004        201.0004
  -3853945.48748  -2651162.29346  23730127.234    23730127.7454   23730136.9374
       181.0004        187.0004
 21  2  4  0  2  0.0000000  0  9G08G07G16G04G22G27G21G09G03
 -23297696.09049 -17808623.98348  20172688.649    20172689.0524   20172696.4544
       212.0004        213.0004
  -2246938.53547  -1736700.78245  24362707.685    24362707.8484   24362712.4764
       156.0004        158.0004
  -7077632.34647  -5494482.98945  23634158.833    23634157.9484   23634162.0654
       139.0004        145.0004
 -22619325.05249 -17613650.65648  20227160.967    20227161.4464   20227167.1764
       216.0004        215.0004
  -2084062.02047  -1281405.58045  24462423.742    24462424.2824   24462428.7614
       143.0004        149.0004
 -22621650.17749 -17568502.97848  21267536.824    21267537.2494   21267543.9004
       228.0004        229.0004
  -8085523.76747  -6274903.81845  23142141.253    23142140.3834   23142145.0924
       153.0004        155.0004
 -15449252.49849 -12017890.96547  21480750.022    21480750.2854   21480756.5764
       201.0004        201.0004
  -3790816.32948  -2601970.73246  23742140.909    23742141.5664   23742149.6214
       184.0004        185.0004
 21  2  4  0  2 30.0000000  0  9G08G07G16G04G22G27G21G09G03
 -23310718.50049 -17818771.29648  20170210.614    20170210.8454   20170218.6634
       212.0004        213.0004
  -2309184.48847  -1785204.10445  24350862.477    24350863.4344   24350868.3164
       157.0004        162.0004
  -6993484.24847  -5428913.03245  23650171.710    23650172.1264   23650175.7624
       139.0004        143.0004
 -22612194.35949 -17608094.27148  20228518.233    20228518.8494   20228524.2654
       216.0004        215.0004
  -2031729.21347  -1240626.79045  24472381.104    24472380.6144   24472386.4594
       143.0004        148.0004
 -22563486.82549 -17523180.86448  21278605.934    21278605.4814   21278612.2704
       229.0004        229.0004
  -8137397.79247  -6315325.02545  23132268.109    23132268.3114   23132272.7894
       152.0004        154.0004
 -15510385.06149 -12065526.71847  21469116.600    21469117.1154   21469123.9094
       201.0004        202.0004
  -3727778.04848  -2552850.02346  23754136.295    23754137.1104   23754145.3854
       184.0004        185.0004
 21  2  4  0  3  0.0000000  0 10G08G07G16G04G22G27G01G21G09G03
 -23323132.92249 -17828444.86948  20167847.817    20167848.5534   20167856.1174
       212.0004        213.0004
  -2371593.86647  -1833834.77746  24338987.650    24338988.0704   24338991.7904
       161.0004        164.0004
  -6909432.38947  -5363418.07145  23666164.339    23666165.4194   23666171.3724
       140.0004        145.0004
 -22604488.85349 -17602089.99648  20229984.532    20229984.8914   20229990.5994
       216.0004        215.0004
  -1979605.08447  -1200010.64045  24482301.213    24482300.0284   24482303.6304
       142.0004        146.0004
 -22504797.45949 -17477448.88548  21289772.419    21289773.3074   21289781.0734
       230.0004        229.0004
  -2257344.07647  -1748569.66545  24578936.946    24578936.9294   24578946.7464
       137.0004        142.0004
  -8189281.27947  -6355753.62945  23122394.647    23122395.7654   23122400.8054
       152.0004        153.0004
 -15571068.12649 -12112812.22047  21457569.650    21457569.6814   21457576.2424
       202.0004        202.0004
  -3664830.95348  -2503800.36646  23766113.132    23766114.3644   23766123.5364
       184.0004        184.0004
 21  2  4  0  3 30.0000000  0 10G08G07G16G04G22G27G01G21G09G03
 -23334939.73549 -17837644.95948  20165601.597    20165601.9954   20165609.5174
       213.0004        213.0004
  -2434166.91847  -1882592.94745  24327077.930    24327079.0874   24327084.1174
       161.0004        162.0004
  -6825478.53347  -5297999.46845  23682143.788    23682142.2074   23682147.2364
       141.0004        145.0004
 -22596208.58549 -17595637.83648  20231559.895    20231560.7544   20231566.1624
       216.0004        215.0004
  -1927691.37247  -1159558.40145  24492178.848    24492179.0564   24492184.9964
       142.0004        146.0004
 -22445584.36249 -17431308.78848  21301041.546    21301041.5784   21301048.3194
       229.0004        229.0004
  -2316656.88347  -1794787.38345  24567647.673    24567650.4414   24567660.6214
       135.0004        140.0004
  -8241171.74247  -6396187.66045  23112520.699    23112520.9604   23112525.3664
       151.0004        153.0004
 -15631299.58349 -12159745.80647  21446107.487    21446107.9524   21446114.5864
       202.0004        202.0004
  -3601977.56848  -2454823.69047  23778075.811    23778076.8784   23778084.3784
       186.0004        188.0004
 21  2  4  0  4  0.0000000  0 10G08G07G16G04G22G27G01G21G09G03
 -23346138.15949 -17846370.98748  20163470.645    20163470.7924   20163478.3054
       213.0004        214.0004
  -2496902.99747  -1931478.20045  24315140.938    24315141.0574   24315145.5734
       159.0004        161.0004
  -6741624.32947  -5232658.52645  23698099.176    23698099.1694   23698103.9394
       140.0004        144.0004
 -22587353.76649 -17588737.97348  20233244.909    20233245.3814   20233251.3924
       216.0004        215.0004
  -1875988.97447  -1119270.85045  24502019.601    24502017.9094   24502022.4964
       142.0004        147.0004
 -22385849.91249 -17384762.45048  21312408.557    21312408.8184   21312415.5054
       229.0004        229.0004
  -2376244.45947  -1841219.18645  24556309.812    24556311.1654   24556321.4904
       135.0004        141.0004
  -8293066.88147  -6436625.35045  23102645.418    23102645.3294   23102651.2154
       150.0004        153.0004
 -15691077.53649 -12206326.00847  21434731.839    21434732.2944   21434739.3194
       202.0004        202.0004
  -3539220.46748  -2405922.07247  23790018.927    23790019.0214   23790026.7814
       188.0004        190.0004
 21  2  4  0  4 30.0000000  0 10G08G07G16G04G22G27G01G21G09G03
 -23356727.92049 -17854622.73448  20161454.987    20161455.6694   20161462.9294
       213.0004        213.0004
  -2559802.07047  -1980490.44645  24303171.707    24303171.7014   24303177.1764
       160.0004        162.0004
  -6657871.48447  -5167396.54245  23714035.310    23714035.6434   23714040.8634
       137.0004        142.0004
 -22577924.68149 -17581390.63848  20235039.217    20235039.8964   20235045.7994
       216.0004        215.0004
  -1824500.22247  -1079149.73745  24511816.729    24511816.2064   24511822.7434
       142.0004        146.0004
 -22325596.57449 -17337811.78548  21323874.636    21323874.7074   21323881.0904
       230.0004        229.0004
  -2436105.50447  -1887864.07945  24544921.242    24544921.3514   24544929.2854
       136.0004        142.0004
  -8344964.52947  -6477065.00045  23092771.110    23092770.0904   23092774.1224
       151.0004        154.0004
 -15750400.03649 -12252551.32047  21423442.990    21423443.5374   21423450.2704
       202.0004        203.0004
  -3476562.35848  -2357097.58047  23801940.525    23801941.6694   23801950.8944
       188.0004        189.0004
 21  2  4  0  5  0.0000000  0 10G08G07G16G04G22G27G01G21G09G03
 -23366709.53349 -17862400.59748  20159556.033    20159556.2054   20159564.0834
       213.0004        214.0004
  -2622864.22547  -2029629.75645  24291171.435    24291171.2654   24291175.9294
       158.0004        159.0004
  -6574221.40947  -5102214.64645  23729955.819    23729954.1074   23729959.3974
       136.0004        141.0004
 -22567921.83849 -17573596.22248  20236942.908    20236943.4924   20236948.8124
       216.0004        214.0004
  -1773227.38747  -1039196.88045  24521572.628    24521572.7344   24521579.5934
       142.0004        147.0004
 -22264826.99049 -17290458.85148  21335438.808    21335438.9514   21335445.1054
       229.0004        229.0004
  -2496238.95547  -1934721.24645  24533477.673    24533477.4344   24533485.3314
       136.0004        142.0004
  -8396862.60347  -6517504.97145  23082893.690    23082893.0224   23082899.1944
       151.0004        155.0004
 -15809265.42649 -12298420.44047  21412241.545    21412241.6794   21412248.1304
       202.0004        202.0004
  -3414006.02248  -2308352.42446  23813845.087    23813845.5744   23813854.2044
       187.0004        187.0004
 21  2  4  0  5 30.0000000  0 10G08G07G16G04G22G27G01G21G09G03
 -23376081.65849 -17869703.54248  20157772.067    20157772.7114   20157780.2174
       213.0004        213.0004
  -2686088.24647  -2078895.19345  24279140.623    24279140.8384   24279145.2404
       158.0004        161.0004
  -6490675.09047  -5037113.62045  23745852.571    23745851.8424   23745858.2864
       136.0004        142.0004
 -22557344.43749 -17565354.09248  20238955.909    20238956.3474   20238961.6554
       216.0004        215.0004
  -1722170.64147   -999412.43945  24531289.824    24531288.6674   24531293.5744
       141.0004        144.0004
 -22203542.56949 -17242704.74148  21347100.108    21347100.6284   21347107.4034
       229.0004        229.0004
  -2556642.40446  -1981788.78445  24521980.569    24521982.6144   24521991.5634
       134.0004        139.0004
  -8448757.52647  -6557942.49845  23073017.330    23073017.4914   23073025.0674
       152.0004        156.0004
 -15867670.72249 -12343931.05047  21401127.889    21401127.9374   21401134.0914
       202.0004        203.0004
  -3351553.01348  -2259687.74947  23825730.376    23825730.7754   23825739.0074
       187.0004        188.0004
 21  2  4  0  6  0.0000000  0 10G08G07G16G04G22G27G01G21G09G03
 -23384844.45449 -17876531.68248  20156104.800    20156105.1004   20156112.5194
       213.0004        213.0004
  -2749473.72947  -2128286.45545  24267078.167    24267078.4634   24267083.1804
       158.0004        159.0004
  -6407234.58847  -4972095.04445  23761731.382    23761730.7374   23761735.3714
       136.0004        141.0004
 -22546192.96649 -17556664.63948  20241078.199    20241078.6514   20241083.8454
       216.0004        215.0004
  -1671331.69347   -959797.69145  24540963.631    24540963.3924   24540967.7844
       142.0004        147.0004
 -22141745.94049 -17194551.51148  21358860.064    21358860.2044   21358866.8374
       229.0004        229.0004
  -2617314.55346  -2029065.75545  24510435.026    24510436.5164   24510447.4474
       132.0004        138.0004
  -8500647.59247  -6598376.25445  23063143.733    23063144.0024   23063151.1734
       153.0004        156.0004
 -15925614.17749 -12389081.78947  21390101.458    21390101.5174   21390108.3004
       202.0004        203.0004
  -3289206.02248  -2211105.71747  23837594.317    23837595.0874   23837603.4154
       189.0004        190.0004
 21  2  4  0  6 30.0000000  0 10G08G07G16G04G22G27G01G21G09G03
 -23392996.96049 -17882884.26248  20154553.446    20154553.7964   20154561.1104
       213.0004        213.0004
  -2813019.89847  -2177802.91745  24254985.064    24254985.5424   24254989.6214
       157.0004        159.0004
  -6323900.57947  -4907159.42945  23777590.008    23777589.1804   23777594.4484
       137.0004        144.0004
 -22534467.18449 -17547527.65948  20243308.748    20243309.1604   20243315.0094
       216.0004        214.0004
  -1620712.13447   -920353.86445  24550597.509    24550596.9544   24550600.0744
       142.0004        147.0004
 -22079438.95749 -17146000.59448  21370716.657    21370716.8814   21370723.3774
       229.0004        228.0004
  -2678253.39946  -2076550.48945  24498841.060    24498840.4424   24498849.1874
       133.0004        140.0004
  -8552529.93847  -6638803.97345  23053271.065    23053271.4314   23053276.3154
       153.0004        156.0004
 -15983093.37249 -12433870.75347  21379162.507    21379162.8404   21379170.1214
       202.0004        202.0004
  -3226967.07648  -2162607.85047  23849437.655    23849438.1414   23849446.7884
       189.0004        189.0004
 21  2  4  0  7  0.0000000  0 10G08G07G16G04G22G27G01G21G09G03
 -23400539.40449 -17888761.47448  20153117.795    20153118.4864   20153125.8354
       213.0004        214.0004
  -2876726.79447  -2227444.61045  24242863.511    24242863.5524   24242866.8024
       156.0004        158.0004
  -6240675.01847  -4842308.34945  23793426.266    23793426.4584   23793430.0374
       139.0004        145.0004
 -22522167.73549 -17537943.67348  20245649.564    20245650.0394   20245655.3804
       215.0004        214.0004
  -1570313.67147   -881082.38945  24560184.699    24560184.4154   24560190.7154
       139.0004        143.0004
 -22016624.42349 -17097054.19048  21382669.619    21382669.7854   21382676.6784
       228.0004        228.0004
  -2739457.93147  -2124242.25045  24487192.764    24487194.1694   24487203.1674
       135.0004        141.0004
  -8604402.20747  -6679223.85445  23043400.602    23043399.1864   23043405.5104
       153.0004        156.0004
 -16040106.65449 -12478296.66547  21368313.056    21368313.8544   21368320.7234
       201.0004        202.0004
  -3164839.02348  -2114196.37347  23861260.489    23861261.1464   23861269.6224
       188.0004        188.0004
 21  2  4  0  7 30.0000000  0 10G08G07G16G04G22G27G01G21G09G03
 -23407471.29749 -17894162.93848  20151798.972    20151799.3144   20151806.5514
       213.0004        213.0004
  -2940593.49447  -2277210.84545  24230709.952    24230710.2414   24230714.2364
       157.0004        159.0004
  -6157558.91147  -4777542.54545  23809243.880    23809242.4834   23809246.4844
       138.0004        143.0004
 -22509294.46249 -17527912.56348  20248099.672    20248099.9924   20248105.2124
       215.0004        214.0004
  -1520137.09747   -841983.78345  24569732.594    24569732.4984   24569738.2914
       135.0004        139.0004
 -21953304.36049 -17047713.88148  21394717.660    21394719.1464   21394726.3664
       228.0004        228.0004
  -2800926.20547  -2172139.52445  24475495.613    24475497.0574   24475506.6914
       136.0004        141.0004
  -8656261.48247  -6719633.62645  23033531.281    23033530.6684   23033535.5094
       151.0004        153.0004
 -16096651.67849 -12522357.71947  21357553.905    21357554.3704   21357560.1774
       202.0004        203.0004
  -3102823.79048  -2065872.86346  23873061.411    23873061.7644   23873070.8484
       187.0004        187.0004
 21  2  4  0  8  0.0000000  0 10G08G07G16G04G22G27G01G21G09G03
 -23413792.54949 -17899088.57148  20150596.229    20150596.5994   20150603.7994
       213.0004        214.0004
  -3004619.20647  -2327100.99245  24218525.157    24218524.9494   24218530.0024
       157.0004        158.0004
  -6074553.34347  -4712862.87045  23825040.424    23825039.4004   23825042.6304
       141.0004        146.0004
 -22495847.32849 -17517434.27048  20250658.080    20250658.6644   20250664.3314
       215.0004        214.0004
  -1470183.62247   -803059.06345  24579240.711    24579239.9534   24579245.3584
       135.0004        141.0004
 -21889480.75249 -16997981.18248  21406864.579    21406864.6554   21406871.4714
       228.0004        228.0004
  -2862656.24247  -2220240.79545  24463749.873    24463749.9814   24463759.9044
       139.0004        145.0004
  -8708105.06447  -6760031.16945  23023665.256    23023665.1604   23023671.1424
       151.0004        154.0004
 -16152726.13749 -12566052.08947  21346883.421    21346883.7024   21346889.8974
       203.0004        204.0004
  -3040923.50248  -2017638.88946  23884840.741    23884841.3824   23884849.1884
       185.0004        185.0004
 21  2  4  0  8 30.0000000  0 10G08G07G16G04G22G27G01G21G09G03
 -23419503.67149 -17903538.77948  20149509.128    20149509.6044   20149517.0584
       213.0004        214.0004
  -3068804.58647  -2377115.56045  24206312.026    24206312.2754   24206316.4894
       156.0004        158.0004
  -5991660.90147  -4648271.38445  23840813.236    23840813.7644   23840817.9604
       143.0004        147.0004
 -22481827.76949 -17506509.93648  20253326.147    20253326.4684   20253332.1314
       215.0004        214.0004
  -1420456.09547   -764310.34845  24588705.123    24588704.0624   24588707.7914
       136.0004        142.0004
 -21825157.17649 -16947858.91048  21419104.822    21419105.0734   21419111.5954
       228.0004        227.0004
  -2924647.59547  -2268545.69845  24451951.833    24451952.7364   24451961.8744
       137.0004        141.0004
  -8759931.81247  -6800415.58345  23013804.241    23013804.1944   23013808.7204
       151.0004        153.0004
 -16208329.20549 -12609379.14647  21336302.321    21336302.9164   21336309.2554
       204.0004        204.0004
  -2979141.65148  -1969497.17246  23896596.866    23896597.6594   23896606.2824
       183.0004        183.0004
 21  2  4  0  9  0.0000000  0 10G08G07G16G04G22G27G01G21G09G03
 -23424603.98949 -17907513.03648  20148538.588    20148539.1204   20148546.4424
       213.0004        214.0004
  -3133148.54947  -2427253.67645  24194067.041    24194068.2484   24194073.4484
       156.0004        158.0004
  -5908881.94547  -4583768.29845  23856562.656    23856563.2554   23856569.3854
       142.0004        145.0004
 -22467235.12949 -17495139.04648  20256102.970    20256103.4114   20256108.9834
       215.0004        214.0004
  -1370954.78547   -725737.91445  24598123.545    24598121.5794   24598127.3624
       137.0004        143.0004
 -21760335.09449 -16897348.18648  21431440.738    21431440.4304   21431446.8404
       228.0004        227.0004
  -2986897.66147  -2317052.20345  24440102.706    24440106.0764   24440116.8104
       135.0004        139.0004
  -8811737.94847  -6840783.92945  23003946.037    23003945.6844   23003951.8744
       151.0004        154.0004
 -16263457.93149 -12652336.58347  21325811.542    21325811.9954   21325818.4574
       204.0004        204.0004
  -2917479.62548  -1921448.83846  23908331.497    23908332.3314   23908340.0854
       182.0004        183.0004
 21  2  4  0  9 30.0000000  0 10G08G07G16G04G22G27G01G21G09G03
 -23429092.79549 -17911010.79048  20147684.784    20147684.9434   20147692.3124
       213.0004        214.0004
  -3197649.75347  -2477514.30445  24181792.796    24181793.0354   24181798.8674
       154.0004        156.0004
  -5826217.45147  -4519354.38245  23872294.788    23872294.4264   23872298.7774
       139.0004        144.0004
 -22452069.30349 -17483321.52248  20258988.554    20258989.4254   20258994.9194
       215.0004        214.0004
  -1321680.49347   -687342.34245  24607500.142    24607499.5484   24607505.2904
       138.0004        143.0004
 -21695016.50049 -16846450.57048  21443869.527    21443869.8004   21443876.5314
       227.0004        226.0004
  -3049404.44647  -2365758.70445  24428211.803    24428213.0344   24428221.5784
       135.0004        141.0004
  -8863520.36547  -6881133.83045  22994090.318    22994089.9934   22994096.8254
       150.0004        153.0004
 -16318109.94549 -12694922.56947  21315411.959    21315412.1954   21315418.2384
       204.0004        204.0004
  -2855939.30948  -1873495.37246  23920040.956    23920041.8404   23920050.9834
       181.0004        182.0004
 21  2  4  0 10  0.0000000  0 10G08G07G16G04G22G27G01G21G09G03
 -23432969.99249 -17914031.96948  20146946.513    20146947.0844   20146954.3744
       213.0004        214.0004
  -3262307.95047  -2527897.24945  24169488.824    24169489.6294   24169494.1444
       154.0004        156.0004
  -5743668.90847  -4455030.86145  23888004.571    23888003.4274   23888009.1214
       139.0004        144.0004
 -22436330.87149 -17471057.80848  20261983.498    20261984.3614   20261990.3054
       215.0004        214.0004
  -1272634.80747   -649124.94345  24616833.917    24616833.4224   24616837.5684
       140.0004        146.0004
 -21629203.98449 -16795168.08148  21456392.667    21456393.3204   21456400.6294
       227.0004        226.0004
  -3112166.44447  -2414664.08545  24416269.567    24416270.2904   24416278.4574
       138.0004        143.0004
  -8915277.05847  -6921463.69245  22984242.924    22984241.9704   22984246.3564
       149.0004        152.0004
 -16372283.50849 -12737135.71847  21305103.308    21305103.3594   21305109.3314
       204.0004        204.0004
  -2794523.23248  -1825638.74446  23931729.457    23931729.7364   23931737.4734
       180.0004        181.0004
 21  2  4  0 10 30.0000000  0 10G08G07G16G04G22G27G01G21G09G03
 -23436236.90149 -17916577.59348  20146324.972    20146325.3254   20146332.6064
       213.0004        214.0004
  -3327123.32847  -2578402.73345  24157156.141    24157156.3114   24157159.3504
       153.0004        155.0004
  -5661238.33047  -4390799.25345  23903690.625    23903689.9694   23903694.6584
       141.0004        146.0004
 -22420020.93649 -17458348.76248  20265087.840    20265088.0504   20265093.7784
       215.0004        214.0004
  -1223819.83547   -611087.35445  24626121.981    24626120.8064   24626127.6784
       138.0004        143.0004
 -21562900.75249 -16743503.21148  21469009.660    21469010.2004   21469017.6344
       226.0004        225.0004
  -3175182.76147  -2463767.66745  24404274.454    24404277.1424   24404286.1124
       137.0004        142.0004
  -8967006.18847  -6961772.05745  22974400.549    22974399.5574   22974403.0754
       149.0004        152.0004
 -16425977.38949 -12778975.10147  21294885.306    21294885.7624   21294891.7454
       204.0004        204.0004
  -2733234.43448  -1777881.25046  23943391.460    23943392.7224   23943400.7824
       180.0004        182.0004
 21  2  4  0 11  0.0000000  0 10G08G07G16G04G22G27G01G21G09G03
 -23438892.67449 -17918647.00348  20145820.153    20145820.3724   20145827.3044
       213.0004        214.0004
  -3392094.90447  -2629029.92345  24144791.236    24144792.0424   24144795.7594
       153.0004        155.0004
  -5578926.87047  -4326660.44845  23919353.954    23919353.5634   23919357.5734
       139.0004        142.0004
 -22403139.59449 -17445194.46248  20268299.288    20268299.9914   20268305.8854
       215.0004        213.0004
  -1175236.70447   -573230.39345  24635366.331    24635367.7354   24635372.6754
       137.0004        142.0004
 -21496108.95549 -16691457.65148  21481720.028    21481720.7754   21481727.2524
       226.0004        225.0004
  -3238451.42547  -2513067.85045  24392233.873    24392236.1444   24392248.4084
       135.0004        141.0004
  -9018704.55147  -7002056.43745  22964562.332    22964561.3534   22964565.2284
       149.0004        152.0004
 -16479189.44749 -12820439.03647  21284759.704    21284760.2104   21284765.9004
       204.0004        204.0004
  -2672074.92348  -1730224.48446  23955030.606    23955031.1934   23955039.7574
       183.0004        185.0004
 21  2  4  0 11 30.0000000  0 10G08G07G16G04G22G27G01G21G09G03
 -23440936.72649 -17920239.74048  20145431.046    20145431.1084   20145438.6434
       214.0004        214.0004
  -3457221.31247  -2679777.74345  24132397.586    24132398.5684   24132403.0124
       152.0004        155.0004
  -5496734.69247  -4262614.59545  23934995.928    23934994.6094   23934999.1654
       139.0004        144.0004
 -22385686.34649 -17431594.52248  20271621.166    20271621.6344   20271627.3374
       214.0004        213.0004
  -1126885.89247   -535554.45145  24644566.516    24644565.9154   24644573.6124
       135.0004        140.0004
 -21428830.14949 -16639032.58148  21494523.001    21494523.3204   21494530.3504
       225.0004        225.0004
  -3301969.64047  -2562562.45845  24380148.354    24380150.5284   24380159.7964
       137.0004        143.0004
  -9070369.17647  -7042314.51045  22954727.954    22954727.9744   22954736.0994
       149.0004        152.0004
 -16531916.82949 -12861525.29347  21274726.153    21274725.8304   21274732.5134
       204.0004        204.0004
  -2611046.05148  -1682669.53046  23966644.479    23966644.3284   23966654.0164
       184.0004        185.0004
 21  2  4  0 12  0.0000000  0 10G08G07G16G04G22G27G01G21G09G03
 -23442369.68849 -17921356.32948  20145158.063    20145158.3214   20145165.6714
       214.0004        214.0004
  -3522502.29747  -2730646.02245  24119975.355    24119975.8824   24119980.3974
       153.0004        156.0004
  -5414663.61047  -4198663.10245  23950610.214    23950611.6844   23950615.4934
       139.0004        143.0004
 -22367662.02649 -17417549.61748  20275050.725    20275051.5924   20275057.2664
       215.0004        213.0004
  -1078769.20747   -498060.94645  24653723.959    24653723.4334   24653728.7284
       137.0004        143.0004
 -21361067.20249 -16586230.28448  21507417.883    21507417.9024   21507425.0754
       225.0004        225.0004
  -3365736.26447  -2612250.70345  24368014.803    24368016.1964   24368026.0314
       138.0004        144.0004
  -9121997.88747  -7082544.62245  22944905.460    22944904.4814   22944909.9904
       150.0004        153.0004
 -16584157.98149 -12902232.69247  21264784.376    21264784.8264   21264790.8884
       203.0004        203.0004
  -2550150.40048  -1635218.39046  23978229.988    23978231.1734   23978241.1204
       182.0004        181.0004
 21  2  4  0 12 30.0000000  0 10G08G07G16G04G22G27G01G21G09G03
 -23443191.23449 -17921996.47848  20145001.712    20145002.0384   20145009.1784
       213.0004        214.0004
  -3587937.34047  -2781634.37145  24107523.824    24107524.7204   24107528.9034
       155.0004        159.0004
  -5332714.99847  -4134807.06245  23966206.675    23966206.1544   23966209.6034
       140.0004        146.0004
 -22349067.16749 -17403060.10948  20278589.581    20278590.0394   20278595.6224
       215.0004        213.0004
  -1030887.83647   -460750.80245  24662835.507    24662835.5824   24662840.4714
       139.0004        144.0004
 -21292822.62449 -16533052.68748  21520403.905    21520404.4304   21520411.3434
       224.0004        224.0004
  -3429749.50347  -2662131.11045  24355833.069    24355832.6664   24355842.3764
       136.0004        140.0004
  -9173587.86247  -7122744.55045  22935087.562    22935085.1234   22935091.9864
       150.0004        152.0004
 -16635911.15949 -12942559.82547  21254934.989    21254935.6674   21254942.8154
       202.0004        202.0004
  -2489390.40248  -1587872.94146  23989794.312    23989794.7404   23989801.2994
       179.0004        178.0004
 21  2  4  0 13  0.0000000  0 10G08G07G16G04G22G27G01G21G09G03
 -23443401.76649 -17922160.51348  20144961.749    20144961.8114   20144969.1434
       213.0004        214.0004
  -3653525.83247  -2832742.24345  24095040.933    24095042.4414   24095048.1934
       156.0004        159.0004
  -5250889.92147  -4071047.26545  23981776.029    23981776.8554   23981779.6374
       141.0004        146.0004
 -22329902.25349 -17388126.41448  20282237.112    20282237.2894   20282242.5894
       215.0004        214.0004
   -983243.05147   -423625.04045  24671903.602    24671902.1144   24671907.1384
       141.0004        145.0004
 -21224098.95749 -16479501.77348  21533481.128    21533482.0364   21533489.0694
       224.0004        223.0004
  -3494007.62646  -2712202.29445  24343604.162    24343606.6054   24343615.4724
       133.0004        138.0004
  -9225136.39947  -7162912.17345  22925278.288    22925277.4484   22925282.6574
       149.0004        151.0004
 -16687174.45149 -12982505.23347  21245179.798    21245179.7614   21245187.6444
       202.0004        202.0004
  -2428768.15548  -1540634.83046  24001329.229    24001330.6624   24001338.0054
       177.0004        178.0004
 21  2  4  0 13 30.0000000  0 10G08G07G16G04G22G27G01G21G09G03
 -23443001.36849 -17921848.49448  20145037.797    20145038.2354   20145045.2594
       213.0004        214.0004
  -3719266.73147  -2883968.89545  24082532.161    24082532.5384   24082537.2044
       156.0004        158.0004
  -5169189.34347  -4007384.45845  23997324.839    23997323.8254   23997329.4394
       141.0004        146.0004
 -22310167.57849 -17372748.74448  20285991.920    20285992.7684   20285998.1744
       215.0004        213.0004
   -935835.63947   -386684.20245  24680925.265    24680924.3944   24680928.8064
       140.0004        145.0004
 -21154898.49749 -16425579.32148  21546650.010    21546650.4324   21546657.6194
       223.0004        223.0004
  -3558508.66446  -2762462.69645  24331332.196    24331331.8584   24331341.3854
       130.0004        137.0004
  -9276640.87047  -7203045.46445  22915477.638    22915477.1364   22915481.4374
       150.0004        154.0004
 -16737945.77249 -13022067.29047  21235518.047    21235518.5364   21235526.4054
       202.0004        203.0004
  -2368285.72448  -1493505.66846  24012839.797    24012839.6064   24012849.1884
       177.0004        178.0004
 21  2  4  0 14  0.0000000  0 10G08G07G16G04G22G27G01G21G09G03
 -23441990.67249 -17921060.91648  20145230.260    20145230.5944   20145237.6344
       213.0004        214.0004
  -3785160.53547  -2935314.72145  24069994.550    24069994.7764   24069997.6324
       156.0004        158.0004
  -5087615.44547  -3943820.38345  24012846.929    24012846.4554   24012850.3344
       141.0004        143.0004
 -22289864.55049 -17356928.19548  20289855.374    20289855.6884   20289861.5574
       214.0004        213.0004
   -888668.25947   -349930.41445  24689900.657    24689900.0474   24689902.7794
       142.0004        146.0004
 -21085224.61649 -16371287.97248  21559908.502    21559908.9164   21559916.0224
       224.0004        224.0004
  -3623251.57046  -2812911.64045  24319011.661    24319012.2904   24319022.4904
       131.0004        137.0004
  -9328099.75347  -7243143.26045  22905682.932    22905683.8974   22905690.1074
       153.0004        157.0004
 -16788224.18649 -13061245.26647  21225950.384    21225951.2344   21225958.3904
       202.0004        203.0004
  -2307946.19448  -1446487.87746  24024322.375    24024322.8864   24024330.5914
       179.0004        180.0004
 21  2  4  0 14 30.0000000  0 10G08G07G16G04G22G27G01G21G09G03
 -23440369.65749 -17919797.77248  20145538.830    20145539.2294   20145545.8434
       213.0004        214.0004
  -3851206.24547  -2986778.86645  24057424.523    24057424.7174   24057429.6484
       154.0004        156.0004
  -5006169.47247  -3880356.02645  24028345.945    24028345.4494   24028349.9534
       140.0004        144.0004
 -22268993.56449 -17340665.09148  20293827.211    20293827.6264   20293833.0314
       214.0004        213.0004
   -841741.79547   -313364.33945  24698829.281    24698829.2834   24698835.3134
       143.0004        148.0004
 -21015079.73249 -16316629.61448  21573256.606    21573256.7674   21573264.1244
       223.0004        223.0004
  -3688234.54846  -2863547.65945  24306643.816    24306644.7734   24306655.1254
       128.0004        134.0004
  -9379509.93247  -7283203.08445  22895900.204    22895899.9964   22895906.7634
       153.0004        156.0004
 -16838007.72049 -13100037.62347  21216479.081    21216478.8134   21216485.0144
       203.0004        205.0004
  -2247751.49348  -1399582.93346  24035776.652    24035776.8264   24035784.9794
       179.0004        180.0004
 21  2  4  0 15  0.0000000  0 10G08G07G16G04G22G27G01G21G09G03
 -23438137.98349 -17918058.78848  20145963.318    20145963.6814   20145970.5684
       213.0004        213.0004
  -3917401.86847  -3038359.86045  24044828.212    24044829.3054   24044832.2324
       155.0004        158.0004
  -4924851.41947  -3816991.31745  24043821.517    24043819.9564   24043822.8834
       139.0004        144.0004
 -22247554.20249 -17323959.09747  20297906.641    20297907.3274   20297912.9314
       214.0004        212.0004
   -795056.00847   -276985.82245  24707712.576    24707712.9424   24707718.7964
       142.0004        146.0004
 -20944465.41149 -16261605.45748  21586693.528    21586694.3734   21586701.8214
       223.0004        223.0004
  -3753454.66347  -2914368.41245  24294235.980    24294236.6804   24294246.1154
       135.0004        143.0004
  -9430867.87447  -7323222.22045  22886129.481    22886128.9214   22886133.3944
       153.0004        156.0004
 -16887293.57649 -13138442.18147  21207099.810    21207100.4544   21207106.3394
       205.0004        206.0004
  -2187702.95048  -1352791.88046  24047203.819    24047203.6884   24047211.3874
       178.0004        179.0004
 21  2  4  0 15 30.0000000  0 10G08G07G16G04G22G27G01G21G09G03
 -23435296.99949 -17915845.01748  20146503.715    20146504.0594   20146511.6214
       213.0004        214.0004
  -3983748.14847  -3090058.24545  24032204.012    24032204.1814   24032208.5284
       155.0004        158.0004
  -4843663.19747  -3753727.79245  24059269.291    24059270.3634   24059274.1374
       139.0004        144.0004
 -22225548.32049 -17306811.66047  20302094.858    20302095.1444   20302100.6274
       214.0004        212.0004
   -748613.66247   -240796.99445  24716549.669    24716549.5014   24716556.0634
       139.0004        143.0004
 -20873385.36149 -16206218.40348  21600221.046    21600220.6534   21600227.9154
       223.0004        223.0004
  -3818911.30547  -2965373.47545  24281778.776    24281780.6524   24281789.6584
       139.0004        144.0004
  -9482171.82447  -7363199.28545  22876365.815    22876364.6094   22876369.8114
       152.0004        154.0004
 -16936081.16249 -13176458.49147  21197817.087    21197817.1454   21197822.8854
       207.0004        209.0004
  -2127803.88848  -1306117.29446  24058601.324    24058602.3304   24058610.9724
       178.0004        178.0004
 21  2  4  0 16  0.0000000  0 10G08G07G16G04G22G27G01G21G09G03
 -23431846.12849 -17913156.02148  20147160.330    20147160.8144   20147168.3294
       213.0004        214.0004
  -4050243.58947  -3141872.87645  24019550.814    24019550.2124   24019554.1534
       155.0004        157.0004
  -4762605.60847  -3690566.06745  24074692.338    24074693.8874   24074697.4814
       138.0004        143.0004
 -22202975.84649 -17289222.72348  20306389.662    20306390.3934   20306396.0704
       214.0004        213.0004
   -702415.22247   -204798.27045  24725343.802    24725341.1204   24725347.3514
       140.0004        145.0004
 -20801841.52449 -16150469.95848  21613834.146    21613834.9214   21613841.7834
       222.0004        222.0004
  -3884601.99247  -3016560.89545  24269278.050    24269278.0474   24269288.5034
       137.0004        142.0004
  -9533418.81447  -7403131.96545  22866613.176    22866614.1584   22866618.1624
       153.0004        156.0004
 -16984368.02249 -13214084.63347  21188627.908    21188628.0094   21188634.5454
       208.0004        209.0004
  -2068055.71348  -1259560.28746  24069969.675    24069971.1344   24069980.9554
       178.0004        179.0004
 21  2  4  0 16 30.0000000  0 10G08G07G16G04G22G27G01G21G09G03
 -23427785.04349 -17909991.51648  20147932.966    20147933.3164   20147940.7234
       213.0004        213.0004
  -4116886.83447  -3193802.64245  24006867.370    24006868.0214   24006872.7744
       154.0004        157.0004
  -4681679.32847  -3627506.60145  24090090.215    24090090.2874   24090098.4114
       137.0004        142.0004
 -22179836.88049 -17271192.35847  20310792.960    20310793.3454   20310799.1074
       214.0004        212.0004
   -656461.51147   -168990.23345  24734088.109    24734087.0504   24734091.3344
       139.0004        143.0004
 -20729835.89449 -16094361.66948  21627536.741    21627537.2084   21627544.0934
       222.0004        222.0004
  -3950524.21247  -3067928.73045  24256733.860    24256735.3014   24256743.0144
       137.0004        142.0004
  -9584605.89147  -7443017.95845  22856871.045    22856871.5724   22856877.2814
       154.0004        156.0004
 -17032151.88349 -13251318.80947  21179534.873    21179534.9474   21179540.9494
       207.0004        207.0004
  -2008460.07248  -1213122.15446  24081312.857    24081313.2374   24081321.8954
       182.0004        185.0004
 21  2  4  0 17  0.0000000  0 10G08G07G16G04G22G27G01G21G09G03
 -23423114.64749 -17906352.22948  20148821.821    20148822.1264   20148829.7314
       213.0004        214.0004
  -4183678.23047  -3245847.85845  23994157.623    23994158.1374   23994162.0684
       155.0004        158.0004
  -4600885.84847  -3564550.67245  24105469.507    24105468.1054   24105472.9274
       136.0004        141.0004
 -22156132.53849 -17252721.43847  20315303.557    20315304.2774   20315309.8764
       213.0004        212.0004
   -610754.27147   -133374.23045  24742786.272    24742785.0574   24742789.2124
       138.0004        143.0004
 -20657371.53649 -16037895.93848  21641326.395    21641327.0184   21641333.6994
       222.0004        222.0004
  -4016676.53447  -3119475.85345  24244144.012    24244143.6954   24244154.1924
       137.0004        142.0004
  -9635730.64247  -7482855.36845  22847144.439    22847143.7684   22847149.8474
       154.0004        157.0004
 -17079431.38349 -13288159.98047  21170536.601    21170536.6274   21170543.5994
       206.0004        205.0004
  -1949019.47048  -1166804.79546  24092622.916    24092623.1834   24092632.5594
       183.0004        184.0004
 21  2  4  0 17 30.0000000  0 10G08G07G16G04G22G27G01G21G09G03
 -23417835.47849 -17902238.56448  20149826.775    20149827.1604   20149834.0384
       213.0004        214.0004
  -4250616.74347  -3298007.69345  23981418.851    23981418.9834   23981424.0894
       155.0004        157.0004
  -4520226.56447  -3501699.27845  24120818.313    24120817.2264   24120822.4324
       136.0004        141.0004
 -22131863.75249 -17233810.68547  20319922.275    20319922.7284   20319928.2824
       214.0004        212.0004
   -565294.37447    -97950.92945  24751435.713    24751434.7844   24751440.9304
       138.0004        143.0004
 -20584451.31549 -15981074.95748  21655202.561    21655202.6194   21655209.9574
       222.0004        221.0004
  -4083057.30747  -3171201.01745  24231513.679    24231511.7494   24231524.2404
       136.0004        141.0004
  -9686790.07147  -7522641.88345  22837428.836    22837427.9744   22837432.3924
       154.0004        157.0004
 -17126205.09649 -13324607.01047  21161634.454    21161635.2624   21161642.8394
       204.0004        203.0004
  -1889736.25048  -1120610.10346  24103903.740    24103904.7954   24103914.1044
       182.0004        182.0004
 21  2  4  0 18  0.0000000  0 10G08G07G16G04G22G27G01G21G09G03
 -23411948.14549 -17897651.01548  20150946.927    20150947.3064   20150954.5624
       213.0004        214.0004
  -4317701.47247  -3350281.45645  23968653.308    23968653.5484   23968658.3544
       155.0004        157.0004
  -4439702.52847  -3438953.24845  24136142.068    24136143.0964   24136144.9874
       138.0004        144.0004
 -22107031.23249 -17214460.67247  20324647.102    20324647.7004   20324653.8984
       213.0004        212.0004
   -520083.13047    -62721.37945  24760040.761    24760038.9264   24760045.1334
       141.0004        146.0004
 -20511077.80249 -15923900.78348  21669164.570    21669164.7724   21669172.7034
       221.0004        220.0004
  -4149664.62247  -3223102.68445  24218837.205    24218838.2424   24218846.7574
       136.0004        141.0004
  -9737782.32547  -7562376.06445  22827722.784    22827723.3934   22827728.2444
       153.0004        155.0004
 -17172471.26949 -13360658.55747  21152830.041    21152830.4744   21152838.6274
       203.0004        203.0004
  -1830612.54448  -1074539.69646  24115156.242    24115156.6614   24115163.9834
       181.0004        181.0004
 21  2  4  0 18 30.0000000  0 10G08G07G16G04G22G27G01G21G09G03
 -23405452.04749 -17892589.11348  20152183.230    20152183.5374   20152190.7364
       213.0004        214.0004
  -4384931.27147  -3402668.30645  23955861.240    23955860.9574   23955864.6754
       156.0004        160.0004
  -4359314.18747  -3376312.97745  24151438.198    24151435.6294   24151441.5654
       138.0004        143.0004
 -22081635.22449 -17194671.57747  20329479.851    20329480.3754   20329486.2514
       213.0004        211.0004
   -475121.07547    -27686.02445  24768594.977    24768594.4814   24768600.4324
       141.0004        145.0004
 -20437253.05549 -15866375.00848  21683212.525    21683212.9844   21683220.8234
       220.0004        220.0004
  -4216495.99547  -3275178.94745  24206120.870    24206121.1894   24206131.2594
       136.0004        141.0004
  -9788704.10747  -7602055.33845  22818035.859    22818034.6154   22818038.7444
       153.0004        156.0004
 -17218227.70049 -13396312.92347  21144122.874    21144123.3164   21144131.8274
       203.0004        203.0004
  -1771649.83648  -1028594.74746  24126375.065    24126376.2424   24126383.1334
       179.0004        179.0004
 21  2  4  0 19  0.0000000  0 10G08G07G16G04G22G27G01G21G09G03
 -23398348.78649 -17887054.09748  20153534.784    20153535.0824   20153542.4054
       214.0004        214.0004
  -4452305.97847  -3455168.03245  23943040.663    23943039.8414   23943043.7274
       158.0004        160.0004
  -4279063.17447  -3313779.74045  24166709.754    24166709.2694   24166714.2154
       137.0004        143.0004
 -22055677.22749 -17174444.57947  20334419.568    20334420.2834   20334426.1034
       213.0004        212.0004
   -430410.05647      7153.69445  24777103.190    24777103.1314   24777106.6474
       141.0004        145.0004
 -20362980.49549 -15808500.29248  21697347.534    21697347.5764   21697354.6684
       221.0004        221.0004
  -4283550.16447  -3327428.80345  24193359.988    24193361.1764   24193371.5634
       138.0004        143.0004
  -9839553.04747  -7641677.86145  22808358.987    22808358.7684   22808363.3794
       154.0004        158.0004
 -17263473.45549 -13431569.35147  21135513.301    21135514.1394   21135521.6724
       203.0004        205.0004
  -1712851.01848   -982777.48146  24137564.303    24137565.2854   24137573.2194
       178.0004        178.0004
 21  2  4  0 19 30.0000000  0  9G08G07G16G04G27G01G21G09G03
 -23390636.95349 -17881044.85948  20155002.429    20155002.7874   20155009.5814
       214.0004        214.0004
  -4519822.91647  -3507778.59346  23930191.962    23930191.8424   23930197.0304
       160.0004        163.0004
  -4198948.74246  -3251352.90745  24181953.287    24181953.6534   24181958.5354
       134.0004        139.0004
 -22029156.26949 -17153778.88847  20339466.686    20339466.9384   20339472.6774
       212.0004        211.0004
 -20288261.01949 -15750277.30748  21711566.456    21711566.4734   21711572.8324
       221.0004        221.0004
  -4350823.46947  -3379849.42945  24180558.443    24180557.8484   24180568.5864
       137.0004        142.0004
  -9890324.32247  -7681239.85745  22798697.101    22798695.6754   22798702.1894
       155.0004        158.0004
 -17308205.10449 -13466425.16447  21127002.886    21127002.9514   21127009.3804
       205.0004        206.0004
  -1654216.26348   -937088.05946  24148721.990    24148723.2484   24148731.5164
       178.0004        178.0004
 21  2  4  0 20  0.0000000  0  9G08G07G16G04G27G01G21G09G03
 -23382318.90049 -17874563.24848  20156585.026    20156585.5404   20156592.7334
       214.0004        214.0004
  -4587483.31847  -3560500.93945  23917315.848    23917316.4334   23917321.0804
       160.0004        162.0004
  -4118974.03946  -3189034.94345  24197172.197    24197172.6654   24197177.4884
       133.0004        140.0004
 -22002075.10449 -17132676.68347  20344620.089    20344620.6474   20344626.1844
       212.0004        211.0004
 -20213099.20949 -15691709.65148  21725868.744    21725869.1694   21725875.7674
       221.0004        220.0004
  -4418315.83547  -3432440.70045  24167713.362    24167714.6954   24167723.8984
       137.0004        143.0004
  -9941017.66747  -7720741.12345  22789049.377    22789050.3414   22789053.3024
       155.0004        157.0004
 -17352422.93949 -13500880.62847  21118589.050    21118588.9604   21118594.9224
       206.0004        207.0004
  -1595749.61948   -891529.64846  24159848.148    24159848.4194   24159857.6694
       177.0004        177.0004
 21  2  4  0 20 30.0000000  0  9G08G07G16G04G27G01G21G09G03
 -23373394.80349 -17867609.39848  20158283.659    20158283.9094   20158290.8494
       214.0004        214.0004
  -4655286.20347  -3613334.35545  23904413.620    23904414.1964   23904418.2334
       159.0004        160.0004
  -4039139.97947  -3126826.61345  24212366.186    24212366.4604   24212370.0414
       136.0004        143.0004
 -21974434.52149 -17111138.57147  20349879.977    20349880.3924   20349886.0244
       212.0004        211.0004
 -20137497.66949 -15632799.36448  21740255.048    21740255.2934   21740261.9924
       220.0004        219.0004
  -4486025.26347  -3485201.11745  24154830.342    24154830.9734   24154839.5014
       139.0004        145.0004
  -9991630.26147  -7760179.50745  22779418.429    22779418.4634   22779422.5674
       156.0004        157.0004
 -17396125.34649 -13534934.45547  21110272.585    21110272.7324   21110278.7394
       207.0004        207.0004
  -1537453.10148   -846103.78946  24170940.895    24170941.8654   24170950.0244
       176.0004        177.0004
 21  2  4  0 21  0.0000000  0  9G08G07G16G04G27G01G21G09G03
 -23363865.50049 -17860183.94748  20160096.739    20160097.0474   20160104.3974
       213.0004        214.0004
  -4723230.26247  -3666277.75546  23891484.500    23891484.6634   23891488.4394
       160.0004        163.0004
  -3959447.38247  -3064728.50945  24227529.918    24227530.8504   24227534.8874
       139.0004        145.0004
 -21946235.14549 -17089165.02447  20355245.969    20355246.5224   20355252.0194
       212.0004        211.0004
 -20061458.83249 -15573548.31148  21754724.462    21754725.3204   21754731.7574
       220.0004        220.0004
  -4553949.38547  -3538128.83045  24141905.566    24141906.3754   24141915.3624
       144.0004        150.0004
 -10042159.78047  -7799553.09545  22769803.056    22769802.7664   22769808.5674
       157.0004        160.0004
 -17439310.42349 -13568585.15247  21102053.863    21102054.5864   21102060.6164
       207.0004        208.0004
  -1479328.42148   -800811.84246  24182001.967    24182002.5184   24182011.5204
       177.0004        179.0004
 21  2  4  0 21 30.0000000  0  9G08G07G16G04G27G01G21G09G03
 -23353731.61649 -17852287.40748  20162024.826    20162025.3354   20162032.4734
       213.0004        214.0004
  -4791315.30547  -3719331.01346  23878528.107    23878528.6824   23878532.8614
       162.0004        163.0004
  -3879897.32847  -3002741.44145  24242669.392    24242668.0514   24242672.5464
       139.0004        144.0004
 -21917478.21349 -17066757.03647  20360718.589    20360718.9114   20360724.5564
       212.0004        211.0004
 -19984985.71649 -15513958.86748  21769276.803    21769277.1704   21769284.2104
       220.0004        219.0004
  -4622086.63047  -3591222.61345  24128935.096    24128936.6184   24128948.6574
       144.0004        148.0004
 -10092602.93147  -7838859.41445  22760204.369    22760204.5094   22760208.4734
       157.0004        159.0004
 -17481976.93849 -13601831.78947  21093934.918    21093935.1924   21093941.8004
       208.0004        208.0004
  -1421377.89048   -755655.58146  24193029.678    24193030.6914   24193039.5044
       179.0004        180.0004
 21  2  4  0 22  0.0000000  0  9G08G07G16G04G27G01G21G09G03
 -23342992.95849 -17843919.61148  20164068.157    20164068.8724   20164075.7224
       213.0004        213.0004
  -4859539.78547  -3772492.90846  23865545.846    23865546.6194   23865549.9344
       162.0004        164.0004
  -3800490.23547  -2940865.79945  24257779.075    24257778.4014   24257782.6094
       139.0004        144.0004
 -21888164.05749 -17043914.84147  20366296.661    20366297.1444   20366302.6254
       212.0004        210.0004
 -19908080.45749 -15454032.68848  21783911.214    21783911.8714   21783919.3574
       219.0004        219.0004
  -4690434.24047  -3644480.35645  24115931.733    24115932.4504   24115941.1954
       145.0004        149.0004
 -10142956.99147  -7878096.33645  22750623.185    22750621.7674   22750628.1714
       158.0004        160.0004
 -17524122.72849 -13634672.65747  21085914.696    21085915.1044   21085922.0094
       208.0004        209.0004
  -1363602.97348   -710636.17146  24204023.647    24204024.8114   24204033.7314
       180.0004        182.0004
 21  2  4  0 22 30.0000000  0  9G08G07G16G04G27G01G21G09G03
 -23331650.94949 -17835081.66848  20166226.730    20166226.9814   20166234.3994
       213.0004        214.0004
  -4927903.35947  -3825763.21446  23852537.039    23852536.9174   23852541.2434
       162.0004        164.0004
  -3721227.66547  -2879102.76745  24272860.827    24272861.2314   24272864.9614
       136.0004        141.0004
 -21858294.11949 -17020639.56747  20371980.361    20371980.9184   20371986.8774
       212.0004        210.0004
 -19830746.27149 -15393772.28448  21798628.209    21798628.4624   21798634.6984
       219.0004        219.0004
  -4758990.77347  -3697900.89545  24102886.150    24102886.5494   24102895.9644
       145.0004        149.0004
 -10193219.27547  -7917261.71345  22741057.432    22741057.4624   22741061.6974
       157.0004        158.0004
 -17565746.80449 -13667106.99747  21077993.528    21077994.0144   21078000.7424
       208.0004        208.0004
  -1306006.06948   -665755.48246  24214985.563    24214986.4104   24214993.4304
       182.0004        184.0004
 21  2  4  0 23  0.0000000  0  9G08G07G16G04G27G01G21G09G03
 -23319706.24149 -17825774.07948  20168500.113    20168500.1614   20168507.3474
       213.0004        214.0004
  -4996404.89547  -3879141.03546  23839500.314    23839500.9864   23839506.4684
       162.0004        165.0004
  -3642110.52247  -2817453.06045  24287918.560    24287918.2874   24287919.5244
       136.0004        142.0004
 -21827869.56149 -16996932.11047  20377769.923    20377770.7004   20377776.6084
       211.0004        210.0004
 -19752986.09049 -15333179.91048  21813425.339    21813425.6254   21813431.7214
       218.0004        217.0004
  -4827754.41547  -3751482.78045  24089800.421    24089800.9854   24089809.9234
       147.0004        151.0004
 -10243387.45347  -7956353.75045  22731510.194    22731510.5934   22731513.9914
       157.0004        159.0004
 -17606847.85249 -13699133.77147  21070173.455    21070173.4104   21070179.3994
       208.0004        209.0004
  -1248589.39548   -621015.21346  24225911.792    24225912.0894   24225920.0654
       183.0004        183.0004
 21  2  4  0 23 30.0000000  0  9G08G07G16G04G27G01G21G09G03
 -23307159.02849 -17815997.01848  20170887.564    20170887.8944   20170895.1354
       213.0004        214.0004
  -5065043.17147  -3932625.35246  23826438.758    23826439.9854   23826444.2274
       163.0004        165.0004
  -3563139.14846  -2755916.91945  24302946.684    24302945.6364   24302950.8494
       134.0004        139.0004
 -21796890.58049 -16972792.65047  20383665.202    20383666.0644   20383671.3854
       211.0004        210.0004
 -19674801.84949 -15272257.11848  21828303.592    21828303.7024   21828310.3294
       218.0004        218.0004
  -4896722.18947  -3805223.73945  24076678.127    24076678.0184   24076685.9424
       149.0004        152.0004
 -10293458.08447  -7995369.82145  22721982.580    22721981.9754   22721987.3164
       157.0004        159.0004
 -17647423.56449 -13730751.20847  21062451.720    21062452.0944   21062458.0114
       209.0004        209.0004
  -1191354.12648   -576416.30546  24236800.992    24236802.1844   24236811.0294
       180.0004        180.0004
 21  2  4  0 24  0.0000000  0  9G08G07G16G04G27G01G21G09G03
 -23294010.09949 -17805751.08648  20173389.539    20173389.8704   20173397.0854
       213.0004        213.0004
  -5133817.63347  -3986215.81546  23813352.477    23813352.9934   23813357.5604
       164.0004        165.0004
  -3484314.99447  -2694495.51845  24317944.993    24317945.4714   24317948.1434
       135.0004        139.0004
 -21765358.84349 -16948222.46847  20389666.349    20389666.2694   20389671.8804
       211.0004        210.0004
 -19596196.90349 -15211006.50148  21843261.477    21843261.8434   21843268.4714
       219.0004        219.0004
  -4965892.69247  -3859122.71045  24063514.645    24063514.6454   24063522.5094
       148.0004        151.0004
 -10343428.52747  -8034307.80045  22712473.278    22712473.2074   22712479.4844
       158.0004        160.0004
 -17687473.09649 -13761958.62447  21054831.013    21054831.0744   21054836.9474
       209.0004        210.0004
  -1134302.79348   -531960.73246  24247656.893    24247658.1694   24247667.3844
       176.0004        174.0004
 21  2  4  0 24 30.0000000  0  9G08G07G16G04G27G01G21G09G03
 -23280259.90749 -17795036.63548  20176005.949    20176006.2534   20176013.5174
       212.0004        213.0004
  -5202726.65047  -4039911.16246  23800241.090    23800240.8784   23800244.2784
       164.0004        166.0004
  -3405638.15547  -2633188.89645  24332917.973    24332918.6234   24332920.8074
       136.0004        141.0004
 -21733274.73949 -16923221.86747  20395771.390    20395771.7474   20395777.2704
       211.0004        210.0004
 -19517173.36149 -15149429.70048  21858299.571    21858299.4324   21858305.8434
       219.0004        218.0004
  -5035263.15147  -3913177.48545  24050313.376    24050313.6244   24050321.6174
       146.0004        149.0004
 -10393296.29447  -8073165.77445  22702982.851    22702982.9454   22702989.3114
       157.0004        160.0004
 -17726994.33849 -13792754.39547  21047310.307    21047310.6954   21047316.4884
       210.0004        211.0004
  -1077436.71948   -487649.53146  24258478.790    24258479.7694   24258488.3764
       173.0004        173.0004
 21  2  4  0 25  0.0000000  0  9G08G07G16G04G27G01G21G09G03
 -23265910.23849 -17783855.06748  20178736.763    20178737.2594   20178744.3034
       213.0004        213.0004
  -5271770.08547  -4093711.22346  23787098.838    23787100.4654   23787104.9624
       163.0004        163.0004
  -3327110.48446  -2571998.51345  24347859.701    24347861.1044   24347863.0554
       134.0004        139.0004
 -21700640.11149 -16897792.29247  20401981.254    20401981.8654   20401987.1494
       211.0004        210.0004
 -19437734.76849 -15087529.50748  21873415.129    21873415.9704   21873422.3074
       218.0004        217.0004
  -5104832.17147  -3967387.01345  24037074.143    24037074.5374   24037083.3134
       144.0004        147.0004
 -10443059.30947  -8111942.14245  22693514.971    22693514.0094   22693517.8874
       157.0004        160.0004
 -17765986.66949 -13823138.02747  21039889.791    21039890.1364   21039896.5164
       210.0004        210.0004
  -1020758.60548   -443484.75746  24269267.094    24269267.1784   24269274.5424
       176.0004        178.0004
 21  2  4  0 25 30.0000000  0  9G08G07G16G04G27G01G21G09G03
 -23250961.39849 -17772206.60848  20181581.321    20181581.8724   20181588.6904
       213.0004        213.0004
  -5340946.96347  -4147615.26746  23773936.167    23773937.0384   23773940.8154
       161.0004        163.0004
  -3248732.68746  -2510924.86845  24362775.260    24362774.3034   24362778.8834
       131.0004        138.0004
 -21667455.96549 -16871934.51347  20408296.288    20408296.6344   20408301.8444
       211.0004        210.0004
 -19357883.83549 -15025307.98548  21888610.842    21888611.2594   21888617.5804
       218.0004        218.0004
  -5174597.66747  -4021749.61745  24023799.254    24023799.4424   24023807.0934
       144.0004        148.0004
 -10492714.30347  -8150634.31245  22684064.987    22684064.7684   22684069.2154
       157.0004        158.0004
 -17804448.59449 -13853108.35047  21032570.278    21032570.7074   21032576.9704
       209.0004        209.0004
   -964270.27948   -399467.86746  24280014.690    24280015.8394   24280024.1324
       178.0004        180.0004
 21  2  4  0 26  0.0000000  0  9G08G07G16G04G27G01G21G09G03
 -23235413.70349 -17760091.50848  20184539.752    20184540.3214   20184547.7624
       213.0004        213.0004
  -5410255.38947  -4201621.84146  23760748.768    23760749.0854   23760752.6594
       163.0004        166.0004
  -3170505.00646  -2449968.25345  24377660.473    24377660.7504   24377667.0324
       131.0004        138.0004
 -21633722.87249 -16845648.99047  20414715.179    20414715.6274   20414720.9484
       211.0004        210.0004
 -19277622.76749 -14962766.89748  21903884.531    21903884.6344   21903890.4124
       218.0004        218.0004
  -5244556.82047  -4076263.12245  24010486.937    24010487.2854   24010494.3484
       146.0004        149.0004
 -10542257.95747  -8189239.72745  22674636.617    22674636.3544   22674642.3014
       157.0004        158.0004
 -17842378.12849 -13882663.83247  21025352.822    21025353.2054   21025359.4134
       209.0004        209.0004
   -907973.02548   -355599.91546  24290726.898    24290728.2174   24290736.4094
       177.0004        177.0004
 21  2  4  0 26 30.0000000  0  9G08G07G16G04G27G01G21G09G03
 -23219267.78149 -17747510.25448  20187612.652    20187613.0604   20187620.0834
       213.0004        213.0004
  -5479694.12247  -4255729.94046  23747534.345    23747534.6154   23747539.0804
       164.0004        165.0004
  -3092427.80846  -2389128.91445  24392519.179    24392517.9684   24392519.8334
       126.0004        134.0004
 -21599441.43349 -16818936.18347  20421239.023    20421239.0794   20421245.3114
       210.0004        209.0004
 -19196953.82749 -14899907.96848  21919235.015    21919235.5504   21919241.2174
       218.0004        217.0004
  -5314707.04347  -4130925.52945  23997136.762    23997137.5694   23997145.4224
       146.0004        150.0004
 -10591686.87947  -8227755.73545  22665231.201    22665230.3884   22665236.1944
       156.0004        158.0004
 -17879773.40049 -13911803.00047  21018236.890    21018237.2444   21018243.5784
       209.0004        210.0004
   -851868.20048   -311881.89046  24301403.790    24301404.5154   24301413.9524
       176.0004        177.0004
 21  2  4  0 27  0.0000000  0  9G08G07G16G04G27G01G21G09G03
 -23202525.19449 -17734464.06748  20190798.542    20190798.8544   20190806.0744
       213.0004        213.0004
  -5549262.87447  -4309939.35746  23734294.523    23734295.2194   23734299.6624
       164.0004        164.0004
  -3014502.97946  -2328408.22945  24407346.999    24407344.8364   24407348.1234
       126.0004        135.0004
 -21564613.97749 -16791797.90847  20427866.493    20427866.7344   20427872.2864
       210.0004        209.0004
 -19115880.99349 -14836734.31748  21934662.904    21934662.7564   21934669.1614
       217.0004        217.0004
  -5385047.21147  -4185735.93545  23983751.171    23983751.1384   23983760.5994
       146.0004        149.0004
 -10641000.03547  -8266181.53045  22655845.675    22655846.2554   22655852.4654
       155.0004        157.0004
 -17916634.23549 -13940525.72747  21011222.179    21011222.6784   21011229.2984
       210.0004        210.0004
   -795958.91348   -268316.20646  24312044.268    24312044.5024   24312052.9944
       177.0004        178.0004
 21  2  4  0 27 30.0000000  0  9G08G07G16G04G27G01G21G09G03
 -23185186.95749 -17720953.74248  20194097.780    20194098.1564   20194105.7054
       213.0004        213.0004
  -5618961.03847  -4364249.57345  23721030.239    23721031.7014   23721037.0084
       161.0004        161.0004
  -2936731.15146  -2267806.83745  24422145.932    24422146.4134   24422151.8834
       128.0004        137.0004
 -21529241.58949 -16764235.01247  20434597.635    20434598.0684   20434603.1864
       210.0004        208.0004
 -19034406.94149 -14773248.04948  21950166.202    21950167.0244   21950173.2024
       217.0004        217.0004
  -5455575.06847  -4240692.63345  23970330.669    23970329.7564   23970338.3664
       144.0004        146.0004
 -10690193.91447  -8304514.39045  22646485.644    22646484.8504   22646490.4264
       155.0004        159.0004
 -17952959.20449 -13968830.89647  21004310.297    21004310.7294   21004317.2494
       210.0004        212.0004
   -740246.79548   -224904.13546  24322644.277    24322645.1554   24322654.3044
       174.0004        174.0004
 21  2  4  0 28  0.0000000  0  9G08G07G16G04G27G01G21G09G03
 -23167253.35149 -17706979.49948  20197510.260    20197510.8554   20197518.2164
       213.0004        213.0004
  -5688786.53947  -4418659.03546  23707745.304    23707745.4884   23707750.3084
       162.0004        165.0004
  -2859112.54046  -2207324.83945  24436916.656    24436916.6964   24436922.1634
       131.0004        138.0004
 -21493324.73049 -16736247.85247  20441431.857    20441432.4354   20441438.2334
       210.0004        208.0004
 -18952533.75549 -14709450.75148  21965746.809    21965746.7354   21965752.9954
       216.0004        216.0004
  -5526287.74547  -4295793.36845  23956873.925    23956874.1384   23956882.3814
       144.0004        148.0004
 -10739265.25647  -8342751.77345  22637147.844    22637147.8264   22637152.6874
       156.0004        160.0004
 -17988746.23549 -13996716.89247  20997500.449    20997500.5314   20997507.2184
       211.0004        212.0004
   -684733.04048   -181646.68346  24333209.318    24333209.8604   24333217.3314
       173.0004        174.0004
 21  2  4  0 28 30.0000000  0  9G08G07G16G04G27G01G21G09G03
 -23148726.73749 -17692543.16648  20201036.465    20201036.5164   20201043.5964
       213.0004        213.0004
  -5758740.18848  -4473168.37346  23694433.318    23694433.9324   23694438.9744
       166.0004        169.0004
  -2781649.69046  -2146964.17645  24451657.392    24451657.1274   24451663.7744
       127.0004        134.0004
 -21456866.33449 -16707838.71347  20448369.920    20448370.6294   20448376.0904
       210.0004        209.0004
 -18870265.95449 -14645345.97148  21981399.560    21981401.2184   21981407.8104
       215.0004        214.0004
  -5597184.65947  -4351037.62545  23943382.407    23943383.8984   23943390.7434
       145.0004        149.0004
 -10788213.45547  -8380893.20745  22627833.439    22627833.3584   22627837.2384
       157.0004        159.0004
 -18023995.75449 -14024184.05347  20990791.727    20990792.2574   20990799.0134
       211.0004        211.0004
   -629421.20148   -138546.55046  24343735.169    24343736.0214   24343744.4324
       175.0004        176.0004
 21  2  4  0 29  0.0000000  0  9G08G07G16G04G27G01G21G09G03
 -23129607.44549 -17677645.01348  20204674.635    20204674.7784   20204681.8844
       213.0004        213.0004
  -5828819.56748  -4527775.68446  23681098.493    23681099.1604   23681102.5314
       167.0004        168.0004
  -2704342.39546  -2086724.76645  24466369.414    24466367.2024   24466376.9854
       126.0004        133.0004
 -21419866.70649 -16679007.84047  20455410.682    20455411.1014   20455416.9114
       210.0004        208.0004
 -18787605.39049 -14580935.14748  21997131.276    21997131.5024   21997137.8054
       215.0004        215.0004
  -5668262.62647  -4406422.98645  23929857.689    23929857.4104   23929865.8974
       145.0004        149.0004
 -10837034.56447  -8418935.60945  22618541.410    22618541.4594   22618547.4464
       156.0004        159.0004
 -18058705.57549 -14051230.67747  20984187.841    20984187.6414   20984194.1274
       211.0004        212.0004
   -574312.05848    -95604.36546  24354221.348    24354221.9354   24354229.9684
       173.0004        173.0004
 21  2  4  0 29 30.0000000  0  9G08G07G16G04G27G01G21G09G03
 -23109896.61049 -17662285.90548  20208425.019    20208425.4474   20208432.8184
       212.0004        213.0004
  -5899023.79047  -4582480.27946  23667738.840    23667739.0804   23667741.4394
       164.0004        164.0004
  -2627191.21146  -2026606.96645  24481047.010    24481046.7824   24481052.3594
       125.0004        133.0004
 -21382326.94349 -16649756.08347  20462554.769    20462555.3724   20462560.2774
       210.0004        209.0004
 -18704554.79549 -14516220.38548  22012935.856    22012935.6664   22012941.4264
       215.0004        215.0004
  -5739519.24447  -4461947.53145  23916297.731    23916297.0514   23916305.9754
       145.0004        148.0004
 -10885725.55347  -8456876.61945  22609276.000    22609276.5454   22609281.8044
       155.0004        156.0004
 -18092874.28649 -14077855.64447  20977685.319    20977685.3834   20977692.2664
       211.0004        212.0004
   -519407.24048    -52821.40446  24364668.706    24364669.6234   24364677.7494
       171.0004        171.0004
 21  2  4  0 30  0.0000000  0  9G08G07G16G04G27G01G21G09G03
 -23089594.97649 -17646466.44348  20212288.077    20212288.8024   20212296.1134
       212.0004        213.0004
  -5969352.05847  -4637281.50946  23654353.398    23654354.3994   23654359.1294
       161.0004        163.0004
  -2550196.89446  -1966611.42145  24495700.331    24495701.2424   24495706.3304
       122.0004        132.0004
 -21344248.84149 -16620084.83947  20469800.621    20469800.8014   20469806.5164
       210.0004        208.0004
 -18621117.41849 -14451204.24548  22028812.290    22028812.8294   22028819.6854
       215.0004        215.0004
  -5810952.71747  -4517609.89245  23902704.191    23902704.9704   23902712.3194
       144.0004        148.0004
 -10934283.34647  -8494713.83445  22600036.538    22600036.6214   22600041.6914
       155.0004        158.0004
 -18126501.10849 -14104058.36847  20971285.911    20971286.3864   20971293.1944
       211.0004        212.0004
   -464709.07248    -10199.45946  24375078.245    24375079.2834   24375086.9484
       173.0004        175.0004
 21  2  4  0 30 30.0000000  0  9G08G07G16G04G27G01G21G09G03
 -23068703.31749 -17630187.21048  20216263.877    20216264.3554   20216271.4944
       212.0004        213.0004
  -6039802.37947  -4692177.83946  23640948.541    23640949.4984   23640953.0784
       162.0004        165.0004
  -2473359.65446  -1906738.24245  24510323.419    24510324.0404   24510326.0604
       126.0004        136.0004
 -21305632.97249 -16589994.54547  20477148.375    20477149.1474   20477154.9184
       209.0004        208.0004
 -18537295.31649 -14385888.31848  22044763.213    22044763.7074   22044770.8484
       214.0004        214.0004
  -5882559.95247  -4573407.69945  23889077.723    23889077.4644   23889085.7434
       143.0004        147.0004
 -10982705.46447  -8532445.33745  22590822.925    22590822.5334   22590826.0874
       157.0004        159.0004
 -18159584.06449 -14129837.30147  20964990.561    20964991.0124   20964997.6054
       211.0004        212.0004
   -410218.55148     32260.71346  24385445.531    24385446.7394   24385457.4004
       175.0004        177.0004
 21  2  4  0 31  0.0000000  0  9G08G07G16G04G27G01G21G09G03
 -23047223.52649 -17613449.70447  20220351.231    20220351.7274   20220358.7674
       212.0004        212.0004
  -6110375.00747  -4747169.45846  23627519.395    23627519.8644   23627523.6434
       163.0004        165.0004
  -2396681.33046  -1846988.87845  24524916.535    24524914.9714   24524916.9864
       127.0004        134.0004
 -21266481.60949 -16559487.00247  20484598.921    20484599.4464   20484605.1814
       209.0004        208.0004
 -18453092.42449 -14320275.67948  22060787.184    22060787.3544   22060794.1584
       214.0004        214.0004
  -5954339.75847  -4629339.94345  23875418.167    23875417.3294   23875425.6384
       143.0004        147.0004
 -11030990.00547  -8570069.62145  22581634.401    22581634.3794   22581639.2104
       158.0004        160.0004
 -18192123.06349 -14155192.37347  20958798.479    20958799.0194   20958805.6144
       211.0004        211.0004
   -355938.43448     74556.89646  24395776.670    24395777.2764   24395786.9964
       176.0004        177.0004
 21  2  4  0 31 30.0000000  0  9G08G07G16G04G27G01G21G09G03
 -23025156.98249 -17596254.98547  20224550.421    20224550.8014   20224557.9404
       212.0004        212.0004
  -6181068.52447  -4802255.28046  23614068.039    23614067.3104   23614071.5954
       163.0004        166.0004
  -2320162.49546  -1787363.81045  24539475.414    24539476.0514   24539480.2994
       128.0004        136.0004
 -21226796.16049 -16528563.27647  20492151.052    20492151.2694   20492156.8904
       209.0004        208.0004
 -18368511.56549 -14254368.51948  22076882.807    22076882.4244   22076888.7204
       213.0004        213.0004
  -6026289.84947  -4685404.89045  23861725.782    23861726.6774   23861734.5364
       142.0004        146.0004
 -11079133.90747  -8607584.32245  22572472.916    22572473.4824   22572477.8644
       159.0004        161.0004
 -18224116.91749 -14180122.64947  20952710.220    20952711.0194   20952716.8184
       211.0004        212.0004
   -301870.44048    116687.78346  24406065.893    24406066.4374   24406074.7764
       175.0004        175.0004
 21  2  4  0 32  0.0000000  0  9G08G07G16G04G27G01G21G09G03
 -23002504.77649 -17578603.91247  20228860.811    20228861.2314   20228868.3864
       211.0004        212.0004
  -6251881.81847  -4857434.46046  23600591.989    23600592.1854   23600596.0884
       164.0004        166.0004
  -2243803.93746  -1727863.65545  24554009.053    24554008.2424   24554010.8314
       130.0004        138.0004
 -21186578.09749 -16497224.53947  20499804.300    20499804.7954   20499810.6194
       209.0004        208.0004
 -18283555.66949 -14188169.11948  22093048.527    22093048.9584   22093055.7304
       213.0004        213.0004
  -6098407.92647  -4741600.73845  23848000.868    23848001.6314   23848010.9874
       140.0004        143.0004
 -11127134.56747  -8644987.41645  22563338.380    22563338.1654   22563342.5054
       158.0004        160.0004
 -18255564.52749 -14204627.28948  20946726.813    20946726.9464   20946733.1954
       212.0004        213.0004
   -248016.42548    158651.90546  24416313.598    24416313.9374   24416322.4594
       170.0004        170.0004
 21  2  4  0 32 30.0000000  0  9G08G07G16G04G27G01G21G09G03
 -22979267.75149 -17560497.12047  20233282.377    20233282.8704   20233290.0624
       211.0004        211.0004
  -6322813.69447  -4912706.02246  23587093.617    23587093.5484   23587097.5384
       164.0004        165.0004
  -2167606.74146  -1668489.25045  24568505.870    24568502.1244   24568511.7474
       129.0004        136.0004
 -21145829.07049 -16465472.04347  20507557.993    20507558.5524   20507564.6704
       209.0004        207.0004
 -18198227.86349 -14121679.91547  22109286.337    22109285.9474   22109292.6924
       212.0004        212.0004
  -6170691.89947  -4797925.85045  23834244.747    23834245.6384   23834257.8604
       140.0004        145.0004
 -11174989.03947  -8682276.60345  22554234.400    22554233.7664   22554236.6524
       159.0004        161.0004
 -18286465.05549 -14228705.61947  20940846.135    20940846.5714   20940853.0504
       212.0004        212.0004
   -194378.32348    200447.80646  24426520.804    24426521.6384   24426528.0524
       167.0004        168.0004
 21  2  4  0 33  0.0000000  0  9G08G07G16G04G27G01G21G09G03
 -22955446.23349 -17541934.88847  20237816.018    20237816.2574   20237823.4404
       211.0004        212.0004
  -6393862.22747  -4968068.47146  23573573.280    23573573.4504   23573577.7364
       164.0004        166.0004
  -2091570.22246  -1609240.02545  24582977.516    24582974.7014   24582980.2314
       128.0004        136.0004
 -21104549.15349 -16433305.88047  20515413.334    20515413.9244   20515419.6754
       208.0004        207.0004
 -18112529.70149 -14054902.12347  22125592.519    22125593.4494   22125600.8584
       212.0004        212.0004
  -6243138.07447  -4854377.35345  23820458.593    23820460.9614   23820469.0004
       141.0004        146.0004
 -11222693.48147  -8719448.84945  22545153.373    22545153.8474   22545158.2874
       159.0004        160.0004
 -18316816.11749 -14252355.81047  20935070.231    20935070.6494   20935077.3134
       212.0004        211.0004
   -140956.58648    242075.16646  24436686.958    24436687.4974   24436694.7264
       170.0004        172.0004
 21  2  4  0 33 30.0000000  0  9G08G07G16G04G27G01G21G09G03
 -22931042.14649 -17522918.70847  20242459.762    20242460.1464   20242467.5114
       211.0004        212.0004
  -6465026.63948  -5023521.22746  23560029.910    23560030.9814   23560036.2954
       165.0004        167.0004
  -2015695.38646  -1550116.78845  24597413.575    24597414.1564   24597418.5324
       128.0004        134.0004
 -21062740.59149 -16400727.78247  20523369.756    20523370.0534   20523375.3584
       208.0004        207.0004
 -18026464.79749 -13987838.56447  22141970.867    22141971.2604   22141978.3934
       212.0004        212.0004
  -6315744.87547  -4910954.03045  23806644.584    23806644.9334   23806653.2894
       144.0004        148.0004
 -11270246.03047  -8756502.76445  22536103.995    22536104.9494   22536109.8764
       160.0004        162.0004
 -18346617.41549 -14275577.59747  20929399.191    20929399.4674   20929406.3404
       211.0004        211.0004
    -87753.57448    283532.06846  24446810.220    24446811.4214   24446819.7384
       174.0004        176.0004
 21  2  4  0 34  0.0000000  0  9G08G07G16G04G27G01G21G09G03
 -22906056.10149 -17503449.04947  20247214.398    20247214.8644   20247222.1904
       211.0004        212.0004
  -6536305.23248  -5079062.96546  23546468.756    23546467.8784   23546471.7974
       167.0004        170.0004
  -1939982.44046  -1491119.70545  24611824.505    24611820.9084   24611825.0594
       127.0004        135.0004
 -21020404.37549 -16367738.52947  20531426.187    20531426.4204   20531431.9444
       208.0004        206.0004
 -17940035.59949 -13920491.12947  22158418.392    22158418.2304   22158425.1584
       211.0004        212.0004
  -6388509.52347  -4967653.69445  23792796.756    23792797.7294   23792805.9994
       144.0004        147.0004
 -11317643.79247  -8793436.08046  22527085.650    22527085.6354   22527090.2144
       161.0004        163.0004
 -18375867.38549 -14298369.77747  20923833.422    20923833.6734   20923839.9934
       211.0004        211.0004
    -34770.53148    324817.57546  24456893.076    24456893.9414   24456900.7224
       172.0004        172.0004
 21  2  4  0 34 30.0000000  0  9G08G07G16G04G27G01G21G09G03
 -22880490.93749 -17483528.13947  20252079.307    20252079.6084   20252086.4934
       211.0004        211.0004
  -6607698.08748  -5134693.76446  23532880.910    23532882.3334   23532886.0314
       168.0004        169.0004
  -1864433.48346  -1432250.40545  24626197.467    24626199.2994   24626201.9294
       126.0004        133.0004
 -20977543.41149 -16334340.38547  20539581.899    20539582.1384   20539588.5134
       208.0004        206.0004
 -17853246.38249 -13852863.17247  22174933.280    22174933.3594   22174940.8554
       212.0004        212.0004
  -6461431.00047  -5024475.56245  23778921.385    23778921.5104   23778931.3914
       143.0004        147.0004
 -11364884.85247  -8830247.27846  22518096.969    22518096.5894   22518101.5324
       162.0004        164.0004
 -18404566.45749 -14320732.70047  20918371.626    20918372.0754   20918378.5364
       210.0004        210.0004
     17989.48048    365929.27846  24466933.485    24466933.5344   24466941.9284
       170.0004        171.0004
 21  2  4  0 35  0.0000000  0  9G08G07G16G04G27G01G21G09G03
 -22854346.93749 -17463156.18647  20257053.972    20257054.7924   20257061.7934
       211.0004        211.0004
  -6679203.08448  -5190411.89646  23519273.000    23519274.6604   23519278.6894
       167.0004        168.0004
  -1789048.31046  -1373508.76645  24640541.712    24640543.1934   24640545.9864
       125.0004        132.0004
 -20934158.26649 -16300533.78447  20547838.360    20547838.6234   20547844.2454
       208.0004        206.0004
 -17766099.07449 -13784956.18747  22191516.251    22191517.2104   22191524.2424
       211.0004        211.0004
  -6534505.93547  -5081417.02045  23765012.552    23765013.9424   23765024.0424
       144.0004        147.0004
 -11411965.58447  -8866933.54246  22509138.389    22509136.8154   22509142.5434
       163.0004        165.0004
 -18432712.67449 -14342664.81847  20913015.512    20913016.1094   20913022.6294
       210.0004        210.0004
     70525.64448    406866.56846  24476929.715    24476930.2474   24476940.0454
       170.0004        172.0004
 21  2  4  0 35 30.0000000  0  9G08G07G16G04G27G01G21G09G03
 -22827624.53949 -17442333.52447  20262139.390    20262139.9344   20262146.9214
       211.0004        212.0004
  -6750818.50348  -5246216.10346  23505646.513    23505647.1214   23505651.3514
       166.0004        167.0004
  -1713826.87446  -1314894.64345  24654858.863    24654859.5014   24654861.5384
       125.0004        133.0004
 -20890249.80049 -16266319.40147  20556193.764    20556193.9274   20556200.2984
       208.0004        207.0004
 -17678595.91649 -13716771.91347  22208169.169    22208168.8534   22208175.5354
       211.0004        211.0004
  -6607731.28147  -5138475.67345  23751079.509    23751080.5654   23751090.7744
       143.0004        147.0004
 -11458882.34047  -8903492.05146  22500209.189    22500208.3014   22500213.9554
       164.0004        165.0004
 -18460304.37749 -14364164.85147  20907765.397    20907765.8264   20907772.0324
       210.0004        211.0004
    122837.15648    447628.76446  24486884.904    24486885.5354   24486893.0524
       169.0004        170.0004
 21  2  4  0 36  0.0000000  0  9G08G07G16G04G27G01G21G09G03
 -22800327.15649 -17421062.82647  20267334.089    20267334.2854   20267341.5104
       211.0004        211.0004
  -6822544.52848  -5302106.50746  23491998.686    23491998.7704   23492002.0054
       168.0004        170.0004
  -1638771.42746  -1256409.84845  24669138.749    24669140.4784   24669144.8544
       128.0004        135.0004
 -20845821.34249 -16231699.83247  20564648.087    20564648.6224   20564654.4574
       208.0004        206.0004
 -17590741.57149 -13648313.98247  22224887.188    22224887.0624   22224893.2334
       211.0004        211.0004
  -6681106.34947  -5195651.00045  23737117.330    23737117.9644   23737126.7174
       144.0004        148.0004
 -11505634.21147  -8939922.04746  22491311.342    22491311.3554   22491316.9014
       163.0004        164.0004
 -18487342.42149 -14385233.45547  20902620.205    20902620.4004   20902627.1254
       211.0004        212.0004
    174920.52248    488213.18946  24496796.063    24496796.9794   24496803.7964
       168.0004        169.0004
 21  2  4  0 36 30.0000000  0  9G08G07G16G04G27G01G21G09G03
 -22772455.42249 -17399344.58047  20272637.352    20272637.9034   20272645.4514
       211.0004        212.0004
  -6894379.56648  -5358081.86146  23478328.786    23478329.1304   23478332.5704
       170.0004        171.0004
  -1563882.03746  -1198054.51445  24683392.445    24683390.9294   24683397.1254
       132.0004        139.0004
 -20800874.12249 -16196676.02747  20573200.975    20573201.3994   20573207.6334
       207.0004        206.0004
 -17502538.58549 -13579584.38647  22241672.286    22241672.1604   22241677.7554
       211.0004        211.0004
  -6754628.32247  -5252940.78445  23723126.324    23723127.6504   23723136.1894
       144.0004        149.0004
 -11552217.79847  -8976220.93446  22482448.129    22482447.0624   22482452.8404
       164.0004        166.0004
 -18513825.48549 -14405869.60047  20897580.731    20897580.8804   20897587.6364
       211.0004        212.0004
    226774.54648    528618.91746  24506661.908    24506663.3614   24506672.7224
       169.0004        169.0004
 21  2  4  0 37  0.0000000  0  9G08G07G16G04G27G01G21G09G03
 -22744011.42549 -17377180.41347  20278050.469    20278050.8864   20278058.0064
       211.0004        212.0004
  -6966322.83248  -5414141.52746  23464637.289    23464637.9554   23464641.9694
       169.0004        170.0004
  -1489159.38346  -1139829.08545  24697607.948    24697609.3344   24697614.1544
       133.0004        140.0004
 -20755409.93749 -16161249.39747  20581853.051    20581853.2894   20581859.0044
       207.0004        206.0004
 -17413990.09549 -13510585.54647  22258522.408    22258521.9304   22258528.3844
       211.0004        212.0004
  -6828295.03547  -5310343.37945  23709106.152    23709108.5194   23709119.0014
       146.0004        151.0004
 -11598630.87147  -9012386.95246  22473615.330    22473615.4224   22473621.0064
       164.0004        165.0004
 -18539752.91049 -14426072.78547  20892646.759    20892647.2234   20892653.6844
       211.0004        211.0004
    278397.32248    568844.49446  24516484.732    24516486.3094   24516496.7744
       168.0004        169.0004
 21  2  4  0 37 30.0000000  0  8G08G07G04G27G01G21G09G03
 -22714994.23949 -17354569.61047  20283571.992    20283572.3754   20283579.8394
       211.0004        211.0004
  -7038370.70348  -5470282.72346  23450926.364    23450927.5644   23450932.3234
       168.0004        169.0004
 -20709428.50749 -16125419.71847  20590602.594    20590603.2724   20590608.9114
       207.0004        205.0004
 -17325097.13349 -13441318.32147  22275437.113    22275437.9574   22275444.1784
       212.0004        212.0004
  -6902102.09247  -5367855.28545  23695063.724    23695064.3804   23695073.9774
       148.0004        152.0004
 -11644868.58247  -9048416.32146  22464815.475    22464816.6934   22464821.8174
       163.0004        165.0004
 -18565121.92049 -14445840.84947  20887819.160    20887819.6134   20887825.9974
       211.0004        211.0004
    329789.23848    608890.15846  24526266.483    24526267.4854   24526275.9824
       169.0004        171.0004
 21  2  4  0 38  0.0000000  0  8G08G07G04G27G01G21G09G03
 -22685405.45149 -17331513.40647  20289202.542    20289203.1594   20289210.7224
       211.0004        212.0004
  -7110522.25648  -5526504.68846  23437195.206    23437197.5254   23437202.3614
       168.0004        170.0004
 -20662931.59449 -16089188.36747  20599450.325    20599450.8684   20599457.0714
       206.0004        205.0004
 -17235862.68349 -13371784.99147  22292418.669    22292418.8724   22292425.1134
       211.0004        211.0004
  -6976047.09947  -5425474.70945  23680992.757    23680992.5664   23681001.1034
       148.0004        150.0004
 -11690928.32847  -9084307.02546  22456050.912    22456051.6804   22456055.8874
       163.0004        166.0004
 -18589931.76749 -14465173.20547  20883098.497    20883098.8834   20883105.0094
       211.0004        212.0004
    380948.63348    648754.57746  24536002.448    24536002.2664   24536009.8284
       168.0004        170.0004
 21  2  4  0 38 30.0000000  0  8G08G07G04G27G01G21G09G03
 -22655249.59449 -17308015.32747  20294941.864    20294942.3244   20294949.0404
       212.0004        212.0004
  -7182778.73248  -5582808.41246  23423447.571    23423448.1854   23423451.7174
       170.0004        172.0004
 -20615923.82849 -16052558.93847  20608396.158    20608396.5664   20608402.2574
       206.0004        204.0004
 -17146292.66449 -13301990.15847  22309464.187    22309463.7154   22309469.9104
       211.0004        211.0004
  -7050130.50747  -5483201.99945  23666895.068    23666895.0204   23666903.3704
       148.0004        151.0004
 -11736810.23047  -9120059.13046  22447321.378    22447320.7234   22447326.1964
       164.0004        166.0004
 -18614184.60049 -14484071.51247  20878483.477    20878483.4004   20878489.9124
       212.0004        212.0004
    431870.85448    688434.24046  24545692.500    24545692.5314   24545701.7594
       169.0004        171.0004
 21  2  4  0 39  0.0000000  0  8G08G07G04G27G01G21G09G03
 -22624527.67149 -17284076.14747  20300787.976    20300788.2564   20300795.0014
       212.0004        212.0004
  -7255138.53948  -5639192.67846  23409679.293    23409679.8224   23409682.1914
       173.0004        176.0004
 -20568406.46349 -16015532.41147  20617438.145    20617438.4904   20617444.1984
       205.0004        204.0004
 -17056389.57349 -13231935.78547  22326571.441    22326571.1964   22326577.3624
       211.0004        211.0004
  -7124349.49747  -5541034.92945  23652771.127    23652772.1224   23652779.6474
       147.0004        151.0004
 -11782510.97348  -9155670.06846  22438624.307    22438623.8954   22438629.2854
       165.0004        165.0004
 -18637879.17749 -14502534.81847  20873973.847    20873974.3294   20873980.5814
       211.0004        211.0004
    482554.87248    727928.26246  24555335.977    24555336.8784   24555346.5374
       171.0004        172.0004
 21  2  4  0 39 30.0000000  0  8G08G07G04G27G01G21G09G03
 -22593240.80049 -17259696.76547  20306741.190    20306741.7654   20306748.3134
       211.0004        211.0004
  -7327600.22648  -5695656.33146  23395889.458    23395889.2824   23395894.0144
       174.0004        174.0004
 -20520381.06549 -15978110.03547  20626577.221    20626577.5064   20626583.0884
       205.0004        204.0004
 -16966156.15549 -13161624.03147  22343742.261    22343741.6054   22343748.4874
       211.0004        211.0004
  -7198701.34547  -5598971.38045  23638624.022    23638624.0864   23638631.0114
       149.0004        153.0004
 -11828027.72147  -9191137.64146  22429963.265    22429962.4334   22429966.9364
       164.0004        166.0004
 -18661014.57149 -14520562.39947  20869571.582    20869571.7094   20869578.1564
       211.0004        212.0004
    532999.25848    767235.56746  24564934.471    24564935.8424   24564944.3864
       169.0004        169.0004
 21  2  4  0 40  0.0000000  0  8G08G07G04G27G01G21G09G03
 -22561389.83249 -17234877.81847  20312802.863    20312802.8774   20312809.2754
       211.0004        211.0004
  -7400161.48148  -5752197.56046  23382081.296    23382081.4694   23382085.1524
       173.0004        174.0004
 -20471848.31449 -15940292.31447  20635813.140    20635813.3944   20635818.8284
       205.0004        204.0004
 -16875594.39849 -13091056.42847  22360974.725    22360975.4304   22360981.0974
       210.0004        209.0004
  -7273182.48647  -5657008.58945  23624450.209    23624450.5534   23624457.5274
       150.0004        153.0004
 -11873356.91347  -9226459.08446  22421337.089    22421337.1734   22421341.6564
       164.0004        166.0004
 -18683589.03249 -14538152.88647  20865275.765    20865276.1394   20865282.4664
       211.0004        212.0004
    583203.61948    806355.84046  24574489.177    24574489.6054   24574497.2124
       167.0004        167.0004
 21  2  4  0 40 30.0000000  0  8G08G07G04G27G01G21G09G03
 -22528976.46349 -17209620.64247  20318970.252    20318970.6254   20318977.8154
       211.0004        211.0004
  -7472820.59148  -5808815.06546  23368254.317    23368254.6904   23368258.2484
       173.0004        173.0004
 -20422810.12049 -15902080.74447  20645144.269    20645144.8954   20645150.5004
       205.0004        204.0004
 -16784707.28249 -13020235.30047  22378269.701    22378270.5974   22378276.2514
       209.0004        209.0004
  -7347790.57147  -5715144.71545  23610252.801    23610252.5554   23610260.1814
       150.0004        153.0004
 -11918495.71648  -9261632.16146  22412748.132    22412747.4454   22412752.4654
       165.0004        167.0004
 -18705601.97549 -14555305.82547  20861086.900    20861087.3554   20861093.5684
       212.0004        212.0004
    633166.16348    845287.67446  24583997.152    24583997.7894   24584005.2604
       168.0004        170.0004
 21  2  4  0 41  0.0000000  0  8G08G07G04G27G01G21G09G03
 -22496002.89149 -17183926.93547  20325244.808    20325245.5124   20325252.7284
       211.0004        211.0004
  -7545577.09748  -5865508.43746  23354408.453    23354409.8344   23354412.8104
       170.0004        169.0004
 -20373269.02349 -15863477.28847  20654571.629    20654572.0264   20654578.2654
       205.0004        204.0004
 -16693498.56549 -12949163.55547  22395626.301    22395626.5054   22395633.0194
       209.0004        208.0004
  -7422523.77947  -5773378.33745  23596032.572    23596032.4184   23596040.1134
       152.0004        156.0004
 -11963441.88448  -9296655.11246  22404195.806    22404194.6564   22404198.9164
       166.0004        167.0004
 -18727053.44149 -14572021.25247  20857004.250    20857004.9934   20857011.7214
       212.0004        212.0004
    682884.67048    884029.35746  24593458.987    24593459.9244   24593466.9444
       170.0004        171.0004
 21  2  4  0 41 30.0000000  0  8G08G07G04G27G01G21G09G03
 -22462470.10149 -17157797.48747  20331625.940    20331626.5694   20331633.3724
       211.0004        211.0004
  -7618429.67848  -5922276.68846  23340546.728    23340546.3864   23340549.2534
       170.0004        172.0004
 -20323226.15949 -15824482.86247  20664094.551    20664095.0234   20664101.0694
       205.0004        204.0004
 -16601970.55649 -12877843.03847  22413042.632    22413043.2904   22413050.8514
       208.0004        208.0004
  -7497378.92947  -5831706.96845  23581785.321    23581786.9194   23581795.0664
       154.0004        157.0004
 -12008192.08948  -9331525.38646  22395680.174    22395678.6554   22395684.6554
       166.0004        167.0004
 -18747942.11649 -14588298.15347  20853029.840    20853030.1384   20853036.4924
       212.0004        212.0004
    732358.28148    922580.25346  24602872.235    24602872.2684   24602882.1064
       169.0004        170.0004
 21  2  4  0 42  0.0000000  0  8G08G07G04G27G01G21G09G03
 -22428379.39249 -17131233.26947  20338112.431    20338113.5884   20338120.2624
       211.0004        212.0004
  -7691376.53648  -5979118.38646  23326663.409    23326664.7794   23326669.1514
       171.0004        173.0004
 -20272683.69049 -15785099.11147  20673712.336    20673712.9244   20673718.2314
       205.0004        203.0004
 -16510126.58349 -12806276.29847  22430520.173    22430520.8234   22430527.5864
       208.0004        207.0004
  -7572353.77447  -5890128.88345  23567519.191    23567520.1084   23567527.9914
       155.0004        157.0004
 -12052744.09248  -9366241.19046  22387201.273    22387201.1744   22387204.4334
       166.0004        168.0004
 -18768267.75749 -14604136.30047  20849161.592    20849162.2514   20849168.3974
       212.0004        212.0004
    781585.22248    960938.92046  24612240.112    24612240.8714   24612248.5404
       168.0004        169.0004
 21  2  4  0 42 30.0000000  0  8G08G07G04G27G01G21G09G03
 -22393732.53849 -17104235.70847  20344705.864    20344706.3924   20344713.8744
       211.0004        211.0004
  -7764414.99048  -6036031.44646  23312765.456    23312766.0684   23312770.7544
       172.0004        173.0004
 -20221642.69449 -15745326.90547  20683425.186    20683425.7524   20683431.4554
       204.0004        202.0004
 -16417968.75049 -12734464.99847  22448058.121    22448058.6054   22448064.4144
       208.0004        207.0004
  -7647444.99447  -5948641.49245  23553228.868    23553228.6424   23553237.4114
       152.0004        153.0004
 -12097094.15548  -9400799.65646  22378761.892    22378761.2874   22378766.3624
       166.0004        167.0004
 -18788028.88549 -14619534.57848  20845401.832    20845401.9464   20845408.5434
       212.0004        213.0004
    830564.69848    999104.74046  24621561.612    24621561.7014   24621569.0694
       169.0004        171.0004
 21  2  4  0 43  0.0000000  0  8G08G07G04G27G01G21G09G03
 -22358532.15549 -17076806.82847  20351405.381    20351404.9314   20351412.5604
       211.0004        211.0004
  -7837545.80748  -6093016.48846  23298848.975    23298849.1534   23298852.7374
       172.0004        171.0004
 -20170106.28749 -15705168.67247  20693232.211    20693232.8914   20693238.4404
       203.0004        202.0004
 -16325501.37349 -12662412.49147  22465654.049    22465654.2874   22465660.7074
       208.0004        208.0004
  -7722651.26447  -6007243.72445  23538917.710    23538918.5764   23538925.9054
       151.0004        153.0004
 -12141240.71848  -9435199.56646  22370360.888    22370360.5124   22370365.1604
       165.0004        166.0004
 -18807226.27149 -14634493.58648  20841748.565    20841748.6434   20841755.4494
       212.0004        213.0004
    879294.02748   1037075.64646  24630832.317    24630833.6224   24630842.9884
       169.0004        169.0004
 21  2  4  0 43 30.0000000  0  8G08G07G04G27G01G21G09G03
 -22322778.85749 -17048947.10547  20358207.978    20358208.4244   20358215.9554
       211.0004        211.0004
  -7910766.37448  -6150071.48746  23284915.296    23284916.3184   23284918.8314
       170.0004        170.0004
 -20118075.38249 -15664625.11847  20703132.817    20703133.6524   20703139.1614
       203.0004        202.0004
 -16232726.40849 -12590120.30547  22483308.866    22483308.3674   22483315.3324
       208.0004        207.0004
  -7797969.06047  -6065932.88045  23524585.275    23524585.5774   23524594.6584
       151.0004        154.0004
 -12185179.92048  -9469437.89346  22361999.039    22361998.5254   22362003.0314
       165.0004        166.0004
 -18825858.36049 -14649012.10248  20838202.360    20838202.8994   20838209.7314
       212.0004        213.0004
    927772.72348   1074851.26746  24640058.146    24640058.1684   24640067.7194
       166.0004        167.0004
 21  2  4  0 44  0.0000000  0  8G08G07G04G27G01G21G09G03
 -22286475.47149 -17020658.74947  20365116.760    20365117.0774   20365124.3744
       211.0004        211.0004
  -7984075.84848  -6207195.72646  23270965.590    23270966.1544   23270971.1204
       171.0004        173.0004
 -20065552.72849 -15623698.37447  20713127.926    20713128.3234   20713134.0554
       203.0004        202.0004
 -16139647.68849 -12517591.43847  22501020.644    22501021.7244   22501028.0134
       208.0004        208.0004
  -7873396.55547  -6124707.49845  23510232.814    23510233.3864   23510241.4084
       154.0004        158.0004
 -12228910.21948  -9503513.42446  22353677.973    22353677.0064   22353681.2904
       165.0004        166.0004
 -18843925.46649 -14663090.37948  20834764.146    20834764.5704   20834771.8534
       212.0004        213.0004
    975998.50548   1112429.78746  24649236.226    24649237.5334   24649244.5274
       167.0004        170.0004
 21  2  4  0 44 30.0000000  0  8G08G07G04G27G01G21G09G03
 -22249623.82149 -16991943.16047  20372129.534    20372129.7324   20372136.8564
       210.0004        211.0004
  -8057473.08148  -6264388.34646  23256999.763    23256999.8824   23257002.6664
       173.0004        173.0004
 -20012540.60749 -15582390.23047  20723215.890    20723216.3714   20723221.9784
       203.0004        202.0004
 -16046268.53549 -12444828.46247  22518789.677    22518790.5214   22518797.3224
       207.0004        207.0004
  -7948931.54547  -6183565.90945  23495858.764    23495859.4444   23495867.9454
       156.0004        158.0004
 -12272429.23248  -9537424.32146  22345395.899    22345395.1344   22345400.0074
       165.0004        166.0004
 -18861427.44249 -14676728.27948  20831434.198    20831434.4254   20831440.9804
       212.0004        213.0004
   1023969.62348   1149809.88146  24658363.690    24658365.0504   24658374.4504
       168.0004        169.0004
 21  2  4  0 45  0.0000000  0  8G08G07G04G27G01G21G09G03
 -22212224.94249 -16962801.17047  20379246.105    20379246.2324   20379253.4744
       210.0004        210.0004
  -8130956.14548  -6321647.87546  23243014.722    23243015.0114   23243019.4964
       170.0004        169.0004
 -19959040.46249 -15540701.80447  20733396.888    20733397.2364   20733403.1214
       203.0004        202.0004
 -15952591.38749 -12371833.27947  22536616.752    22536616.8204   22536623.0674
       206.0004        206.0004
  -8024570.79447  -6242505.56145  23481464.275    23481465.0204   23481473.3044
       154.0004        155.0004
 -12315733.58148  -9571167.96746  22337155.961    22337155.7624   22337160.4514
       166.0004        168.0004
 -18878363.21949 -14689925.00148  20828211.457    20828211.8464   20828218.4334
       212.0004        213.0004
   1071685.18048   1186990.84646  24667444.636    24667445.3124   24667454.0474
       168.0004        169.0004
 21  2  4  0 45 30.0000000  0  8G08G07G04G27G01G21G09G03
 -22174281.23349 -16933234.63247  20386466.554    20386467.0864   20386474.1884
       210.0004        211.0004
  -8204523.53248  -6378973.09646  23229017.206    23229016.7354   23229020.6764
       170.0004        171.0004
 -19905054.26249 -15498634.63947  20743669.501    20743670.3594   20743676.2414
       203.0004        202.0004
 -15858619.27949 -12298608.26247  22554498.946    22554498.8964   22554505.3454
       205.0004        205.0004
  -8100311.83647  -6301524.52145  23467050.535    23467051.0604   23467060.3144
       154.0004        157.0004
 -12358820.58848  -9604742.23746  22328957.175    22328955.8454   22328961.5864
       167.0004        168.0004
 -18894732.52249 -14702680.29848  20825096.768    20825096.9654   20825103.5414
       213.0004        213.0004
   1119143.60548   1223971.46346  24676474.111    24676475.3274   24676483.6124
       166.0004        167.0004
 21  2  4  0 46  0.0000000  0  8G08G07G04G27G01G21G09G03
 -22135794.19149 -16903244.72547  20393790.513    20393790.8894   20393797.8054
       210.0004        210.0004
  -8278173.79648  -6436362.89646  23215001.135    23215000.5424   23215005.3774
       171.0004        172.0004
 -19850584.19649 -15456190.43447  20754035.014    20754035.5714   20754041.4894
       203.0004        201.0004
 -15764355.40849 -12225155.89347  22572436.944    22572436.9754   22572443.6974
       204.0004        205.0004
  -8176152.11847  -6360620.80645  23452617.994    23452619.0074   23452628.6344
       154.0004        156.0004
 -12401687.62848  -9638145.10746  22320798.577    22320797.7864   22320803.6904
       166.0004        166.0004
 -18910535.02549 -14714993.93547  20822088.791    20822089.3314   20822095.6444
       212.0004        212.0004
   1166343.39448   1260750.53146  24685456.952    24685457.4794   24685464.8064
       165.0004        166.0004
 21  2  4  0 46 30.0000000  0  8G08G07G04G27G01G21G09G03
 -22096765.70749 -16872832.91647  20401216.930    20401217.3084   20401224.6234
       210.0004        210.0004
  -8351905.25448  -6493815.97546  23200968.877    23200969.4044   23200974.2484
       169.0004        171.0004
 -19795631.80749 -15413370.40347  20764492.837    20764492.8904   20764498.6384
       203.0004        201.0004
 -15669802.27849 -12151478.13747  22590429.090    22590429.3924   22590436.2224
       204.0004        204.0004
  -8252088.55547  -6419792.03345  23438169.106    23438169.2974   23438178.2654
       153.0004        156.0004
 -12444331.25848  -9671373.88846  22312683.525    22312684.1454   22312689.0264
       165.0004        166.0004
 -18925769.91749 -14726865.29147  20819190.036    20819190.5354   20819196.6784
       212.0004        212.0004
   1213283.63348   1297327.35346  24694389.039    24694389.6734   24694399.5154
       167.0004        169.0004
 21  2  4  0 47  0.0000000  0  8G08G07G04G27G01G21G09G03
 -22057196.97349 -16842000.11947  20408746.509    20408746.9874   20408754.0604
       210.0004        210.0004
  -8425716.07848  -6551330.86646  23186924.281    23186924.5504   23186928.3494
       170.0004        173.0004
 -19740199.01549 -15370176.01747  20775040.580    20775041.4634   20775047.5474
       202.0004        201.0004
 -15574962.76449 -12077577.20947  22608475.733    22608476.2674   22608483.6494
       204.0004        203.0004
  -8328118.34847  -6479035.98845  23423700.168    23423702.1294   23423710.2304
       154.0004        157.0004
 -12486748.85048  -9704426.55646  22304614.165    22304612.8534   22304616.6804
       166.0004        168.0004
 -18940436.70349 -14738293.95148  20816399.232    20816399.4794   20816405.8874
       212.0004        213.0004
   1259963.09348   1333700.96546  24703273.031    24703273.2214   24703282.6274
       169.0004        171.0004
 21  2  4  0 47 30.0000000  0  8G08G07G04G27G01G21G09G03
 -22017091.33549 -16810748.96547  20416377.921    20416378.5664   20416386.1824
       210.0004        210.0004
  -8499605.90448  -6608907.35446  23172863.862    23172864.0194   23172867.5964
       172.0004        174.0004
 -19684289.05649 -15326609.82347  20785679.406    20785679.9454   20785686.2574
       202.0004        201.0004
 -15479841.04549 -12003456.39047  22626578.060    22626577.4714   22626584.9354
       204.0004        203.0004
  -8404240.05747  -6538351.56845  23409215.561    23409215.8134   23409224.2164
       154.0004        157.0004
 -12528938.93847  -9737301.94446  22296583.575    22296582.3554   22296588.1974
       164.0004        164.0004
 -18954536.21949 -14749280.59648  20813716.395    20813716.6144   20813722.9904
       213.0004        214.0004
   1306379.16848   1369869.36046  24712105.455    24712105.3054   24712114.2194
       169.0004        170.0004
 21  2  4  0 48  0.0000000  0  8G08G07G04G27G01G21G09G03
 -21976450.52849 -16779080.80447  20424112.560    20424112.8344   20424119.6114
       210.0004        211.0004
  -8573572.93748  -6666543.99146  23158786.929    23158788.6494   23158792.7224
       171.0004        171.0004
 -19627903.73449 -15282673.21647  20796409.975    20796410.7104   20796415.7814
       202.0004        201.0004
 -15384439.85649 -11929117.80947  22644732.320    22644732.3804   22644739.1794
       203.0004        204.0004
  -8480450.71747  -6597736.47745  23394712.236    23394712.7334   23394721.1954
       153.0004        154.0004
 -12570898.82947  -9769997.90846  22288595.659    22288596.9704   22288604.7344
       162.0004        163.0004
 -18968067.93849 -14759824.78748  20811140.834    20811141.2204   20811148.2534
       213.0004        213.0004
   1352530.85148   1405831.74046  24720887.774    24720887.8074   24720896.8304
       167.0004        168.0004
 21  2  4  0 48 30.0000000  0  8G08G07G04G27G01G21G09G03
 -21935275.73849 -16746996.53747  20431947.279    20431947.7524   20431955.2074
       210.0004        210.0004
  -8647615.20748  -6724239.24946  23144698.472    23144698.8304   23144703.2364
       172.0004        174.0004
 -19571044.65149 -15238367.44447  20807229.994    20807230.4224   20807236.3844
       202.0004        201.0004
 -15288761.70249 -11854563.42547  22662940.099    22662940.1244   22662946.0794
       203.0004        203.0004
  -8556747.10547  -6657188.19745  23380192.648    23380194.0124   23380204.3724
       151.0004        153.0004
 -12612624.85348  -9802511.68046  22280661.669    22280660.3304   22280663.9244
       166.0004        170.0004
 -18981031.03949 -14769925.91148  20808673.981    20808674.7744   20808681.3324
       213.0004        213.0004
   1398417.10148   1441587.24046  24729619.973    24729621.0744   24729628.7444
       167.0004        169.0004
 21  2  4  0 49  0.0000000  0  8G08G07G04G27G01G21G09G03
 -21893570.08549 -16714498.62147  20439883.686    20439884.2784   20439891.3784
       210.0004        210.0004
  -8721731.72448  -6781992.36846  23130593.311    23130594.3854   23130599.4984
       172.0004        173.0004
 -19513714.71449 -15193694.77047  20818139.424    20818139.8914   20818146.0404
       202.0004        201.0004
 -15192810.40349 -11779796.19447  22681199.018    22681198.6754   22681204.3104
       202.0004        202.0004
  -8633127.39347  -6716705.27245  23365660.049    23365660.6044   23365669.3714
       152.0004        156.0004
 -12654115.05748  -9834841.73346  22272765.164    22272764.3644   22272768.1744
       169.0004        172.0004
 -18993426.09449 -14779584.39948  20806315.709    20806316.2064   20806322.2664
       213.0004        213.0004
   1444035.93848   1477134.36846  24738301.137    24738301.5374   24738307.9834
       167.0004        168.0004
 21  2  4  0 49 30.0000000  0  8G08G07G04G27G01G21G09G03
 -21851334.92949 -16681588.09147  20447921.071    20447921.3384   20447928.3234
       210.0004        210.0004
  -8795920.56848  -6839801.80846  23116477.203    23116477.2984   23116481.6214
       172.0004        174.0004
 -19455915.71549 -15148656.57947  20829138.117    20829138.6544   20829144.3914
       202.0004        200.0004
 -15096588.66949 -11704818.20947  22699507.204    22699508.5134   22699514.5994
       201.0004        201.0004
  -8709588.48947  -6776285.30145  23351110.532    23351110.6904   23351119.4664
       154.0004        157.0004
 -12695366.78548  -9866985.92246  22264912.603    22264912.9094   22264916.3504
       168.0004        165.0004
 -19005252.60949 -14788799.85448  20804065.277    20804065.5854   20804071.7984
       213.0004        214.0004
   1489386.30248   1512472.32646  24746929.689    24746930.5124   24746937.8074
       167.0004        168.0004
 21  2  4  0 50  0.0000000  0  8G08G07G04G27G01G21G09G03
 -21808571.54749 -16648265.97847  20456058.552    20456058.9904   20456065.7444
       210.0004        210.0004
  -8870179.81148  -6897666.16546  23102346.821    23102346.5214   23102350.1884
       173.0004        175.0004
 -19397649.12049 -15103254.07247  20840225.773    20840226.5104   20840232.2734
       202.0004        200.0004
 -15000098.75149 -11629631.26447  22717869.569    22717870.2074   22717875.5294
       201.0004        201.0004
  -8786127.03947  -6835925.67645  23336544.078    23336544.6654   23336553.3084
       153.0004        155.0004
 -12736376.38647  -9898941.42046  22257106.711    22257107.4964   22257113.5004
       164.0004        164.0004
 -19016509.63849 -14797571.58648  20801923.233    20801923.2154   20801930.0754
       213.0004        213.0004
   1534467.61048   1547600.64246  24755509.267    24755509.5534   24755518.1374
       167.0004        168.0004
 21  2  4  0 50 30.0000000  0  8G08G07G04G27G01G21G09G03
 -21765282.27549 -16614534.05747  20464295.849    20464296.5004   20464303.7884
       209.0004        210.0004
  -8944507.99348  -6955584.21446  23088201.441    23088200.8624   23088205.2064
       173.0004        173.0004
 -19338917.60349 -15057489.24047  20851401.756    20851402.3534   20851408.7324
       202.0004        200.0004
 -14903344.21649 -11554238.11647  22736280.945    22736281.4954   22736287.4054
       202.0004        201.0004
  -8862740.77247  -6895624.67945  23321966.955    23321966.9984   23321974.2704
       152.0004        155.0004
 -12777141.79147  -9930706.63146  22249351.105    22249350.4794   22249357.1304
       164.0004        165.0004
 -19027197.53149 -14805899.81248  20799889.209    20799889.4524   20799895.9314
       213.0004        213.0004
   1579277.97948   1582517.81546  24764036.483    24764036.7104   24764045.7134
       168.0004        171.0004
 21  2  4  0 51  0.0000000  0  8G08G07G04G27G01G21G09G03
 -21721469.68849 -16580394.36947  20472633.324    20472633.9104   20472641.0464
       210.0004        210.0004
  -9018903.78048  -7013554.94746  23074044.506    23074044.6984   23074048.8984
       174.0004        177.0004
 -19279723.31449 -15011363.83047  20862666.751    20862667.2814   20862672.7084
       202.0004        200.0004
 -14806328.03449 -11478641.08947  22754742.627    22754743.2584   22754749.6324
       201.0004        201.0004
  -8939426.99447  -6955380.15045  23307373.012    23307373.1014   23307381.7794
       151.0004        155.0004
 -12817660.36848  -9962279.52246  22241642.009    22241641.5844   22241647.3024
       165.0004        167.0004
 -19037316.16749 -14813784.46248  20797963.589    20797963.8814   20797970.1414
       213.0004        213.0004
   1623816.16648   1617222.90746  24772509.760    24772511.0644   24772521.4674
       169.0004        170.0004
 21  2  4  0 51 30.0000000  0  8G08G07G04G27G01G21G09G03
 -21677135.61449 -16545848.33047  20481070.228    20481070.6264   20481077.4844
       209.0004        209.0004
  -9093364.78748  -7071576.49746  23059874.267    23059875.0074   23059879.4364
       175.0004        177.0004
 -19220068.48749 -14964879.55047  20874018.118    20874018.9574   20874024.5944
       201.0004        200.0004
 -14709053.16749 -11402842.51447  22773253.564    22773253.7794   22773260.4974
       200.0004        200.0004
  -9016182.82647  -7015189.86045  23292767.688    23292767.1454   23292775.5404
       153.0004        156.0004
 -12857929.25148  -9993657.86346  22233979.483    22233979.2784   22233983.5434
       167.0004        170.0004
 -19046865.40249 -14821225.42748  20796146.965    20796146.9534   20796153.6124
       213.0004        214.0004
   1668080.96748   1651714.95246  24780934.694    24780935.2994   24780943.4564
       167.0004        168.0004
 21  2  4  0 52  0.0000000  0  8G08G07G04G27G01G21G09G03
 -21632282.24149 -16510897.63747  20489604.995    20489605.6224   20489612.6844
       209.0004        209.0004
  -9167890.40448  -7129648.40346  23045693.119    23045693.7904   23045697.7044
       176.0004        177.0004
 -19159955.48749 -14918038.24847  20885457.437    20885458.0874   20885464.0014
       202.0004        200.0004
 -14611522.87049 -11326844.87247  22791812.333    22791813.2844   22791819.7734
       199.0004        199.0004
  -9093005.82347  -7075051.91345  23278146.253    23278147.4764   23278155.6984
       153.0004        156.0004
 -12897946.15048 -10024839.86746  22226364.800    22226364.5994   22226368.4624
       170.0004        171.0004
 -19055845.34549 -14828222.78648  20794437.945    20794437.9454   20794444.4064
       214.0004        214.0004
   1712070.90948   1685992.80446  24789305.027    24789305.4234   24789314.1694
       166.0004        167.0004
 21  2  4  0 52 30.0000000  0  7G08G07G04G27G01G21G09
 -21586904.82349 -16475538.60847  20498240.443    20498241.2434   20498247.9744
       209.0004        209.0004
  -9242472.23648  -7187764.13146  23031501.298    23031500.9834   23031505.3034
       177.0004        178.0004
 -19099379.83249 -14870836.44547  20896984.893    20896985.6024   20896990.7494
       201.0004        199.0004
 -14513733.38449 -11250645.28047  22810421.731    22810422.6044   22810428.7664
       200.0004        202.0004
  -9169886.45547  -7134958.88145  23263517.627    23263518.2524   23263526.3394
       153.0004        156.0004
 -12937701.40248 -10055817.98046  22218798.205    22218798.5364   22218803.6394
       170.0004        171.0004
 -19064249.18949 -14834771.23848  20792838.513    20792838.7474   20792845.3094
       213.0004        214.0004
 21  2  4  0 53  0.0000000  0  7G08G07G04G27G01G21G09
 -21541014.39249 -16439779.82247  20506973.618    20506973.6134   20506980.3494
       209.0004        210.0004
  -9317117.10248  -7245928.95646  23017296.973    23017297.2214   23017300.1924
       178.0004        180.0004
 -19038352.68349 -14823282.80947  20908598.308    20908598.5374   20908603.9504
       201.0004        200.0004
 -14415696.65149 -11174253.02347  22829078.261    22829078.4724   22829084.2964
       201.0004        201.0004
  -9246830.85047  -7194915.52145  23248874.689    23248876.9614   23248883.4914
       153.0004        156.0004
 -12977201.53448 -10086597.28946  22211282.052    22211281.7274   22211286.7784
       169.0004        171.0004
 -19072085.85449 -14840877.73148  20791346.821    20791347.2164   20791354.2044
       213.0004        214.0004
 21  2  4  0 53 30.0000000  0  7G08G07G04G27G01G21G09
 -21494613.29349 -16403623.12747  20515803.273    20515803.6764   20515810.4184
       209.0004        209.0004
  -9391823.20348  -7304141.50646  23003079.734    23003079.9724   23003084.8424
       179.0004        180.0004
 -18976876.19449 -14775379.04847  20920296.126    20920296.7624   20920302.8614
       201.0004        200.0004
 -14317415.51449 -11097670.31647  22847781.064    22847780.9194   22847786.6464
       201.0004        202.0004
  -9323836.01547  -7254919.53745  23234222.648    23234223.5204   23234231.7604
       155.0004        157.0004
 -13016443.69548 -10117175.59046  22203815.053    22203814.1664   22203819.6534
       168.0004        168.0004
 -19079355.18349 -14846542.15648  20789964.390    20789964.4644   20789970.7444
       213.0004        214.0004
 21  2  4  0 54  0.0000000  0  7G08G07G04G27G01G21G09
 -21447702.08349 -16367068.93347  20524729.787    20524730.1584   20524736.9054
       208.0004        208.0004
  -9466588.17848  -7362399.92246  22988853.386    22988853.6114   22988856.9524
       179.0004        181.0004
 -18914951.81849 -14727126.29247  20932080.200    20932081.0084   20932086.4344
       201.0004        199.0004
 -14218892.21949 -11020898.92947  22866529.845    22866529.6864   22866535.2214
       202.0004        202.0004
  -9400898.44547  -7314968.14445  23219556.446    23219557.2424   23219566.2374
       156.0004        158.0004
 -13055424.39848 -10147550.14046  22196395.508    22196395.2574   22196400.1684
       167.0004        166.0004
 -19086056.41449 -14851763.89548  20788688.820    20788688.9764   20788695.6334
       213.0004        214.0004
 21  2  4  0 54 30.0000000  0  7G08G07G04G27G01G21G09
 -21400283.19949 -16330119.14247  20533753.204    20533753.6864   20533760.4564
       208.0004        208.0004
  -9541409.52148  -7420702.26546  22974615.176    22974615.5304   22974618.7764
       179.0004        180.0004
 -18852581.32149 -14678525.89347  20943949.183    20943949.8284   20943954.7214
       201.0004        200.0004
 -14120129.14549 -10943940.69947  22885322.409    22885322.8854   22885329.9814
       202.0004        202.0004
  -9478014.65947  -7375058.68845  23204883.438    23204884.5494   23204891.3184
       158.0004        160.0004
 -13094140.51448 -10177718.52446  22189028.651    22189027.7014   22189033.7834
       166.0004        167.0004
 -19092189.00149 -14856542.53048  20787521.602    20787522.0514   20787528.9814
       214.0004        215.0004
 21  2  4  0 55  0.0000000  0  7G08G07G04G27G01G21G09
 -21352358.43949 -16292775.17747  20542873.258    20542873.6324   20542880.4724
       208.0004        209.0004
  -9616285.94848  -7479047.54946  22960365.863    22960366.3184   22960371.6284
       179.0004        180.0004
 -18789767.21749 -14629579.84247  20955901.960    20955902.5344   20955907.6634
       200.0004        199.0004
 -14021129.57449 -10866798.16247  22904160.398    22904161.4504   22904168.9394
       201.0004        201.0004
  -9555182.15847  -7435189.18145  23190197.821    23190198.5474   23190207.0164
       157.0004        159.0004
 -13132589.54548 -10207678.80146  22181711.348    22181712.2204   22181716.5434
       166.0004        167.0004
 -19097753.26049 -14860878.32048  20786463.142    20786463.3954   20786469.8234
       214.0004        215.0004
 21  2  4  0 55 30.0000000  0  7G08G07G04G27G01G21G09
 -21303928.98749 -16255037.92547  20552088.740    20552089.3354   20552096.1434
       208.0004        208.0004
  -9691214.44448  -7537433.36446  22946108.108    22946108.6634   22946112.1394
       180.0004        181.0004
 -18726510.14749 -14580288.61547  20967939.177    20967939.8774   20967945.3324
       200.0004        199.0004
 -13921894.74049 -10789472.32847  22923044.392    22923044.7294   22923051.7674
       200.0004        200.0004
  -9632396.33147  -7495356.04545  23175505.711    23175506.3534   23175513.9704
       158.0004        161.0004
 -13170767.08948 -10237427.50046  22174446.764    22174446.9864   22174452.5504
       167.0004        169.0004
 -19102747.59549 -14864770.01048  20785512.331    20785512.7804   20785519.5474
       214.0004        214.0004
 21  2  4  0 56  0.0000000  0  7G08G07G04G27G01G21G09
 -21254998.16049 -16216910.00747  20561400.720    20561400.9404   20561407.7014
       208.0004        209.0004
  -9766194.57748  -7595859.45346  22931840.473    22931840.3434   22931844.3664
       181.0004        182.0004
 -18662814.00949 -14530655.27947  20980060.793    20980061.1734   20980066.7164
       200.0004        199.0004
 -13822429.24149 -10711966.74047  22941972.135    22941973.2174   22941979.5524
       200.0004        200.0004
  -9709655.98647  -7555558.33946  23160803.271    23160804.3234   23160812.8344
       160.0004        163.0004
 -13208672.24948 -10266963.96546  22167234.162    22167233.7424   22167239.5074
       169.0004        171.0004
 -19107173.70049 -14868218.92948  20784670.215    20784670.8984   20784677.2964
       214.0004        214.0004
 21  2  4  0 56 30.0000000  0  7G08G07G04G27G01G21G09
 -21205567.44949 -16178392.56747  20570807.500    20570807.5534   20570813.7134
       208.0004        209.0004
  -9841223.67748  -7654323.68946  22917562.233    22917561.8034   22917566.8344
       181.0004        180.0004
 -18598680.58849 -14480681.19747  20992264.820    20992265.3564   20992270.5294
       200.0004        198.0004
 -13722735.46849 -10634283.29347  22960943.711    22960944.4724   22960950.3514
       200.0004        200.0004
  -9786957.58747  -7615793.32046  23146093.090    23146093.7864   23146101.9464
       162.0004        163.0004
 -13246302.08148 -10296285.88646  22160074.201    22160073.3354   22160078.4384
       170.0004        171.0004
 -19111031.13049 -14871224.71548  20783936.267    20783936.4874   20783943.3594
       214.0004        215.0004
 21  2  4  0 57  0.0000000  0  7G08G07G04G27G01G21G09
 -21155639.10449 -16139487.35547  20580308.610    20580308.3344   20580314.8804
       209.0004        209.0004
  -9916299.71448  -7712824.50246  22903275.381    22903276.1074   22903279.7714
       180.0004        181.0004
 -18534111.96949 -14430368.00847  21004551.639    21004552.2804   21004557.9784
       200.0004        199.0004
 -13622816.14349 -10556424.07147  22979958.351    22979958.1704   22979964.5284
       199.0004        199.0004
  -9864298.04547  -7676058.57745  23131376.198    23131376.9664   23131384.6344
       160.0004        162.0004
 -13283653.23548 -10325390.68046  22152966.463    22152965.9964   22152969.4674
       171.0004        171.0004
 -19114319.80249 -14873787.32648  20783310.546    20783310.9884   20783317.2424
       214.0004        215.0004
 21  2  4  0 57 30.0000000  0  7G08G07G04G27G01G21G09
 -21105215.82449 -16100196.47647  20589902.590    20589902.9214   20589909.9644
       208.0004        208.0004
  -9991421.70248  -7771361.10846  22888980.810    22888981.0014   22888985.5464
       181.0004        182.0004
 -18469111.22549 -14379718.08147  21016920.873    21016921.1254   21016927.0864
       200.0004        198.0004
 -13522674.91949 -10478391.95347  22999013.880    22999014.5884   22999020.3864
       200.0004        199.0004
  -9941675.12847  -7736352.37945  23116651.287    23116652.1754   23116660.1854
       160.0004        162.0004
 -13320723.77348 -10354276.80846  22145913.187    22145912.3484   22145915.8234
       172.0004        173.0004
 -19117040.58449 -14875907.41548  20782792.448    20782793.0454   20782799.6344
       214.0004        215.0004
 21  2  4  0 58  0.0000000  0  7G08G07G04G27G01G21G09
 -21054300.48749 -16060522.17947  20599591.050    20599591.5034   20599598.7454
       207.0004        207.0004
 -10066588.18148  -7829932.39046  22874676.236    22874677.3554   22874681.4714
       181.0004        181.0004
 -18403681.10049 -14328733.57947  21029371.336    21029372.1764   21029378.2074
       199.0004        198.0004
 -13422315.17649 -10400189.55047  23018112.571    23018112.8064   23018119.1064
       199.0004        199.0004
 -10019086.37847  -7796672.81945  23101920.961    23101921.2344   23101927.8804
       160.0004        161.0004
 -13357511.66748 -10382942.67846  22138911.434    22138911.4284   22138916.5284
       172.0004        173.0004
 -19119194.09249 -14877585.47748  20782383.387    20782383.4524   20782390.0424
       215.0004        215.0004
 21  2  4  0 58 30.0000000  0  7G08G07G04G27G01G21G09
 -21002895.64049 -16020466.45547  20609373.452    20609373.8314   20609380.6744
       206.0004        206.0004
 -10141797.63848  -7888537.15846  22860363.888    22860364.3774   22860368.7874
       179.0004        178.0004
 -18337824.17549 -14277416.51247  21041904.454    21041904.6864   21041909.8414
       199.0004        198.0004
 -13321739.99149 -10321819.29447  23037251.725    23037251.3724   23037258.0064
       197.0004        196.0004
 -10096528.97947  -7857017.71646  23087183.697    23087183.9074   23087191.6814
       161.0004        163.0004
 -13394014.63948 -10411386.53246  22131965.826    22131964.7514   22131970.5734
       173.0004        173.0004
 -19120780.72649 -14878821.81948  20782080.995    20782081.1814   20782087.6624
       214.0004        214.0004
 21  2  4  0 59  0.0000000  0  7G08G07G04G27G01G21G09
 -20951001.93949 -15980029.79447  20619248.259    20619248.8894   20619256.1954
       207.0004        207.0004
 -10217046.65648  -7947172.73046  22846045.705    22846046.3064   22846048.8354
       179.0004        180.0004
 -18271541.21349 -14225767.45447  21054517.674    21054517.7674   21054523.0294
       199.0004        197.0004
 -13220950.81949 -10243282.27247  23056430.999    23056430.9274   23056437.3384
       196.0004        195.0004
 -10173998.37147  -7917383.45746  23072441.342    23072442.0614   23072450.1214
       161.0004        163.0004
 -13430228.25348 -10439604.92846  22125073.857    22125073.5284   22125079.1774
       172.0004        171.0004
 -19121799.13749 -14879615.38248  20781887.091    20781887.4134   20781894.2194
       214.0004        214.0004
 21  2  4  0 59 30.0000000  0  7G08G07G04G27G01G21G09
 -20898622.46949 -15939214.61747  20629216.343    20629216.6854   20629223.5114
       207.0004        207.0004
 -10292334.17548  -8005838.33246  22831718.422    22831718.7774   22831723.1284
       179.0004        180.0004
 -18204835.70449 -14173789.14747  21067211.177    21067211.8084   21067216.5414
       199.0004        197.0004
 -13119951.48949 -10164581.50447  23075649.510    23075649.3964   23075657.5344
       195.0004        194.0004
 -10251492.76047  -7977768.67946  23057695.033    23057696.1724   23057703.8044
       162.0004        164.0004
 -13466151.05848 -10467596.71446  22118237.389    22118237.1224   22118243.1314
       171.0004        171.0004
 -19122250.67749 -14879967.23448  20781801.438    20781801.7214   20781808.2714
       214.0004        215.0004
 21  2  4  1  0  0.0000000  0  7G08G07G04G27G01G21G09
 -20845759.00449 -15898022.28247  20639276.322    20639276.5204   20639283.2814
       207.0004        208.0004
 -10367657.52948  -8064531.83246  22817385.900    22817385.8054   22817389.5544
       180.0004        181.0004
 -18137709.54549 -14121483.04947  21079985.095    21079985.5844   21079990.7294
       199.0004        197.0004
 -13018744.46749 -10085718.90547  23094908.176    23094908.7394   23094915.8824
       195.0004        194.0004
 -10329008.55247  -8038170.56446  23042944.691    23042944.4104   23042952.5524
       162.0004        164.0004
 -13501779.76848 -10495359.33646  22111457.904    22111458.0544   22111461.0774
       170.0004        171.0004
 -19122135.08149 -14879877.15848  20781823.399    20781823.9414   20781830.3204
       215.0004        215.0004
 21  2  4  1  0 30.0000000  0  7G08G07G04G27G01G21G09
 -20792414.62649 -15856455.23347  20649427.382    20649427.6444   20649434.2294
       207.0004        207.0004
 -10443015.87948  -8123252.63846  22803045.936    22803046.0374   22803048.8424
       181.0004        181.0004
 -18070165.80149 -14068851.56847  21092838.082    21092838.3104   21092844.0104
       199.0004        197.0004
 -12917333.39549 -10006697.28147  23114207.081    23114206.9344   23114213.6544
       195.0004        195.0004
 -10406543.45847  -8098587.35146  23028189.714    23028189.9784   23028197.7294
       162.0004        163.0004
 -13537112.63248 -10522891.41946  22104734.650    22104734.5054   22104738.8594
       171.0004        172.0004
 -19121453.35749 -14879345.95548  20781952.862    20781953.2944   20781960.3014
       215.0004        215.0004
 21  2  4  1  1  0.0000000  0  7G08G07G04G27G01G21G09
 -20738592.00049 -15814515.51247  20659668.912    20659669.2074   20659675.8514
       206.0004        206.0004
 -10518407.23948  -8181999.15146  22788698.253    22788698.4804   22788703.0404
       179.0004        180.0004
 -18002206.93549 -14015896.60647  21105769.642    21105770.4524   21105776.5454
       198.0004        197.0004
 -12815721.14548  -9927518.91547  23133543.381    23133543.3454   23133549.3454
       194.0004        194.0004
 -10484094.52047  -8159016.73346  23013431.789    23013433.1304   23013441.4924
       162.0004        163.0004
 -13572146.73248 -10550190.69246  22098067.154    22098067.8114   22098071.2474
       171.0004        172.0004
 -19120205.87549 -14878373.88648  20782190.358    20782190.6634   20782197.3744
       215.0004        215.0004
 21  2  4  1  1 30.0000000  0  7G08G07G04G27G01G21G09
 -20684292.79149 -15772204.43047  20670000.881    20670001.3464   20670008.9594
       206.0004        205.0004
 -10593829.74848  -8240769.92446  22774345.465    22774346.1704   22774350.8194
       179.0004        180.0004
 -17933835.14749 -13962619.88647  21118780.380    21118780.6604   21118787.2084
       198.0004        197.0004
 -12713910.44448  -9848185.90447  23152916.018    23152917.3454   23152923.9004
       194.0004        193.0004
 -10561658.48847  -8219456.16645  22998671.477    22998671.8384   22998680.9804
       161.0004        162.0004
 -13606879.72648 -10577255.33746  22091457.043    22091456.8854   22091461.7844
       170.0004        171.0004
 -19118392.74249 -14876961.06048  20782535.648    20782535.9884   20782542.2374
       215.0004        216.0004
 21  2  4  1  2  0.0000000  0  7G08G07G04G27G01G21G09
 -20629519.94749 -15729524.28547  20680422.572    20680423.5774   20680432.1184
       205.0004        205.0004
 -10669281.70448  -8299563.64446  22759988.238    22759988.4714   22759992.2024
       179.0004        180.0004
 -17865053.54949 -13909023.83647  21131868.586    21131869.1294   21131875.7214
       197.0004        196.0004
 -12611904.80948  -9768700.98147  23172326.530    23172327.8954   23172334.6794
       193.0004        192.0004
 -10639232.96447  -8279903.81445  22983911.391    22983911.1104   22983918.2354
       160.0004        162.0004
 -13641309.45748 -10604083.68946  22084905.826    22084906.2974   22084911.0264
       170.0004        172.0004
 -19116015.02849 -14875108.29248  20782988.296    20782988.4984   20782995.1764
       215.0004        216.0004
 21  2  4  1  2 30.0000000  0  7G08G07G04G27G01G21G09
 -20574277.09349 -15686477.91347  20690936.366    20690937.0774   20690944.5834
       206.0004        207.0004
 -10744762.26048  -8358379.67446  22745623.939    22745624.6904   22745628.1054
       179.0004        179.0004
 -17795865.47649 -13855111.06347  21145035.262    21145035.5824   21145041.5554
       197.0004        196.0004
 -12509707.97648  -9689067.09247  23191775.219    23191775.4494   23191782.8654
       192.0004        193.0004
 -10716815.81447  -8340357.96245  22969147.114    22969146.7004   22969155.1974
       160.0004        161.0004
 -13675434.33148 -10630674.50046  22078412.978    22078412.3124   22078416.6044
       171.0004        173.0004
 -19113073.99349 -14872816.59148  20783547.569    20783548.1934   20783554.5184
       215.0004        216.0004
 21  2  4  1  3  0.0000000  0  7G08G07G04G27G01G21G09
 -20518564.68049 -15643065.62847  20701538.998    20701539.2034   20701545.9524
       206.0004        207.0004
 -10820267.89048  -8417215.23446  22731255.067    22731256.4284   22731260.1714
       178.0004        178.0004
 -17726271.91649 -13800882.32147  21158278.218    21158278.6694   21158284.7534
       197.0004        196.0004
 -12407321.40348  -9609285.36147  23211258.811    23211258.3224   23211266.1104
       191.0004        190.0004
 -10794402.49047  -8400815.10245  22954382.497    22954382.2064   22954391.0354
       160.0004        162.0004
 -13709250.04548 -10657024.37246  22071976.870    22071976.5644   22071982.4574
       172.0004        173.0004
 -19109568.58549 -14870085.11048  20784214.212    20784215.1544   20784221.2124
       215.0004        215.0004
 21  2  4  1  3 30.0000000  0  7G08G07G04G27G01G21G09
 -20462384.68649 -15599288.99747  20712229.687    20712229.8434   20712236.9014
       207.0004        207.0004
 -10895795.59848  -8476067.98846  22716882.899    22716883.8534   22716887.5094
       177.0004        179.0004
 -17656274.41249 -13746338.81547  21171598.411    21171598.6864   21171604.8134
       197.0004        195.0004
 -12304746.95648  -9529357.23247  23230777.555    23230778.2414   23230785.5844
       191.0004        191.0004
 -10871989.00847  -8461272.11645  22939618.639    22939618.9474   22939627.1654
       160.0004        162.0004
 -13742753.25148 -10683130.74746  22065601.449    22065601.5524   22065606.4354
       173.0004        174.0004
 -19105498.31949 -14866913.48048  20784989.083    20784989.4784   20784995.9054
       215.0004        215.0004
 21  2  4  1  4  0.0000000  0  7G08G07G04G27G01G21G09
 -20405740.60349 -15555150.73547  20723008.264    20723008.8734   20723016.1284
       207.0004        206.0004
 -10971344.30648  -8534937.07546  22702507.468    22702507.9904   22702511.4624
       179.0004        181.0004
 -17585876.55849 -13691483.34047  21184994.763    21184995.4294   21185001.2434
       196.0004        195.0004
 -12201988.75448  -9449285.89447  23250331.503    23250332.6884   23250339.5274
       191.0004        191.0004
 -10949573.37847  -8521727.44846  22924853.111    22924854.9674   22924863.0664
       161.0004        164.0004
 -13775942.50648 -10708992.48746  22059286.348    22059285.8374   22059290.6964
       174.0004        176.0004
 -19100864.80049 -14863302.93848  20785870.771    20785871.0884   20785877.5654
       214.0004        214.0004
 21  2  4  1  4 30.0000000  0  7G08G07G04G27G01G21G09
 -20348635.34249 -15510653.13647  20733875.126    20733875.0234   20733882.2414
       205.0004        205.0004
 -11046913.62848  -8593822.28446  22688127.684    22688127.6034   22688131.6364
       181.0004        182.0004
 -17515082.04049 -13636318.79947  21198466.698    21198467.3524   21198473.0934
       197.0004        196.0004
 -12099050.72948  -9369074.48047  23269919.085    23269920.3374   23269927.5024
       190.0004        189.0004
 -11027153.74447  -8582179.67446  22910091.648    22910091.7034   22910099.9534
       162.0004        164.0004
 -13808816.58048 -10734608.64746  22053030.197    22053030.0404   22053034.5364
       174.0004        174.0004
 -19095669.75049 -14859254.85048  20786859.474    20786860.0584   20786866.4154
       214.0004        215.0004
 21  2  4  1  5  0.0000000  0  7G08G07G04G27G01G21G09
 -20291071.64849 -15465798.30847  20744828.778    20744829.3064   20744836.7024
       204.0004        205.0004
 -11122500.94848  -8652721.48946  22673742.233    22673743.7114   22673747.7534
       181.0004        180.0004
 -17443893.33249 -13580847.07947  21212013.543    21212013.9004   21212019.7714
       197.0004        196.0004
 -11995935.70648  -9288725.09247  23289542.568    23289542.6064   23289549.8094
       189.0004        190.0004
 -11104726.92547  -8642626.28246  22895330.366    22895331.2594   22895337.3554
       162.0004        163.0004
 -13841372.73648 -10759977.05346  22046836.207    22046834.6654   22046839.9694
       174.0004        175.0004
 -19089913.55649 -14854769.51348  20787955.727    20787955.5744   20787962.0324
       215.0004        216.0004
 21  2  4  1  5 30.0000000  0  7G08G07G04G27G01G21G09
 -20233052.65749 -15420588.70447  20755869.000    20755869.7834   20755877.6104
       205.0004        205.0004
 -11198105.16048  -8711633.85246  22659355.794    22659356.3654   22659359.8354
       180.0004        180.0004
 -17372313.77149 -13525070.79847  21225634.117    21225635.1174   21225641.1154
       197.0004        195.0004
 -11892647.40048  -9208240.71347  23309198.315    23309198.2414   23309204.9584
       190.0004        191.0004
 -11182290.61747  -8703065.51245  22880570.748    22880570.2644   22880578.3254
       161.0004        162.0004
 -13873609.08848 -10785096.28846  22040701.707    22040700.8664   22040705.7774
       174.0004        174.0004
 -19083597.68449 -14849848.05848  20789156.997    20789157.1974   20789163.7354
       215.0004        216.0004
 21  2  4  1  6  0.0000000  0  7G08G07G04G27G01G21G09
 -20174580.86249 -15375026.25347  20766996.391    20766996.5544   20767003.9764
       205.0004        205.0004
 -11273724.09048  -8770557.69246  22644966.274    22644966.7954   22644969.8624
       180.0004        181.0004
 -17300345.60149 -13468991.70447  21239329.437    21239330.0424   21239336.0044
       196.0004        195.0004
 -11789188.35548  -9127623.30247  23328886.004    23328886.2714   23328892.9954
       191.0004        192.0004
 -11259841.47547  -8763494.74145  22865812.768    22865813.4134   22865820.2744
       160.0004        162.0004
 -13905523.23848 -10809964.43346  22034629.198    22034628.2404   22034632.4564
       174.0004        175.0004
 -19076722.39349 -14844490.68648  20790465.191    20790465.3514   20790472.1954
       215.0004        215.0004
 21  2  4  1  6 30.0000000  0  7G08G07G04G27G01G21G09
 -20115658.23749 -15329112.52347  20778209.058    20778209.4594   20778216.7654
       205.0004        205.0004
 -11349355.26548  -8829491.06846  22630573.848    22630574.2044   22630579.4074
       181.0004        183.0004
 -17227990.93749 -13412611.45547  21253098.019    21253098.5104   21253104.4864
       196.0004        194.0004
 -11685561.02448  -9046874.72747  23348606.630    23348606.5134   23348611.9054
       189.0004        190.0004
 -11337376.02347  -8823911.23546  22851058.486    22851059.4084   22851066.7834
       161.0004        163.0004
 -13937112.20448 -10834579.21646  22028617.114    22028616.8824   22028621.2424
       174.0004        174.0004
 -19069287.93349 -14838697.62048  20791879.794    20791880.1194   20791886.5544
       214.0004        215.0004
 21  2  4  1  7  0.0000000  0  7G08G07G04G27G01G21G09
 -20056286.85449 -15282849.08647  20789507.055    20789507.3204   20789514.7574
       205.0004        205.0004
 -11424996.82148  -8888432.52646  22616179.900    22616179.5854   22616183.8304
       182.0004        183.0004
 -17155252.52049 -13355932.15947  21266939.416    21266940.0444   21266946.5974
       195.0004        193.0004
 -11581768.42448  -8965997.38147  23368358.322    23368357.0914   23368364.3494
       191.0004        192.0004
 -11414891.22447  -8884312.66246  22836307.701    22836308.1764   22836316.5814
       162.0004        165.0004
 -13968373.28548 -10858938.47346  22022668.231    22022668.5414   22022672.9394
       173.0004        175.0004
 -19061295.07549 -14832469.41148  20793400.612    20793401.1694   20793407.6284
       214.0004        214.0004
 21  2  4  1  7 30.0000000  0  7G08G07G04G27G01G21G09
 -19996469.84149 -15236238.40947  20800889.712    20800890.0814   20800897.7034
       204.0004        204.0004
 -11500646.00748  -8947379.95346  22601784.553    22601785.4694   22601788.1534
       183.0004        184.0004
 -17082132.72749 -13298955.70647  21280854.201    21280854.3634   21280861.3374
       195.0004        195.0004
 -11477813.16948  -8884993.28247  23388138.234    23388138.3374   23388145.8764
       192.0004        193.0004
 -11492383.74047  -8944696.42346  22821560.879    22821561.2104   22821569.7054
       162.0004        163.0004
 -13999303.73448 -10883040.08946  22016781.797    22016781.9854   22016785.8914
       173.0004        174.0004
 -19052744.29149 -14825806.46348  20795028.096    20795028.4424   20795034.5914
       214.0004        215.0004
 21  2  4  1  8  0.0000000  0  7G08G07G04G27G01G21G09
 -19936208.31749 -15189281.37747  20812357.131    20812357.1144   20812364.7414
       204.0004        204.0004
 -11576300.47448  -9006331.49146  22587387.187    22587387.7234   22587392.5314
       183.0004        183.0004
 -17008633.50549 -13241683.59847  21294840.900    21294840.9494   21294846.8464
       195.0004        194.0004
 -11373697.44748  -8803864.16347  23407950.209    23407951.0474   23407958.4854
       193.0004        193.0004
 -11569849.83047  -9005059.58146  22806819.896    22806820.7154   22806828.6504
       161.0004        163.0004
 -14029901.01448 -10906882.12546  22010960.318    22010959.6654   22010964.0444
       173.0004        174.0004
 -19043635.60449 -14818708.79148  20796761.525    20796761.8054   20796768.4434
       215.0004        215.0004
 21  2  4  1  8 30.0000000  0  7G08G07G04G27G01G21G09
 -19875505.17649 -15141980.22647  20823908.607    20823908.7274   20823916.2124
       203.0004        204.0004
 -11651958.12848  -9065285.49746  22572990.954    22572991.6054   22572995.4964
       184.0004        185.0004
 -16934757.31049 -13184117.73847  21308899.418    21308899.8954   21308905.0424
       196.0004        195.0004
 -11269423.95548  -8722612.09147  23427791.332    23427793.0644   23427801.1714
       192.0004        193.0004
 -11647286.17747  -9065399.56546  22792084.222    22792084.9264   22792092.8304
       163.0004        165.0004
 -14060161.66948 -10930461.84446  22005201.220    22005201.2794   22005205.9564
       173.0004        174.0004
 -19033969.64849 -14811176.88148  20798600.465    20798600.9824   20798607.9134
       214.0004        215.0004
 21  2  4  1  9  0.0000000  0  7G08G07G04G27G01G21G09
 -19814363.76749 -15094337.57547  20835543.589    20835543.8754   20835551.0774
       204.0004        205.0004
 -11727617.68348  -9124240.99746  22558593.072    22558593.7994   22558597.6504
       184.0004        185.0004
 -16860507.75449 -13126260.95347  21323028.332    21323028.5994   21323034.3284
       196.0004        195.0004
 -11164996.62748  -8641240.14747  23447663.467    23447665.0274   23447672.0114
       192.0004        191.0004
 -11724690.66148  -9125714.73546  22777354.603    22777354.5764   22777363.5944
       165.0004        168.0004
 -14090084.77348 -10953778.53846  21999506.979    21999506.5334   21999511.3194
       173.0004        173.0004
 -19023748.14449 -14803212.08548  20800545.849    20800545.9904   20800552.8994
       214.0004        215.0004
 21  2  4  1  9 30.0000000  0  7G08G07G04G27G01G21G09
 -19752786.77649 -15046355.49747  20847261.053    20847261.5134   20847268.2624
       203.0004        203.0004
 -11803276.97648  -9183196.29246  22544196.193    22544196.1644   22544199.8704
       185.0004        185.0004
 -16785887.52549 -13068115.31347  21337227.131    21337227.8704   21337233.6434
       196.0004        194.0004
 -11060418.22648  -8559750.48047  23467566.100    23467565.6544   23467572.9924
       192.0004        191.0004
 -11802060.20248  -9186002.65146  22762632.365    22762632.4724   22762640.1664
       167.0004        169.0004
 -14119668.24848 -10976830.58746  21993876.680    21993876.8794   21993880.8464
       172.0004        173.0004
 -19012971.96949 -14794815.06948  20802596.306    20802596.5754   20802603.2724
       214.0004        215.0004
 21  2  4  1 10  0.0000000  0  7G08G07G04G27G01G21G09
 -19690777.93349 -14998036.90947  20859060.494    20859061.3284   20859068.1924
       203.0004        203.0004
 -11878935.18948  -9242150.72946  22529797.549    22529798.2014   22529802.6454
       184.0004        184.0004
 -16710900.45049 -13009683.82847  21351497.880    21351498.2124   21351503.9554
       195.0004        194.0004
 -10955692.80948  -8478146.28047  23487495.826    23487495.0364   23487500.9094
       190.0004        190.0004
 -11879392.85648  -9246261.84046  22747916.750    22747916.3854   22747923.5384
       166.0004        167.0004
 -14148910.56548 -10999616.79146  21988312.774    21988312.5084   21988316.4994
       172.0004        173.0004
 -19001643.11949 -14785987.40348  20804752.642    20804752.8324   20804758.8684
       214.0004        214.0004
 21  2  4  1 10 30.0000000  0  7G08G07G04G27G01G21G09
 -19628340.54649 -14949384.38847  20870941.680    20870942.4394   20870950.1684
       203.0004        203.0004
 -11954590.57348  -9301102.97246  22515402.203    22515402.4324   22515405.8494
       185.0004        187.0004
 -16635549.81749 -12950969.05947  21365836.239    21365836.9434   21365842.5024
       196.0004        195.0004
 -10850823.89748  -8396430.23547  23507451.197    23507450.8834   23507457.8654
       191.0004        192.0004
 -11956686.03248  -9306490.27546  22733208.136    22733208.3524   22733215.1634
       167.0004        168.0004
 -14177809.96048 -11022135.77346  21982812.286    21982811.8244   21982817.3494
       171.0004        172.0004
 -18989763.04349 -14776730.19348  20807012.452    20807012.9784   20807019.8334
       214.0004        214.0004
 21  2  4  1 11  0.0000000  0  8G08G07G04G30G27G01G21G09
 -19565476.01449 -14900399.04647  20882905.265    20882905.1314   20882912.9254
       203.0004        203.0004
 -12030240.32948  -9360050.83646  22501006.603    22501007.0504   22501010.1994
       186.0004        186.0004
 -16559837.42749 -12891972.39947  21380243.622    21380243.9164   21380250.0734
       195.0004        193.0004
   -304977.06556   -208026.96245  24400413.721    24400412.6185   24400421.6094
       134.0004        144.0004
 -10745813.39248  -8314603.86347  23527434.337    23527433.8854   23527438.7214
       190.0004        189.0004
 -12033935.77248  -9366684.84746  22718507.428    22718507.2584   22718515.4464
       167.0004        168.0004
 -14206363.16448 -11044384.99746  21977379.083    21977378.7864   21977383.6804
       172.0004        174.0004
 -18977331.74949 -14767043.47648  20809378.127    20809378.6974   20809385.4464
       214.0004        214.0004
 21  2  4  1 11 30.0000000  0  8G08G07G04G30G27G01G21G09
 -19502186.91349 -14851082.86847  20894948.680    20894948.8744   20894955.9104
       202.0004        203.0004
 -12105882.20948  -9418992.56046  22486611.918    22486611.7354   22486616.2534
       186.0004        187.0004
 -16483765.81848 -12832695.82647  21394719.089    21394719.8114   21394725.9404
       194.0004        192.0004
   -387874.62147   -272622.45845  24384638.531    24384639.9044   24384646.7534
       140.0004        146.0004
 -10640663.98148  -8232669.27447  23547443.050    23547442.9884   23547448.9224
       190.0004        191.0004
 -12111138.71648  -9426842.96646  22703815.818    22703815.7804   22703825.3154
       167.0004        169.0004
 -14234567.80848 -11066362.62946  21972012.555    21972012.2674   21972017.0664
       173.0004        174.0004
 -18964350.01549 -14756927.84948  20811848.981    20811849.1154   20811855.9754
       214.0004        215.0004
 21  2  4  1 12  0.0000000  0  8G08G07G04G30G27G01G21G09
 -19438475.68249 -14801437.74147  20907071.976    20907072.3874   20907079.8964
       202.0004        202.0004
 -12181513.75048  -9477926.21047  22472219.340    22472220.3504   22472224.2394
       188.0004        189.0004
 -16407337.56048 -12773141.32847  21409264.032    21409263.9864   21409269.7944
       194.0004        193.0004
   -470889.67047   -337309.52745  24368843.600    24368842.2404   24368847.9524
       141.0004        145.0004
 -10535378.37048  -8150628.55047  23567478.516    23567478.4804   23567484.0394
       190.0004        190.0004
 -12188291.60948  -9486962.06446  22689132.718    22689134.0134   22689143.8984
       168.0004        170.0004
 -14262421.40148 -11088066.72046  21966712.143    21966712.6614   21966716.6674
       174.0004        176.0004
 -18950818.65849 -14746383.93848  20814423.901    20814424.2054   20814430.5494
       214.0004        215.0004
 21  2  4  1 12 30.0000000  0  8G08G07G04G30G27G01G21G09
 -19374346.13849 -14751466.67747  20919275.039    20919275.4874   20919283.1824
       201.0004        201.0004
 -12257133.80248  -9536850.93747  22457829.608    22457830.4244   22457833.2604
       188.0004        188.0004
 -16330556.34048 -12713311.82347  21423874.764    21423875.1574   21423880.6564
       193.0004        191.0004
   -554021.95247   -402087.90445  24353021.803    24353021.7314   24353030.3464
       139.0004        144.0004
 -10429960.37348  -8068484.65247  23587539.178    23587539.3604   23587544.9304
       191.0004        191.0004
 -12265392.26948  -9547040.48746  22674462.682    22674463.3184   22674470.0614
       168.0004        170.0004
 -14289922.67548 -11109496.27446  21961477.149    21961477.9904   21961484.2674
       174.0004        176.0004
 -18936739.62749 -14735413.27148  20817102.629    20817103.0344   20817110.0094
       214.0004        215.0004
 21  2  4  1 13  0.0000000  0  8G08G07G04G30G27G01G21G09
 -19309800.11449 -14701171.06747  20931558.025    20931558.4604   20931565.8564
       201.0004        201.0004
 -12332739.08448  -9595764.15947  22443442.151    22443442.5504   22443446.4664
       188.0004        188.0004
 -16253423.87548 -12653208.60047  21438552.142    21438552.8444   21438558.1884
       193.0004        192.0004
   -637269.11447   -466955.78045  24337178.635    24337179.7414   24337188.2264
       140.0004        146.0004
 -10324411.80448  -7986239.01847  23607624.028    23607624.3534   23607629.4894
       189.0004        188.0004
 -12342436.50248  -9607074.93446  22659800.716    22659802.0064   22659809.6984
       169.0004        170.0004
 -14317068.10048 -11130648.54146  21956312.808    21956312.4864   21956319.0194
       175.0004        175.0004
 -18922112.83749 -14724015.78248  20819886.550    20819886.9514   20819893.2924
       215.0004        215.0004
 21  2  4  1 13 30.0000000  0  8G08G07G04G30G27G01G21G09
 -19244837.52449 -14650550.86447  20943919.937    20943920.2854   20943927.9394
       201.0004        201.0004
 -12408325.68548  -9654662.80747  22429058.768    22429058.8564   22429062.8614
       187.0004        188.0004
 -16175940.81148 -12592832.18847  21453296.276    21453297.2904   21453303.0124
       193.0004        192.0004
   -720627.84147   -531910.62845  24321318.680    24321318.4274   24321324.9174
       141.0004        146.0004
 -10218733.39548  -7903892.22146  23627733.517    23627733.9734   23627740.2704
       187.0004        185.0004
 -12419419.00148  -9667061.28846  22645151.729    22645152.0644   22645160.4144
       169.0004        171.0004
 -14343853.26048 -11151520.08546  21951216.950    21951216.6214   21951221.0114
       175.0004        175.0004
 -18906937.27849 -14712190.67648  20822774.268    20822774.6754   20822780.9954
       214.0004        215.0004
 21  2  4  1 14  0.0000000  0  8G08G07G04G30G27G01G21G09
 -19179463.67349 -14599610.19647  20956359.969    20956360.9144   20956368.2654
       201.0004        201.0004
 -12483893.36248  -9713546.69547  22414678.546    22414678.7904   22414683.5394
       188.0004        189.0004
 -16098111.91248 -12532186.29347  21468107.874    21468108.0024   21468113.8764
       193.0004        192.0004
   -804098.77547   -596952.91545  24305434.595    24305435.3924   24305439.8844
       144.0004        148.0004
 -10112929.99148  -7821448.00746  23647868.180    23647867.7954   23647873.8614
       185.0004        185.0004
 -12496338.65448  -9726998.65246  22630514.735    22630514.2814   22630523.4274
       170.0004        171.0004
 -14370278.15448 -11172110.91146  21946188.151    21946187.2504   21946192.1814
       176.0004        177.0004
 -18891216.02949 -14699940.35948  20825765.385    20825765.9774   20825772.3364
       214.0004        214.0004
 21  2  4  1 14 30.0000000  0  8G08G07G04G30G27G01G21G09
 -19113681.18449 -14548351.10947  20968879.171    20968879.5274   20968886.6204
       201.0004        202.0004
 -12559439.79448  -9772414.00546  22400302.981    22400303.3874   22400306.9784
       187.0004        187.0004
 -16019940.12448 -12471273.22247  21482982.172    21482983.3434   21482988.7074
       193.0004        191.0004
   -887680.88747   -662081.83145  24289529.074    24289529.1944   24289535.4864
       146.0004        150.0004
 -10007004.48848  -7738908.65146  23668025.066    23668024.6794   23668030.9494
       185.0004        186.0004
 -12573192.43048  -9786884.68846  22615889.916    22615890.0764   22615898.3854
       170.0004        171.0004
 -14396340.37748 -11192419.12246  21941228.231    21941228.1114   21941232.9554
       176.0004        177.0004
 -18874950.29849 -14687265.76948  20828861.323    20828861.4414   20828868.0374
       214.0004        214.0004
 21  2  4  1 15  0.0000000  0  8G08G07G04G30G27G01G21G09
 -19047492.22649 -14496775.29147  20981474.115    20981474.5244   20981481.6264
       201.0004        201.0004
 -12634962.28348  -9831262.70146  22385931.003    22385931.6324   22385935.0034
       187.0004        186.0004
 -15941427.76848 -12410094.76447  21497923.062    21497923.7454   21497929.0424
       192.0004        191.0004
   -971372.35447   -727295.92945  24273603.910    24273603.7484   24273611.5714
       148.0004        153.0004
  -9900959.38748  -7656276.11246  23688205.941    23688205.1614   23688209.7904
       186.0004        186.0004
 -12649976.73248  -9846716.60746  22601278.232    22601279.1924   22601286.7464
       170.0004        171.0004
 -14422037.23848 -11212442.62346  21936338.635    21936338.0504   21936342.4934
       177.0004        178.0004
 -18858140.77649 -14674167.44248  20832060.115    20832060.2324   20832066.7584
       214.0004        215.0004
 21  2  4  1 15 30.0000000  0  8G08G07G04G30G27G01G21G09
 -18980900.23849 -14444885.42847  20994145.443    20994145.9164   20994153.8904
       200.0004        200.0004
 -12710459.89348  -9890092.02047  22371564.523    22371564.9404   22371568.6054
       187.0004        188.0004
 -15862578.29748 -12348653.63247  21512927.313    21512927.7594   21512933.7954
       192.0004        190.0004
  -1055172.49647   -792594.73445  24257657.901    24257656.9614   24257664.1524
       152.0004        155.0004
  -9794798.09148  -7573553.04047  23708406.749    23708407.0954   23708412.2634
       188.0004        189.0004
 -12726689.01648  -9906492.40046  22586680.808    22586681.0374   22586688.9104
       170.0004        170.0004
 -14447367.55348 -11232180.53646  21931518.885    21931518.5124   21931523.2114
       177.0004        179.0004
 -18840789.25749 -14660646.78548  20835362.013    20835362.3044   20835368.6164
       214.0004        215.0004
 21  2  4  1 16  0.0000000  0  8G08G07G04G30G27G01G21G09
 -18913908.28549 -14392683.90047  21006893.234    21006893.6294   21006901.8654
       199.0004        199.0004
 -12785930.45148  -9948900.23847  22357202.503    22357203.6264   22357207.3984
       188.0004        188.0004
 -15783394.78248 -12286952.18847  21527995.734    21527996.1064   21528002.2174
       192.0004        191.0004
  -1139080.36947   -857977.48745  24241690.094    24241689.7764   24241696.1314
       152.0004        155.0004
  -9688523.73148  -7490741.84146  23728629.790    23728629.9674   23728634.9164
       187.0004        186.0004
 -12803326.41148  -9966209.81446  22572095.523    22572096.7194   22572105.2394
       169.0004        170.0004
 -14472329.33448 -11251631.26846  21926768.917    21926767.8544   21926772.9914
       178.0004        178.0004
 -18822897.21549 -14646704.93548  20838766.845    20838767.2824   20838773.4744
       215.0004        216.0004
 21  2  4  1 16 30.0000000  0  8G08G07G04G30G27G01G21G09
 -18846518.31649 -14340172.24247  21019717.903    21019718.2554   21019725.5374
       199.0004        199.0004
 -12861370.79948 -10007684.92246  22342847.656    22342847.5264   22342850.8584
       187.0004        186.0004
 -15703879.35848 -12224992.13047  21543127.596    21543127.8774   21543133.5344
       192.0004        192.0004
  -1223093.92547   -923442.58345  24225701.843    24225701.9264   24225709.2584
       152.0004        154.0004
  -9582138.40348  -7407844.18747  23748874.897    23748874.4904   23748880.3054
       188.0004        189.0004
 -12879884.97848 -10025865.83446  22557528.400    22557528.3584   22557536.6304
       169.0004        170.0004
 -14496919.63348 -11270792.52946  21922088.551    21922088.1884   21922093.5104
       177.0004        178.0004
 -18804465.13949 -14632342.28348  20842274.398    20842274.5614   20842280.6554
       215.0004        215.0004
 21  2  4  1 17  0.0000000  0  8G08G07G04G30G27G01G21G09
 -18778732.66749 -14287352.24747  21032617.369    21032617.7064   21032624.9964
       200.0004        201.0004
 -12936778.29248 -10066444.00546  22328497.227    22328497.7764   22328502.2704
       186.0004        187.0004
 -15624034.59448 -12162775.42747  21558321.413    21558321.6624   21558327.4354
       193.0004        192.0004
  -1307211.60147   -988988.81645  24209694.828    24209694.1764   24209701.9654
       151.0004        154.0004
  -9475644.62548  -7324862.02946  23769139.201    23769138.7964   23769145.3924
       187.0004        185.0004
 -12956361.33148 -10085457.77746  22542974.757    22542975.5704   22542983.8404
       169.0004        171.0004
 -14521135.90148 -11289662.33946  21917479.816    21917479.5864   21917484.8244
       177.0004        177.0004
 -18785494.00749 -14617559.58748  20845883.939    20845884.3464   20845890.9344
       214.0004        215.0004
 21  2  4  1 17 30.0000000  0  8G08G07G04G30G27G01G21G09
 -18710555.03949 -14234226.82247  21045590.503    21045591.1654   21045599.3964
       200.0004        200.0004
 -13012151.46848 -10125176.33747  22314154.231    22314154.6424   22314159.4214
       187.0004        188.0004
 -15543863.69948 -12100304.61747  21573577.191    21573577.8524   21573583.5574
       192.0004        192.0004
  -1391432.37947  -1054615.39945  24193668.270    24193668.4244   24193675.2394
       153.0004        156.0004
  -9369045.64748  -7241797.90746  23789422.644    23789423.1674   23789430.7524
       185.0004        185.0004
 -13032752.63248 -10144983.45846  22528438.175    22528439.5064   22528446.9434
       169.0004        171.0004
 -14544976.51148 -11308239.43746  21912944.519    21912943.3804   21912948.6754
       177.0004        177.0004
 -18765985.46949 -14602358.13548  20849596.446    20849596.9004   20849603.4274
       214.0004        215.0004
 21  2  4  1 18  0.0000000  0  8G08G07G04G30G27G01G21G09
 -18641987.80149 -14180797.79647  21058638.250    21058638.3944   21058647.5924
       199.0004        199.0004
 -13087487.73048 -10183879.90747  22299818.853    22299818.8164   22299822.1114
       188.0004        189.0004
 -15463369.26648 -12037581.68047  21588894.774    21588895.0454   21588900.7634
       192.0004        191.0004
  -1475754.65447  -1120321.04245  24177621.899    24177621.9894   24177630.5944
       154.0004        157.0004
  -9262343.96148  -7158653.73746  23809727.638    23809728.3864   23809734.5634
       183.0004        182.0004
 -13109055.46348 -10204440.18346  22513916.984    22513918.2794   22513926.9574
       169.0004        169.0004
 -14568438.74648 -11326521.68346  21908478.700    21908478.7434   21908484.0204
       178.0004        178.0004
 -18745940.54449 -14586738.70848  20853410.797    20853411.3594   20853417.9444
       214.0004        215.0004
 21  2  4  1 18 30.0000000  0  8G08G07G04G30G27G01G21G09
 -18573034.01349 -14127067.57047  21071759.029    21071759.8234   21071768.4584
       198.0004        198.0004
 -13162785.10448 -10242553.19546  22285490.035    22285489.9414   22285494.2204
       188.0004        187.0004
 -15382554.70148 -11974609.30047  21604272.435    21604273.3684   21604279.6944
       191.0004        191.0004
  -1560177.61947  -1186105.17645  24161557.231    24161557.6904   24161564.5044
       156.0004        159.0004
  -9155542.95348  -7075432.16846  23830051.300    23830051.4244   23830058.6874
       182.0004        183.0004
 -13185267.14948 -10263825.90146  22499416.099    22499415.8234   22499423.9434
       169.0004        170.0004
 -14591521.44248 -11344508.19546  21904085.884    21904086.0784   21904091.1964
       178.0004        178.0004
 -18725361.11049 -14570702.79148  20857326.955    20857327.4214   20857333.9544
       214.0004        215.0004
 21  2  4  1 19  0.0000000  0  8G08G07G04G30G27G01G21G09
 -18503697.09749 -14073038.79847  21084953.870    21084954.5164   21084962.3384
       198.0004        198.0004
 -13238042.45348 -10301195.27646  22271167.422    22271168.4254   22271173.0344
       187.0004        187.0004
 -15301423.35348 -11911390.06547  21619711.601    21619712.0644   21619718.2464
       191.0004        190.0004
  -1644700.41847  -1251967.08045  24145473.000    24145473.4814   24145480.9664
       157.0004        160.0004
  -9048645.82548  -6992135.72646  23850393.387    23850394.3214   23850399.3934
       182.0004        183.0004
 -13261384.98348 -10323138.46046  22484930.650    22484931.2024   22484939.4164
       169.0004        171.0004
 -14614222.93348 -11362197.65446  21899766.786    21899766.9154   21899771.3484
       178.0004        178.0004
 -18704248.94349 -14554251.75048  20861344.565    20861345.0504   20861351.3834
       214.0004        214.0004
 21  2  4  1 19 30.0000000  0  8G08G07G04G30G27G01G21G09
 -18433979.41349 -14018713.33647  21098221.628    21098221.6644   21098229.2444
       198.0004        198.0004
 -13313256.61548 -10359803.72246  22256855.647    22256856.1924   22256860.4714
       187.0004        187.0004
 -15219977.48948 -11847925.75347  21635211.043    21635211.2424   21635216.4204
       191.0004        190.0004
  -1729321.07047  -1317905.24445  24129370.320    24129370.6194   24129377.7804
       158.0004        159.0004
  -8941654.81248  -6908766.08346  23870752.452    23870753.0984   23870760.0414
       182.0004        182.0004
 -13337405.15248 -10382374.93946  22470464.055    22470465.0174   22470473.3904
       170.0004        172.0004
 -14636540.47648 -11379587.93546  21895519.622    21895519.5384   21895524.9254
       178.0004        178.0004
 -18682604.84849 -14537386.22448  20865463.372    20865463.5594   20865470.1104
       213.0004        213.0004
 21  2  4  1 20  0.0000000  0  8G08G07G04G30G27G01G21G09
 -18363883.67749 -13964093.26447  21111560.193    21111560.5504   21111568.0274
       198.0004        198.0004
 -13388425.16948 -10418376.62347  22242552.081    22242552.2644   22242556.3874
       187.0004        188.0004
 -15138220.02548 -11784218.63847  21650767.927    21650768.5994   21650774.8334
       191.0004        190.0004
  -1814038.19047  -1383918.59245  24113247.763    24113249.1994   24113256.0124
       156.0004        157.0004
  -8834572.75148  -6825325.52446  23891131.262    23891131.2494   23891137.1734
       184.0004        186.0004
 -13413324.47448 -10441532.83446  22456017.795    22456018.3434   22456025.7444
       170.0004        171.0004
 -14658472.06248 -11396677.46646  21891346.933    21891345.6934   21891351.0284
       178.0004        178.0004
 -18660430.22749 -14520107.29448  20869683.015    20869683.1384   20869689.9194
       213.0004        214.0004
 21  2  4  1 20 30.0000000  0  8G08G07G04G30G27G01G21G09
 -18293412.79349 -13909180.88647  21124970.396    21124970.5714   21124978.6324
       198.0004        198.0004
 -13463545.94648 -10476912.28247  22228256.446    22228257.1074   22228261.1374
       187.0004        189.0004
 -15056153.90648 -11720271.02247  21666385.850    21666385.8214   21666391.8124
       191.0004        190.0004
  -1898850.46847  -1450006.06845  24097109.821    24097110.0944   24097117.6394
       155.0004        157.0004
  -8727402.40248  -6741816.18146  23911524.165    23911524.3314   23911531.9074
       184.0004        183.0004
 -13489139.83548 -10500609.72746  22441590.562    22441591.5084   22441598.7984
       170.0004        171.0004
 -14680015.68448 -11413464.68546  21887246.462    21887247.1744   21887251.4654
       178.0004        178.0004
 -18637726.57949 -14502416.14848  20874003.246    20874003.5374   20874010.4024
       213.0004        214.0004
 21  2  4  1 21  0.0000000  0  8G08G07G04G30G27G01G21G09
 -18222570.11849 -13853978.80147  21138450.693    21138451.0224   21138459.1444
       197.0004        196.0004
 -13538617.41648 -10535409.52247  22213970.392    22213970.9614   22213975.5874
       188.0004        190.0004
 -14973782.65848 -11656085.64147  21682060.081    21682060.6614   21682066.1854
       191.0004        190.0004
  -1983757.09347  -1516167.07745  24080953.973    24080952.9064   24080959.2094
       155.0004        158.0004
  -8620147.18448  -6658240.69446  23931934.310    23931934.2434   23931941.4034
       181.0004        181.0004
 -13564848.54448 -10559603.50946  22427184.103    22427184.1504   22427192.4824
       171.0004        172.0004
 -14701169.72048 -11429948.35646  21883220.766    21883220.8794   21883225.5364
       178.0004        178.0004
 -18614495.92849 -14484314.35148  20878423.904    20878424.1624   20878431.0234
       213.0004        214.0004
 21  2  4  1 21 30.0000000  0  8G08G07G04G30G27G01G21G09
 -18151359.17049 -13798489.75347  21152001.391    21152001.9134   21152009.8104
       197.0004        197.0004
 -13613637.73448 -10593866.91147  22199695.204    22199695.9364   22199700.0274
       189.0004        190.0004
 -14891109.85548 -11591665.27047  21697791.580    21697792.3294   21697798.5014
       191.0004        190.0004
  -2068757.33747  -1582401.01745  24064778.297    24064777.8834   24064784.9514
       155.0004        157.0004
  -8512810.49348  -6574601.74046  23952360.716    23952359.7914   23952366.6064
       180.0004        180.0004
 -13640448.19248 -10618512.29346  22412798.288    22412797.6524   22412806.2684
       171.0004        171.0004
 -14721933.02748 -11446127.53446  21879269.412    21879269.7424   21879274.6314
       177.0004        178.0004
 -18590740.41849 -14465803.56048  20882944.212    20882944.7794   20882951.4224
       213.0004        214.0004
 21  2  4  1 22  0.0000000  0  8G08G07G04G30G27G01G21G09
 -18079781.87749 -13742715.23647  21165622.054    21165622.9074   21165630.6314
       196.0004        197.0004
 -13688603.75848 -10652281.99147  22185429.454    22185430.3384   22185433.9434
       189.0004        189.0004
 -14808137.21648 -11527011.25047  21713581.091    21713581.9484   21713587.8964
       191.0004        190.0004
  -2153848.59647  -1648705.84245  24048585.385    24048584.7214   24048592.2904
       156.0004        159.0004
  -8405393.96648  -6490900.54946  23972799.975    23972799.9724   23972807.7984
       180.0004        179.0004
 -13715934.31048 -10677332.61246  22398433.055    22398433.4384   22398441.3314
       170.0004        172.0004
 -14742302.65648 -11461999.96246  21875393.337    21875393.1954   21875398.3054
       178.0004        178.0004
 -18566460.36349 -14446884.03848  20887565.099    20887565.4354   20887571.7554
       213.0004        213.0004
 21  2  4  1 22 30.0000000  0  8G08G07G04G30G27G01G21G09
 -18007840.24149 -13686656.82047  21179313.436    21179313.5604   21179320.7964
       196.0004        197.0004
 -13763512.33748 -10710652.31647  22171176.093    22171176.3214   22171179.3144
       189.0004        190.0004
 -14724867.01448 -11462125.38047  21729427.099    21729427.5854   21729433.6554
       190.0004        189.0004
  -2239028.75747  -1715079.99945  24032376.310    24032376.2054   24032383.6944
       158.0004        161.0004
  -8297899.58048  -6407138.73146  23993254.800    23993255.1234   23993263.2784
       177.0004        176.0004
 -13791303.05448 -10736061.48546  22384090.382    22384090.6814   22384099.1274
       171.0004        173.0004
 -14762275.62248 -11477563.29146  21871593.042    21871592.2634   21871597.4044
       177.0004        177.0004
 -18541656.65249 -14427556.46748  20892284.345    20892284.8274   20892291.8924
       213.0004        213.0004
 21  2  4  1 23  0.0000000  0  8G08G07G04G30G27G01G21G09
 -17935537.19049 -13630316.77847  21193071.920    21193072.2324   21193079.8984
       197.0004        197.0004
 -13838361.05148 -10768976.00046  22156932.046    22156932.0374   22156936.1644
       188.0004        187.0004
 -14641302.05948 -11397009.84147  21745329.188    21745329.6274   21745335.5164
       190.0004        190.0004
  -2324296.16047  -1781522.12745  24016151.357    24016151.3404   24016157.9094
       160.0004        162.0004
  -8190330.03848  -6323318.31446  24013723.971    24013725.4174   24013731.7364
       175.0004        175.0004
 -13866550.96448 -10794696.20546  22369771.591    22369772.1904   22369779.4004
       172.0004        173.0004
 -14781849.96948 -11492816.03846  21867869.908    21867868.7834   21867872.7274
       178.0004        178.0004
 -18516330.64949 -14407821.92647  20897104.049    20897104.1984   20897111.0624
       212.0004        212.0004
 21  2  4  1 23 30.0000000  0  8G08G07G04G30G27G01G21G09
 -17862876.48249 -13573698.04047  21206898.333    21206898.7584   21206906.6294
       197.0004        197.0004
 -13913148.70948 -10827252.08847  22142699.746    22142700.7794   22142704.5984
       189.0004        190.0004
 -14557446.37048 -11331667.74847  21761285.551    21761286.3014   21761292.0324
       189.0004        188.0004
  -2409650.55247  -1848032.03945  23999907.788    23999908.9534   23999914.3024
       157.0004        158.0004
  -8082689.19748  -6239442.36746  24034210.174    24034209.2994   24034216.1664
       176.0004        178.0004
 -13941676.01348 -10853235.18046  22355476.254    22355476.8384   22355484.2514
       172.0004        173.0004
 -14801024.84448 -11507757.48146  21864219.697    21864219.5774   21864223.1194
       178.0004        178.0004
 -18490485.03449 -14387682.49148  20902022.233    20902022.6214   20902029.5504
       212.0004        213.0004
 21  2  4  1 24  0.0000000  0  8G08G07G04G30G27G01G21G09
 -17789860.59249 -13516802.53347  21220791.620    21220792.6894   21220801.4124
       195.0004        195.0004
 -13987872.57148 -10885478.46047  22128480.204    22128480.5884   22128485.3204
       190.0004        191.0004
 -14473302.57148 -11266101.15246  21777297.672    21777298.2724   21777305.1934
       188.0004        186.0004
  -2495090.18047  -1914608.38745  23983649.340    23983648.9034   23983655.1424
       153.0004        154.0004
  -7974979.45448  -6155512.70146  24054705.695    24054704.9954   24054711.3674
       175.0004        174.0004
 -14016674.65748 -10911675.66546  22341204.940    22341204.8874   22341212.4614
       173.0004        175.0004
 -14819797.99448 -11522385.89246  21860646.665    21860646.5624   21860651.2944
       178.0004        179.0004
 -18464121.10349 -14367139.16848  20907039.572    20907039.6184   20907046.2664
       213.0004        213.0004
 21  2  4  1 24 30.0000000  0  8G08G07G04G30G27G01G21G09
 -17716493.53949 -13459633.40847  21234753.231    21234753.8254   21234762.6284
       195.0004        196.0004
 -14062531.18348 -10943654.00647  22114273.403    22114274.0104   22114278.0054
       191.0004        192.0004
 -14388874.53448 -11200313.08246  21793364.653    21793364.8364   21793370.9784
       188.0004        187.0004
  -2580614.44747  -1981250.68745  23967375.331    23967375.7234   23967380.5384
       152.0004        155.0004
  -7867204.44648  -6071532.20646  24075214.846    24075213.9034   24075221.3174
       175.0004        176.0004
 -14091544.51248 -10970015.80646  22326958.453    22326957.6504   22326964.1694
       174.0004        175.0004
 -14838168.45948 -11536700.53446  21857149.851    21857149.7974   21857155.5454
       178.0004        179.0004
 -18437241.35249 -14346193.91348  20912154.263    20912154.5474   20912161.4884
       213.0004        213.0004
 21  2  4  1 25  0.0000000  0  8G08G07G04G30G27G01G21G09
 -17642777.76449 -13402192.55647  21248781.958    21248782.2364   21248789.7794
       195.0004        196.0004
 -14137121.75648 -11001776.53747  22100079.597    22100080.2754   22100084.1114
       192.0004        192.0004
 -14304164.55348 -11134305.31146  21809483.443    21809483.8554   21809490.5994
       188.0004        187.0004
  -2666221.20247  -2047957.26545  23951084.243    23951084.0694   23951091.2594
       154.0004        157.0004
  -7759366.21748  -5987502.42646  24095735.557    24095735.3204   24095741.9094
       177.0004        178.0004
 -14166281.78148 -11028252.61746  22312734.409    22312735.4574   22312742.7034
       174.0004        175.0004
 -14856133.66548 -11550699.40146  21853731.272    21853731.4934   21853736.3424
       178.0004        179.0004
 -18409846.78849 -14324847.51248  20917366.898    20917367.6134   20917374.4014
       213.0004        213.0004
 21  2  4  1 25 30.0000000  0  8G08G07G04G30G27G01G21G09
 -17568713.98349 -13344480.51547  21262875.561    21262875.9344   21262882.9524
       195.0004        196.0004
 -14211639.89848 -11059842.62847  22085899.409    22085899.5724   22085903.7954
       191.0004        191.0004
 -14219173.84648 -11068078.78446  21825656.713    21825657.5334   21825662.8084
       187.0004        186.0004
  -2751907.19747  -2114725.52745  23934777.329    23934777.2764   23934786.1494
       154.0004        157.0004
  -7651465.74648  -5903424.14846  24116266.086    24116268.0124   24116275.0354
       176.0004        176.0004
 -14240881.39048 -11086382.17146  22298537.817    22298538.6174   22298547.3154
       174.0004        174.0004
 -14873690.22748 -11564379.82646  21850391.413    21850390.7514   21850395.9464
       178.0004        178.0004
 -18381937.32449 -14303099.87247  20922677.888    20922678.3334   20922685.0804
       212.0004        212.0004
 21  2  4  1 26  0.0000000  0  8G08G07G04G30G27G01G21G09
 -17494305.19249 -13286499.63147  21277035.309    21277035.5884   21277043.0744
       195.0004        195.0004
 -14286083.21148 -11117850.39847  22071733.567    22071734.0714   22071737.3534
       191.0004        191.0004
 -14133905.33848 -11001635.79547  21841884.184    21841884.6954   21841889.8014
       187.0004        188.0004
  -2837670.92847  -2181554.37245  23918457.948    23918458.1064   23918464.5884
       155.0004        158.0004
  -7543505.69248  -5819299.41246  24136811.400    24136812.5174   24136817.9984
       175.0004        176.0004
 -14315340.11548 -11144401.94046  22284369.502    22284369.3914   22284378.8954
       174.0004        174.0004
 -14890836.10148 -11577740.24046  21847129.616    21847129.5364   21847133.0474
       178.0004        180.0004
 -18353514.60649 -14280952.29747  20928086.543    20928087.3644   20928093.9214
       212.0004        212.0004
 21  2  4  1 26 30.0000000  0  8G08G07G04G30G27G01G21G09
 -17419556.04149 -13228253.54847  21291260.119    21291260.0734   21291267.4324
       195.0004        195.0004
 -14360451.08848 -11175799.39147  22057580.560    22057581.3804   22057585.9734
       192.0004        192.0004
 -14048363.52348 -10934979.85846  21858161.430    21858161.5374   21858168.1064
       187.0004        186.0004
  -2923512.31647  -2248443.76845  23902123.534    23902123.5464   23902130.1744
       157.0004        160.0004
  -7435490.25848  -5735131.57046  24157368.105    24157367.9074   24157374.0764
       177.0004        177.0004
 -14389656.18248 -11202310.55346  22270229.156    22270228.8444   22270237.0284
       175.0004        176.0004
 -14907570.64848 -11590780.13146  21843944.525    21843943.9654   21843948.6814
       179.0004        179.0004
 -18324581.87849 -14258407.32648  20933592.910    20933593.0524   20933599.7924
       212.0004        213.0004
 21  2  4  1 27  0.0000000  0  8G08G07G04G30G27G01G21G09
 -17344470.21449 -13169745.11147  21305548.334    21305548.5154   21305556.1414
       195.0004        195.0004
 -14434741.72748 -11233688.19947  22043444.688    22043444.9804   22043448.8004
       193.0004        193.0004
 -13962552.15248 -10868113.86146  21874490.818    21874490.9634   21874496.3934
       186.0004        185.0004
  -3009430.65747  -2315393.14145  23885773.812    23885773.7494   23885780.3484
       157.0004        159.0004
  -7327422.89448  -5650923.24746  24177930.892    24177931.4304   24177938.3594
       177.0004        178.0004
 -14463827.18748 -11260106.12646  22256114.235    22256113.7844   22256122.2304
       176.0004        177.0004
 -14923893.26848 -11603499.06046  21840838.656    21840837.9094   21840842.0444
       179.0004        180.0004
 -18295141.63849 -14235466.88248  20939195.206    20939195.4494   20939201.9944
       212.0004        213.0004
 21  2  4  1 27 30.0000000  0  8G08G07G04G30G27G01G21G09
 -17269049.04249 -13110975.36447  21319900.616    21319901.0864   21319908.2224
       195.0004        195.0004
 -14508951.45348 -11291513.96447  22029323.396    22029323.6014   22029326.6334
       192.0004        193.0004
 -13876472.83248 -10801039.07046  21890870.643    21890871.5474   21890876.7704
       185.0004        184.0004
  -3095423.04447  -2382400.19245  23869409.246    23869410.1504   23869416.3784
       155.0004        157.0004
  -7219304.87148  -5566675.47346  24198503.658    24198505.6854   24198512.9444
       178.0004        180.0004
 -14537848.47148 -11317785.03546  22242026.693    22242027.6034   22242035.4314
       175.0004        176.0004
 -14939800.84648 -11615894.55746  21837812.095    21837811.1074   21837815.9414
       179.0004        179.0004
 -18265194.26949 -14212131.26347  20944893.695    20944893.9184   20944900.7024
       212.0004        212.0004
 21  2  4  1 28  0.0000000  0  8G08G07G04G30G27G01G21G09
 -17193295.22949 -13051946.42247  21334315.622    21334316.0174   21334323.4834
       195.0004        195.0004
 -14583078.00848 -11349274.91247  22015216.334    22015217.2114   22015221.4114
       192.0004        193.0004
 -13790128.45048 -10733757.75446  21907302.194    21907302.8144   21907307.8664
       185.0004        185.0004
  -3181487.86047  -2449463.68645  23853031.400    23853032.3764   23853039.3474
       153.0004        155.0004
  -7111138.86748  -5482390.31146  24219088.234    24219089.4224   24219095.6724
       178.0004        179.0004
 -14611716.68748 -11375344.67146  22227970.701    22227971.1994   22227978.9924
       175.0004        176.0004
 -14955291.04348 -11627964.83846  21834863.254    21834863.1484   21834867.8514
       179.0004        179.0004
 -18234741.46249 -14188401.81647  20950688.759    20950689.2784   20950695.5164
       211.0004        212.0004
 21  2  4  1 28 30.0000000  0  8G08G07G04G30G27G01G21G09
 -17117212.26049 -12992660.99147  21348794.072    21348794.0384   21348802.5214
       195.0004        196.0004
 -14657119.20848 -11406969.36147  22001127.855    22001127.8224   22001131.7954
       193.0004        193.0004
 -13703522.43848 -10666272.56346  21923781.902    21923782.6044   21923788.5164
       185.0004        184.0004
  -3267623.93647  -2516582.71045  23836640.371    23836640.7864   23836648.6184
       152.0004        155.0004
  -7002927.91948  -5398070.09446  24239681.451    24239681.2804   24239686.7414
       178.0004        179.0004
 -14685429.01848 -11432782.83346  22213945.334    22213944.4244   22213953.0834
       176.0004        177.0004
 -14970363.17448 -11639709.35046  21831995.920    21831995.2154   21832000.4744
       179.0004        180.0004
 -18203785.42349 -14164280.22947  20956579.403    20956579.6854   20956586.7984
       211.0004        212.0004
 21  2  4  1 29  0.0000000  0  8G08G07G04G30G27G01G21G09
 -17040804.51948 -12933122.50047  21363333.280    21363333.9544   21363341.5764
       194.0004        193.0004
 -14731073.28048 -11464595.91747  21987054.417    21987055.1914   21987058.3714
       193.0004        194.0004
 -13616658.69648 -10598586.54446  21940311.951    21940312.2374   21940318.0154
       184.0004        184.0004
  -3353830.64847  -2583756.75045  23820235.356    23820235.3534   23820243.6254
       152.0004        155.0004
  -6894675.61948  -5313717.63846  24260281.028    24260281.3594   24260287.2804
       181.0004        183.0004
 -14758983.11148 -11490097.70746  22199947.230    22199947.5664   22199955.8664
       176.0004        178.0004
 -14985016.20748 -11651127.28846  21829207.619    21829206.4504   21829211.5904
       180.0004        180.0004
 -18172328.90249 -14139768.65847  20962565.210    20962565.7054   20962572.6364
       212.0004        212.0004
 21  2  4  1 29 30.0000000  0  8G08G07G04G30G27G01G21G09
 -16964073.57548 -12873332.16647  21377934.817    21377935.6694   21377943.4054
       193.0004        194.0004
 -14804937.52548 -11522152.47147  21972997.998    21972998.7264   21973002.9644
       193.0004        194.0004
 -13529539.64448 -10530701.56946  21956889.933    21956890.4994   21956896.8684
       185.0004        185.0004
  -3440105.82247  -2650984.14245  23803818.292    23803818.1354   23803826.6064
       154.0004        156.0004
  -6786384.00148  -5229334.59646  24280888.478    24280888.9444   24280894.3184
       183.0004        183.0004
 -14832375.15548 -11547286.30346  22185980.398    22185981.2034   22185989.7754
       176.0004        177.0004
 -14999247.43448 -11662216.53446  21826498.252    21826498.0184   21826503.5494
       180.0004        180.0004
 -18140373.16349 -14114868.08247  20968646.224    20968646.8834   20968653.5234
       211.0004        212.0004
 21  2  4  1 30  0.0000000  0  8G08G07G04G30G27G01G21G09
 -16887022.21948 -12813292.13947  21392598.271    21392598.0484   21392605.2534
       194.0004        195.0004
 -14878708.90348 -11579636.66047  21958960.428    21958960.6724   21958963.5374
       193.0004        192.0004
 -13442167.65948 -10462619.50746  21973516.927    21973517.0074   21973522.9624
       185.0004        185.0004
  -3526447.22647  -2718263.16245  23787388.715    23787388.3134   23787395.6804
       156.0004        160.0004
  -6678055.07348  -5144922.47146  24301501.793    24301502.4324   24301508.3104
       180.0004        179.0004
 -14905601.25248 -11604345.59046  22172045.891    22172046.9424   22172054.0684
       176.0004        177.0004
 -15013054.85948 -11672975.56146  21823870.653    21823870.6514   21823875.3634
       179.0004        180.0004
 -18107919.46149 -14089579.49147  20974821.715    20974822.6024   20974829.0824
       211.0004        212.0004
 21  2  4  1 30 30.0000000  0  8G08G07G04G30G27G01G21G09
 -16809653.69948 -12753004.98647  21407320.366    21407320.7424   21407328.1554
       194.0004        194.0004
 -14952384.99648 -11637046.62147  21944940.944    21944940.5284   21944944.0254
       193.0004        192.0004
 -13354546.05448 -10394342.94546  21990190.339    21990190.6574   21990196.9994
       184.0004        183.0004
  -3612853.63547  -2785592.85145  23770945.898    23770946.2264   23770953.1664
       158.0004        160.0004
  -6569691.85748  -5060483.55446  24322123.593    24322123.4034   24322128.4474
       177.0004        176.0004
 -14978658.54548 -11661273.34146  22158143.071    22158144.2554   22158152.5964
       176.0004        177.0004
 -15026437.05648 -11683403.23546  21821325.412    21821325.1094   21821328.5414
       179.0004        180.0004
 -18074970.03849 -14063904.62047  20981091.735    20981092.1444   20981099.6674
       211.0004        212.0004
 21  2  4  1 31  0.0000000  0  8G08G07G04G30G27G01G21G09
 -16731970.42848 -12692472.57147  21422102.249    21422103.0254   21422110.8234
       193.0004        194.0004
 -15025963.50548 -11694380.51147  21930938.670    21930938.9554   21930943.1884
       193.0004        194.0004
 -13266677.50748 -10325873.94746  22006911.105    22006911.6024   22006917.9444
       185.0004        185.0004
  -3699323.01647  -2852971.58445  23754489.433    23754490.9384   23754498.8454
       157.0004        159.0004
  -6461296.56048  -4976019.72446  24342751.102    24342750.4124   24342756.1184
       174.0004        173.0004
 -15051543.26948 -11718066.62146  22144273.290    22144275.2844   22144283.4204
       176.0004        177.0004
 -15039392.03848 -11693498.01946  21818860.522    21818859.4714   21818863.4464
       179.0004        180.0004
 -18041526.36749 -14037844.62147  20987456.772    20987457.3524   20987463.2684
       211.0004        212.0004
 21  2  4  1 31 30.0000000  0  8G08G07G04G30G27G01G21G09
 -16653975.50848 -12631697.31347  21436945.000    21436945.0344   21436952.7464
       193.0004        193.0004
 -15099441.78749 -11751636.31247  21916956.864    21916956.7624   21916960.8684
       195.0004        196.0004
 -13178565.12148 -10257214.96846  22023678.324    22023679.0354   22023684.9164
       185.0004        185.0004
  -3785853.88647  -2920398.20545  23738025.119    23738024.8704   23738033.0484
       157.0004        160.0004
  -6352871.92148  -4891532.97346  24363384.258    24363384.0944   24363386.9784
       172.0004        173.0004
 -15124252.33848 -11774723.04546  22130438.358    22130439.5654   22130447.4924
       177.0004        178.0004
 -15051917.98748 -11703258.49846  21816476.604    21816476.0514   21816480.6874
       180.0004        180.0004
 -18007590.53749 -14011401.12247  20993913.756    20993914.5394   20993921.0644
       211.0004        211.0004
 21  2  4  1 32  0.0000000  0  8G08G07G04G30G27G01G21G09
 -16575672.54648 -12570682.02447  21451844.919    21451845.7744   21451853.4514
       192.0004        192.0004
 -15172817.93549 -11808812.53947  21902993.255    21902993.9354   21902997.8124
       195.0004        195.0004
 -13090212.55748 -10188368.83146  22040492.244    22040492.4964   22040497.7734
       185.0004        185.0004
  -3872445.22847  -2987871.97645  23721546.851    23721547.0394   23721554.4154
       158.0004        160.0004
  -6244421.15748  -4807025.86346  24384020.926    24384021.1244   24384025.5994
       174.0004        175.0004
 -15196783.13648 -11831240.53846  22116635.609    22116636.8874   22116645.0194
       177.0004        176.0004
 -15064014.34248 -11712684.21646  21814174.255    21814173.7564   21814178.8694
       180.0004        181.0004
 -17973165.11549 -13984576.12047  21000465.204    21000465.2304   21000473.1204
       211.0004        211.0004
 21  2  4  1 32 30.0000000  0  8G08G07G04G30G27G01G21G09
 -16497064.28748 -12509428.83847  21466804.226    21466804.4614   21466812.4084
       192.0004        192.0004
 -15246089.47648 -11865907.23647  21889049.974    21889050.0454   21889054.6274
       194.0004        194.0004
 -13001622.51048 -10119337.63346  22057350.211    22057350.5444   22057355.9714
       185.0004        184.0004
  -3959095.14547  -3055391.40145  23705059.225    23705058.6974   23705065.6944
       157.0004        158.0004
  -6135946.57248  -4722500.26246  24404662.995    24404663.0614   24404668.2244
       173.0004        174.0004
 -15269132.11748 -11887616.34846  22102868.167    22102868.7024   22102876.4094
       176.0004        177.0004
 -15075679.39648 -11721773.85246  21811954.201    21811954.3114   21811958.6324
       181.0004        182.0004
 -17938251.77949 -13957370.93247  21007109.074    21007109.0844   21007116.0544
       211.0004        211.0004
 21  2  4  1 33  0.0000000  0  8G08G07G04G30G27G01G21G09
 -16418153.94548 -12447940.26247  21481819.987    21481820.4484   21481828.1044
       192.0004        192.0004
 -15319253.97748 -11922918.53547  21875128.499    21875127.8884   21875131.6184
       194.0004        195.0004
 -12912798.20648 -10050123.89046  22074251.925    22074252.5294   22074258.3754
       184.0004        184.0004
  -4045802.13747  -3122955.27745  23688558.255    23688558.2504   23688566.0854
       156.0004        158.0004
  -6027450.90948  -4637958.21546  24425308.285    24425308.4464   24425314.0224
       172.0004        172.0004
 -15341296.12848 -11943848.04946  22089137.770    22089137.6074   22089145.4774
       178.0004        180.0004
 -15086911.22348 -11730525.91946  21809816.373    21809815.9094   21809821.3664
       181.0004        181.0004
 -17902852.68449 -13929787.24047  21013844.748    21013844.9464   21013852.2424
       210.0004        210.0004
 21  2  4  1 33 30.0000000  0  8G08G07G04G30G27G01G21G09
 -16338942.97748 -12386217.41947  21496893.534    21496893.8604   21496901.7684
       192.0004        192.0004
 -15392307.64649 -11979843.45647  21861225.335    21861226.1324   21861230.4884
       195.0004        195.0004
 -12823741.61148  -9980729.14946  22091199.071    22091199.8014   22091205.7904
       184.0004        183.0004
  -4132563.48147  -3190561.53345  23672047.721    23672048.4734   23672054.7154
       156.0004        158.0004
  -5918935.75748  -4553400.93846  24445956.825    24445958.0094   24445964.3364
       170.0004        171.0004
 -15413270.88048 -11999932.25846  22075441.036    22075441.3684   22075449.8344
       179.0004        180.0004
 -15097707.43848 -11738938.54646  21807762.505    21807761.8904   21807767.0984
       180.0004        181.0004
 -17866968.84549 -13901825.80447  21020673.727    21020674.1204   21020680.6724
       210.0004        211.0004
 21  2  4  1 34  0.0000000  0  8G08G07G04G30G27G01G21G09
 -16259434.91248 -12324263.09547  21512023.183    21512023.5124   21512031.2664
       191.0004        191.0004
 -15465248.41049 -12036680.41847  21847345.114    21847345.8294   21847349.9324
       195.0004        196.0004
 -12734455.80048  -9911155.80446  22108189.507    22108190.1754   22108196.1824
       184.0004        183.0004
  -4219377.55447  -3258208.87945  23655528.530    23655528.4064   23655535.5214
       157.0004        161.0004
  -5810403.67548  -4468830.55246  24466609.909    24466611.2574   24466617.3434
       170.0004        171.0004
 -15485053.18948 -12055866.51646  22061780.871    22061780.4454   22061789.1114
       179.0004        179.0004
 -15108066.62448 -11747010.63746  21805790.840    21805790.9534   21805795.4154
       180.0004        180.0004
 -17830602.31449 -13873488.26047  21027594.400    21027594.4254   21027601.2544
       211.0004        212.0004
 21  2  4  1 34 30.0000000  0  8G08G07G04G30G27G01G21G09
 -16179633.50548 -12262080.17947  21527208.490    21527209.2504   21527217.2894
       190.0004        191.0004
 -15538074.29549 -12093427.86447  21833487.689    21833487.7834   21833491.5234
       195.0004        195.0004
 -12644944.66248  -9841406.87546  22125223.803    22125224.2824   22125229.5694
       184.0004        184.0004
  -4306243.54947  -3325896.66345  23638997.611    23638998.4604   23639005.2274
       159.0004        162.0004
  -5701858.13648  -4384249.59846  24487264.966    24487266.8824   24487272.9194
       171.0004        173.0004
 -15556640.60048 -12111648.90846  22048158.086    22048158.8834   22048165.6344
       178.0004        178.0004
 -15117987.83448 -11754741.42946  21803903.514    21803903.1474   21803906.3324
       179.0004        179.0004
 -17793755.98049 -13844776.83347  21034605.515    21034605.9184   21034612.8594
       211.0004        211.0004
 21  2  4  1 35  0.0000000  0  8G08G07G04G30G27G01G21G09
 -16099540.67748 -12199670.18547  21542450.677    21542450.9724   21542457.9714
       190.0004        191.0004
 -15610782.11549 -12150083.30747  21819651.759    21819651.7624   21819655.7444
       195.0004        195.0004
 -12555210.29548  -9771484.00946  22142299.779    22142299.8154   22142305.7984
       184.0004        184.0004
  -4393158.82747  -3393622.83445  23622457.195    23622458.5564   23622465.9474
       160.0004        161.0004
  -5593300.73148  -4299659.45446  24507922.265    24507924.1144   24507931.0964
       171.0004        171.0004
 -15628028.93848 -12167276.17046  22034572.613    22034573.6144   22034581.2764
       178.0004        178.0004
 -15127468.78448 -11762129.18046  21802099.980    21802099.0124   21802101.8194
       179.0004        180.0004
 -17756431.05149 -13815692.47347  21041708.498    21041708.9924   21041715.2204
       211.0004        211.0004
 21  2  4  1 35 30.0000000  0  8G08G07G04G30G27G01G21G09
 -16019158.07348 -12137034.38847  21557747.550    21557747.4784   21557754.3974
       191.0004        191.0004
 -15683367.83849 -12206643.61047  21805838.565    21805838.6294   21805843.9884
       195.0004        195.0004
 -12465254.24848  -9701388.38046  22159416.333    22159417.4954   22159423.9924
       184.0004        183.0004
  -4480120.19547  -3461384.93045  23605908.481    23605909.4414   23605917.6784
       159.0004        160.0004
  -5484732.52648  -4215060.87046  24528583.012    24528584.2554   24528590.6054
       171.0004        172.0004
 -15699213.46748 -12222744.62446  22021025.916    22021026.9284   22021035.0574
       177.0004        178.0004
 -15136506.46248 -11769171.52246  21800378.176    21800378.3344   21800382.2644
       179.0004        179.0004
 -17718628.06749 -13786235.60947  21048902.259    21048902.3644   21048909.4094
       211.0004        211.0004
 21  2  4  1 36  0.0000000  0  8G08G07G04G30G27G01G21G09
 -15938489.65648 -12074175.88147  21573096.998    21573097.7264   21573105.9544
       191.0004        191.0004
 -15755829.99449 -12263107.63647  21792049.657    21792050.4204   21792054.6224
       196.0004        196.0004
 -12375080.62948  -9631123.23246  22176577.234    22176576.8174   22176583.5044
       183.0004        183.0004
  -4567127.00747  -3529182.43345  23589353.423    23589354.1924   23589360.6614
       160.0004        162.0004
  -5376157.09548  -4130456.63846  24549242.503    24549243.5194   24549252.5874
       170.0004        169.0004
 -15770191.96948 -12278052.53746  22007519.756    22007520.3104   22007528.7284
       178.0004        180.0004
 -15145100.35748 -11775868.06046  21798743.520    21798743.6364   21798746.8584
       179.0004        180.0004
 -17680350.28049 -13756408.76847  21056186.129    21056186.3274   21056193.1344
       211.0004        211.0004
 21  2  4  1 36 30.0000000  0  8G08G07G04G30G27G01G21G09
 -15857540.07449 -12011098.28547  21588500.818    21588502.0374   21588509.2154
       206.0004        209.0004
 -15828167.88549 -12319474.82147  21778284.782    21778284.6164   21778288.9714
       196.0004        196.0004
 -12284694.21448  -9560692.25546  22193777.111    22193777.2804   22193782.6674
       183.0004        182.0004
  -4654179.24747  -3597015.35645  23572787.995    23572788.1954   23572794.6684
       160.0004        161.0004
  -5267578.72748  -4045850.17646  24569905.673    24569906.2284   24569914.2414
       169.0004        171.0004
 -15840962.90848 -12333198.70746  21994052.545    21994053.0364   21994061.8894
       179.0004        180.0004
 -15153251.29448 -11782219.43246  21797192.917    21797192.4224   21797196.9484
       180.0004        181.0004
 -17641601.51549 -13726214.92047  21063559.943    21063560.0664   21063567.1894
       211.0004        211.0004
 21  2  4  1 37  0.0000000  0  7G08G07G04G30G01G21G09
 -15776308.10649 -11947800.65147  21603959.932    21603960.1974   21603966.6794
       210.0004        208.0004
 -15900375.05849 -12375740.14347  21764543.463    21764543.5854   21764547.6794
       195.0004        195.0004
 -12194094.13248  -9490094.77646  22211017.604    22211017.9244   22211023.9504
       183.0004        182.0004
  -4741271.32947  -3664879.31846  23556215.281    23556214.8634   23556222.7554
       160.0004        164.0004
 -15911519.10448 -12388177.55046  21980627.137    21980627.3364   21980635.0924
       179.0004        180.0004
 -15160953.61748 -11788221.23446  21795727.066    21795726.5334   21795731.7544
       180.0004        181.0004
 -17602380.03449 -13695652.73547  21071023.345    21071023.7264   21071030.0204
       210.0004        210.0004
 21  2  4  1 37 30.0000000  0  7G08G07G04G30G01G21G09
 -15694800.26449 -11884288.04148  21619471.024    21619470.8854   21619477.0704
       220.0004        222.0004
 -15972452.58049 -12431904.45647  21750827.261    21750827.5864   21750831.9984
       195.0004        194.0004
 -12103287.08548  -9419336.06046  22228297.478    22228297.1534   22228304.1074
       182.0004        182.0004
  -4828405.13447  -3732775.80246  23539634.194    23539634.6204   23539641.5144
       163.0004        166.0004
 -15981860.98948 -12442989.40146  21967241.608    21967241.4684   21967249.1684
       179.0004        180.0004
 -15168209.66248 -11793875.29346  21794345.622    21794345.7714   21794351.0294
       181.0004        182.0004
 -17562691.67749 -13664726.75047  21078575.432    21078575.9984   21078582.7854
       210.0004        210.0004
 21  2  4  1 38  0.0000000  0  7G08G07G04G30G01G21G09
 -15613021.31649 -11820564.18848  21635032.283    21635032.6624   21635039.2854
       222.0004        222.0004
 -16044398.55949 -12487966.25847  21737136.723    21737137.2074   21737141.7774
       195.0004        197.0004
 -12012276.98048  -9348419.10346  22245615.844    22245616.2984   22245622.5214
       182.0004        181.0004
  -4915579.74347  -3800704.05046  23523045.582    23523045.5044   23523052.4804
       163.0004        165.0004
 -16051986.13348 -12497632.34946  21953896.613    21953896.9614   21953904.7734
       179.0004        179.0004
 -15175018.73248 -11799181.04746  21793049.902    21793049.4694   21793055.5314
       181.0004        181.0004
 -17522539.45049 -13633439.31947  21086216.168    21086216.8924   21086223.5994
       210.0004        210.0004
 21  2  4  1 38 30.0000000  0  8G08G14G07G04G30G01G21G09
 -15530972.68649 -11756630.19448  21650645.393    21650645.7934   21650652.8024
       222.0004        221.0004
  -1298622.86854  -1005719.18744  23567233.482
        74.0004        100.0004
 -16116209.76649 -12543923.03547  21723471.752    21723471.8404   21723476.4014
       196.0004        196.0004
 -11921065.86248  -9277345.51546  22262972.364    22262973.2444   22262978.6914
       180.0004        179.0004
  -5002792.47747  -3868662.00046  23506449.238    23506449.9014   23506456.4554
       164.0004        166.0004
 -16121890.27648 -12552103.10546  21940594.043    21940594.6194   21940602.9394
       180.0004        181.0004
 -15181378.59948 -11804136.77746  21791840.427    21791839.9624   21791845.6474
       181.0004        182.0004
 -17481924.63649 -13601791.41947  21093945.470    21093945.8914   21093952.3294
       210.0004        211.0004
 21  2  4  1 39  0.0000000  0  8G08G14G07G04G30G01G21G09
 -15448656.46649 -11692487.68348  21666309.663    21666310.1674   21666316.8774
       222.0004        221.0004
  -1325390.70644  -1026577.00445  23562139.082
        74.0004        142.0004
 -16187882.28549 -12599771.75747  21709832.244    21709833.3244   21709837.0944
       196.0004        196.0004
 -11829655.79048  -9206116.89846  22280367.559    22280368.3524   22280373.5804
       179.0004        179.0004
  -5090040.51448  -3936647.47646  23489846.623    23489847.1004   23489853.8884
       165.0004        167.0004
 -16191569.18048 -12606398.35046  21927335.186    21927335.4254   21927342.9104
       180.0004        180.0004
 -15187286.81548 -11808740.57846  21790716.143    21790715.7984   21790720.3284
       182.0004        182.0004
 -17440848.47149 -13569784.03047  21101760.956    21101761.5354   21101768.9354
       210.0004        209.0004
 21  2  4  1 39 30.0000000  0  9G08G14G07G17G04G30G01G21G09
 -15366076.27049 -11628139.47048  21682024.875    21682025.1034   21682031.4424
       222.0004        221.0004
  -1352104.18346  -1047392.88145  23557054.482                    23557062.1684
       131.0004        153.0004
 -16259414.71549 -12655511.30847  21696221.195    21696221.4804   21696225.4494
       197.0004        197.0004
  -1521868.82855  -1157509.44445  23989740.404                    23989745.6264
        91.0004        157.0004
 -11738050.60648  -9134736.22346  22297798.502    22297799.5034   22297806.2944
       178.0004        177.0004
  -5177322.85247  -4004659.70646  23473237.177    23473237.4644   23473244.1994
       164.0004        165.0004
 -16261020.36348 -12660516.13546  21914118.748    21914119.4584   21914127.0954
       181.0004        182.0004
 -15192743.18348 -11812992.27446  21789677.786    21789677.2254   21789681.6104
       181.0004        182.0004
 -17399313.99049 -13537419.49647  21109665.453    21109665.7664   21109672.4954
       209.0004        210.0004
 21  2  4  1 40  0.0000000  0  9G08G14G07G17G04G30G01G21G09
 -15283234.11549 -11563587.14148  21697788.880    21697789.1874   21697796.2654
       222.0004        222.0004
  -1378763.36847  -1068166.28245  23551982.928    23551983.1914   23551989.3244
       148.0004        154.0004
 -16330803.06849 -12711138.59147  21682636.226    21682636.1774   21682640.0834
       197.0004        197.0004
  -1615172.60247  -1230213.64745  23971984.199    23971984.9154   23971990.7504
       149.0004        157.0004
 -11646252.13448  -9063204.96246  22315268.162    22315268.7264   22315274.6724
       177.0004        178.0004
  -5264636.50247  -4072696.32146  23456621.551    23456622.2494   23456628.5514
       164.0004        165.0004
 -16330239.39248 -12714453.03446  21900947.189    21900947.3494   21900955.4094
       181.0004        182.0004
 -15197745.09248 -11816889.86846  21788724.858    21788724.7834   21788728.5454
       181.0004        181.0004
 -17357322.23549 -13504698.65147  21117656.471    21117656.8554   21117663.1214
       210.0004        210.0004
 21  2  4  1 40 30.0000000  0  9G08G14G07G17G04G30G01G21G09
 -15200135.48549 -11498834.96348  21713602.187    21713602.0404   21713609.8954
       223.0004        222.0004
  -1405372.30447  -1088900.49045  23546918.828    23546919.4394   23546924.6534
       150.0004        153.0004
 -16402047.77149 -12766653.93547  21669077.647    21669078.8794   21669082.8634
       196.0004        197.0004
  -1708224.36747  -1302721.47745  23954277.939    23954278.5854   23954283.3384
       154.0004        157.0004
 -11554266.20948  -8991527.61746  22332772.420    22332773.2754   22332777.8984
       178.0004        178.0004
  -5351982.37947  -4140758.04746  23439999.762    23439999.9674   23440008.0404
       163.0004        163.0004
 -16399225.69848 -12768208.58546  21887818.632    21887819.0094   21887828.0554
       181.0004        182.0004
 -15202293.72348 -11820434.24946  21787860.169    21787859.8074   21787863.3784
       181.0004        181.0004
 -17314878.24149 -13471625.41747  21125732.727    21125733.3784   21125740.2484
       210.0004        210.0004
 21  2  4  1 41  0.0000000  0  9G08G14G07G17G04G30G01G21G09
 -15116783.06449 -11433885.03848  21729463.417    21729464.1184   21729470.9594
       222.0004        222.0004
  -1431932.00347  -1109596.34645  23541865.281    23541865.1624   23541869.2264
       150.0004        153.0004
 -16473145.90649 -12822055.08847  21655548.980    21655549.5734   21655553.2224
       197.0004        197.0004
  -1801022.23047  -1375031.47245  23936618.904    23936619.5104   23936623.6764
       156.0004        159.0004
 -11462095.50048  -8919706.31646  22350311.363    22350312.8214   22350317.6044
       177.0004        177.0004
  -5439358.38247  -4208843.24545  23423371.751    23423372.8474   23423380.1974
       161.0004        161.0004
 -16467975.74248 -12821780.04346  21874736.513    21874736.9314   21874745.1574
       181.0004        182.0004
 -15206387.48548 -11823624.19146  21787081.415    21787080.8984   21787084.6644
       181.0004        182.0004
 -17271984.01349 -13438201.35047  21133895.276    21133895.8294   21133902.7214
       210.0004        210.0004
 21  2  4  1 41 30.0000000  0  9G08G14G07G17G04G30G01G21G09
 -15033178.56649 -11368738.67348  21745373.793    21745373.3994   21745379.9854
       222.0004        221.0004
  -1458442.15847  -1130253.59545  23536819.711    23536820.4454   23536825.5934
       153.0004        157.0004
 -16544093.07749 -12877338.58247  21642047.891    21642048.6074   21642052.1034
       197.0004        197.0004
  -1893562.42247  -1447140.70245  23919009.679    23919009.9604   23919013.8014
       157.0004        158.0004
 -11369741.50748  -8847742.16946  22367886.087    22367886.5464   22367891.7114
       176.0004        175.0004
  -5526761.12047  -4276949.26246  23406740.147    23406740.7674   23406748.4724
       161.0004        163.0004
 -16536484.70048 -12875163.63546  21861700.065    21861700.7404   21861707.6504
       181.0004        182.0004
 -15210023.53248 -11826457.46946  21786389.379    21786388.6014   21786392.9954
       182.0004        183.0004
 -17228640.25849 -13404427.00347  21142143.689    21142144.0084   21142150.5944
       210.0004        210.0004
 21  2  4  1 42  0.0000000  0  9G08G14G07G17G04G30G01G21G09
 -14949322.63149 -11303396.38848  21761330.067    21761330.4254   21761337.3594
       221.0004        221.0004
  -1484901.90647  -1150871.55945  23531784.770    23531785.5324   23531790.1454
       157.0004        160.0004
 -16614884.56849 -12932500.78047  21628576.456    21628576.8444   21628581.0594
       197.0004        197.0004
  -1985840.29147  -1519045.49945  23901449.829    23901450.2744   23901455.3714
       157.0004        159.0004
 -11277205.07248  -8775635.86846  22385495.261    22385495.9214   22385501.4144
       175.0004        176.0004
  -5614186.47747  -4345072.91446  23390105.099    23390104.8684   23390112.6484
       163.0004        166.0004
 -16604747.05448 -12928355.08846  21848709.650    21848710.5774   21848717.7874
       181.0004        181.0004
 -15213198.95048 -11828931.81546  21785784.802    21785784.4664   21785789.8284
       183.0004        184.0004
 -17184847.12049 -13370302.49647  21150477.893    21150477.9644   21150483.9984
       209.0004        210.0004
 21  2  4  1 42 30.0000000  0  9G08G14G07G17G04G30G01G21G09
 -14865218.26849 -11237860.52448  21777335.363    21777335.4034   21777341.9494
       222.0004        222.0004
  -1511312.88147  -1171451.56145  23526758.839    23526759.5004   23526764.2674
       157.0004        159.0004
 -16685518.25449 -12987540.01447  21615135.868    21615135.9934   21615140.3584
       197.0004        198.0004
  -2077854.73047  -1590745.04345  23883939.926    23883939.3424   23883944.6984
       156.0004        158.0004
 -11184489.58348  -8703390.03446  22403139.081    22403139.1744   22403145.3114
       176.0004        176.0004
  -5701633.01747  -4413213.08246  23373464.304    23373465.2134   23373471.2904
       164.0004        164.0004
 -16672759.99648 -12981352.16446  21835767.189    21835767.7464   21835776.3144
       181.0004        182.0004
 -15215912.69548 -11831046.41046  21785268.227    21785268.2604   21785273.8474
       184.0004        185.0004
 -17140607.34549 -13335829.95047  21158895.406    21158895.9854   21158902.8384
       209.0004        209.0004
 21  2  4  1 43  0.0000000  0  9G08G14G07G17G04G30G01G21G09
 -14780869.38749 -11172134.12848  21793386.810    21793386.7764   21793392.9104
       222.0004        221.0004
  -1537676.92147  -1191994.96345  23521741.734    23521742.2914   23521747.4534
       158.0004        160.0004
 -16755991.77149 -13042454.44947  21601724.681    21601725.7984   21601729.2554
       197.0004        198.0004
  -2169604.16747  -1662238.09745  23866480.153    23866480.5014   23866484.5714
       157.0004        160.0004
 -11091598.60248  -8631007.46646  22420815.290    22420815.9204   22420821.8354
       177.0004        177.0004
  -5789099.38147  -4481368.70346  23356820.140    23356820.4154   23356827.1894
       162.0004        164.0004
 -16740520.73748 -13034152.72746  21822871.754    21822873.3944   21822881.7964
       182.0004        183.0004
 -15218164.24748 -11832800.84646  21784840.619    21784840.5154   21784845.8674
       185.0004        187.0004
 -17095923.79249 -13301011.60247  21167398.343    21167399.0254   21167405.5074
       209.0004        209.0004
 21  2  4  1 43 30.0000000  0  9G08G14G07G17G04G30G01G21G09
 -14696279.35149 -11106219.80848  21809483.242    21809483.4154   21809489.8134
       221.0004        220.0004
  -1563995.71647  -1212503.09946  23516734.128    23516734.6244   23516739.9364
       161.0004        163.0004
 -16826303.37349 -13097242.72347  21588345.535    21588345.9384   21588349.5704
       198.0004        199.0004
  -2261086.94347  -1733523.33545  23849070.116    23849070.7574   23849076.7004
       156.0004        157.0004
 -10998535.62748  -8558490.87346  22438524.045    22438525.3384   22438531.0434
       177.0004        177.0004
  -5876584.13847  -4549538.63046  23340172.875    23340173.1074   23340179.9624
       163.0004        166.0004
 -16808026.47548 -13086754.60146  21810026.867    21810027.0904   21810035.9234
       183.0004        183.0004
 -15219952.55048 -11834194.30247  21784500.304    21784499.6704   21784506.9654
       187.0004        188.0004
 -17050799.28549 -13265849.65347  21175985.372    21175985.8244   21175993.0424
       209.0004        209.0004
 21  2  4  1 44  0.0000000  0  9G08G14G07G17G04G30G01G21G09
 -14611450.58149 -11040119.46848  21825625.935    21825625.7824   21825632.1244
       220.0004        220.0004
  -1590270.07147  -1232976.62146  23511734.757    23511735.3284   23511739.4794
       163.0004        165.0004
 -16896449.53349 -13151902.06347  21574997.153    21574997.2924   21575001.0974
       198.0004        199.0004
  -2352300.53447  -1804598.79545  23831712.469    23831712.0134   23831719.2054
       151.0004        152.0004
 -10905303.19148  -8485842.22446  22456265.805    22456266.1224   22456272.2324
       176.0004        176.0004
  -5964084.87348  -4617721.00246  23323521.989    23323521.9274   23323529.0714
       165.0004        168.0004
 -16875273.45348 -13139154.82346  21797230.912    21797230.9874   21797238.6224
       183.0004        185.0004
 -15221276.35848 -11835225.81346  21784247.166    21784247.1604   21784254.8284
       187.0004        187.0004
 -17005235.72449 -13230345.58547  21184656.044    21184656.5774   21184662.9354
       209.0004        209.0004
 21  2  4  1 44 30.0000000  0  9G08G14G07G17G04G30G01G21G09
 -14526386.41049 -10973835.72248  21841812.137    21841812.5714   21841819.4114
       220.0004        219.0004
  -1616501.75248  -1253416.88646  23506743.374    23506743.5504   23506747.4914
       165.0004        166.0004
 -16966428.35949 -13206431.03347  21561680.364    21561680.7934   21561685.1614
       199.0004        199.0004
  -2443242.79747  -1875462.85945  23814408.857    23814408.4914   23814412.9024
       151.0004        154.0004
 -10811904.77248  -8413064.23946  22474039.625    22474039.9714   22474044.7614
       176.0004        176.0004
  -6051600.18748  -4685914.74346  23306867.500    23306868.0044   23306874.9814
       165.0004        166.0004
 -16942258.87748 -13191351.25346  21784483.014    21784484.1354   21784491.9254
       184.0004        185.0004
 -15222134.71448 -11835894.65146  21784083.987    21784084.0084   21784091.0944
       187.0004        187.0004
 -16959235.97849 -13194501.64347  21193409.955    21193410.1204   21193416.3664
       209.0004        209.0004
 21  2  4  1 45  0.0000000  0  9G08G14G07G17G04G30G01G21G09
 -14441089.20149 -10907370.36648  21858043.245    21858043.9224   21858051.0654
       220.0004        219.0004
  -1642691.60447  -1273824.56346  23501758.886    23501758.8984   23501764.2434
       164.0004        164.0004
 -17036236.55249 -13260827.02447  21548396.859    21548397.1884   21548400.9244
       199.0004        199.0004
  -2533912.37647  -1946114.40845  23797154.311    23797154.6554   23797160.0814
       153.0004        157.0004
 -10718342.92648  -8340158.90246  22491844.018    22491845.1764   22491849.6614
       177.0004        177.0004
  -6139127.67847  -4754117.96646  23290212.198    23290211.5224   23290218.3054
       164.0004        165.0004
 -17008979.04448 -13243340.97446  21771785.854    21771787.2074   21771794.9744
       184.0004        184.0004
 -15222526.00348 -11836199.52846  21784009.363    21784009.1844   21784016.1824
       186.0004        186.0004
 -16912801.97449 -13158319.30447  21202245.870    21202245.9964   21202252.6754
       208.0004        209.0004
 21  2  4  1 45 30.0000000  0  9G08G14G07G17G04G30G01G21G09
 -14355562.21349 -10840725.97548  21874319.762    21874319.6314   21874326.2474
       219.0004        219.0004
  -1668841.04347  -1294200.75945  23496781.992    23496783.3724   23496788.0874
       162.0004        162.0004
 -17105871.70749 -13315088.19247  21535145.273    21535145.1624   21535149.3824
       199.0004        199.0004
  -2624306.97247  -2016551.70145  23779952.470    23779952.6794   23779959.3634
       155.0004        158.0004
 -10624620.91348  -8267128.77846  22509677.726    22509677.9984   22509684.8844
       176.0004        177.0004
  -6226665.66947  -4822329.35946  23273554.002    23273554.0244   23273561.4534
       163.0004        165.0004
 -17075430.92948 -13295121.66446  21759141.430    21759141.6844   21759150.0054
       183.0004        183.0004
 -15222449.58948 -11836139.97746  21784023.892    21784023.8644   21784030.4944
       185.0004        185.0004
 -16865936.45649 -13121800.72247  21211163.490    21211163.7734   21211171.5344
       209.0004        209.0004
 21  2  4  1 46  0.0000000  0  9G08G14G07G17G04G30G01G21G09
 -14269808.86449 -10773905.17348  21890637.672    21890638.0774   21890644.6694
       219.0004        219.0004
  -1694951.82347  -1314546.81045  23491813.598    23491814.9794   23491819.5154
       161.0004        162.0004
 -17175331.53649 -13369212.72847  21521927.002    21521927.5544   21521931.9464
       198.0004        198.0004
  -2714425.12447  -2086773.57245  23762803.736    23762804.2434   23762810.5604
       156.0004        159.0004
 -10530742.16348  -8193976.51646  22527542.494    22527542.7414   22527549.5394
       177.0004        178.0004
  -6314212.58248  -4890547.72046  23256893.677    23256893.8054   23256901.0814
       166.0004        169.0004
 -17141611.65048 -13346691.04846  21746549.297    21746548.6034   21746556.5984
       185.0004        186.0004
 -15221904.82448 -11835715.47646  21784127.680    21784127.9764   21784133.4424
       185.0004        184.0004
 -16818642.19249 -13084948.04847  21220164.315    21220164.2584   21220170.3914
       208.0004        208.0004
 21  2  4  1 46 30.0000000  0  9G08G14G07G17G04G30G01G21G09
 -14183831.47149 -10706909.80848  21906998.211    21906998.8904   21907005.5934
       219.0004        219.0004
  -1721024.84247  -1334863.43146  23486853.225    23486853.6614   23486858.4764
       162.0004        164.0004
 -17244613.00549 -13423198.28847  21508743.185    21508744.0824   21508748.1644
       199.0004        199.0004
  -2804264.69847  -2156778.43645  23745708.330    23745708.3234   23745713.4244
       156.0004        158.0004
 -10436709.38348  -8120704.21746  22545436.772    22545437.5054   22545443.3254
       177.0004        177.0004
  -6401766.10548  -4958771.22746  23240232.552    23240233.5644   23240241.3064
       167.0004        170.0004
 -17207517.66948 -13398046.36446  21734005.959    21734006.5434   21734014.3704
       185.0004        185.0004
 -15220890.34948 -11834924.96346  21784321.368    21784320.5034   21784325.9114
       184.0004        183.0004
 -16770921.36449 -13047763.00447  21229244.696    21229244.9274   21229251.5784
       208.0004        208.0004
 21  2  4  1 47  0.0000000  0  9G08G14G07G17G04G30G01G21G09
 -14097633.95049 -10639742.91748  21923401.680    21923401.9794   21923409.0314
       220.0004        220.0004
  -1747061.75647  -1355151.92246  23481896.953    23481897.8384   23481903.5614
       162.0004        164.0004
 -17313714.13249 -13477043.31947  21495594.685    21495594.5384   21495598.2954
       199.0004        199.0004
  -2893823.75147  -2226564.67645  23728666.477    23728664.9974   23728670.8184
       155.0004        157.0004
 -10342525.95548  -8047314.53246  22563359.415    22563360.1224   22563365.8864
       177.0004        177.0004
  -6489324.75548  -5026998.71846  23223570.467    23223570.5344   23223578.4594
       166.0004        165.0004
 -17273146.15148 -13449185.42946  21721517.187    21721518.4114   21721525.8744
       185.0004        185.0004
 -15219405.52948 -11833767.95046  21784603.520    21784602.6404   21784607.6704
       183.0004        181.0004
 -16722776.82849 -13010247.78247  21238406.037    21238406.5924   21238413.7244
       208.0004        208.0004
 21  2  4  1 47 30.0000000  0  9G08G14G07G17G04G30G01G21G09
 -14011218.27549 -10572406.03648  21939845.375    21939846.1294   21939853.0084
       220.0004        219.0004
  -1773063.17847  -1375412.77645  23476949.632    23476950.3814   23476955.3074
       162.0004        162.0004
 -17382631.62849 -13530745.25847  21482479.087    21482480.1094   21482483.9424
       199.0004        199.0004
  -2983099.67147  -2296130.29845  23711676.255    23711676.7534   23711682.5494
       154.0004        156.0004
 -10248194.29348  -7973809.35046  22581309.330    22581309.9714   22581315.9324
       176.0004        176.0004
  -6576885.92048  -5095228.19846  23206907.862    23206908.3464   23206916.0284
       165.0004        168.0004
 -17338493.20848 -13500105.20946  21709082.805    21709083.1124   21709090.9554
       184.0004        185.0004
 -15217448.83848 -11832243.26946  21784975.944    21784975.9554   21784979.4344
       182.0004        181.0004
 -16674210.48149 -12972403.88647  21247648.056    21247648.6574   21247655.2754
       208.0004        208.0004
 21  2  4  1 48  0.0000000  0  9G08G14G07G17G04G30G01G21G09
 -13924587.53549 -10504901.56448  21956330.816    21956331.4204   21956337.5224
       219.0004        217.0004
  -1799030.37047  -1395646.94245  23472008.632    23472007.8584   23472014.0604
       161.0004        162.0004
 -17451362.43049 -13584301.72747  21469401.585    21469401.3284   21469404.7484
       200.0004        200.0004
  -3072091.25647  -2365474.38545  23694740.944    23694741.1854   23694746.6124
       154.0004        157.0004
 -10153717.34348  -7900190.93446  22599287.889    22599287.9794   22599294.3854
       175.0004        176.0004
  -6664447.54348  -5163458.02446  23190246.560    23190246.4384   23190254.0684
       168.0004        170.0004
 -17403555.53548 -13550803.12346  21696702.137    21696702.2054   21696710.3604
       185.0004        186.0004
 -15215018.82348 -11830349.74346  21785439.491    21785438.7614   21785442.5734
       182.0004        181.0004
 -16625224.76149 -12934233.21247  21256970.860    21256970.6004   21256976.5084
       208.0004        208.0004
 21  2  4  1 48 30.0000000  0  9G08G14G07G17G04G30G01G21G09
 -13837744.17349 -10437231.41348  21972856.977    21972857.3924   21972863.1014
       217.0004        216.0004
  -1824964.44647  -1415855.30246  23467074.527    23467074.8964   23467078.4604
       162.0004        163.0004
 -17519904.03949 -13637710.77847  21456357.257    21456357.8944   21456361.3724
       199.0004        199.0004
  -3160796.01947  -2434594.91445  23677861.892    23677862.8734   23677866.6194
       157.0004        161.0004
 -10059097.97948  -7826461.56346  22617293.319    22617293.7674   22617300.2114
       175.0004        175.0004
  -6752007.47148  -5231686.53646  23173585.332    23173584.8524   23173591.4224
       169.0004        171.0004
 -17468329.77448 -13601276.54346  21684374.817    21684375.4954   21684383.4584
       185.0004        185.0004
 -15212114.83948 -11828086.90246  21785991.861    21785990.6914   21785994.9564
       181.0004        180.0004
 -16575822.03349 -12895737.58947  21266371.063    21266371.4544   21266377.9624
       207.0004        208.0004
 21  2  4  1 49  0.0000000  0  9G08G14G07G17G04G30G01G21G09
 -13750692.99849 -10369399.33348  21989422.924    21989422.7454   21989428.7094
       217.0004        217.0004
  -1850868.01547  -1436039.86445  23462143.381    23462144.7294   23462148.9494
       161.0004        162.0004
 -17588254.93349 -13690971.21647  21443349.936    21443351.2384   21443355.0554
       199.0004        199.0004
  -3249213.30647  -2503491.47245  23661036.311    23661037.1394   23661042.3064
       157.0004        159.0004
  -9964340.60348  -7752624.65346  22635324.859    22635325.6284   22635331.2784
       175.0004        175.0004
  -6839565.12548  -5299913.29446  23156923.815    23156923.0164   23156930.1714
       170.0004        172.0004
 -17532814.10248 -13651524.06446  21672104.082    21672105.2284   21672112.7184
       185.0004        185.0004
 -15208737.35048 -11825455.08646  21786634.619    21786633.7954   21786636.7104
       180.0004        181.0004
 -16526006.23749 -12856920.09247  21275850.540    21275850.7424   21275857.2814
       207.0004        207.0004
 21  2  4  1 49 30.0000000  0  9G08G14G07G17G04G30G01G21G09
 -13663435.95149 -10301406.83748  22006026.293    22006026.6174   22006033.6684
       217.0004        217.0004
  -1876741.76947  -1456201.22746  23457221.044    23457221.5874   23457225.5504
       161.0004        163.0004
 -17656412.16049 -13744080.74647  21430381.097    21430381.0864   21430385.2484
       199.0004        200.0004
  -3337340.46547  -2572161.96145  23644267.656    23644268.2354   23644271.1794
       156.0004        158.0004
  -9869447.69048  -7678682.13246  22653383.253    22653383.2684   22653389.3154
       175.0004        176.0004
  -6927117.98048  -5368136.28146  23140262.762    23140262.4724   23140269.1364
       171.0004        172.0004
 -17597004.74148 -13701542.73946  21659890.011    21659890.0764   21659897.6804
       185.0004        185.0004
 -15204884.77248 -11822453.07946  21787367.197    21787366.7834   21787369.5294
       180.0004        180.0004
 -16475779.42249 -12817782.31747  21285408.254    21285408.4824   21285415.7154
       207.0004        207.0004
 21  2  4  1 50  0.0000000  0  9G08G14G07G17G04G30G01G21G09
 -13575976.35149 -10233256.50148  22022669.390    22022669.4194   22022676.6704
       217.0004        217.0004
  -1902587.17747  -1476340.49445  23452302.043    23452302.6824   23452306.5294
       160.0004        161.0004
 -17724372.96949 -13797037.22647  21417448.539    21417448.5594   21417452.9034
       200.0004        200.0004
  -3425176.29747  -2640605.42945  23627553.326    23627553.6944   23627556.9654
       157.0004        159.0004
  -9774422.40148  -7604636.45446  22671465.339    22671466.2394   22671472.4124
       175.0004        174.0004
  -7014664.10148  -5436354.01946  23123603.376    23123603.1164   23123610.0944
       172.0004        173.0004
 -17660898.65048 -13751330.18646  21647730.815    21647731.4564   21647738.7584
       185.0004        186.0004
 -15200556.37548 -11819080.29346  21788190.642    21788190.4084   21788193.3044
       180.0004        180.0004
 -16425144.27649 -12778326.36847  21295043.672    21295044.3934   21295051.0854
       207.0004        208.0004
 21  2  4  1 50 30.0000000  0  9G08G14G07G17G04G30G01G21G09
 -13488315.74749 -10164949.55248  22039350.160    22039350.8314   22039357.9504
       217.0004        217.0004
  -1928404.15647  -1496457.61045  23447388.743    23447388.8694   23447394.7604
       158.0004        160.0004
 -17792133.30549 -13849837.50447  21404553.487    21404554.1964   21404558.2814
       200.0004        200.0004
  -3512717.65947  -2708819.44545  23610892.282    23610892.6974   23610899.3524
       158.0004        160.0004
  -9679266.43048  -7530488.96046  22689573.439    22689573.7184   22689579.2224
       173.0004        173.0004
  -7102200.21348  -5504563.97546  23106946.437    23106946.1974   23106952.3214
       172.0004        172.0004
 -17724491.30048 -13800882.90346  21635628.508    21635629.2144   21635637.9644
       185.0004        186.0004
 -15195750.09448 -11815335.14246  21789105.368    21789104.9314   21789108.6404
       180.0004        180.0004
 -16374102.09949 -12738553.25947  21304757.071    21304757.4654   21304764.3654
       207.0004        207.0004
 21  2  4  1 51  0.0000000  0  9G08G14G07G17G04G30G01G21G09
 -13400456.18749 -10096487.55548  22056071.149    22056070.3944   22056076.6054
       217.0004        216.0004
  -1954193.51147  -1516553.19645  23442481.366    23442482.3684   23442487.0974
       159.0004        162.0004
 -17859690.17549 -13902479.21747  21391698.263    21391698.5304   21391702.7804
       200.0004        200.0004
  -3599962.22447  -2776802.18145  23594291.155    23594292.1414   23594297.4484
       158.0004        161.0004
  -9583982.31748  -7456241.60146  22707705.236    22707705.7524   22707711.2524
       173.0004        172.0004
  -7189723.81348  -5572764.19146  23090289.534    23090289.3104   23090296.6054
       169.0004        169.0004
 -17787779.04848 -13850198.02646  21623586.684    21623587.0934   21623593.8294
       186.0004        186.0004
 -15190464.54848 -11811216.53146  21790110.446    21790110.3544   21790114.1484
       180.0004        181.0004
 -16322655.00249 -12698464.62247  21314547.124    21314547.7294   21314554.1094
       207.0004        207.0004
 21  2  4  1 51 30.0000000  0  9G08G14G07G17G04G30G01G21G09
 -13312402.15749 -10027874.03148  22072826.211    22072826.6114   22072832.5294
       216.0004        216.0004
  -1979957.19047  -1536628.77646  23437578.494    23437579.7604   23437584.9444
       161.0004        163.0004
 -17927041.48549 -13954960.76447  21378881.970    21378882.3764   21378886.4914
       201.0004        201.0004
  -3686908.70047  -2844552.65745  23577745.653    23577745.9174   23577751.4054
       157.0004        158.0004
  -9488573.82248  -7381897.30246  22725860.576    22725861.3914   22725867.4174
       172.0004        173.0004
  -7277233.57548  -5640953.63646  23073636.247    23073637.1254   23073644.7064
       168.0004        169.0004
 -17850759.40948 -13899273.62947  21611601.745    21611602.1504   21611609.5894
       187.0004        188.0004
 -15184699.69948 -11806724.44146  21791207.308    21791207.8954   21791211.7214
       180.0004        180.0004
 -16270806.36849 -12658063.09647  21324413.221    21324413.5244   21324420.4474
       206.0004        206.0004
 21  2  4  1 52  0.0000000  0  9G08G14G07G17G04G30G01G21G09
 -13224155.37049  -9959110.30448  22089619.057    22089619.3414   22089626.0734
       217.0004        217.0004
  -2005695.98347  -1556685.00646  23432680.966    23432681.5174   23432687.1874
       161.0004        163.0004
 -17994184.16549 -14007279.74247  21366104.670    21366105.0394   21366109.6654
       201.0004        201.0004
  -3773554.86747  -2912069.08145  23561256.321    23561257.2614   23561264.0814
       155.0004        156.0004
  -9393043.47548  -7307458.08546  22744038.960    22744039.7274   22744046.3474
       171.0004        171.0004
  -7364727.00548  -5709130.31746  23056987.704    23056987.5254   23056995.7854
       170.0004        172.0004
 -17913428.73448 -13948106.86247  21599674.861    21599676.0474   21599684.1634
       187.0004        188.0004
 -15178454.47748 -11801858.03246  21792395.402    21792396.2894   21792399.6854
       180.0004        181.0004
 -16218558.35249 -12617350.36747  21334356.145    21334355.9644   21334363.0804
       206.0004        206.0004
 21  2  4  1 52 30.0000000  0  9G08G14G07G17G04G30G01G21G09
 -13135719.16149  -9890198.97648  22106448.166    22106448.4274   22106455.1094
       217.0004        217.0004
  -2031411.23447  -1576722.83145  23427786.750    23427787.8154   23427793.7574
       158.0004        158.0004
 -18061115.45349 -14059433.98347  21353368.070    21353368.8204   21353372.9394
       201.0004        201.0004
  -3859898.98747  -2979350.18945  23544825.802    23544825.9784   23544832.0544
       154.0004        155.0004
  -9297394.30648  -7232926.26946  22762241.265    22762242.0264   22762247.4984
       170.0004        170.0004
  -7452202.07548  -5777292.68846  23040341.976    23040342.0194   23040349.3554
       171.0004        172.0004
 -17975783.88148 -13996695.28047  21587810.469    21587810.8754   21587818.7074
       187.0004        188.0004
 -15171728.26548 -11796616.81846  21793676.860    21793676.2234   21793680.7594
       181.0004        182.0004
 -16165913.59949 -12576328.49347  21344373.494    21344374.0274   21344380.9374
       205.0004        205.0004
 21  2  4  1 53  0.0000000  0  9G08G14G07G17G04G30G01G21G09
 -13047097.81949  -9821143.38948  22123311.882    22123312.2204   22123318.9714
       217.0004        216.0004
  -2057105.42547  -1596744.25245  23422898.481    23422899.0534   23422902.6164
       157.0004        159.0004
 -18127834.29549 -14111422.69747  21340672.997    21340673.0974   21340676.9614
       201.0004        202.0004
  -3945940.42447  -3046395.44245  23528454.523    23528454.0474   23528457.2514
       153.0004        155.0004
  -9201630.64748  -7158305.24346  22780464.861    22780464.9564   22780470.0524
       168.0004        169.0004
  -7539658.00748  -5845440.16246  23023700.605    23023700.1224   23023707.2054
       171.0004        173.0004
 -18037823.02948 -14045037.46247  21576004.926    21576005.2554   21576011.8514
       188.0004        188.0004
 -15164521.16048 -11791000.87746  21795047.203    21795047.5574   21795052.2834
       182.0004        182.0004
 -16112876.15649 -12535000.61347  21354466.409    21354467.0754   21354473.7554
       205.0004        205.0004
 21  2  4  1 53 30.0000000  0  9G08G14G07G17G04G30G01G21G09
 -12958293.68649  -9751945.36448  22140210.474    22140210.7574   22140218.0114
       216.0004        215.0004
  -2082779.25047  -1616749.82945  23418012.665    23418012.6884   23418017.7564
       157.0004        159.0004
 -18194337.21149 -14163243.15747  21328016.945    21328017.8474   21328021.7564
       202.0004        202.0004
  -4031677.14147  -3113203.21445  23512138.049    23512138.6554   23512143.1534
       153.0004        155.0004
  -9105754.99248  -7083596.93246  22798708.730    22798709.4254   22798714.4144
       169.0004        170.0004
  -7627092.20848  -5913570.72446  23007062.663    23007062.8234   23007067.8264
       172.0004        174.0004
 -18099542.43748 -14093130.50746  21564258.991    21564259.2714   21564266.8834
       187.0004        186.0004
 -15156832.37048 -11785009.60746  21796511.526    21796511.0744   21796515.6924
       182.0004        182.0004
 -16059448.11649 -12493368.38347  21364634.468    21364634.3594   21364640.5884
       205.0004        205.0004
 21  2  4  1 54  0.0000000  0  9G08G14G07G17G04G30G01G21G09
 -12869308.90549  -9682606.58048  22157143.613    22157144.1204   22157151.3224
       215.0004        214.0004
  -2108433.82047  -1636740.39345  23413130.270    23413130.8594   23413135.2424
       157.0004        159.0004
 -18260621.28649 -14214893.08947  21315403.575    21315404.3664   21315408.2754
       202.0004        202.0004
  -4117106.82447  -3179771.75645  23495882.762    23495882.8874   23495886.9764
       154.0004        158.0004
  -9009770.08848  -7008803.51846  22816974.887    22816974.5634   22816979.7224
       168.0004        169.0004
  -7714502.38948  -5981682.55646  22990428.499    22990427.7594   22990434.5374
       172.0004        172.0004
 -18160938.77048 -14140971.80047  21552575.566    21552576.5614   21552585.1894
       187.0004        188.0004
 -15148660.91848 -11778642.23146  21798065.537    21798065.2204   21798070.5314
       182.0004        183.0004
 -16005631.96949 -12451433.73347  21374874.789    21374874.9954   21374882.1074
       205.0004        206.0004
 21  2  4  1 54 30.0000000  0  9G08G14G07G17G04G30G01G21G09
 -12780146.48349  -9613129.37948  22174110.926    22174111.1074   22174118.6394
       215.0004        215.0004
  -2134070.00647  -1656716.64945  23408253.048    23408252.9124   23408258.3544
       158.0004        159.0004
 -18326683.43449 -14266370.09847  21302832.982    21302833.0074   21302836.6654
       201.0004        202.0004
  -4202227.64247  -3246099.62745  23479685.067    23479685.0344   23479688.2254
       157.0004        159.0004
  -8913678.63648  -6933927.07146  22835259.010    22835259.6944   22835265.7294
       168.0004        168.0004
  -7801886.12548  -6049773.77046  22973800.032    22973800.2824   22973807.0044
       172.0004        173.0004
 -18222008.53848 -14188558.62947  21540956.484    21540956.2064   21540963.2094
       187.0004        188.0004
 -15140005.54948 -11771897.78646  21799712.773    21799712.8664   21799717.7314
       183.0004        183.0004
 -15951430.11149 -12409198.52147  21385188.198    21385188.7674   21385195.8264
       205.0004        205.0004
 21  2  4  1 55  0.0000000  0  9G08G14G07G17G04G30G01G21G09
 -12690809.96749  -9543516.50748  22191110.670    22191111.3524   22191118.4904
       215.0004        214.0004
  -2159689.54347  -1676679.89245  23403376.063    23403376.5104   23403382.3034
       158.0004        159.0004
 -18392521.47749 -14317672.48447  21290303.753    21290304.6894   21290308.8694
       202.0004        203.0004
  -4287038.37547  -3312185.90545  23463544.627    23463545.4064   23463550.6644
       159.0004        162.0004
  -8817484.11548  -6858970.31446  22853564.798    22853565.0904   22853571.3204
       167.0004        168.0004
  -7889241.85448  -6117843.16446  22957175.788    22957175.5724   22957183.2384
       172.0004        171.0004
 -18282749.14048 -14235888.98846  21529396.742    21529397.4604   21529404.3604
       187.0004        187.0004
 -15130866.26248 -11764776.25946  21801451.678    21801451.7144   21801456.9454
       183.0004        183.0004
 -15896845.74449 -12366665.26347  21395575.641    21395576.2154   21395582.7204
       204.0004        204.0004
 21  2  4  1 55 30.0000000  0  9G08G14G07G17G04G30G01G21G09
 -12601300.65349  -9473768.98748  22208144.689    22208144.7384   22208151.0334
       214.0004        213.0004
  -2185292.21347  -1696630.01545  23398505.663    23398505.5854   23398509.9434
       158.0004        160.0004
 -18458131.38249 -14368797.08247  21277818.122    21277819.2284   21277822.9754
       202.0004        202.0004
  -4371535.77347  -3378027.99646  23447463.994    23447465.5794   23447470.7964
       161.0004        163.0004
  -8721188.06748  -6783934.42346  22871889.401    22871889.3584   22871895.6694
       167.0004        168.0004
  -7976566.02648  -6185887.94146  22940557.625    22940557.7544   22940564.6384
       168.0004        167.0004
 -18343155.95948 -14282959.21146  21517900.907    21517901.3154   21517909.3484
       186.0004        186.0004
 -15121241.08048 -11757276.09646  21803282.582    21803282.9474   21803288.3824
       183.0004        183.0004
 -15841880.17449 -12323834.95347  21406036.358    21406036.3974   21406042.5854
       205.0004        205.0004
 21  2  4  1 56  0.0000000  0  9G08G14G07G17G04G30G01G21G09
 -12511621.23649  -9403888.92348  22225209.296    22225209.6234   22225216.4464
       214.0004        213.0004
  -2210879.57847  -1716568.23745  23393635.907    23393636.5844   23393640.9214
       157.0004        158.0004
 -18523510.55649 -14419741.89347  21265377.607    21265377.8874   21265381.8324
       202.0004        201.0004
  -4455718.55447  -3443624.92046  23431446.375    23431446.9184   23431451.9354
       161.0004        163.0004
  -8624793.83948  -6708822.03646  22890232.781    22890232.9244   22890238.7494
       167.0004        169.0004
  -8063856.82848  -6253906.73746  22923947.090    22923947.1384   22923955.7094
       168.0004        171.0004
 -18403226.27648 -14329767.21946  21506470.073    21506470.0774   21506478.5404
       186.0004        187.0004
 -15111129.85148 -11749397.21346  21805207.701    21805207.0414   21805212.8204
       183.0004        184.0004
 -15786536.44249 -12280709.97647  21416566.989    21416567.2854   21416574.5124
       204.0004        204.0004
 21  2  4  1 56 30.0000000  0  9G08G14G07G17G04G30G01G21G09
 -12421776.41249  -9333879.97348  22242305.926    22242306.5744   22242313.3474
       213.0004        213.0004
  -2236453.71447  -1736496.12645  23388769.088    23388769.8534   23388774.7874
       156.0004        156.0004
 -18588657.44949 -14470505.71347  21252980.289    21252980.9734   21252984.8434
       201.0004        202.0004
  -4539585.82647  -3508975.99746  23415486.928    23415487.3474   23415493.0714
       162.0004        164.0004
  -8528305.19748  -6633636.08646  22908595.139    22908595.0704   22908600.2214
       169.0004        170.0004
  -8151112.92248  -6321898.49846  22907343.979    22907343.4444   22907350.1024
       170.0004        171.0004
 -18462957.66648 -14376311.16247  21495104.287    21495105.2574   21495112.6314
       189.0004        191.0004
 -15100532.67148 -11741139.65546  21807225.403    21807224.2424   21807229.1324
       184.0004        184.0004
 -15730818.13049 -12237293.11447  21427169.946    21427170.4024   21427176.4184
       204.0004        203.0004
 21  2  4  1 57  0.0000000  0  9G08G14G07G17G04G30G01G21G09
 -12331769.47949  -9263744.71048  22259434.273    22259434.3534   22259441.4164
       213.0004        213.0004
  -2262016.43647  -1756415.11445  23383904.409    23383905.0984   23383910.5804
       154.0004        156.0004
 -18653569.86149 -14521086.82147  21240628.299    21240628.6134   21240632.5434
       202.0004        202.0004
  -4623136.39548  -3574080.28546  23399587.375    23399587.3964   23399593.4474
       165.0004        168.0004
  -8431725.79248  -6558379.41246  22926972.315    22926972.7504   22926977.9154
       168.0004        168.0004
  -8238332.80348  -6389862.06546  22890746.366    22890746.8304   22890753.2624
       170.0004        172.0004
 -18522347.74048 -14422589.14847  21483804.171    21483804.5404   21483810.8414
       191.0004        193.0004
 -15089449.76748 -11732503.62446  21809333.846    21809333.2014   21809338.1404
       184.0004        184.0004
 -15674728.63949 -12193587.02947  21437843.085    21437843.9304   21437850.1954
       203.0004        203.0004
 21  2  4  1 57 30.0000000  0  9G08G14G07G17G04G30G01G21G09
 -12241601.53949  -9193483.98248  22276593.494    22276593.2774   22276599.8074
       213.0004        213.0004
  -2287567.59947  -1776325.11945  23379042.403    23379043.0754   23379047.5414
       155.0004        156.0004
 -18718243.54149 -14571481.90647  21228320.797    21228321.5194   21228325.6484
       202.0004        202.0004
  -4706367.36848  -3638935.52346  23383748.010    23383749.0614   23383755.6244
       165.0004        167.0004
  -8335057.24048  -6483053.27546  22945367.522    22945367.2544   22945374.1794
       167.0004        167.0004
  -8325513.07948  -6457794.71446  22874155.122    22874156.3324   22874163.8144
       170.0004        172.0004
 -18581392.05848 -14468597.72847  21472566.966    21472567.6594   21472574.4994
       191.0004        190.0004
 -15077879.09248 -11723487.51146  21811535.423    21811534.6424   21811540.3414
       184.0004        184.0004
 -15618269.40649 -12149592.83247  21448586.561    21448587.3514   21448594.3844
       203.0004        203.0004
 21  2  4  1 58  0.0000000  0  9G08G14G07G17G04G30G01G21G09
 -12151275.29549  -9123099.88247  22293781.165    22293781.4564   22293788.2294
       213.0004        212.0004
  -2313108.07547  -1796226.78645  23374181.810    23374181.8534   23374187.8514
       155.0004        157.0004
 -18782675.80449 -14621688.85347  21216059.824    21216060.5664   21216064.2854
       202.0004        203.0004
  -4789276.87948  -3703540.27046  23367971.589    23367972.7334   23367978.5004
       166.0004        168.0004
  -8238302.09948  -6407659.65646  22963780.038    22963780.2794   22963785.9874
       167.0004        168.0004
  -8412651.11548  -6525694.48046  22857575.110    22857575.1864   22857580.9324
       171.0004        172.0004
 -18640087.15548 -14514334.14647  21461397.022    21461397.0824   21461405.4744
       189.0004        188.0004
 -15065819.92648 -11714090.73646  21813830.447    21813830.0244   21813834.9004
       184.0004        185.0004
 -15561442.81849 -12105312.37347  21459401.032    21459401.4044   21459408.1824
       203.0004        203.0004
 21  2  4  1 58 30.0000000  0  9G08G14G07G17G04G30G01G21G09
 -12060793.67349  -9052594.73347  22310999.644    22310999.0814   22311006.3614
       212.0004        211.0004
  -2338639.35347  -1816121.30845  23369324.070    23369324.8524   23369329.6324
       155.0004        158.0004
 -18846863.83749 -14671705.52447  21203846.134    21203846.0514   21203849.9294
       203.0004        203.0004
  -4871863.55948  -3767893.50646  23352255.697    23352255.9474   23352261.8724
       166.0004        167.0004
  -8141463.69348  -6332201.14746  22982207.370    22982207.5704   22982214.0944
       168.0004        169.0004
  -8499745.09248  -6593559.91846  22841001.071    22841001.4034   22841008.1004
       171.0004        172.0004
 -18698430.24148 -14559796.28146  21450293.781    21450294.5864   21450302.9354
       187.0004        187.0004
 -15053272.18848 -11704313.27546  21816217.210    21816216.9864   21816222.6104
       184.0004        185.0004
 -15504252.00149 -12060748.11747  21470283.839    21470284.4284   21470291.0164
       203.0004        203.0004
 21  2  4  1 59  0.0000000  0  9G08G14G07G17G04G30G01G21G09
 -11970159.05949  -8981970.37347  22328246.224    22328246.3574   22328253.4194
       211.0004        210.0004
  -2364162.14747  -1836009.16045  23364466.587    23364467.2504   23364472.7954
       155.0004        157.0004
 -18910804.32249 -14721529.27447  21191677.220    21191677.9084   21191682.4834
       202.0004        203.0004
  -4954125.05248  -3831993.34646  23336603.489    23336603.9884   23336608.3904
       166.0004        169.0004
  -8044544.39948  -6256679.60346  23000650.890    23000650.7794   23000655.8694
       167.0004        167.0004
  -8586792.28448  -6661388.87846  22824434.811    22824435.0264   22824443.1084
       170.0004        169.0004
 -18756417.66648 -14604981.26647  21439260.001    21439260.0644   21439268.4624
       187.0004        189.0004
 -15040235.08748 -11694154.49146  21818698.517    21818698.5284   21818703.5904
       184.0004        185.0004
 -15446699.16749 -12015901.77047  21481235.221    21481236.1554   21481242.5134
       202.0004        202.0004
 21  2  4  1 59 30.0000000  0  9G08G14G07G17G04G30G01G21G09
 -11879375.58549  -8911229.99847  22345521.129    22345521.4834   22345529.1214
       210.0004        209.0004
  -2389678.45347  -1855891.98345  23359610.254    23359611.2754   23359616.8574
       156.0004        158.0004
 -18974495.38449 -14771158.67147  21179558.558    21179558.9004   21179562.2434
       203.0004        203.0004
  -5036060.67348  -3895839.25446  23321010.597    23321010.4794   23321015.5654
       165.0004        165.0004
  -7947548.06448  -6181098.04046  23019107.810    23019108.6424   23019113.6614
       167.0004        169.0004
  -8673791.36548  -6729180.37146  22807881.241    22807881.2704   22807888.2414
       172.0004        175.0004
 -18814047.24448 -14649887.43347  21428293.802    21428294.3734   21428302.1954
       189.0004        191.0004
 -15026708.84348 -11683614.55846  21821273.704    21821272.4424   21821277.0964
       184.0004        184.0004
 -15388788.01549 -11970776.20847  21492256.121    21492256.1544   21492263.6024
       202.0004        201.0004
 21  2  4  2  0  0.0000000  0  9G08G14G07G17G04G30G01G21G09
 -11788444.87249  -8840374.89247  22362824.865    22362825.2364   22362832.7214
       210.0004        210.0004
  -2415188.48347  -1875769.91345  23354757.864    23354758.3944   23354762.1704
       158.0004        161.0004
 -19037933.54849 -14820591.00347  21167487.015    21167486.7584   21167490.6274
       203.0004        204.0004
  -5117667.69247  -3959429.10546  23305480.629    23305481.6354   23305485.9284
       163.0004        165.0004
  -7850476.70848  -6105458.03346  23037580.730    23037580.3274   23037586.1634
       168.0004        169.0004
  -8760739.15548  -6796931.88946  22791335.971    22791335.7624   22791342.0664
       176.0004        177.0004
 -18871314.93148 -14694511.60547  21417396.540    21417397.3204   21417404.1904
       191.0004        192.0004
 -15012691.76248 -11672692.14046  21823939.690    21823939.8294   21823944.1304
       184.0004        183.0004
 -15330520.42449 -11925372.88947  21503343.432    21503344.3614   21503351.5894
       201.0004        202.0004
 21  2  4  2  0 30.0000000  0 10G08G14G07G17G04G30G01G21G09G28
 -11697370.24049  -8769407.64847  22380156.305    22380156.3284   22380163.3044
       210.0004        210.0004
  -2440693.84147  -1895644.21245  23349903.663    23349904.2804   23349908.1854
       159.0004        161.0004
 -19101116.58149 -14869824.53747  21155462.710    21155463.2674   21155467.1954
       203.0004        203.0004
  -5198945.14047  -4022762.16746  23290015.098    23290015.1134   23290018.4894
       163.0004        165.0004
  -7753333.59048  -6029762.10546  23056066.504    23056066.6484   23056072.7924
       168.0004        168.0004
  -8847633.85448  -6864642.04046  22774800.462    22774800.8664   22774807.0764
       177.0004        178.0004
 -18928218.08548 -14738851.71847  21406568.995    21406569.5534   21406576.0254
       192.0004        193.0004
 -14998184.09448 -11661387.45246  21826699.614    21826700.1234   21826704.7504
       184.0004        183.0004
 -15271899.57149 -11879694.31047  21514499.481    21514499.7244   21514506.2884
       202.0004        202.0004
  -1451509.85956  -1122718.35845  23693002.623    23693003.7615   23693006.0484
       134.0004        141.0004
 21  2  4  2  1  0.0000000  0 10G08G14G07G17G04G30G01G21G09G28
 -11606155.36149  -8698331.11747  22397513.032    22397513.3624   22397521.1734
       209.0004        208.0004
  -2466196.97747  -1915516.78345  23345050.989    23345051.3884   23345055.7214
       159.0004        161.0004
 -19164042.89949 -14918858.03747  21143488.268    21143488.7704   21143492.6724
       203.0004        203.0004
  -5279892.61447  -4085838.13246  23274610.738    23274610.6044   23274614.0624
       164.0004        165.0004
  -7656122.89148  -5954013.52446  23074564.070    23074564.7494   23074571.7364
       167.0004        168.0004
  -8934474.52648  -6932310.07546  22758274.693    22758273.8324   22758281.9494
       176.0004        176.0004
 -18984754.91848 -14782906.39447  21395810.355    21395810.5634   21395817.6004
       193.0004        194.0004
 -14983186.92048 -11649701.33846  21829554.041    21829554.5414   21829559.3044
       183.0004        183.0004
 -15212929.58549 -11833743.68847  21525721.150    21525721.0234   21525727.5024
       202.0004        202.0004
  -1466469.66147  -1134375.33745  23690154.977    23690154.9554   23690159.8274
       137.0004        142.0004
 21  2  4  2  1 30.0000000  0 10G08G14G07G17G04G30G01G21G09G28
 -11514803.84449  -8627148.13347  22414896.757    22414897.5554   22414904.2914
       208.0004        207.0004
  -2491698.98647  -1935388.45345  23340197.841    23340198.4004   23340203.2154
       159.0004        161.0004
 -19226709.74649 -14967689.34947  21131563.720    21131563.7214   21131567.7704
       203.0004        204.0004
  -5360508.57947  -4148655.70646  23259269.446    23259269.5634   23259273.8874
       162.0004        163.0004
  -7558847.55348  -5878214.56146  23093075.676    23093076.1344   23093081.6014
       166.0004        167.0004
  -9021258.85448  -6999934.22046  22741760.921    22741760.0234   22741767.4554
       177.0004        179.0004
 -19040922.32248 -14826673.20847  21385120.442    21385121.3244   21385129.5634
       192.0004        192.0004
 -14967699.78748 -11637633.43946  21832501.809    21832501.2914   21832506.2954
       184.0004        184.0004
 -15153613.27549 -11787523.19947  21537008.585    21537008.7834   21537015.8034
       202.0004        202.0004
  -1481412.61947  -1146019.21045  23687311.487    23687310.9634   23687316.0694
       138.0004        144.0004
 21  2  4  2  2  0.0000000  0 10G08G14G07G17G04G30G01G21G09G28
 -11423317.70949  -8555860.24747  22432307.151    22432307.1614   22432314.3314
       208.0004        208.0004
  -2517201.04347  -1955260.17145  23335345.195    23335345.0664   23335350.0184
       159.0004        161.0004
 -19289114.50649 -15016316.43247  21119688.211    21119688.5264   21119692.8094
       204.0004        204.0004
  -5440791.42847  -4211213.76046  23243992.244    23243992.7584   23243996.4934
       162.0004        164.0004
  -7461510.52648  -5802367.54546  23111597.863    23111598.5614   23111603.3884
       165.0004        165.0004
  -9107984.63148  -7067512.74146  22725257.501    22725257.1564   22725263.3514
       179.0004        180.0004
 -19096717.37448 -14870149.85947  21374502.950    21374503.2964   21374511.4554
       190.0004        189.0004
 -14951722.25648 -11625183.41146  21835541.599    21835541.5204   21835547.4694
       184.0004        183.0004
 -15093953.51349 -11741035.07547  21548360.801    21548361.3984   21548368.2484
       202.0004        202.0004
  -1496340.45947  -1157651.27545  23684471.365    23684471.1234   23684475.0624
       139.0004        144.0004
 21  2  4  2  2 30.0000000  0 10G08G14G07G17G04G30G01G21G09G28
 -11331698.83249  -8484468.90647  22449740.956    22449741.0304   22449748.7344
       209.0004        209.0004
  -2542703.42547  -1975132.17045  23330492.235    23330492.6664   23330497.3524
       159.0004        161.0004
 -19351253.20649 -15064736.18947  21107863.141    21107863.8304   21107867.5744
       204.0004        204.0004
  -5520738.73947  -4273510.36345  23228778.659    23228778.8964   23228783.9834
       161.0004        162.0004
  -7364113.78947  -5726474.00046  23130132.151    23130132.2514   23130137.8724
       163.0004        164.0004
  -9194648.71348  -7135043.19946  22708765.656    22708765.6844   22708771.8704
       180.0004        180.0004
 -19152136.03848 -14913333.22547  21363956.624    21363957.7214   21363965.2014
       189.0004        189.0004
 -14935253.38548 -11612350.51246  21838675.482    21838675.3104   21838680.3944
       183.0004        183.0004
 -15033952.20949 -11694280.82747  21559779.691    21559779.6384   21559785.7994
       201.0004        201.0004
  -1511254.12547  -1169272.30745  23681633.128    23681632.8034   23681637.9324
       140.0004        145.0004
 21  2  4  2  3  0.0000000  0 10G08G14G07G17G04G30G01G21G09G28
 -11239948.05149  -8412974.79147  22467200.053    22467200.4844   22467208.7074
       209.0004        209.0004
  -2568205.10747  -1995003.60145  23325639.495    23325639.8054   23325643.2964
       158.0004        159.0004
 -19413121.05849 -15112944.90847  21096090.428    21096091.0314   21096094.6794
       204.0004        204.0004
  -5600346.77547  -4335542.59346  23213631.282    23213631.2464   23213635.8624
       163.0004        166.0004
  -7266658.10347  -5650534.52546  23148675.862    23148676.4514   23148683.2354
       162.0004        163.0004
  -9281246.71248  -7202522.14946  22692285.151    22692285.3014   22692292.8394
       177.0004        177.0004
 -19207173.20048 -14956219.32547  21353483.356    21353484.2154   21353492.6434
       189.0004        190.0004
 -14918290.53948 -11599132.71246  21841903.016    21841903.5134   21841908.4114
       183.0004        184.0004
 -14973610.07849 -11647261.00847  21571262.329    21571262.6924   21571268.9454
       202.0004        203.0004
  -1526152.63147  -1180881.52145  23678798.506    23678798.0274   23678804.1324
       140.0004        144.0004
 21  2  4  2  3 30.0000000  0 10G08G14G07G17G04G30G01G21G09G28
 -11148069.08149  -8341380.80847  22484684.020    22484684.4154   22484692.1444
       208.0004        207.0004
  -2593707.90647  -2014875.91445  23320786.468    23320786.4454   23320790.6544
       159.0004        160.0004
 -19474716.11349 -15160941.05247  21084368.903    21084369.4614   21084373.7064
       204.0004        204.0004
  -5679614.56347  -4397309.68246  23198546.095    23198546.6444   23198552.0284
       164.0004        166.0004
  -7169146.99847  -5574551.87646  23167232.288    23167233.0994   23167239.9234
       161.0004        163.0004
  -9367776.96348  -7269948.33046  22675820.134    22675820.2854   22675825.7304
       177.0004        178.0004
 -19261826.51448 -14998806.30447  21343083.534    21343083.8854   21343092.5974
       189.0004        190.0004
 -14900834.03048 -11585530.22246  21845225.705    21845225.0074   21845230.6784
       184.0004        185.0004
 -14912930.67849 -11599978.36647  21582808.644    21582809.0684   21582815.8064
       202.0004        202.0004
  -1541038.03647  -1192480.56845  23675965.388    23675965.7984   23675969.4274
       142.0004        146.0004
 21  2  4  2  4  0.0000000  0 10G08G14G07G17G04G30G01G21G09G28
 -11056065.21449  -8269689.48147  22502191.752    22502192.0854   22502200.0084
       207.0004        207.0004
  -2619213.33347  -2034750.25545  23315932.352    23315933.1944   23315937.6194
       158.0004        160.0004
 -19536035.78849 -15208722.60547  21072700.079    21072700.6984   21072704.5754
       204.0004        203.0004
  -5758540.80248  -4458810.62846  23183527.026    23183527.7244   23183532.9014
       166.0004        168.0004
  -7071583.77747  -5498528.58146  23185798.309    23185798.4444   23185806.4094
       161.0004        163.0004
  -9454237.60448  -7337320.25846  22659367.889    22659367.0454   22659373.7804
       178.0004        180.0004
 -19316093.34048 -15041092.12447  21332756.420    21332757.3294   21332765.9934
       190.0004        190.0004
 -14882884.12748 -11571543.28446  21848642.158    21848641.5934   21848645.4554
       184.0004        185.0004
 -14851917.31149 -11552435.48547  21594419.922    21594419.8304   21594426.4844
       203.0004        203.0004
  -1555912.90047  -1204071.36245  23673134.614    23673134.8194   23673137.9064
       143.0004        147.0004
 21  2  4  2  4 30.0000000  0 10G08G14G07G17G04G30G01G21G09G28
 -10963939.30949  -8197903.07847  22519721.912    22519722.8804   22519730.9764
       207.0004        206.0004
  -2644723.15147  -2054628.04245  23311078.397    23311079.3514   23311083.4614
       158.0004        159.0004
 -19597078.28349 -15256288.20047  21061084.764    21061085.3034   21061088.6674
       204.0004        204.0004
  -5837125.32348  -4520045.32246  23168572.544    23168572.5524   23168579.3444
       167.0004        168.0004
  -6973971.90147  -5422467.40346  23204374.223    23204374.0384   23204381.1704
       162.0004        163.0004
  -9540626.92548  -7404636.61446  22642928.437    22642927.8394   22642934.5584
       181.0004        182.0004
 -19369971.30748 -15083074.95647  21322504.995    21322505.3714   21322513.4064
       191.0004        192.0004
 -14864441.43348 -11557172.34346  21852151.196    21852150.8784   21852155.9424
       184.0004        184.0004
 -14790573.39749 -11504635.04447  21606093.304    21606093.1434   21606099.8704
       203.0004        203.0004
  -1570778.95047  -1215655.28345  23670307.588    23670306.9164   23670310.5034
       146.0004        150.0004
 21  2  4  2  5  0.0000000  0 10G08G14G07G17G04G30G01G21G09G28
 -10871693.42549  -8126023.16547  22537277.457    22537277.1614   22537283.9464
       206.0004        205.0004
  -2670237.51747  -2074509.36445  23306222.771    23306224.0404   23306228.0004
       157.0004        160.0004
 -19657839.76049 -15303634.80247  21049522.606    21049522.5534   21049526.2974
       204.0004        204.0004
  -5915365.42648  -4581011.61646  23153683.754    23153683.9864   23153691.1714
       167.0004        169.0004
  -6876313.35047  -5346369.83845  23222957.077    23222957.5614   23222963.4144
       161.0004        162.0004
  -9626941.71548  -7471894.86646  22626502.655    22626503.5214   22626509.9674
       181.0004        182.0004
 -19423456.50348 -15124751.72347  21312326.854    21312327.0764   21312334.9084
       191.0004        191.0004
 -14845504.71148 -11542416.44546  21855754.968    21855754.4014   21855758.5764
       184.0004        184.0004
 -14728900.92949 -11456578.58447  21617829.328    21617829.3674   21617835.8194
       203.0004        203.0004
  -1585637.03747  -1227233.00045  23667479.180    23667478.2764   23667482.4764
       147.0004        151.0004
 21  2  4  2  5 30.0000000  0 10G08G14G07G17G04G30G01G21G09G28
 -10779330.60549  -8054052.15647  22554852.892    22554852.9654   22554860.0414
       205.0004        205.0004
  -2695758.10847  -2094395.53245  23301367.785    23301367.1144   23301371.8824
       157.0004        159.0004
 -19718318.00849 -15350760.72847  21038013.204    21038013.7774   21038017.8034
       204.0004        204.0004
  -5993260.00448  -4641708.68546  23138862.295    23138862.2254   23138867.8484
       168.0004        170.0004
  -6778611.54147  -5270238.55545  23241549.473    23241550.2614   23241556.9994
       161.0004        162.0004
  -9713180.19748  -7539093.69646  22610092.096    22610092.4674   22610098.7124
       181.0004        182.0004
 -19476546.53748 -15166120.59547  21302223.936    21302224.8734   21302232.7184
       192.0004        193.0004
 -14826074.45148 -11527275.98546  21859451.824    21859451.1934   21859455.7104
       183.0004        183.0004
 -14666903.36249 -11408268.81247  21629626.300    21629627.3074   21629633.6404
       203.0004        203.0004
  -1600489.32447  -1238806.19045  23664651.203    23664651.7694   23664656.6954
       148.0004        152.0004
 21  2  4  2  6  0.0000000  0 10G08G14G07G17G04G30G01G21G09G28
 -10686854.10749  -7981992.54947  22572450.630    22572450.6444   22572458.2994
       205.0004        205.0004
  -2721286.37147  -2114287.69045  23296509.583    23296509.8644   23296513.5004
       158.0004        161.0004
 -19778510.50149 -15397663.97447  21026559.594    21026559.7094   21026563.2694
       204.0004        205.0004
  -6070808.20348  -4702135.82646  23124105.078    23124105.7974   23124109.4214
       168.0004        169.0004
  -6680869.73247  -5194076.11246  23260149.474    23260150.3964   23260155.4034
       162.0004        163.0004
  -9799340.40348  -7606231.50846  22593696.726    22593697.0104   22593702.5904
       181.0004        180.0004
 -19529238.77548 -15207179.47947  21292196.560    21292197.8704   21292205.8624
       193.0004        194.0004
 -14806150.58848 -11511750.89146  21863243.497    21863243.0124   21863247.7734
       183.0004        183.0004
 -14604583.96749 -11359708.25047  21641485.412    21641485.5114   21641492.6514
       202.0004        202.0004
  -1615337.47547  -1250376.18245  23661826.789    23661827.0104   23661831.4004
       149.0004        152.0004
 21  2  4  2  6 30.0000000  0 10G08G14G07G17G04G30G01G21G09G28
 -10594266.26149  -7909846.18247  22590069.155    22590069.4544   22590077.6724
       205.0004        206.0004
  -2746823.11647  -2134186.43945  23291649.076    23291650.5184   23291654.6864
       158.0004        161.0004
 -19838414.22349 -15444342.18847  21015159.685    21015159.8964   21015164.1534
       204.0004        205.0004
  -6148008.06948  -4762291.55046  23109412.947    23109413.8344   23109419.1274
       166.0004        167.0004
  -6583090.45647  -5117884.48845  23278755.417    23278755.9234   23278762.8454
       160.0004        161.0004
  -9885419.70448  -7673306.28246  22577317.107    22577316.5374   22577323.2064
       180.0004        180.0004
 -19581529.99748 -15247925.87247  21282246.564    21282247.4484   21282255.4344
       194.0004        194.0004
 -14785732.90448 -11495840.99746  21867128.543    21867128.6004   21867133.2244
       183.0004        184.0004
 -14541945.31349 -11310898.91247  21653404.784    21653405.4624   21653412.2094
       202.0004        202.0004
  -1630182.62247  -1261943.80345  23659001.164    23659001.8264   23659004.9244
       149.0004        153.0004
 21  2  4  2  7  0.0000000  0 10G08G14G07G17G04G30G01G21G09G28
 -10501569.88349  -7837615.27347  22607709.177    22607709.2754   22607717.5774
       205.0004        205.0004
  -2772369.42147  -2154092.63545  23286788.103    23286787.7054   23286793.4104
       159.0004        161.0004
 -19898026.64249 -15490793.43347  21003816.161    21003816.8524   21003820.4654
       205.0004        205.0004
  -6224858.04748  -4822174.66146  23094789.996    23094790.8204   23094794.8034
       165.0004        167.0004
  -6485276.49947  -5041665.85645  23297369.409    23297369.6754   23297375.4544
       160.0004        162.0004
  -9971415.72848  -7740316.18046  22560951.421    22560951.2504   22560957.6764
       179.0004        178.0004
 -19633417.22148 -15288357.47947  21272372.521    21272373.2294   21272380.9144
       194.0004        194.0004
 -14764821.20548 -11479546.16346  21871108.705    21871108.5344   21871112.7384
       184.0004        184.0004
 -14478990.33249 -11261843.09647  21665385.316    21665385.4694   21665391.8294
       201.0004        201.0004
  -1645026.67047  -1273510.60745  23656176.807    23656176.0884   23656180.8854
       150.0004        153.0004
 21  2  4  2  7 30.0000000  0 10G08G14G07G17G04G30G01G21G09G28
 -10408767.73449  -7765301.91347  22625369.786    22625369.1824   22625377.0394
       205.0004        204.0004
  -2797925.98147  -2174006.83045  23281925.337    23281925.6944   23281928.9944
       158.0004        160.0004
 -19957344.57149 -15537015.19147  20992528.481    20992528.6514   20992532.3424
       205.0004        205.0004
  -6301356.51348  -4881783.83446  23080231.614    23080232.7074   23080236.8694
       165.0004        166.0004
  -6387430.32847  -4965422.08545  23315987.344    23315988.4444   23315996.2904
       161.0004        162.0004
 -10057325.79048  -7807259.08046  22544602.390    22544602.8704   22544610.5864
       177.0004        177.0004
 -19684897.17048 -15328471.71147  21262577.225    21262577.4974   21262584.7784
       194.0004        195.0004
 -14743414.93448 -11462865.93546  21875181.427    21875180.9564   21875186.0524
       184.0004        184.0004
 -14415721.47749 -11212542.70047  21677425.045    21677425.1724   21677431.6664
       201.0004        200.0004
  -1659870.88447  -1285077.51345  23653352.502    23653352.1134   23653355.1744
       150.0004        153.0004
 21  2  4  2  8  0.0000000  0 10G08G14G07G17G04G30G01G21G09G28
 -10315862.17849  -7692907.98547  22643047.221    22643048.2864   22643055.7864
       204.0004        204.0004
  -2823494.16747  -2193930.09245  23277058.904    23277059.4214   23277063.7584
       159.0004        161.0004
 -20016365.44149 -15583005.48547  20981296.106    20981296.9374   20981301.0504
       204.0004        204.0004
  -6377502.54448  -4941118.39846  23065742.536    23065742.4594   23065746.8734
       166.0004        168.0004
  -6289555.11047  -4889155.68645  23334612.999    23334613.7954   23334620.6244
       161.0004        162.0004
 -10143147.79948  -7874133.34746  22528271.239    22528271.9424   22528279.3664
       177.0004        177.0004
 -19735967.20448 -15368266.53947  21252858.795    21252858.9574   21252866.0324
       194.0004        194.0004
 -14721514.51048 -11445800.66746  21879348.789    21879348.9004   21879353.5264
       184.0004        184.0004
 -14352142.11049 -11163000.36047  21689523.083    21689523.6814   21689531.4784
       200.0004        201.0004
  -1674716.35947  -1296645.41045  23650527.765    23650526.4844   23650531.5114
       152.0004        154.0004
 21  2  4  2  8 30.0000000  0 10G08G14G07G17G04G30G01G21G09G28
 -10222855.79349  -7620435.48047  22660746.436    22660747.1804   22660754.3024
       204.0004        204.0004
  -2849074.91747  -2213863.12645  23272191.432    23272191.9014   23272196.9924
       160.0004        162.0004
 -20075086.31049 -15628762.00647  20970122.796    20970122.8544   20970126.5984
       204.0004        205.0004
  -6453294.37948  -5000176.95946  23051320.940    23051320.1724   23051323.8884
       168.0004        169.0004
  -6191653.50447  -4812868.72346  23353243.212    23353244.2414   23353250.5864
       161.0004        163.0004
 -10228879.20348  -7940937.04346  22511957.510    22511958.0664   22511964.3864
       177.0004        177.0004
 -19786624.27848 -15407739.58647  21243218.439    21243218.8264   21243225.8904
       193.0004        193.0004
 -14699119.81448 -11428350.24346  21883609.791    21883610.5144   21883615.6854
       184.0004        184.0004
 -14288254.95649 -11113218.17547  21701680.813    21701680.4814   21701687.6254
       200.0004        200.0004
  -1689564.96847  -1308215.74745  23647701.483    23647700.9374   23647704.6094
       151.0004        153.0004
 21  2  4  2  9  0.0000000  0 10G08G14G07G17G04G30G01G21G09G28
 -10129751.78649  -7547886.90447  22678463.599    22678463.6064   22678471.6834
       203.0004        204.0004
  -2874669.63647  -2233807.05446  23267321.140    23267322.5064   23267326.2174
       162.0004        164.0004
 -20133504.90349 -15674282.99147  20959005.531    20959006.2634   20959009.6684
       204.0004        204.0004
  -6528730.99348  -5058958.71246  23036963.844    23036964.3484   23036968.7734
       167.0004        167.0004
  -6093728.69347  -4736563.68345  23371878.321    23371878.6874   23371884.6714
       160.0004        161.0004
 -10314517.98348  -8007668.56046  22495660.942    22495661.2234   22495667.3134
       178.0004        179.0004
 -19836865.84648 -15446888.84947  21233657.333    21233657.9654   21233666.0894
       193.0004        193.0004
 -14676231.04448 -11410514.83446  21887966.478    21887966.2204   21887970.7174
       184.0004        184.0004
 -14224063.27849 -11063198.71547  21713896.068    21713896.2874   21713902.4644
       199.0004        199.0004
  -1704418.46347  -1319789.87445  23644875.775    23644875.0234   23644878.9134
       151.0004        153.0004
 21  2  4  2  9 30.0000000  0 10G08G14G07G17G04G30G01G21G09G28
 -10036552.64349  -7475264.21347  22696199.285    22696199.0384   22696207.0764
       203.0004        203.0004
  -2900279.48847  -2253762.77045  23262447.055    23262447.0524   23262453.5374
       161.0004        162.0004
 -20191618.34449 -15719566.19747  20947947.766    20947947.7604   20947951.5224
       204.0004        205.0004
  -6603811.29348  -5117462.81046  23022677.644    23022678.1574   23022680.2514
       166.0004        169.0004
  -5995783.56047  -4660242.81645  23390517.296    23390518.1164   23390522.1644
       159.0004        161.0004
 -10400061.84348  -8074326.12946  22479382.187    22479383.1994   22479389.7424
       178.0004        180.0004
 -19886689.16648 -15485712.19847  21224176.401    21224176.9964   21224184.9714
       192.0004        193.0004
 -14652848.20748 -11392294.43246  21892415.132    21892415.5224   21892420.4064
       184.0004        184.0004
 -14159570.14449 -11012944.33747  21726168.553    21726169.1234   21726175.5004
       199.0004        199.0004
  -1719278.63347  -1331369.20145  23642046.805    23642046.6534   23642050.7894
       150.0004        152.0004
 21  2  4  2 10  0.0000000  0 10G08G14G07G17G04G30G01G21G09G28
  -9943260.72549  -7402569.21747  22713952.109    22713951.1134   22713960.3844
       202.0004        202.0004
  -2925904.56447  -2273730.35445  23257570.715    23257571.2044   23257574.6324
       158.0004        158.0004
 -20249423.25649 -15764608.99447  20936947.578    20936948.0134   20936951.7704
       205.0004        205.0004
  -6678532.74148  -5175687.30646  23008458.074    23008458.6644   23008462.6054
       167.0004        169.0004
  -5897819.93447  -4583907.51945  23409159.719    23409159.8644   23409164.2404
       159.0004        161.0004
 -10485507.51148  -8140907.15046  22463122.171    22463122.4234   22463130.1004
       178.0004        178.0004
 -19936090.30848 -15524206.59947  21214776.686    21214776.5654   21214784.1564
       192.0004        193.0004
 -14628970.49048 -11373688.41646  21896959.274    21896959.2294   21896964.1884
       184.0004        184.0004
 -14094777.51249 -10962456.58247  21738498.264    21738498.3834   21738505.4304
       199.0004        199.0004
  -1734145.61847  -1342953.87045  23639217.964    23639217.7964   23639221.7654
       150.0004        153.0004
 21  2  4  2 10 30.0000000  0 10G08G14G07G17G04G30G01G21G09G28
  -9849879.05349  -7329804.29847  22731722.383    22731722.3954   22731730.3434
       202.0004        204.0004
  -2951546.58547  -2293711.16745  23252690.291    23252691.1454   23252696.6134
       157.0004        159.0004
 -20306917.35749 -15809409.59447  20926006.126    20926006.7244   20926010.8154
       205.0004        205.0004
  -6752894.98948  -5233631.91246  22994308.170    22994308.1334   22994312.4904
       166.0004        168.0004
  -5799841.38147  -4507560.60845  23427804.009    23427804.4254   23427810.4734
       159.0004        161.0004
 -10570853.24348  -8207410.29646  22446882.261    22446882.2594   22446889.4834
       178.0004        180.0004
 -19985067.25248 -15562370.44447  21205455.919    21205456.5874   21205463.8694
       192.0004        193.0004
 -14604598.81748 -11354697.49346  21901596.899    21901596.6804   21901601.8124
       184.0004        184.0004
 -14029689.08749 -10911738.33547  21750884.440    21750884.8234   21750892.2104
       199.0004        199.0004
  -1749021.82747  -1354545.72645  23636387.213    23636386.7744   23636390.6114
       149.0004        153.0004
 21  2  4  2 11  0.0000000  0 10G08G14G07G17G04G30G01G21G09G28
  -9756409.85549  -7256971.17047  22749507.337    22749508.1554   22749516.7264
       203.0004        203.0004
  -2977206.37447  -2313705.79146  23247808.212    23247809.2624   23247814.0714
       160.0004        163.0004
 -20364097.88049 -15853965.85047  20915125.683    20915125.7544   20915129.9324
       205.0004        205.0004
  -6826896.11448  -5291295.14046  22980226.138    22980226.0114   22980230.6414
       170.0004        173.0004
  -5701850.38147  -4431203.99645  23446450.501    23446451.2104   23446456.4244
       158.0004        160.0004
 -10656096.28448  -8273833.44946  22430662.127    22430661.5444   22430667.8704
       180.0004        182.0004
 -20033616.81848 -15600201.26247  21196216.995    21196217.2754   21196225.4484
       193.0004        193.0004
 -14579732.88148 -11335321.43346  21906329.067    21906328.5004   21906333.3394
       184.0004        184.0004
 -13964307.50549 -10860791.63547  21763325.749    21763326.4694   21763333.3194
       199.0004        199.0004
  -1763908.47547  -1366145.71745  23633554.155    23633554.2644   23633558.3894
       150.0004        153.0004
 21  2  4  2 11 30.0000000  0 10G08G14G07G17G04G30G01G21G09G28
  -9662855.33349  -7184071.55147  22767310.560    22767311.0664   22767318.8224
       202.0004        202.0004
  -3002884.63247  -2333714.83245  23242921.992    23242922.4284   23242926.1554
       162.0004        162.0004
 -20420961.55449 -15898275.20947  20904304.299    20904304.8254   20904308.5914
       205.0004        206.0004
  -6900534.95648  -5348676.03346  22966212.142    22966212.1134   22966216.7134
       171.0004        171.0004
  -5603849.47747  -4354839.68545  23465099.334    23465100.1854   23465106.3714
       158.0004        160.0004
 -10741234.03448  -8340174.56646  22414459.287    22414460.0504   22414466.6234
       181.0004        182.0004
 -20081735.95848 -15637696.69847  21187059.401    21187060.3714   21187068.2554
       193.0004        193.0004
 -14554372.75348 -11315560.29346  21911155.832    21911154.9554   21911159.8184
       184.0004        185.0004
 -13898635.53549 -10809618.67747  21775822.648    21775822.9984   21775829.4434
       198.0004        197.0004
  -1778806.72847  -1377754.73745  23630718.951    23630718.9724   23630723.9544
       151.0004        154.0004
 21  2  4  2 12  0.0000000  0 10G08G14G07G17G04G30G01G21G09G28
  -9569218.12849  -7111107.50247  22785128.749    22785129.4804   22785137.5994
       201.0004        200.0004
  -3028582.08647  -2353738.77845  23238031.824    23238032.0894   23238037.4544
       161.0004        162.0004
 -20477505.42949 -15942335.36247  20893544.837    20893545.3494   20893548.7824
       205.0004        206.0004
  -6973809.65648  -5405773.17446  22952268.343    22952268.9324   22952273.9634
       170.0004        172.0004
  -5505841.00147  -4278469.43245  23483749.830    23483749.6084   23483755.9724
       158.0004        159.0004
 -10826263.64248  -8406431.37246  22398278.727    22398279.3004   22398286.2954
       181.0004        181.0004
 -20129421.39948 -15674854.16547  21177986.183    21177986.7844   21177994.5684
       194.0004        195.0004
 -14528517.98848 -11295413.70846  21916074.360    21916074.4204   21916079.2934
       184.0004        184.0004
 -13832675.71749 -10758221.40547  21788374.451    21788374.7244   21788381.4314
       197.0004        197.0004
  -1793718.03947  -1389373.94945  23627881.585    23627882.0894   23627886.4244
       150.0004        152.0004
 21  2  4  2 12 30.0000000  0 10G08G14G07G17G04G30G01G21G09G28
  -9475501.35349  -7038081.46347  22802963.249    22802962.7124   22802971.8244
       198.0004        198.0004
  -3054300.06347  -2373778.74146  23233139.727    23233139.8394   23233143.8754
       163.0004        165.0004
 -20533726.98549 -15986144.38147  20882845.976    20882846.3894   20882850.4134
       205.0004        206.0004
  -7046719.28248  -5462585.85946  22938393.804    22938394.7914   22938400.4234
       170.0004        172.0004
  -5407828.12247  -4202095.77045  23502400.620    23502401.4854   23502406.7694
       156.0004        158.0004
 -10911183.07648  -8472602.36446  22382119.683    22382119.8174   22382126.4144
       181.0004        181.0004
 -20176670.80949 -15711671.88247  21168995.214    21168995.6474   21169003.8634
       195.0004        196.0004
 -14502168.73448 -11274881.83646  21921089.244    21921089.2644   21921093.0744
       183.0004        184.0004
 -13766431.42949 -10706602.48647  21800980.242    21800980.8744   21800987.5684
       197.0004        197.0004
  -1808643.82947  -1401004.43145  23625042.548    23625042.2234   23625045.7154
       151.0004        153.0004
 21  2  4  2 13  0.0000000  0 10G08G14G07G17G04G30G01G21G09G28
  -9381708.36149  -6964996.04747  22820812.162    22820811.4864   22820819.5934
       198.0004        198.0004
  -3080040.41447  -2393836.16646  23228240.700    23228241.2174   23228245.1844
       164.0004        166.0004
 -20589624.52549 -16029700.91147  20872208.966    20872209.5374   20872213.5914
       205.0004        205.0004
  -7119263.48648  -5519113.78746  22924589.434    22924590.0184   22924595.5274
       172.0004        175.0004
  -5309814.43247  -4125721.47445  23521053.572    23521053.5394   23521058.2544
       155.0004        158.0004
 -10995990.71848  -8538686.23946  22365981.783    22365981.6054   22365988.6724
       181.0004        183.0004
 -20223482.20549 -15748148.29447  21160087.393    21160087.6454   21160095.9304
       196.0004        196.0004
 -14475326.37048 -11253965.69846  21926197.643    21926196.9844   21926201.7154
       184.0004        184.0004
 -13699906.45649 -10654764.84147  21813640.080    21813640.1764   21813647.3254
       197.0004        198.0004
  -1823586.51647  -1412648.06345  23622198.132    23622198.1094   23622202.7234
       151.0004        155.0004
 21  2  4  2 13 30.0000000  0 10G08G14G07G17G04G30G01G21G09G28
  -9287841.28049  -6891852.87447  22838673.303    22838674.2154   22838682.5444
       199.0004        201.0004
  -3105803.84848  -2413911.56046  23223337.633    23223338.5404   23223342.6014
       165.0004        165.0004
 -20645194.77049 -16073002.41747  20861635.122    20861634.9764   20861638.7154
       205.0004        206.0004
  -7191440.60948  -5575355.68046  22910855.437    22910855.1864   22910860.6714
       174.0004        176.0004
  -5211802.39247  -4049348.48045  23539704.742    23539704.8074   23539710.1754
       155.0004        157.0004
 -11080683.77348  -8604680.84246  22349865.135    22349864.7104   22349871.3064
       182.0004        184.0004
 -20269852.47049 -15784280.96647  21151263.893    21151264.2794   21151271.8634
       196.0004        196.0004
 -14447991.13448 -11232665.51046  21931398.292    21931398.4314   21931403.0534
       184.0004        184.0004
 -13633103.48849 -10602710.59547  21826350.858    21826351.6464   21826359.0744
       196.0004        196.0004
  -1838547.28547  -1424305.80045  23619349.960    23619350.4104   23619355.4864
       152.0004        155.0004
 21  2  4  2 14  0.0000000  0 10G08G14G07G17G04G30G01G21G09G28
  -9193901.98249  -6818653.43047  22856550.385    22856550.4174   22856558.5414
       200.0004        200.0004
  -3131590.67948  -2434005.19446  23218431.024    23218431.4984   23218435.7634
       166.0004        167.0004
 -20700434.65449 -16116046.48047  20851122.359    20851122.7824   20851127.3414
       205.0004        205.0004
  -7263248.81548  -5631310.11246  22897190.354    22897190.3774   22897195.9794
       173.0004        174.0004
  -5113794.07747  -3972978.35045  23558354.199    23558355.2734   23558359.9314
       155.0004        157.0004
 -11165259.13848  -8670583.70946  22333770.339    22333770.7564   22333776.9644
       184.0004        186.0004
 -20315778.21149 -15820067.23947  21142523.215    21142524.3804   21142531.7424
       196.0004        196.0004
 -14420162.92348 -11210981.18746  21936694.655    21936693.7724   21936698.4304
       184.0004        184.0004
 -13566024.82649 -10550441.49747  21839116.417    21839116.7994   21839123.4294
       196.0004        197.0004
  -1853526.77647  -1435978.12645  23616500.687    23616501.3104   23616504.5334
       154.0004        155.0004
 21  2  4  2 14 30.0000000  0 10G08G14G07G17G04G30G01G21G09G28
  -9099893.10049  -6745399.76747  22874439.338    22874438.8474   22874447.2694
       198.0004        197.0004
  -3157401.93148  -2454117.83646  23213519.020    23213519.1894   23213523.2214
       166.0004        165.0004
 -20755341.33149 -16158830.90547  20840674.083    20840674.7424   20840678.6644
       205.0004        206.0004
  -7334687.08848  -5686976.27146  22883596.406    22883596.1624   22883601.7114
       173.0004        174.0004
  -5015792.29747  -3896613.33545  23577002.883    23577003.4134   23577008.8524
       153.0004        155.0004
 -11249714.36548  -8736392.97346  22317699.781    22317699.9354   22317705.7004
       185.0004        187.0004
 -20361256.71149 -15855505.02047  21133869.470    21133870.3334   21133877.6654
       196.0004        196.0004
 -14391840.40648 -11188911.67046  21942083.952    21942083.5314   21942088.9834
       184.0004        184.0004
 -13498673.54549 -10497959.98147  21851933.795    21851934.1074   21851940.2394
       196.0004        197.0004
  -1868526.45647  -1447666.17345  23613647.221    23613646.4134   23613651.0884
       154.0004        156.0004
 21  2  4  2 15  0.0000000  0 10G08G14G07G17G04G30G01G21G09G28
  -9005817.51349  -6672094.14147  22892340.919    22892341.4974   22892349.0304
       197.0004        196.0004
  -3183238.85947  -2474250.49746  23208600.333    23208602.1014   23208608.0824
       163.0004        163.0004
 -20809912.15149 -16201353.63747  20830289.544    20830290.0714   20830294.0874
       205.0004        206.0004
  -7405754.13348  -5742353.18646  22870072.595    22870072.9814   22870077.5784
       174.0004        175.0004
  -4917799.90847  -3820255.66345  23595651.276    23595651.3564   23595656.6364
       153.0004        155.0004
 -11334047.25448  -8802106.91846  22301651.998    22301651.7754   22301658.3324
       186.0004        186.0004
 -20406285.52649 -15890592.40347  21125300.719    21125301.3924   21125309.0424
       197.0004        197.0004
 -14363025.04248 -11166458.13346  21947567.582    21947566.6724   21947572.1464
       184.0004        184.0004
 -13431052.80749 -10445268.49247  21864801.649    21864801.6164   21864807.9734
       196.0004        197.0004
  -1883548.22947  -1459371.43345  23610787.412    23610788.3734   23610791.3364
       154.0004        157.0004
 21  2  4  2 15 30.0000000  0 10G08G14G07G17G04G30G01G21G09G28
  -8911676.71149  -6598737.69447  22910255.510    22910255.7984   22910263.8504
       196.0004        196.0004
  -3209101.45647  -2494403.14846  23203679.910    23203680.6624   23203685.2674
       162.0004        164.0004
 -20864143.55849 -16243611.86447  20819969.393    20819970.2074   20819974.3854
       206.0004        207.0004
  -7476448.14448  -5797439.39046  22856620.205    22856620.6754   22856625.2284
       175.0004        177.0004
  -4819818.81447  -3743906.78745  23614294.521    23614295.4524   23614302.7284
       153.0004        155.0004
 -11418254.37848  -8867722.85346  22285626.584    22285626.9984   22285633.6034
       185.0004        185.0004
 -20450861.00749 -15925326.53047  21116817.553    21116818.6314   21116826.8744
       197.0004        197.0004
 -14333716.17048 -11143620.04046  21953144.308    21953143.7144   21953148.8114
       183.0004        184.0004
 -13363164.73249 -10392368.68147  21877719.978    21877719.9874   21877726.7024
       196.0004        195.0004
  -1898592.52647  -1471094.25045  23607924.996    23607924.9354   23607929.8264
       154.0004        157.0004
 21  2  4  2 16  0.0000000  0 10G08G14G07G17G04G30G01G21G09G28
  -8817473.90849  -6525332.92747  22928183.129    22928182.6914   22928190.1304
       196.0004        197.0004
  -3234991.27847  -2514577.02646  23198753.193    23198753.9454   23198759.9034
       163.0004        165.0004
 -20918033.52749 -16285604.05747  20809715.366    20809715.5694   20809719.8344
       206.0004        207.0004
  -7546768.94148  -5852234.80846  22843238.728    22843238.8684   22843243.4144
       176.0004        176.0004
  -4721852.18847  -3667569.17845  23632938.185    23632939.0664   23632945.0244
       153.0004        156.0004
 -11502333.79648  -8933239.29146  22269627.165    22269627.4574   22269634.2604
       185.0004        186.0004
 -20494981.00849 -15959705.75947  21108422.780    21108423.3454   21108431.2954
       197.0004        198.0004
 -14303914.52648 -11120397.99246  21958816.538    21958815.5604   21958819.8924
       184.0004        184.0004
 -13295012.87249 -10339263.35047  21890688.258    21890689.0734   21890695.6494
       195.0004        194.0004
  -1913661.32847  -1482836.16145  23605057.265    23605057.5974   23605062.1464
       154.0004        157.0004
 21  2  4  2 16 30.0000000  0 10G08G14G07G17G04G30G01G21G09G28
  -8723212.06549  -6451882.15047  22946120.359    22946120.1024   22946127.5124
       197.0004        197.0004
  -3260909.83547  -2534773.28545  23193821.382    23193821.4514   23193827.1594
       162.0004        162.0004
 -20971579.86849 -16327328.48247  20799525.440    20799526.0924   20799530.1074
       207.0004        207.0004
  -7616715.43948  -5906738.58846  22829928.003    22829928.5754   22829933.3344
       176.0004        176.0004
  -4623903.34647  -3591245.41545  23651576.408    23651576.9634   23651583.9914
       153.0004        153.0004
 -11586283.56448  -8998654.70747  22253652.555    22253652.6504   22253659.3664
       186.0004        188.0004
 -20538643.39549 -15993728.38647  21100114.665    21100114.9054   21100122.6324
       198.0004        198.0004
 -14273621.14148 -11096792.76346  21964580.482    21964580.2644   21964584.1434
       183.0004        183.0004
 -13226600.78348 -10285955.23747  21903705.499    21903706.4464   21903714.2024
       193.0004        192.0004
  -1928756.60647  -1494598.70145  23602186.000    23602185.0284   23602188.9034
       154.0004        157.0004
 21  2  4  2 17  0.0000000  0 10G08G14G07G17G04G30G01G21G09G28
  -8628893.73849  -6378387.36347  22964067.572    22964067.9484   22964075.9684
       198.0004        198.0004
  -3286857.77547  -2554992.43745  23188882.325    23188883.3924   23188889.3564
       159.0004        160.0004
 -21024779.51449 -16368782.74647  20789402.593    20789402.6844   20789406.4214
       207.0004        207.0004
  -7686286.11248  -5960949.47246  22816690.283    22816690.0424   22816694.6004
       175.0004        176.0004
  -4525974.70247  -3514937.38745  23670212.242    23670212.4594   23670218.9114
       151.0004        154.0004
 -11670100.90048  -9063966.89747  22237702.056    22237702.3074   22237709.3284
       187.0004        188.0004
 -20581845.22449 -16027392.14147  21091893.112    21091893.6464   21091900.7444
       197.0004        197.0004
 -14242836.50148 -11072804.72246  21970438.950    21970438.6964   21970442.9984
       183.0004        184.0004
 -13157931.14348 -10232446.41847  21916772.706    21916773.2674   21916781.2884
       191.0004        191.0004
  -1943879.15547  -1506382.47345  23599306.992    23599305.9894   23599311.6884
       153.0004        155.0004
 21  2  4  2 17 30.0000000  0 10G08G14G07G17G04G30G01G21G09G28
  -8534520.77149  -6304850.00747  22982026.009    22982026.1064   22982033.9174
       196.0004        196.0004
  -3312835.48447  -2575234.82045  23183940.290    23183940.6624   23183945.0594
       159.0004        161.0004
 -21077629.25849 -16409964.36347  20779344.841    20779345.4354   20779349.4914
       207.0004        208.0004
  -7755479.40448  -6014866.29746  22803521.857    22803521.9914   22803526.9564
       174.0004        173.0004
  -4428068.37947  -3438646.75645  23688843.101    23688843.1634   23688848.6884
       152.0004        155.0004
 -11753782.75648  -9129173.54547  22221778.584    22221778.6664   22221785.8434
       188.0004        190.0004
 -20624583.34449 -16060694.55947  21083760.295    21083760.7924   21083767.8664
       197.0004        196.0004
 -14211559.49448 -11048433.01546  21976390.263    21976389.6234   21976393.8974
       183.0004        183.0004
 -13089006.49648 -10178738.91547  21929888.884    21929889.3884   21929896.9324
       190.0004        191.0004
  -1959030.35647  -1518188.60345  23596423.467    23596424.0644   23596428.1564
       153.0004        155.0004
 21  2  4  2 18  0.0000000  0 10G08G14G07G17G04G30G01G21G09G28
  -8440095.66249  -6231272.03647  22999994.533    22999994.2134   23000002.9024
       195.0004        195.0004
  -3338844.12047  -2595501.31345  23178991.032    23178991.8344   23178996.5574
       160.0004        162.0004
 -21130126.70049 -16450871.46447  20769354.604    20769355.3304   20769359.6594
       207.0004        208.0004
  -7824294.60748  -6068488.54646  22790426.928    22790426.7794   22790431.7494
       174.0004        175.0004
  -4330187.23147  -3362375.75045  23707469.452    23707469.5904   23707475.8564
       154.0004        157.0004
 -11837326.74848  -9194272.76247  22205880.842    22205880.1164   22205886.9264
       189.0004        189.0004
 -20666855.24849 -16093633.70047  21075715.095    21075715.7154   21075723.5514
       196.0004        196.0004
 -14179791.06448 -11023678.38546  21982435.668    21982435.2294   21982439.6724
       183.0004        183.0004
 -13019829.98648 -10124835.16447  21943053.476    21943053.5554   21943060.6924
       191.0004        192.0004
  -1974211.79247  -1530018.28445  23593535.615    23593534.7754   23593539.3034
       153.0004        155.0004
 21  2  4  2 18 30.0000000  0 10G08G14G07G17G04G30G01G21G09G28
  -8345621.84949  -6157656.10047  23017971.270    23017972.4604   23017980.6264
       195.0004        196.0004
  -3364884.68347  -2615792.67146  23174035.836    23174036.1474   23174041.8724
       162.0004        165.0004
 -21182269.10549 -16491501.92147  20759432.881    20759433.2394   20759437.4274
       207.0004        208.0004
  -7892730.29748  -6121815.05146  22777404.378    22777404.4004   22777408.0864
       173.0004        173.0004
  -4232334.09747  -3286126.58845  23726089.537    23726090.9534   23726096.7954
       156.0004        159.0004
 -11920730.51548  -9259262.71047  22190008.680    22190009.1994   22190015.9204
       188.0004        188.0004
 -20708658.46749 -16126207.65147  21067760.623    21067761.5314   21067768.9824
       196.0004        196.0004
 -14147531.98648 -10998541.45246  21988574.412    21988573.7214   21988578.6484
       183.0004        184.0004
 -12950404.76148 -10070737.60247  21956264.562    21956265.3254   21956273.0594
       193.0004        195.0004
  -1989424.76447  -1541872.52945  23590641.064    23590640.4334   23590644.2824
       152.0004        156.0004
 21  2  4  2 19  0.0000000  0 10G08G14G07G17G04G30G01G21G09G28
  -8251100.62849  -6084003.22847  23035959.484    23035959.0964   23035967.3824
       195.0004        196.0004
  -3390957.69047  -2636109.25646  23169074.331    23169074.7384   23169079.7634
       164.0004        166.0004
 -21234053.33449 -16531853.26047  20749578.572    20749578.8754   20749583.0184
       207.0004        208.0004
  -7960785.91848  -6174845.37946  22764452.902    22764452.5564   22764457.6834
       172.0004        172.0004
  -4134511.12847  -3209900.91145  23744705.378    23744705.5244   23744712.7154
       157.0004        159.0004
 -12003991.08648  -9324141.07647  22174164.449    22174164.9664   22174171.8574
       187.0004        188.0004
 -20749989.96249 -16158413.99847  21059895.913    21059896.3884   21059903.7924
       196.0004        196.0004
 -14114782.34648 -10973022.24246  21994806.962    21994806.1774   21994810.0684
       182.0004        183.0004
 -12880733.38849 -10016448.21547  21969523.767    21969524.1074   21969530.4184
       195.0004        197.0004
  -2004670.35047  -1553752.18645  23587739.361    23587738.6444   23587742.2004
       151.0004        153.0004
 21  2  4  2 19 30.0000000  0 10G08G14G07G17G04G30G01G21G09G28
  -8156535.02949  -6010315.76547  23053956.424    23053955.5744   23053962.2594
       196.0004        197.0004
  -3417064.73348  -2656452.38746  23164107.228    23164107.7064   23164111.8384
       167.0004        169.0004
 -21285477.49649 -16571924.04847  20739793.317    20739793.6314   20739797.3514
       207.0004        208.0004
  -8028460.37648  -6227578.71146  22751574.491    22751574.2164   22751578.5964
       171.0004        172.0004
  -4036721.69347  -3133701.37345  23763313.997    23763314.6684   23763321.2724
       156.0004        157.0004
 -12087106.54948  -9388906.38747  22158349.039    22158349.2134   22158356.0924
       188.0004        189.0004
 -20790847.82449 -16190251.29747  21052120.665    21052121.1054   21052129.2384
       195.0004        195.0004
 -14081543.50448 -10947121.85246  22001132.322    22001132.0324   22001135.3754
       182.0004        183.0004
 -12810819.60049  -9961969.95147  21982828.774    21982828.7544   21982834.4204
       196.0004        197.0004
  -2019950.28447  -1565658.64045  23584831.012    23584831.0604   23584834.9834
       149.0004        150.0004
 21  2  4  2 20  0.0000000  0 10G08G14G07G17G04G30G01G21G09G28
  -8061928.29449  -5936596.25847  23071958.081    23071957.9134   23071965.0794
       196.0004        195.0004
  -3443207.17848  -2676823.08546  23159133.876    23159134.6294   23159135.5344
       169.0004        171.0004
 -21336539.31749 -16611712.48747  20730075.672    20730076.2714   20730080.5814
       207.0004        207.0004
  -8095753.19148  -6280014.65446  22738769.436    22738770.0764   22738773.7334
       171.0004        172.0004
  -3938968.89547  -3057530.36945  23781915.254    23781915.9484   23781921.9524
       153.0004        155.0004
 -12170074.92648  -9453557.05447  22142560.466    22142561.0414   22142567.3444
       188.0004        189.0004
 -20831229.98449 -16221717.90947  21044436.323    21044436.8324   21044444.8124
       195.0004        196.0004
 -14047815.26248 -10920840.09746  22007549.891    22007549.4744   22007553.7104
       183.0004        182.0004
 -12740666.87149  -9907305.48247  21996178.301    21996178.5844   21996183.8514
       197.0004        197.0004
  -2035266.07247  -1577593.00045  23581916.490    23581916.4274   23581921.3314
       146.0004        151.0004
 21  2  4  2 20 30.0000000  0 10G08G14G07G17G04G30G01G21G09G28
  -7967281.69449  -5862845.66247  23089967.030    23089967.5874   23089976.7174
       195.0004        195.0004
  -3469385.13248  -2697221.44946  23154151.377    23154150.7914   23154156.2344
       169.0004        168.0004
 -21387235.37849 -16651215.90547  20720429.021    20720429.3954   20720433.5824
       207.0004        209.0004
  -8162662.22048  -6332151.53846  22726037.619    22726037.8604   22726041.9924
       171.0004        173.0004
  -3841254.54047  -2981389.31145  23800509.364    23800510.4534   23800516.0354
       151.0004        153.0004
 -12252892.78848  -9518090.45447  22126801.922    22126801.8084   22126807.4074
       188.0004        189.0004
 -20871133.07649 -16252811.22647  21036842.462    21036843.4834   21036851.1054
       195.0004        195.0004
 -14013598.07048 -10894177.33746  22014061.623    22014060.9774   22014065.8774
       183.0004        184.0004
 -12670277.41749  -9852456.54847  22009572.612    22009572.9194   22009579.0694
       198.0004        198.0004
  -2050619.06747  -1589556.38345  23578994.759    23578994.9144   23578999.1414
       148.0004        151.0004
 21  2  4  2 21  0.0000000  0 10G08G14G07G17G04G30G01G21G09G28
  -7872597.43948  -5789065.74747  23107984.390    23107984.5044   23107994.8304
       194.0004        194.0004
  -3495598.57347  -2717647.50045  23149159.831    23149160.1834   23149166.7744
       164.0004        161.0004
 -21437562.11249 -16690431.54347  20710852.775    20710852.8664   20710856.4434
       208.0004        209.0004
  -8229185.96248  -6383988.21446  22713379.402    22713379.0344   22713383.2364
       173.0004        174.0004
  -3743580.45147  -2905279.62445  23819095.672    23819096.4714   23819103.5154
       152.0004        155.0004
 -12335556.75148  -9582503.94447  22111070.626    22111070.9844   22111077.3604
       188.0004        189.0004
 -20910553.76449 -16283528.63847  21029342.048    21029342.0754   21029349.6444
       195.0004        196.0004
 -13978891.78648 -10867133.47846  22020665.565    22020664.8854   22020669.3934
       183.0004        183.0004
 -12599653.39649  -9797424.85347  22023011.597    22023011.5664   22023017.8324
       196.0004        194.0004
  -2066009.63947  -1601549.05945  23576065.611    23576066.1614   23576070.2634
       147.0004        149.0004
 21  2  4  2 21 30.0000000  0 10G08G14G07G17G04G30G01G21G09G28
  -7777876.69748  -5715257.41347  23126009.759    23126010.6244   23126019.0554
       194.0004        195.0004
  -3521847.15547  -2738100.96645  23144164.259    23144165.0744   23144172.6444
       160.0004        159.0004
 -21487515.61149 -16729356.34247  20701346.141    20701346.8344   20701350.9404
       208.0004        209.0004
  -8295322.80848  -6435523.40646  22700792.454    22700793.3044   22700797.9914
       173.0004        175.0004
  -3645948.01247  -2829202.41445  23837675.410    23837676.3054   23837682.4284
       154.0004        157.0004
 -12418063.01648  -9646794.52646  22095368.862    22095369.9154   22095377.5754
       188.0004        187.0004
 -20949488.28049 -16313867.20747  21021931.358    21021932.2224   21021941.0304
       195.0004        196.0004
 -13943695.81648 -10839708.04346  22027363.164    22027362.8714   22027366.6144
       183.0004        183.0004
 -12528796.61648  -9742211.77747  22036494.280    22036494.7934   22036501.9914
       194.0004        194.0004
  -2081437.78747  -1613570.95645  23573129.721    23573129.1474   23573133.6734
       143.0004        147.0004
 21  2  4  2 22  0.0000000  0 10G08G14G07G17G04G30G01G21G09G28
  -7683124.02249  -5641424.17547  23144040.730    23144041.7454   23144050.3284
       195.0004        196.0004
  -3548134.25447  -2758584.42346  23139165.833    23139165.9524   23139169.7474
       160.0004        164.0004
 -21537095.79049 -16767990.23247  20691911.505    20691911.9694   20691915.9864
       209.0004        209.0004
  -8361073.72448  -6486757.88346  22688280.839    22688280.2634   22688285.1224
       172.0004        173.0004
  -3548362.22347  -2753161.57245  23856246.866    23856246.6014   23856252.5664
       156.0004        157.0004
 -12500411.44948  -9710962.13546  22079699.091    22079699.1014   22079706.9434
       187.0004        187.0004
 -20987936.48849 -16343826.84647  21014615.127    21014615.9774   21014624.5944
       195.0004        196.0004
 -13908012.67248 -10811902.98146  22034153.173    22034152.2604   22034157.4814
       183.0004        183.0004
 -12457712.51448  -9686821.57047  22050020.341    22050020.9474   22050028.6084
       193.0004        192.0004
  -2096907.40947  -1625625.21045  23570187.738    23570187.2964   23570191.0354
       145.0004        150.0004
 21  2  4  2 22 30.0000000  0 10G08G14G07G17G04G30G01G21G09G28
  -7588342.14848  -5567568.18047  23162077.279    23162077.5054   23162086.6924
       194.0004        195.0004
  -3574461.26248  -2779098.92546  23134156.745    23134156.2214   23134160.4284
       165.0004        168.0004
 -21586300.45949 -16806331.53747  20682548.372    20682548.7964   20682552.5084
       209.0004        209.0004
  -8426438.18648  -6537691.23046  22675843.451    22675843.4674   22675847.5214
       173.0004        175.0004
  -3450826.21847  -2677159.51145  23874806.583    23874806.6444   23874812.9404
       155.0004        157.0004
 -12582599.98748  -9775005.14547  22064059.958    22064059.8814   22064066.6004
       187.0004        188.0004
 -21025896.57549 -16373406.12647  21007393.121    21007393.1514   21007400.6254
       195.0004        196.0004
 -13871843.31048 -10783719.06546  22041034.937    22041035.2184   22041039.9844
       182.0004        182.0004
 -12386404.63148  -9631257.00847  22063588.944    22063590.0394   22063598.2604
       191.0004        191.0004
  -2112420.18647  -1637713.09445  23567234.605    23567234.6684   23567238.7624
       148.0004        153.0004
 21  2  4  2 23  0.0000000  0 10G08G14G07G17G04G30G01G21G09G28
  -7493533.34949  -5493691.21847  23180121.184    23180120.4284   23180128.0284
       195.0004        195.0004
  -3600828.76648  -2799645.02946  23129138.086    23129138.6164   23129141.9364
       166.0004        168.0004
 -21635126.70549 -16844377.97747  20673257.282    20673257.5784   20673261.5514
       209.0004        210.0004
  -8491415.21548  -6588322.67746  22663478.932    22663479.0354   22663483.5374
       174.0004        176.0004
  -3353342.45947  -2601198.17345  23893355.697    23893356.7264   23893363.6144
       153.0004        153.0004
 -12664625.85248  -9838921.41947  22048451.240    22048450.8704   22048457.4734
       189.0004        190.0004
 -21063365.84849 -16402602.96547  21000262.346    21000262.5774   21000270.7584
       196.0004        196.0004
 -13835188.69248 -10755157.02746  22048010.990    22048010.9914   22048015.4794
       182.0004        182.0004
 -12314875.88148  -9575520.34147  22077201.190    22077202.2614   22077209.6774
       191.0004        191.0004
  -2127977.32147  -1649835.55945  23564274.202    23564274.3894   23564278.2434
       151.0004        155.0004
 21  2  4  2 23 30.0000000  0 10G08G14G07G17G04G30G01G21G09G28
  -7398699.16948  -5419794.46747  23198166.440    23198166.9934   23198174.2194
       194.0004        193.0004
  -3627236.46048  -2820222.45146  23124110.928    23124111.8804   23124116.6274
       165.0004        165.0004
 -21683571.01149 -16882126.78647  20664038.472    20664038.7024   20664042.8404
       209.0004        210.0004
  -8556002.80548  -6638650.64346  22651187.459    22651187.9634   22651192.6804
       175.0004        177.0004
  -3255912.33247  -2525278.61345  23911897.550    23911898.0014   23911903.3614
       151.0004        152.0004
 -12746485.25448  -9902707.98247  22032873.599    22032873.8274   22032879.6644
       188.0004        188.0004
 -21100340.66749 -16431414.50847  20993226.448    20993226.7464   20993234.5614
       196.0004        196.0004
 -13798048.78948 -10726216.84146  22055080.130    22055079.0514   22055082.8364
       183.0004        184.0004
 -12243128.08248  -9519612.98147  22090856.518    22090856.4694   22090862.8644
       192.0004        193.0004
  -2143579.44947  -1661993.07545  23561305.294    23561304.8144   23561309.9254
       150.0004        152.0004
 21  2  4  2 24  0.0000000  0 10G08G14G07G17G04G30G01G21G09G28
  -7303842.49448  -5345880.20147  23216218.249    23216217.8554   23216224.9584
       193.0004        193.0004
  -3653685.58947  -2840832.17046  23119078.070    23119078.6234   23119083.8424
       163.0004        163.0004
 -21731630.84449 -16919576.01547  20654892.905    20654893.3494   20654897.1734
       209.0004        210.0004
  -8620200.11048  -6688674.51446  22638970.200    22638969.5834   22638975.2784
       175.0004        174.0004
  -3158538.71347  -2449403.08145  23930425.614    23930427.1324   23930432.9024
       149.0004        151.0004
 -12828176.07648  -9966363.16547  22017327.764    22017327.8404   22017334.7324
       187.0004        188.0004
 -21136819.04249 -16459839.21547  20986285.303    20986285.8424   20986293.0214
       196.0004        198.0004
 -13760423.54848 -10696898.47146  22062239.230    22062238.2214   22062242.9734
       182.0004        182.0004
 -12171164.63948  -9463537.57347  22104550.265    22104550.7014   22104557.2384
       192.0004        193.0004
  -2159227.54247  -1674186.37445  23558327.994    23558327.5744   23558331.7244
       149.0004        152.0004
