     2.11           OBSERVATION DATA    G (GPS)             RINEX VERSION / TYPE
teqc  2018Jun8                          20210202 03:10:44UTCPGM / RUN BY / DATE
Linux2.6.32-573.12.1.el6.x86_64|x86_64|gcc|Win64-MinGW64|=+ COMMENT
BIT 2 OF LLI FLAGS DATA COLLECTED UNDER A/S CONDITION       COMMENT
-Unknown-                                                   MARKER NAME
CRNO                                                        MARKER NUMBER
-Unknown-           -Unknown-                               OBSERVER / AGENCY
-Unknown-           ASHTECH             -Unknown-           REC # / TYPE / VERS
-Unknown-           -Unknown-                               ANT # / TYPE
   408080.6267 -6158376.8878  1605163.4279                  APPROX POSITION XYZ
        0.0000        0.0000        0.0000                  ANTENNA: DELTA H/E/N
     1     1                                                WAVELENGTH FACT L1/2
     7    L1    L2    C1    P1    P2    S1    S2            # / TYPES OF OBSERV
    30.0000                                                 INTERVAL
Forced Modulo Decimation to 30 seconds                      COMMENT
 SNR is mapped to RINEX snr flag value [1-9]                COMMENT
  L1: 1 -> 1;  90 -> 5; 210 -> 9                            COMMENT
  L2: 1 -> 1; 150 -> 5; 250 -> 9                            COMMENT
pseudorange smoothing corrections not applied               COMMENT
  2021     2     4     0     0   30.0000000     GPS         TIME OF FIRST OBS
                                                            END OF HEADER
 21  2  4  0  0 30.0000000  0  8G01G17G08G09G04G30G21G27
 -12940222.17148 -10062855.79746  22283802.097    22283802.6764   22283811.8844
       174.0004        174.0004
  -1075482.38557   -813080.91745  24321135.750    24321136.2395   24321145.3674
       142.0004        147.0004
 -16639145.00449 -12936947.64847  21227748.111    21227748.4334   21227755.2294
       195.0004        195.0004
 -18356701.50049 -14271462.16047  20933592.865    20933593.2154   20933600.5054
       211.0004        211.0004
 -13610352.65548 -10569212.37146  21899716.174    21899716.6634   21899722.9994
       185.0004        185.0004
  -2733617.54347  -2096774.20645  23984692.490    23984692.4544   23984698.4554
       154.0004        156.0004
 -13398592.39448 -10427947.50946  21815985.799    21815984.9984   21815990.6794
       179.0004        180.0004
  -3581965.47548  -2772903.06746  24150705.022    24150706.7804   24150713.8554
       174.0004        176.0004
 21  2  4  0  1  0.0000000  0  8G01G17G08G09G04G30G21G27
 -13014730.89348 -10120914.51346  22269624.328    22269624.3644   22269633.7984
       174.0004        175.0004
  -1174033.66847   -889873.49345  24302380.738    24302381.2264   24302391.0694
       143.0004        147.0004
 -16565394.49449 -12879479.70147  21241782.287    21241782.6344   21241788.8724
       195.0004        196.0004
 -18325847.76649 -14247420.29247  20939463.951    20939464.4134   20939471.6574
       211.0004        211.0004
 -13523713.31148 -10501701.22846  21916203.240    21916203.4754   21916209.6004
       185.0004        184.0004
  -2819768.31447  -2163904.65845  23968297.643    23968298.3434   23968305.3884
       154.0004        157.0004
 -13416213.20148 -10441677.97146  21812632.195    21812631.6464   21812636.2114
       180.0004        180.0004
  -3473860.09048  -2688665.10846  24171276.690    24171277.8764   24171284.4844
       174.0004        175.0004
 21  2  4  0  1 30.0000000  0  8G01G17G08G09G04G30G21G27
 -13089088.77348 -10178855.67646  22255474.281    22255475.6184   22255483.4874
       174.0004        175.0004
  -1272372.42647   -966500.44245  24283666.502    24283666.8854   24283676.4614
       143.0004        147.0004
 -16491295.63549 -12821740.31247  21255882.335    21255882.6004   21255889.7294
       195.0004        196.0004
 -18294485.59149 -14222982.23347  20945432.629    20945432.7894   20945440.1234
       211.0004        212.0004
 -13436807.65848 -10433982.56346  21932739.631    21932740.0184   21932748.0294
       184.0004        183.0004
  -2905993.81447  -2231093.32345  23951888.566    23951889.8534   23951897.1864
       155.0004        157.0004
 -13433415.63748 -10455082.43346  21809357.497    21809357.2394   21809362.5974
       180.0004        180.0004
  -3365698.80448  -2604383.59146  24191860.061    24191860.4324   24191867.5634
       175.0004        176.0004
 21  2  4  0  2  0.0000000  0  8G01G17G08G09G04G30G21G27
 -13163293.93548 -10236677.83546  22241353.461    22241354.9594   22241362.4794
       175.0004        176.0004
  -1370497.49447  -1042960.96445  24264992.959    24264994.1534   24265003.0314
       142.0004        147.0004
 -16416852.53649 -12763732.71447  21270048.642    21270049.3264   21270056.2514
       196.0004        197.0004
 -18262618.14349 -14198150.45847  20951496.476    20951497.1004   20951503.9284
       211.0004        211.0004
 -13349639.98848 -10366059.71346  21949327.982    21949327.9114   21949335.0004
       185.0004        185.0004
  -2992293.85247  -2298340.04645  23935467.147    23935466.6284   23935474.8664
       155.0004        157.0004
 -13450199.31448 -10468160.57946  21806163.553    21806163.0684   21806170.0944
       180.0004        181.0004
  -3257485.70648  -2520061.71046  24212452.498    24212453.0544   24212458.9524
       175.0004        176.0004
 21  2  4  0  2 30.0000000  0  8G01G17G08G09G04G30G21G27
 -13237344.49448 -10294379.56246  22227262.638    22227263.5754   22227270.6554
       176.0004        177.0004
  -1468408.18147  -1119254.41845  24246362.093    24246362.5144   24246372.6724
       141.0004        145.0004
 -16342069.66149 -12705460.36047  21284279.969    21284279.9264   21284287.3204
       196.0004        197.0004
 -18230248.56549 -14172927.39747  20957656.657    20957656.6184   20957664.1034
       211.0004        212.0004
 -13262214.62148 -10297936.04746  21965965.031    21965964.8274   21965971.3264
       184.0004        182.0004
  -3078668.20447  -2365644.69445  23919030.168    23919030.4614   23919037.7964
       155.0004        158.0004
 -13466563.86948 -10480912.14346  21803050.457    21803049.8384   21803054.7334
       181.0004        181.0004
  -3149224.74748  -2435702.50446  24233053.053    24233054.1364   24233060.5664
       176.0004        177.0004
 21  2  4  0  3  0.0000000  0  8G01G17G08G09G04G30G21G27
 -13311238.72448 -10351959.44446  22213200.685    22213201.0154   22213209.4224
       176.0004        177.0004
  -1566103.77147  -1195380.27945  24227770.220    24227769.3574   24227780.8934
       138.0004        141.0004
 -16266951.38949 -12646926.66147  21298572.948    21298573.6134   21298581.4314
       196.0004        196.0004
 -18197380.32849 -14147315.78847  20963910.549    20963911.1744   20963918.4444
       211.0004        211.0004
 -13174536.15948 -10229615.15846  21982649.328    21982649.1114   21982656.0064
       183.0004        182.0004
  -3165116.88147  -2433007.28845  23902580.353    23902580.6924   23902587.8634
       157.0004        161.0004
 -13482508.83648 -10493336.77246  21800016.149    21800016.0114   21800020.4434
       181.0004        181.0004
  -3040920.16548  -2351309.31246  24253663.135    24253664.1464   24253670.2384
       177.0004        178.0004
 21  2  4  0  3 30.0000000  0  8G01G17G08G09G04G30G21G27
 -13384973.77048 -10409415.27646  22199168.770    22199168.7774   22199178.4234
       176.0004        178.0004
  -1663582.16947  -1271336.93745  24209220.669    24209219.7374   24209229.1434
       135.0004        139.0004
 -16191501.08849 -12588134.24047  21312930.543    21312931.2034   21312938.8484
       195.0004        195.0004
 -18164015.80049 -14121317.45347  20970259.288    20970259.6814   20970267.5034
       211.0004        210.0004
 -13086608.15048 -10161099.82046  21999380.288    21999381.4874   21999388.0344
       183.0004        182.0004
  -3251638.87347  -2500427.00545  23886116.710    23886115.5354   23886123.1834
       158.0004        160.0004
 -13498033.19048 -10505433.64846  21797061.121    21797061.1494   21797066.5624
       181.0004        182.0004
  -2932575.13748  -2266884.61846  24274280.151    24274281.2364   24274288.3544
       179.0004        181.0004
 21  2  4  0  4  0.0000000  0  8G01G17G08G09G04G30G21G27
 -13458546.12948 -10466744.35546  22185168.051    22185169.2384   22185178.0074
       177.0004        177.0004
  -1760841.33946  -1347122.80145  24190711.966    24190711.7454   24190719.2264
       134.0004        140.0004
 -16115721.25449 -12529085.04347  21327352.595    21327353.1704   21327359.9314
       195.0004        196.0004
 -18130156.61949 -14094933.68547  20976703.199    20976704.0794   20976710.5764
       211.0004        212.0004
 -12998433.27548 -10092392.14446  22016160.174    22016160.2154   22016167.2704
       183.0004        182.0004
  -3338232.30047  -2567902.36645  23869637.294    23869637.4124   23869644.2184
       156.0004        157.0004
 -13513134.60948 -10517200.96446  21794188.755    21794187.8504   21794192.6234
       181.0004        182.0004
  -2824191.95248  -2182430.19546  24294904.846    24294905.4204   24294911.9454
       176.0004        175.0004
 21  2  4  0  4 30.0000000  0  8G01G17G08G09G04G30G21G27
 -13531951.63048 -10523943.38546  22171199.565    22171200.3194   22171209.0074
       177.0004        177.0004
  -1857877.77447  -1422735.05845  24172247.282    24172246.6524   24172255.8574
       139.0004        145.0004
 -16039614.29549 -12469780.90747  21341835.591    21341835.6694   21341842.7554
       197.0004        197.0004
 -18095803.73349 -14068165.20347  20983240.596    20983241.2434   20983247.6034
       211.0004        211.0004
 -12910013.53248 -10023493.65646  22032985.749    22032986.8004   22032992.8994
       183.0004        182.0004
  -3424894.64947  -2635431.45145  23853146.181    23853146.5094   23853152.9424
       154.0004        155.0004
 -13527810.39748 -10528636.61346  21791395.720    21791394.6744   21791401.0754
       181.0004        182.0004
  -2715772.25248  -2097947.27946  24315537.858    24315537.4944   24315542.9804
       173.0004        173.0004
 21  2  4  0  5  0.0000000  0  8G01G17G08G09G04G30G21G27
 -13605188.13048 -10581010.75746  22157263.803    22157264.1774   22157272.5384
       176.0004        178.0004
  -1954690.63847  -1498173.11845  24153823.310    24153823.6424   24153831.6484
       142.0004        147.0004
 -15963183.65749 -12410224.55647  21356379.036    21356379.3324   21356386.8544
       196.0004        195.0004
 -18060960.24149 -14041014.42347  20989870.737    20989871.0454   20989878.3114
       211.0004        211.0004
 -12821353.05648  -9954407.55646  22049856.892    22049857.7584   22049864.4214
       182.0004        182.0004
  -3511625.42147  -2703013.83945  23836641.886    23836640.9964   23836649.4054
       151.0004        153.0004
 -13542060.19748 -10539740.32246  21788684.494    21788683.6724   21788689.1924
       182.0004        182.0004
  -2607319.80048  -2013438.84846  24336176.575    24336175.5804   24336182.1024
       172.0004        171.0004
 21  2  4  0  5 30.0000000  0  8G01G17G08G09G04G30G21G27
 -13678252.84348 -10637944.25446  22143358.648    22143359.7664   22143368.4124
       177.0004        177.0004
  -2051278.27647  -1573435.70945  24135443.542    24135443.6524   24135451.9484
       144.0004        148.0004
 -15886433.59249 -12350419.30947  21370984.615    21370984.8324   21370991.6974
       195.0004        195.0004
 -18025628.58849 -14013483.26647  20996593.859    20996594.2684   20996602.0314
       211.0004        211.0004
 -12732455.37848  -9885136.62146  22066773.310    22066774.0694   22066781.3274
       182.0004        182.0004
  -3598423.54147  -2770648.72145  23820124.610    23820125.0704   23820131.0074
       151.0004        154.0004
 -13555882.46048 -10550510.88546  21786052.014    21786052.5874   21786057.5424
       181.0004        181.0004
  -2498837.81148  -1928907.40746  24356819.796    24356819.4024   24356823.8144
       169.0004        169.0004
 21  2  4  0  6  0.0000000  0  8G01G17G08G09G04G30G21G27
 -13751141.33448 -10694740.47346  22129488.835    22129489.3934   22129500.3344
       176.0004        176.0004
  -2147636.67747  -1648519.71445  24117105.280    24117106.0264   24117114.7124
       146.0004        149.0004
 -15809365.18249 -12290365.99247  21385650.211    21385650.4584   21385657.5274
       195.0004        195.0004
 -17989809.56449 -13985572.33347  21003410.397    21003410.5994   21003417.9524
       211.0004        211.0004
 -12643322.29348  -9815682.27446  22083735.076    22083736.0604   22083742.9424
       183.0004        182.0004
  -3685286.17747  -2838333.82145  23803593.872    23803594.4614   23803602.5834
       152.0004        155.0004
 -13569274.43948 -10560946.17546  21783503.090    21783503.5954   21783509.0094
       180.0004        180.0004
  -2390327.61148  -1844353.95246  24377468.256    24377468.0174   24377474.0584
       170.0004        171.0004
 21  2  4  0  6 30.0000000  0  8G01G17G08G09G04G30G21G27
 -13823850.57048 -10751397.01446  22115653.226    22115654.4084   22115662.3194
       177.0004        179.0004
  -2243764.58847  -1723424.09745  24098812.208    24098813.3394   24098821.9154
       146.0004        150.0004
 -15731982.11049 -12230067.49947  21400375.189    21400375.7484   21400382.6894
       195.0004        195.0004
 -17953505.47949 -13957283.44547  21010318.737    21010319.1144   21010326.4124
       211.0004        211.0004
 -12553957.17848  -9746047.13346  22100740.999    22100741.1594   22100748.5524
       183.0004        183.0004
  -3772212.02447  -2906068.22245  23787054.409    23787053.3204   23787060.9124
       155.0004        158.0004
 -13582234.99048 -10571045.27746  21781037.705    21781038.1584   21781043.3464
       180.0004        181.0004
  -2281792.03948  -1759780.80146  24398121.559    24398121.2664   24398128.0794
       170.0004        171.0004
 21  2  4  0  7  0.0000000  0  8G01G17G08G09G04G30G21G27
 -13896377.56048 -10807911.53846  22101852.448    22101852.7214   22101860.4254
       177.0004        179.0004
  -2339660.07947  -1798147.38345  24080564.238    24080564.6254   24080572.9804
       147.0004        151.0004
 -15654287.17649 -12169525.99347  21415160.372    21415161.0904   21415167.3134
       195.0004        195.0004
 -17916718.64549 -13928618.37447  21017318.983    21017319.0534   21017326.5234
       210.0004        210.0004
 -12464363.28248  -9676233.69446  22117790.606    22117791.1404   22117796.5584
       183.0004        182.0004
  -3859199.71347  -2973850.84845  23770501.830    23770501.2264   23770508.1324
       157.0004        160.0004
 -13594762.97548 -10580807.32446  21778654.705    21778654.3854   21778659.2034
       181.0004        181.0004
  -2173234.11948  -1675190.23146  24418777.771    24418779.0474   24418785.0074
       170.0004        171.0004
 21  2  4  0  7 30.0000000  0  8G01G17G08G09G04G30G21G27
 -13968719.03948 -10864281.45846  22088085.103    22088086.1654   22088095.1084
       178.0004        178.0004
  -2435320.82447  -1872687.78645  24062360.459    24062360.9594   24062369.0744
       151.0004        155.0004
 -15576283.67749 -12108744.04047  21430004.374    21430004.6164   21430011.2414
       195.0004        195.0004
 -17879451.15949 -13899578.77047  21024410.965    21024411.2754   21024418.4184
       209.0004        209.0004
 -12374543.67148  -9606244.37146  22134883.179    22134883.6214   22134889.3314
       183.0004        182.0004
  -3946247.69647  -3041680.40645  23753935.788    23753934.9184   23753943.7874
       159.0004        161.0004
 -13606856.66248 -10590230.95646  21776352.858    21776352.6454   21776357.9814
       181.0004        182.0004
  -2064656.32048  -1590584.11846  24439439.896    24439440.7054   24439446.6544
       168.0004        168.0004
 21  2  4  0  8  0.0000000  0  8G01G17G08G09G04G30G21G27
 -14040872.01148 -10920504.49746  22074356.050    22074356.3964   22074365.2424
       178.0004        179.0004
  -2530744.76247  -1947043.69645  24044202.268    24044202.4824   24044210.7564
       153.0004        156.0004
 -15497974.89648 -12047724.20547  21444905.161    21444905.5634   21444912.9664
       194.0004        194.0004
 -17841705.35649 -13870166.46147  21031592.962    21031593.5484   21031600.6424
       209.0004        209.0004
 -12284501.62648  -9536081.73246  22152017.046    22152017.1474   22152024.2094
       183.0004        182.0004
  -4033354.52047  -3109555.79445  23737360.311    23737359.5724   23737368.2124
       159.0004        161.0004
 -13618514.41948 -10599314.89846  21774135.602    21774135.2614   21774140.2604
       182.0004        183.0004
  -1956061.52748  -1505964.83446  24460106.158    24460105.7744   24460111.5664
       167.0004        168.0004
 21  2  4  0  8 30.0000000  0  8G01G17G08G09G04G30G21G27
 -14112833.13048 -10976578.03946  22060661.953    22060662.2374   22060671.6534
       179.0004        179.0004
  -2625930.00147  -2021213.61345  24026089.293    24026089.5374   24026096.2304
       152.0004        154.0004
 -15419363.68548 -11986468.71847  21459864.863    21459865.1464   21459872.1064
       194.0004        194.0004
 -17803483.22549 -13840382.98647  21038866.012    21038866.9374   21038874.2434
       208.0004        209.0004
 -12194240.07948  -9465748.03846  22169193.310    22169193.6144   22169200.3704
       182.0004        180.0004
  -4120518.44247  -3177475.72145  23720772.937    23720772.6374   23720780.7054
       158.0004        159.0004
 -13629734.92248 -10608058.11846  21771999.680    21771999.2184   21772005.6094
       183.0004        183.0004
  -1847452.22648  -1421334.18746  24480772.158    24480773.1524   24480779.4154
       168.0004        169.0004
 21  2  4  0  9  0.0000000  0  8G01G17G08G09G04G30G21G27
 -14184598.66448 -11032499.20946  22047004.793    22047006.0444   22047013.8884
       179.0004        178.0004
  -2720873.69647  -2095195.31645  24008021.531    24008021.6054   24008027.8424
       150.0004        151.0004
 -15340452.33348 -11924979.36047  21474882.700    21474882.3684   21474888.1124
       194.0004        193.0004
 -17764786.44849 -13810229.67147  21046230.620    21046230.8984   21046238.2104
       209.0004        209.0004
 -12103761.57748  -9395245.30146  22186410.097    22186411.1564   22186417.6724
       181.0004        181.0004
  -4207737.33247  -3245438.46245  23704175.667    23704176.6234   23704183.7284
       157.0004        158.0004
 -13640516.34748 -10616459.20746  21769946.918    21769947.3754   21769953.5244
       182.0004        182.0004
  -1738830.43848  -1336693.87446  24501442.324    24501442.0994   24501449.9664
       167.0004        167.0004
 21  2  4  0  9 30.0000000  0  8G01G17G08G09G04G30G21G27
 -14256164.68348 -11088264.90946  22033386.606    22033387.2614   22033394.5884
       178.0004        179.0004
  -2815573.16547  -2168986.78845  23990001.066    23990000.8554   23990006.6254
       150.0004        153.0004
 -15261243.21048 -11863257.95447  21489954.734    21489954.8044   21489961.2714
       193.0004        193.0004
 -17725616.49349 -13779707.63347  21053684.451    21053685.0814   21053692.0794
       209.0004        210.0004
 -12013068.52548  -9324575.38346  22203668.539    22203669.0454   22203674.9644
       181.0004        180.0004
  -4295008.86547  -3313442.21245  23687568.940    23687568.2574   23687576.4484
       156.0004        158.0004
 -13650855.75648 -10624515.86646  21767980.353    21767979.8494   21767985.7974
       182.0004        183.0004
  -1630198.15748  -1252045.37346  24522113.746    24522114.7174   24522121.3864
       165.0004        166.0004
 21  2  4  0 10  0.0000000  0  8G01G17G08G09G04G30G21G27
 -14327528.50248 -11143873.01346  22019806.202    22019807.3404   22019815.6494
       179.0004        180.0004
  -2910027.00447  -2242586.84945  23972026.607    23972026.8494   23972033.0994
       152.0004        155.0004
 -15181740.00848 -11801307.39747  21505082.516    21505083.0574   21505089.7914
       192.0004        192.0004
 -17685976.08049 -13748819.00647  21061228.283    21061228.3014   21061235.9504
       209.0004        210.0004
 -11922164.54248  -9253741.08846  22220967.759    22220968.3864   22220973.6374
       180.0004        180.0004
  -4382331.91447  -3381486.14445  23670952.354    23670952.1434   23670958.3074
       157.0004        158.0004
 -13660752.58348 -10632227.65546  21766097.615    21766096.5364   21766101.7454
       182.0004        182.0004
  -1521558.45048  -1167391.01646  24542785.098    24542787.5794   24542796.0144
       167.0004        169.0004
 21  2  4  0 10 30.0000000  0  8G01G17G08G09G04G30G21G27
 -14398687.00348 -11199321.15046  22006264.206    22006265.7444   22006274.2674
       178.0004        179.0004
  -3004232.98847  -2315993.79545  23954098.783    23954099.2844   23954105.6864
       152.0004        154.0004
 -15101945.77748 -11739130.07347  21520266.938    21520267.7124   21520274.2574
       192.0004        192.0004
 -17645867.52149 -13717565.57547  21068860.145    21068860.4304   21068868.1404
       209.0004        210.0004
 -11831052.77148  -9182744.87946  22238305.076    22238306.0494   22238312.4334
       181.0004        180.0004
  -4469704.95347  -3449569.01845  23654325.343    23654325.5874   23654332.5674
       157.0004        160.0004
 -13670205.59348 -10639593.60846  21764299.098    21764297.9194   21764302.6544
       182.0004        182.0004
  -1412913.93648  -1082733.01146  24563459.604    24563461.5024   24563469.8474
       165.0004        166.0004
 21  2  4  0 11  0.0000000  0  7G01G17G08G09G04G30G21
 -14469636.20048 -11254606.20446  21992763.655    21992765.1464   21992773.2534
       179.0004        180.0004
  -3098188.38347  -2389205.46545  23936219.172    23936219.2544   23936226.7194
       152.0004        155.0004
 -15021863.00648 -11676727.90047  21535506.550    21535506.9294   21535513.8904
       192.0004        192.0004
 -17605292.32749 -13685948.54447  21076581.314    21076581.6434   21076588.7724
       209.0004        209.0004
 -11739735.52248  -9111588.56846  22255682.872    22255682.9064   22255689.8924
       180.0004        180.0004
  -4557125.52447  -3517688.93045  23637688.965    23637689.4974   23637697.0014
       159.0004        162.0004
 -13679212.76848 -10646612.16646  21762584.755    21762584.1494   21762587.8074
       183.0004        183.0004
 21  2  4  0 11 30.0000000  0  7G01G17G08G09G04G30G21
 -14540374.71948 -11309727.10146  21979303.909    21979303.9774   21979310.9204
       179.0004        180.0004
  -3191893.17747  -2462221.86145  23918387.376    23918388.8424   23918395.2064
       154.0004        157.0004
 -14941495.69448 -11614104.01947  21550800.630    21550800.7144   21550807.2804
       192.0004        193.0004
 -17564254.55749 -13653971.05447  21084390.284    21084390.7454   21084398.1894
       209.0004        209.0004
 -11648217.76548  -9040276.01346  22273098.149    22273098.3154   22273104.5954
       180.0004        179.0004
  -4644593.81647  -3585846.00445  23621044.490    23621044.5284   23621051.5454
       159.0004        161.0004
 -13687774.13148 -10653283.33746  21760955.126    21760955.0834   21760958.3494
       182.0004        182.0004
 21  2  4  0 12  0.0000000  0  7G01G17G08G09G04G30G21
 -14610897.21648 -11364679.68046  21965883.854    21965884.1404   21965891.6764
       179.0004        180.0004
  -3285342.87947  -2535039.53945  23900605.507    23900605.2854   23900612.4194
       155.0004        158.0004
 -14860845.58248 -11551259.76547  21566147.604    21566147.9434   21566154.0484
       192.0004        192.0004
 -17522754.43349 -13621633.30047  21092287.916    21092288.4304   21092295.5814
       209.0004        210.0004
 -11556500.49148  -8968807.99746  22290550.508    22290551.4394   22290557.0234
       178.0004        177.0004
  -4732106.08747  -3654037.33545  23604390.957    23604392.0394   23604399.4604
       158.0004        161.0004
 -13695886.01248 -10659604.26046  21759410.503    21759410.7404   21759416.1794
       183.0004        183.0004
 21  2  4  0 12 30.0000000  0  7G01G17G08G09G04G30G21
 -14681200.73048 -11419461.61146  21952504.786    21952505.7754   21952513.1044
       179.0004        179.0004
  -3378535.84547  -2607657.16645  23882870.803    23882870.8104   23882877.8694
       155.0004        158.0004
 -14779915.99649 -11488197.74347  21581548.170    21581548.0544   21581554.4894
       206.0004        209.0004
 -17480794.49249 -13588937.25947  21100273.321    21100273.3954   21100280.4624
       209.0004        210.0004
 -11464587.03748  -8897187.10146  22308042.219    22308041.9124   22308047.6174
       176.0004        176.0004
  -4819660.75647  -3722261.71646  23587731.361    23587731.2344   23587738.9094
       160.0004        163.0004
 -13703547.82248 -10665574.47446  21757952.626    21757952.7324   21757957.5764
       182.0004        183.0004
 21  2  4  0 13  0.0000000  0  7G01G17G08G09G04G30G21
 -14751282.36748 -11474070.65246  21939168.982    21939169.5944   21939177.2104
       180.0004        180.0004
  -3471470.47647  -2680073.50345  23865186.087    23865186.4274   23865192.8104
       156.0004        159.0004
 -14698710.12749 -11424920.43547  21597000.994    21597001.0654   21597007.5914
       210.0004        208.0004
 -17438377.40949 -13555884.99047  21108343.827    21108344.3124   21108351.9824
       209.0004        209.0004
 -11372480.89048  -8825416.08246  22325568.772    22325569.2274   22325575.5834
       177.0004        177.0004
  -4907256.61247  -3790518.22345  23571062.279    23571062.2704   23571068.9234
       161.0004        162.0004
 -13710758.58048 -10671193.22646  21756581.354    21756580.8804   21756586.0484
       183.0004        184.0004
 21  2  4  0 13 30.0000000  0  7G01G17G08G09G04G30G21
 -14821139.59848 -11528504.82746  21925875.645    21925875.4594   21925884.3934
       180.0004        180.0004
  -3564144.78247  -2752286.98445  23847550.079    23847549.8444   23847556.5854
       156.0004        158.0004
 -14617231.53549 -11361430.60848  21612505.718    21612505.9954   21612512.7484
       219.0004        223.0004
 -17395506.20249 -13522478.86947  21116501.992    21116502.6064   21116510.2834
       208.0004        209.0004
 -11280185.84148  -8753497.89946  22343130.689    22343131.6984   22343138.5424
       177.0004        177.0004
  -4994892.57647  -3858805.96446  23554385.420    23554385.5274   23554392.3234
       162.0004        165.0004
 -13717517.65448 -10676460.01246  21755295.067    21755294.9614   21755299.8704
       184.0004        185.0004
 21  2  4  0 14  0.0000000  0  7G01G17G08G09G04G30G21
 -14890768.58448 -11582761.16446  21912625.079    21912625.3864   21912633.3884
       179.0004        180.0004
  -3656557.03447  -2824296.30645  23829962.682    23829963.6144   23829972.1354
       155.0004        157.0004
 -14535482.88649 -11297730.35548  21628062.048    21628062.3834   21628068.9684
       223.0004        224.0004
 -17352182.55749 -13488720.19847  21124747.651    21124747.4114   21124754.1414
       209.0004        208.0004
 -11187704.24948  -8681434.35946  22360728.466    22360730.0624   22360737.7924
       177.0004        177.0004
  -5082566.27847  -3927123.13446  23537701.236    23537701.5854   23537708.6444
       163.0004        166.0004
 -13723822.72848 -10681373.04146  21754095.534    21754094.7664   21754100.1764
       184.0004        184.0004
 21  2  4  0 14 30.0000000  0  7G01G17G08G09G04G30G21
 -14960163.43748 -11636835.04846  21899419.280    21899420.7484   21899428.7684
       180.0004        181.0004
  -3748702.37747  -2896097.66145  23812429.895    23812429.8134   23812436.8034
       155.0004        158.0004
 -14453464.23849 -11233819.71748  21643669.694    21643669.8334   21643676.9744
       225.0004        224.0004
 -17308406.17949 -13454608.73847  21133076.725    21133077.5154   21133084.5834
       208.0004        208.0004
 -11095036.52548  -8609225.77846  22378363.485    22378364.0744   22378371.4844
       175.0004        174.0004
  -5170273.32247  -3995466.25646  23521010.160    23521010.1654   23521018.9424
       164.0004        165.0004
 -13729669.88748 -10685929.23946  21752981.434    21752981.9814   21752987.2344
       184.0004        183.0004
 21  2  4  0 15  0.0000000  0  7G01G17G08G09G04G30G21
 -15029323.24848 -11690725.78146  21886259.589    21886259.7864   21886268.3984
       181.0004        182.0004
  -3840581.06447  -2967691.26445  23794945.137    23794945.6524   23794953.1154
       155.0004        157.0004
 -14371180.88149 -11169702.79448  21659326.931    21659327.2974   21659334.7654
       224.0004        222.0004
 -17264181.80849 -13420148.17947  21141493.032    21141493.4494   21141500.2794
       209.0004        209.0004
 -11002188.11748  -8536876.38946  22396033.353    22396033.6894   22396040.5094
       175.0004        176.0004
  -5258014.34847  -4063835.83146  23504313.958    23504314.4444   23504322.1424
       164.0004        166.0004
 -13735060.48348 -10690129.68646  21751955.918    21751955.7584   21751961.0804
       183.0004        183.0004
 21  2  4  0 15 30.0000000  0  8G01G17G08G09G14G04G30G21
 -15098244.88648 -11744430.92646  21873143.225    21873144.0264   21873152.6954
       181.0004        181.0004
  -3932190.95647  -3039075.41645  23777510.973    23777512.9644   23777520.1974
       153.0004        154.0004
 -14288636.52749 -11105382.50848  21675034.346    21675034.8954   21675042.4844
       223.0004        222.0004
 -17219511.86849 -13385340.41547  21149992.795    21149993.0114   21150000.8214
       209.0004        209.0004
   -866197.75757   -664917.15945  23570419.487    23570420.1345   23570426.1414
       152.0004        157.0004
 -10909162.16448  -8464388.64246  22413735.898    22413735.6984   22413741.9954
       176.0004        176.0004
  -5345787.53747  -4132230.50846  23487612.561    23487613.0454   23487619.3584
       164.0004        166.0004
 -13739993.42048 -10693973.52546  21751016.919    21751017.7874   21751022.3704
       183.0004        184.0004
 21  2  4  0 16  0.0000000  0  8G01G17G08G09G14G04G30G21
 -15166925.38348 -11797948.17246  21860073.916    21860075.1234   21860083.5504
       181.0004        182.0004
  -4023530.56647  -3110248.93845  23760130.479    23760130.0654   23760137.7114
       150.0004        153.0004
 -14205833.84249 -11040860.92048  21690791.437    21690791.9864   21690799.3154
       223.0004        223.0004
 -17174399.03549 -13350187.55247  21158577.891    21158578.1734   21158585.2184
       209.0004        209.0004
   -893110.94447   -685888.43445  23565298.756    23565297.9274   23565302.6314
       154.0004        156.0004
 -10815961.97048  -8391765.12746  22431470.502    22431471.1214   22431477.6024
       176.0004        175.0004
  -5433591.41548  -4200649.11246  23470904.151    23470903.8124   23470910.5364
       165.0004        167.0004
 -13744467.59648 -10697459.86746  21750167.234    21750165.9324   21750170.6034
       183.0004        184.0004
 21  2  4  0 16 30.0000000  0  8G01G17G08G09G14G04G30G21
 -15235362.17648 -11851275.52946  21847050.914    21847052.0064   21847059.7574
       181.0004        182.0004
  -4114598.73947  -3181210.98445  23742800.950    23742801.2604   23742808.1164
       154.0004        158.0004
 -14122776.94249 -10976141.25848  21706597.648    21706597.9304   21706604.3034
       223.0004        223.0004
 -17128846.41049 -13314692.00547  21167246.637    21167246.9904   21167253.8054
       209.0004        210.0004
   -919977.15047   -706823.09545  23560183.757    23560184.5754   23560189.5794
       153.0004        154.0004
 -10722591.37148  -8319008.82446  22449238.802    22449239.6384   22449245.5524
       175.0004        176.0004
  -5521424.88848  -4269090.76746  23454189.335    23454189.2714   23454196.4024
       165.0004        166.0004
 -13748482.44848 -10700588.30646  21749401.877    21749401.5304   21749406.3794
       183.0004        183.0004
 21  2  4  0 17  0.0000000  0  8G01G17G08G09G14G04G30G21
 -15303550.29248 -11904409.11746  21834075.575    21834076.0094   21834084.1664
       182.0004        182.0004
  -4205391.49347  -3251958.43145  23725524.947    23725524.3204   23725529.8364
       155.0004        158.0004
 -14039466.83649 -10911224.29148  21722451.514    21722451.4484   21722457.2584
       223.0004        222.0004
 -17082854.73849 -13278854.34147  21175998.122    21175998.3054   21176005.7274
       209.0004        209.0004
   -946795.94147   -727720.82245  23555081.178    23555081.5994   23555086.7974
       155.0004        158.0004
 -10629051.68448  -8246120.79346  22467039.610    22467039.9894   22467045.2874
       176.0004        176.0004
  -5609284.41647  -4337552.73646  23437469.471    23437469.3684   23437476.9504
       163.0004        163.0004
 -13752034.98948 -10703356.52146  21748726.321    21748725.5194   21748729.7554
       183.0004        183.0004
 21  2  4  0 17 30.0000000  0  8G01G17G08G09G14G04G30G21
 -15371487.62648 -11957347.26246  21821147.279    21821147.6954   21821156.2514
       182.0004        183.0004
  -4295908.02247  -3322490.62845  23708299.088    23708299.1794   23708305.1144
       156.0004        158.0004
 -13955907.65149 -10846113.20848  21738350.754    21738351.0984   21738358.0864
       222.0004        220.0004
 -17036427.50649 -13242677.26547  21184832.805    21184833.4694   21184840.3884
       209.0004        209.0004
   -973569.77547   -748583.49845  23549986.032    23549986.6464   23549992.0484
       156.0004        159.0004
 -10535346.97148  -8173104.15346  22484869.925    22484870.0514   22484876.8074
       176.0004        176.0004
  -5697169.26647  -4406034.42646  23420744.402    23420745.1504   23420753.5084
       162.0004        164.0004
 -13755125.28248 -10705764.51846  21748137.861    21748137.7064   21748141.8024
       183.0004        183.0004
 21  2  4  0 18  0.0000000  0  8G01G17G08G09G14G04G30G21
 -15439169.38648 -12010086.28946  21808267.903    21808268.1124   21808276.8214
       182.0004        185.0004
  -4386144.88247  -3392804.90445  23691127.203    23691127.4904   23691134.6594
       158.0004        161.0004
 -13872100.93449 -10780809.27648  21754298.450    21754298.7544   21754306.4864
       221.0004        220.0004
 -16989565.69349 -13206161.58747  21193750.429    21193751.2154   21193757.8324
       208.0004        208.0004
  -1000298.38347   -769410.96345  23544901.470    23544900.1774   23544905.6634
       155.0004        155.0004
 -10441478.79848  -8099960.13146  22502732.171    22502732.5364   22502740.2564
       175.0004        176.0004
  -5785076.07247  -4474533.22046  23404017.764    23404018.0504   23404025.5564
       163.0004        165.0004
 -13757750.50948 -10707810.15246  21747638.735    21747638.1074   21747643.7124
       184.0004        183.0004
 21  2  4  0 18 30.0000000  0  8G01G17G08G09G14G04G30G21
 -15506592.12048 -12062623.45746  21795437.137    21795438.1714   21795446.8334
       183.0004        184.0004
  -4476099.92947  -3462899.60945  23674011.013    23674010.9694   23674017.3764
       159.0004        161.0004
 -13788049.15749 -10715314.37548  21770293.876    21770293.7594   21770300.9404
       221.0004        221.0004
 -16942271.52149 -13169308.97847  21202750.894    21202750.8454   21202757.6694
       208.0004        209.0004
  -1026982.85347   -790204.01945  23539822.031    23539823.2244   23539828.3634
       155.0004        157.0004
 -10347449.97548  -8026690.89146  22520625.363    22520625.7034   22520633.3264
       176.0004        176.0004
  -5873002.76147  -4543047.48846  23387285.056    23387285.8974   23387293.6474
       163.0004        165.0004
 -13759909.24548 -10709492.24446  21747228.770    21747227.8454   21747233.2834
       185.0004        186.0004
 21  2  4  0 19  0.0000000  0  8G01G17G08G09G14G04G30G21
 -15573753.13648 -12114956.70546  21782657.512    21782657.8154   21782666.5134
       184.0004        184.0004
  -4565771.79347  -3532773.66545  23656946.690    23656946.3604   23656952.3434
       158.0004        160.0004
 -13703756.31449 -10649631.63248  21786334.526    21786334.7134   21786340.8454
       222.0004        221.0004
 -16894547.97749 -13132121.80647  21211831.921    21211832.4594   21211838.9984
       208.0004        208.0004
  -1053625.00647   -810964.09745  23534751.334    23534752.8234   23534758.8864
       158.0004        162.0004
 -10253264.07648  -7953299.25246  22538548.318    22538548.6934   22538555.9524
       176.0004        176.0004
  -5960947.94847  -4611576.22046  23370549.415    23370549.8584   23370557.0954
       162.0004        163.0004
 -13761600.91448 -10710810.40146  21746905.956    21746905.2134   21746911.7694
       186.0004        187.0004
 21  2  4  0 19 30.0000000  0  8G01G17G08G09G14G04G30G21
 -15640648.98548 -12167083.31346  21769927.399    21769928.6284   21769935.8664
       184.0004        184.0004
  -4655158.35447  -3602425.41745  23639935.874    23639936.7464   23639941.0024
       157.0004        159.0004
 -13619224.74749 -10583762.86548  21802420.970    21802420.7254   21802426.5164
       221.0004        220.0004
 -16846397.35549 -13094601.83747  21220994.784    21220994.7334   21221001.5864
       207.0004        207.0004
  -1080225.95647   -831692.07446  23529690.393    23529690.9394   23529696.2914
       163.0004        165.0004
 -10158923.99848  -7879787.47946  22556501.658    22556501.8504   22556507.4064
       176.0004        176.0004
  -6048909.62947  -4680117.78546  23353811.876    23353813.0064   23353819.6614
       162.0004        165.0004
 -13762824.27948 -10711763.65446  21746673.699    21746672.9764   21746679.0004
       187.0004        187.0004
 21  2  4  0 20  0.0000000  0  8G01G17G08G09G14G04G30G21
 -15707276.74248 -12219001.04146  21757248.059    21757249.0354   21757257.2944
       183.0004        184.0004
  -4744257.80247  -3671853.41745  23622978.869    23622980.7314   23622986.2824
       157.0004        159.0004
 -13534457.79049 -10517710.68748  21818550.514    21818550.6934   21818557.3154
       221.0004        219.0004
 -16797822.45849 -13056751.27847  21230238.326    21230238.3954   21230245.6034
       208.0004        208.0004
  -1106787.25048   -852389.15446  23524635.628    23524637.3164   23524642.0834
       166.0004        168.0004
 -10064433.11048  -7806158.20946  22574481.381    22574481.8824   22574488.5164
       176.0004        176.0004
  -6136886.14347  -4748670.88746  23337070.976    23337070.9664   23337078.3934
       164.0004        167.0004
 -13763578.76348 -10712351.54447  21746529.539    21746528.8304   21746535.6254
       187.0004        188.0004
 21  2  4  0 20 30.0000000  0  8G01G17G08G09G14G04G30G21
 -15773632.78248 -12270707.02346  21744623.054    21744623.1484   21744630.5894
       184.0004        186.0004
  -4833067.92547  -3741055.95645  23606079.731    23606079.7814   23606085.7464
       157.0004        158.0004
 -13449458.28549 -10451477.30348  21834725.220    21834725.2244   21834732.5324
       220.0004        219.0004
 -16748825.51449 -13018571.82447  21239561.478    21239562.0344   21239569.4934
       208.0004        208.0004
  -1133309.88248   -873056.10346  23519589.081    23519589.4784   23519594.6324
       166.0004        167.0004
  -9969794.07848  -7732413.52346  22592490.669    22592491.1494   22592497.8494
       176.0004        176.0004
  -6224875.19448  -4817233.75346  23320326.517    23320326.1704   23320334.6914
       165.0004        166.0004
 -13763862.80948 -10712572.84847  21746475.812    21746475.5914   21746482.5024
       188.0004        188.0004
 21  2  4  0 21  0.0000000  0  8G01G17G08G09G14G04G30G21
 -15839714.35048 -12322199.12946  21732046.523    21732047.1044   21732055.5174
       184.0004        185.0004
  -4921587.47847  -3810032.11045  23589235.501    23589235.0034   23589240.0564
       155.0004        156.0004
 -13364229.61049 -10385065.33548  21850943.775    21850943.9954   21850951.2094
       220.0004        219.0004
 -16699409.41249 -12980065.77147  21248965.362    21248965.6694   21248972.7324
       207.0004        207.0004
  -1159795.56348   -893694.27346  23514548.914    23514549.4894   23514555.3144
       165.0004        166.0004
  -9875010.29748  -7658556.01346  22610527.724    22610528.1724   22610534.9944
       175.0004        175.0004
  -6312875.48747  -4885805.38646  23303579.348    23303580.5254   23303588.7674
       164.0004        166.0004
 -13763675.66948 -10712426.99147  21746510.179    21746510.4124   21746517.7184
       188.0004        188.0004
 21  2  4  0 21 30.0000000  0  8G01G17G08G09G14G04G30G21
 -15905517.64648 -12373474.39046  21719522.435    21719524.3084   21719533.9064
       184.0004        184.0004
  -5009813.79247  -3878779.75445  23572444.862    23572445.5904   23572452.1044
       154.0004        156.0004
 -13278774.46349 -10318476.90748  21867205.672    21867205.8824   21867212.6684
       220.0004        219.0004
 -16649576.16549 -12941234.66747  21258448.118    21258448.3954   21258455.4704
       206.0004        207.0004
  -1186245.02647   -914304.20046  23509515.620    23509515.9404   23509521.5034
       163.0004        163.0004
  -9780084.24648  -7584587.65346  22628591.529    22628591.8594   22628599.2884
       174.0004        174.0004
  -6400884.37348  -4954383.70346  23286832.270    23286832.4384   23286840.9254
       165.0004        166.0004
 -13763016.07448 -10711912.99247  21746636.168    21746635.8704   21746643.5854
       188.0004        188.0004
 21  2  4  0 22  0.0000000  0  8G01G17G08G09G14G04G30G21
 -15971038.95948 -12424529.94046  21707056.480    21707056.7504   21707064.5894
       184.0004        185.0004
  -5097744.64647  -3947297.19145  23555714.127    23555714.9374   23555717.8244
       157.0004        161.0004
 -13193094.67649 -10251713.42648  21883510.336    21883510.2394   21883516.7384
       220.0004        219.0004
 -16599327.89549 -12902080.16047  21268010.091    21268010.2004   21268018.1644
       207.0004        207.0004
  -1212659.05947   -934886.53546  23504489.878    23504490.2454   23504495.7304
       164.0004        166.0004
  -9685018.57948  -7510510.51546  22646682.079    22646682.5474   22646689.0544
       173.0004        173.0004
  -6488899.56847  -5022966.94546  23270084.590    23270084.5234   23270092.0814
       164.0004        166.0004
 -13761882.38448 -10711029.56346  21746852.266    21746851.7194   21746857.8054
       187.0004        187.0004
 21  2  4  0 22 30.0000000  0  8G01G17G08G09G14G04G30G21
 -16036276.89148 -12475364.67446  21694642.770    21694643.1694   21694651.1964
       185.0004        186.0004
  -5185380.05547  -4015584.41845  23539037.030    23539037.5584   23539042.9324
       158.0004        160.0004
 -13107195.64849 -10184779.10748  21899855.673    21899856.1244   21899862.8544
       219.0004        218.0004
 -16548668.93749 -12862605.65447  21277650.069    21277650.9704   21277658.2694
       207.0004        207.0004
  -1239040.69448   -955443.62046  23499468.386    23499469.7144   23499475.3374
       165.0004        166.0004
  -9589818.06948  -7436328.30946  22664798.592    22664799.3734   22664805.4764
       174.0004        174.0004
  -6576920.80048  -5091554.91446  23253333.767    23253334.7614   23253342.3864
       166.0004        169.0004
 -13760275.35748 -10709777.32746  21747158.646    21747157.3614   21747163.6354
       186.0004        186.0004
 21  2  4  0 23  0.0000000  0  8G01G17G08G09G14G04G30G21
 -16101227.14448 -12525975.23046  21682283.059    21682283.1664   21682291.1224
       186.0004        186.0004
  -5272716.79347  -4083638.88645  23522418.178    23522418.2234   23522423.0644
       159.0004        162.0004
 -13021078.48749 -10117674.82148  21916242.937    21916243.5704   21916249.9584
       218.0004        217.0004
 -16497600.83749 -12822812.32447  21287368.021    21287368.4754   21287375.8314
       206.0004        206.0004
  -1265390.18748   -975975.65946  23494455.061    23494455.9194   23494461.0184
       165.0004        166.0004
  -9494484.67348  -7362042.58746  22682939.776    22682940.4894   22682946.7064
       173.0004        174.0004
  -6664945.06648  -5160145.20346  23236583.209    23236583.7224   23236592.1534
       168.0004        169.0004
 -13758192.86348 -10708154.58346  21747554.393    21747553.8454   21747559.6494
       185.0004        185.0004
 21  2  4  0 23 30.0000000  0  8G01G17G08G09G14G04G30G21
 -16165886.33048 -12576358.97546  21669977.441    21669978.5974   21669986.5454
       185.0004        186.0004
  -5359753.15647  -4151459.32245  23505855.479    23505854.9294   23505859.4454
       158.0004        158.0004
 -12934746.79249 -10050403.35648  21932672.207    21932672.0654   21932678.3414
       218.0004        218.0004
 -16446126.02349 -12782702.07347  21297162.827    21297163.3644   21297170.5074
       205.0004        205.0004
  -1291708.63348   -996483.49046  23489446.359    23489447.5504   23489451.9854
       165.0004        166.0004
  -9399021.17448  -7287655.44946  22701105.905    22701106.5884   22701111.6344
       172.0004        173.0004
  -6752970.30548  -5228736.27846  23219832.861    23219833.1794   23219840.5684
       166.0004        166.0004
 -13755633.84348 -10706160.51746  21748041.036    21748040.4784   21748045.7224
       184.0004        184.0004
 21  2  4  0 24  0.0000000  0  8G01G17G08G09G14G04G30G21
 -16230251.55548 -12626513.65746  21657729.450    21657729.9904   21657738.4984
       185.0004        185.0004
  -5446487.48547  -4219044.40145  23489348.195    23489349.1234   23489356.3254
       156.0004        157.0004
 -12848203.28649  -9982966.84748  21949140.883    21949141.0404   21949147.2124
       218.0004        217.0004
 -16394247.35349 -12742277.12547  21307035.185    21307035.8074   21307043.1194
       205.0004        205.0004
  -1317997.52848  -1016968.31246  23484444.631    23484444.6834   23484450.0254
       165.0004        167.0004
  -9303430.87848  -7213169.49246  22719296.922    22719296.8624   22719302.7064
       170.0004        170.0004
  -6840994.71648  -5297326.71946  23203082.666    23203083.3644   23203090.5904
       167.0004        169.0004
 -13752597.92248 -10703794.83646  21748618.804    21748618.8344   21748623.2414
       184.0004        184.0004
 21  2  4  0 24 30.0000000  0  8G01G17G08G09G14G04G30G21
 -16294318.33948 -12676435.80746  21645538.439    21645538.7664   21645547.1064
       185.0004        186.0004
  -5532916.82347  -4286391.81245  23472902.390    23472903.1474   23472909.0354
       158.0004        162.0004
 -12761449.83249  -9915366.73748  21965648.656    21965649.2294   21965656.3844
       218.0004        217.0004
 -16341966.24449 -12701538.59547  21316984.042    21316984.6264   21316992.0354
       205.0004        206.0004
  -1344256.89348  -1037430.12946  23479446.186    23479447.4044   23479453.0914
       165.0004        165.0004
  -9207715.55948  -7138586.10646  22737510.552    22737510.7284   22737516.4364
       170.0004        171.0004
  -6929015.09848  -5365913.97846  23186333.011    23186333.3544   23186340.8574
       169.0004        171.0004
 -13749082.97448 -10701055.90946  21749287.413    21749287.2704   21749291.2634
       183.0004        182.0004
 21  2  4  0 25  0.0000000  0  8G01G17G08G09G14G04G30G21
 -16358084.18848 -12726123.47646  21633403.553    21633404.6934   21633412.2834
       185.0004        185.0004
  -5619039.85347  -4353500.54845  23456512.844    23456512.7244   23456519.7784
       157.0004        157.0004
 -12674490.05449  -9847605.86948  21982196.748    21982196.8904   21982204.6214
       217.0004        217.0004
 -16289286.03449 -12660489.09247  21327008.618    21327009.2454   21327016.9784
       205.0004        206.0004
  -1370488.78147  -1057870.52346  23474453.997    23474455.0324   23474460.7044
       163.0004        163.0004
  -9111878.96548  -7063908.24846  22755746.832    22755747.1454   22755753.6034
       170.0004        171.0004
  -7017030.18848  -5434497.16146  23169585.894    23169585.2444   23169591.3344
       170.0004        171.0004
 -13745088.64548 -10697943.43246  21750047.824    21750047.9234   21750051.8214
       182.0004        183.0004
 21  2  4  0 25 30.0000000  0  8G01G17G08G09G14G04G30G21
 -16421545.90748 -12775574.13846  21621326.028    21621327.8024   21621336.3944
       185.0004        186.0004
  -5704854.79447  -4420369.20645  23440183.940    23440184.2944   23440189.4724
       157.0004        160.0004
 -12587326.78249  -9779686.44048  21998783.551    21998783.7554   21998790.7414
       217.0004        217.0004
 -16236209.38449 -12619130.66047  21337108.735    21337109.6104   21337117.5474
       206.0004        206.0004
  -1396694.31747  -1078290.41846  23469469.169    23469469.1604   23469475.0444
       163.0004        164.0004
  -9015924.08848  -6989138.20046  22774007.614    22774007.0194   22774013.5294
       170.0004        170.0004
  -7105037.93648  -5503074.60946  23152837.221    23152837.3054   23152845.0424
       171.0004        172.0004
 -13740614.02648 -10694456.69646  21750900.339    21750899.4244   21750903.0094
       183.0004        183.0004
 21  2  4  0 26  0.0000000  0  8G01G17G08G09G14G04G30G21
 -16484700.78348 -12824785.72846  21609309.989    21609310.1644   21609318.2884
       186.0004        186.0004
  -5790360.35247  -4486996.78945  23423912.429    23423912.8694   23423917.4404
       159.0004        162.0004
 -12499963.77949  -9711611.36948  22015407.014    22015408.2264   22015415.0454
       217.0004        217.0004
 -16182739.46349 -12577465.78147  21347284.297    21347284.8184   21347292.1634
       206.0004        206.0004
  -1422875.35147  -1098691.19046  23464486.290    23464486.7494   23464491.5524
       163.0004        164.0004
  -8919854.38648  -6914278.68146  22792286.659    22792288.0364   22792295.4794
       169.0004        168.0004
  -7193036.85248  -5571645.15946  23136090.190    23136091.0584   23136099.0354
       171.0004        171.0004
 -13735659.27248 -10690595.82446  21751842.079    21751841.9954   21751845.6664
       182.0004        182.0004
 21  2  4  0 26 30.0000000  0  8G01G17G08G09G14G04G30G21
 -16547544.53548 -12873754.86246  21597351.015    21597351.8354   21597359.6574
       186.0004        187.0004
  -5875553.80947  -4553381.22745  23407700.724    23407701.1324   23407704.7524
       159.0004        160.0004
 -12412403.03749  -9643382.21048  22032070.797    22032070.5424   22032077.1294
       217.0004        216.0004
 -16128877.74449 -12535495.60447  21357533.456    21357534.0744   21357540.9524
       205.0004        205.0004
  -1449031.90747  -1119072.88946  23459509.652    23459509.3034   23459515.0604
       163.0004        165.0004
  -8823671.75548  -6839331.18446  22810590.050    22810589.6074   22810598.2504
       167.0004        167.0004
  -7281023.72548  -5640206.33546  23119347.632    23119349.0224   23119355.1574
       170.0004        172.0004
 -13730221.77748 -10686358.79646  21752875.537    21752876.0284   21752879.7834
       182.0004        182.0004
 21  2  4  0 27  0.0000000  0  8G01G17G08G09G14G04G30G21
 -16610073.51748 -12922478.72047  21585452.344    21585453.1504   21585460.8254
       187.0004        189.0004
  -5960432.89747  -4619520.66346  23391549.462    23391549.5594   23391554.6774
       161.0004        165.0004
 -12324646.23249  -9575000.26848  22048769.385    22048770.0694   22048776.5244
       217.0004        216.0004
 -16074626.56649 -12493221.95347  21367857.581    21367857.6934   21367864.8354
       205.0004        205.0004
  -1475164.85047  -1139436.20146  23454535.943    23454536.1684   23454542.3764
       162.0004        163.0004
  -8727378.82248  -6764297.74346  22828914.674    22828914.6974   22828922.0254
       166.0004        167.0004
  -7368996.12648  -5708756.22346  23102607.299    23102607.3904   23102614.8594
       171.0004        171.0004
 -13724300.75748 -10681744.98746  21754003.239    21754003.6774   21754006.6884
       182.0004        182.0004
 21  2  4  0 27 30.0000000  0  8G01G17G08G09G14G04G30G21
 -16672285.75848 -12970955.77447  21573614.339    21573614.7524   21573621.8624
       189.0004        189.0004
  -6044997.15947  -4685414.79646  23375454.726    23375455.9344   23375462.0614
       163.0004        164.0004
 -12236697.63549  -9506468.90148  22065505.144    22065505.7594   22065512.9694
       216.0004        214.0004
 -16019989.76949 -12450647.82347  21378254.737    21378254.7694   21378262.2354
       204.0004        204.0004
  -1501276.62047  -1159783.03845  23449565.989    23449566.7784   23449572.7754
       161.0004        162.0004
  -8630979.75048  -6689181.60246  22847258.768    22847260.2154   22847265.7714
       168.0004        169.0004
  -7456953.13848  -5777294.16146  23085869.108    23085869.9104   23085876.4414
       169.0004        169.0004
 -13717896.67448 -10676754.78746  21755222.835    21755221.7904   21755225.4814
       182.0004        183.0004
 21  2  4  0 28  0.0000000  0  8G01G17G08G09G14G04G30G21
 -16734176.78348 -13019182.52446  21561835.426    21561836.4914   21561844.1334
       187.0004        187.0004
  -6129243.20147  -4751060.97246  23359425.627    23359425.6524   23359430.7664
       162.0004        165.0004
 -12148559.36549  -9437789.71648  22082277.465    22082277.7804   22082285.2724
       215.0004        214.0004
 -15964968.84749 -12407774.37747  21388725.083    21388725.3554   21388731.9394
       204.0004        204.0004
  -1527367.15447  -1180113.28745  23444601.874    23444602.7054   23444608.1514
       159.0004        159.0004
  -8534476.15348  -6613983.99546  22865624.494    22865624.5064   22865630.7524
       168.0004        170.0004
  -7544891.47148  -5845817.54346  23069135.448    23069135.9854   23069143.3424
       169.0004        171.0004
 -13711007.12548 -10671386.28446  21756532.247    21756533.0084   21756537.4024
       183.0004        183.0004
 21  2  4  0 28 30.0000000  0  8G01G17G08G09G14G04G30G21
 -16795744.63748 -13067157.43146  21550119.360    21550120.1154   21550127.8034
       186.0004        187.0004
  -6213170.60247  -4816458.85046  23343454.159    23343454.1844   23343460.1704
       163.0004        165.0004
 -12060235.16949  -9368965.66148  22099086.213    22099085.9564   22099092.8574
       215.0004        215.0004
 -15909567.61949 -12364604.58947  21399267.560    21399267.6744   21399274.6894
       203.0004        204.0004
  -1553438.87647  -1200428.86045  23439640.102    23439641.4824   23439646.0814
       158.0004        161.0004
  -8437872.22648  -6538708.22746  22884006.331    22884007.4804   22884013.3984
       168.0004        169.0004
  -7632810.23048  -5914325.62746  23052405.734    23052405.1224   23052413.1044
       171.0004        174.0004
 -13703633.02348 -10665640.20546  21757936.151    21757936.2474   21757940.6654
       182.0004        182.0004
 21  2  4  0 29  0.0000000  0  8G01G17G08G09G14G04G30G21
 -16856985.92548 -13114877.88346  21538466.851    21538466.8614   21538474.2994
       187.0004        187.0004
  -6296777.80147  -4881607.22346  23327543.333    23327544.2104   23327549.7134
       164.0004        165.0004
 -11971727.59249  -9299998.69548  22115927.865    22115928.6014   22115935.5054
       215.0004        215.0004
 -15853788.67849 -12321140.48247  21409880.800    21409881.6664   21409888.9174
       203.0004        203.0004
  -1579492.73947  -1220730.55645  23434681.240    23434682.6744   23434687.6434
       158.0004        159.0004
  -8341170.76948  -6463356.47146  22902408.070    22902408.1794   22902415.1514
       169.0004        169.0004
  -7720707.11048  -5982816.67546  23035678.471    23035678.8444   23035686.9314
       171.0004        172.0004
 -13695773.33748 -10659515.74346  21759432.217    21759432.0224   21759436.5594
       183.0004        183.0004
 21  2  4  0 29 30.0000000  0  8G01G17G08G09G14G04G30G21
 -16917897.33248 -13162341.29547  21526875.674    21526876.0554   21526883.0594
       187.0004        188.0004
  -6380062.60247  -4946504.37146  23311694.659    23311695.6954   23311701.4154
       164.0004        166.0004
 -11883039.79749  -9230891.30948  22132805.336    22132804.9224   22132811.8754
       214.0004        213.0004
 -15797634.57749 -12277384.05247  21420567.655    21420567.5644   21420574.3374
       203.0004        203.0004
  -1605529.84647  -1241019.17145  23429727.906    23429729.1754   23429733.7174
       158.0004        160.0004
  -8244374.58548  -6387930.90246  22920827.067    22920828.1064   22920834.2554
       168.0004        168.0004
  -7808579.81348  -6051288.90946  23018958.296    23018957.8104   23018964.4534
       172.0004        173.0004
 -13687427.02748 -10653012.11546  21761020.202    21761019.8544   21761024.5964
       183.0004        184.0004
 21  2  4  0 30  0.0000000  0  8G01G17G08G09G14G04G30G21
 -16978475.56448 -13209545.08847  21515348.466    21515348.5364   21515355.7064
       188.0004        188.0004
  -6463023.05148  -5011148.80146  23295908.104    23295909.0624   23295915.6294
       165.0004        168.0004
 -11794174.77749  -9161645.85047  22149714.198    22149714.5594   22149721.9634
       213.0004        211.0004
 -15741107.87549 -12233337.29647  21431323.798    21431324.3004   21431331.5964
       203.0004        203.0004
  -1631551.25047  -1261295.54445  23424775.952    23424777.4074   23424782.7864
       160.0004        162.0004
  -8147486.43748  -6312433.70546  22939265.447    22939265.9344   22939272.3514
       168.0004        168.0004
  -7896426.08548  -6119740.56046  23002241.031    23002241.0904   23002248.1464
       172.0004        173.0004
 -13678593.36548 -10646128.72146  21762701.583    21762701.2704   21762706.5804
       184.0004        185.0004
 21  2  4  0 30 30.0000000  0  8G01G17G08G09G14G04G30G21
 -17038717.72348 -13256486.99146  21503882.691    21503883.4294   21503891.6074
       187.0004        187.0004
  -6545657.90448  -5075539.48046  23280183.738    23280183.8514   23280190.2424
       167.0004        168.0004
 -11705135.20249  -9092264.36147  22166657.354    22166657.8144   22166665.2004
       211.0004        211.0004
 -15684211.59149 -12189002.53847  21442150.419    21442151.2014   21442159.0404
       202.0004        203.0004
  -1657558.36547  -1281560.75945  23419826.455    23419827.4784   23419832.9654
       160.0004        162.0004
  -8050509.52848  -6236867.30546  22957718.362    22957719.6934   22957725.8084
       168.0004        169.0004
  -7984244.04248  -6188170.14046  22985529.892    22985530.0414   22985536.0904
       171.0004        171.0004
 -13669272.16548 -10638865.43346  21764475.712    21764475.4494   21764479.4994
       185.0004        185.0004
 21  2  4  0 31  0.0000000  0  8G01G17G08G09G14G04G30G21
 -17098620.65348 -13303164.55447  21492483.861    21492484.7484   21492494.1194
       188.0004        190.0004
  -6627965.60748  -5139675.29346  23264520.527    23264521.1944   23264528.0104
       167.0004        168.0004
 -11615923.72949  -9022748.91247  22183634.000    22183634.4494   22183641.7934
       211.0004        211.0004
 -15626948.44249 -12144381.90047  21453047.496    21453047.7454   21453055.4944
       202.0004        202.0004
  -1683552.39047  -1301815.80245  23414881.368    23414881.3594   23414886.3984
       160.0004        162.0004
  -7953446.79248  -6161234.04046  22976190.768    22976190.8774   22976195.6034
       168.0004        169.0004
  -8072031.55948  -6256575.97346  22968824.533    22968824.6724   22968832.6834
       172.0004        174.0004
 -13659462.83748 -10631221.77146  21766341.726    21766341.4554   21766346.1974
       185.0004        185.0004
 21  2  4  0 31 30.0000000  0  8G01G17G08G09G14G04G30G21
 -17158181.55848 -13349575.66047  21481153.010    21481153.0394   21481159.4564
       192.0004        194.0004
  -6709944.75148  -5203555.04946  23248918.931    23248920.2384   23248927.4414
       165.0004        166.0004
 -11526543.83049  -8953102.22747  22200642.230    22200642.5684   22200650.3734
       211.0004        211.0004
 -15569321.62649 -12099477.88247  21464013.305    21464013.6564   21464021.3214
       201.0004        201.0004
  -1709534.89047  -1322061.88545  23409936.812    23409937.6464   23409942.4534
       160.0004        161.0004
  -7856301.54948  -6085536.48546  22994674.658    22994675.7784   22994682.4104
       167.0004        167.0004
  -8159786.81948  -6324956.70246  22952125.434    22952124.7954   22952131.9414
       172.0004        170.0004
 -13649164.86848 -10623197.35346  21768300.892    21768300.9784   21768306.5114
       185.0004        186.0004
 21  2  4  0 32  0.0000000  0  8G01G17G08G09G14G04G30G21
 -17217395.55448 -13395716.44247  21469883.913    21469884.3134   21469890.9934
       193.0004        194.0004
  -6791591.84448  -5267176.09246  23233383.196    23233383.9624   23233388.8904
       165.0004        165.0004
 -11436996.82649  -8883325.32547  22217683.553    22217683.4814   22217691.0174
       212.0004        211.0004
 -15511332.11449 -12054291.24847  21475049.087    21475049.7614   21475056.1624
       201.0004        202.0004
  -1735505.33347  -1342298.54745  23404994.410    23404994.5764   23405000.1564
       158.0004        158.0004
  -7759074.90448  -6009775.49246  23013176.193    23013177.6454   23013184.7924
       166.0004        168.0004
  -8247505.94248  -6393309.23246  22935432.139    22935432.2614   22935440.0984
       169.0004        170.0004
 -13638375.89848 -10614790.34446  21770353.941    21770353.8134   21770358.9224
       186.0004        186.0004
 21  2  4  0 32 30.0000000  0  8G01G17G08G09G14G04G30G21
 -17276260.24348 -13441585.04147  21458680.333    21458681.2484   21458689.2744
       191.0004        189.0004
  -6872905.68048  -5330537.46646  23217911.170    23217910.9284   23217915.4414
       165.0004        166.0004
 -11347285.75249  -8813420.59747  22234756.018    22234755.5794   22234762.3274
       211.0004        210.0004
 -15452983.41949 -12008824.73947  21486152.444    21486152.7604   21486159.3484
       201.0004        201.0004
  -1761465.55747  -1362527.26845  23400052.812    23400054.5434   23400060.7974
       156.0004        156.0004
  -7661770.54648  -5933953.95346  23031694.101    23031694.2044   23031700.8234
       167.0004        168.0004
  -8335187.42148  -6461632.45146  22918746.696    22918746.2254   22918754.5154
       169.0004        169.0004
 -13627096.43648 -10606001.14346  21772500.846    21772500.3724   21772505.2354
       186.0004        186.0004
 21  2  4  0 33  0.0000000  0  8G01G17G08G09G14G04G30G21
 -17334772.83048 -13487179.23046  21447544.102    21447545.1424   21447554.4454
       188.0004        186.0004
  -6953885.52147  -5393638.55546  23202500.228    23202500.7414   23202504.9884
       164.0004        165.0004
 -11257414.10349  -8743390.73147  22251857.153    22251856.4444   22251864.3044
       210.0004        209.0004
 -15394278.62849 -11963080.73247  21497322.626    21497323.2714   21497331.0584
       201.0004        202.0004
  -1787417.00447  -1382749.15345  23395115.687    23395116.0954   23395121.0384
       155.0004        157.0004
  -7564391.63548  -5858074.28146  23050223.806    23050225.2324   23050231.2124
       167.0004        167.0004
  -8422829.40048  -6529924.90746  22902068.740    22902069.0584   22902076.7494
       169.0004        170.0004
 -13615326.30248 -10596829.58646  21774740.522    21774740.4484   21774745.2024
       186.0004        186.0004
 21  2  4  0 33 30.0000000  0  8G01G17G08G09G14G04G30G21
 -17392930.85148 -13532497.14546  21436477.182    21436478.7844   21436487.1924
       186.0004        187.0004
  -7034529.99247  -5456478.35745  23187154.412    23187154.7814   23187156.9794
       162.0004        162.0004
 -11167385.34149  -8673238.44847  22268987.803    22268988.4144   22268996.3514
       210.0004        210.0004
 -15335221.28749 -11917062.03447  21508561.958    21508562.2004   21508569.2034
       202.0004        202.0004
  -1813361.62547  -1402965.73845  23390179.243    23390179.4504   23390184.8844
       155.0004        157.0004
  -7466941.88548  -5782139.41046  23068768.679    23068768.9344   23068775.4044
       166.0004        166.0004
  -8510430.36848  -6598185.40246  22885397.685    22885398.1484   22885408.0114
       170.0004        171.0004
 -13603065.52348 -10587275.71346  21777073.984    21777073.3204   21777078.8304
       186.0004        186.0004
 21  2  4  0 34  0.0000000  0  8G01G17G08G09G14G04G30G21
 -17450730.33248 -13577535.67447  21425480.021    21425481.4384   21425488.7714
       188.0004        189.0004
  -7114837.17247  -5519055.33445  23171871.653    23171871.5964   23171873.8874
       159.0004        159.0004
 -11077201.50149  -8602965.31147  22286149.144    22286150.2204   22286157.4904
       210.0004        209.0004
 -15275813.40649 -11870770.16547  21519866.384    21519866.7624   21519874.0664
       202.0004        202.0004
  -1839299.69547  -1423177.17545  23385242.887    23385243.5814   23385247.1004
       155.0004        157.0004
  -7369423.35348  -5706150.96546  23087325.902    23087326.1704   23087332.7844
       166.0004        166.0004
  -8597987.32748  -6666411.57346  22868736.941    22868737.7594   22868745.3114
       171.0004        172.0004
 -13590312.60248 -10577338.34146  21779500.649    21779500.6174   21779505.7134
       186.0004        186.0004
 21  2  4  0 34 30.0000000  0  8G01G17G08G09G14G04G30G21
 -17508167.74948 -13622292.06947  21414550.981    21414551.2314   21414558.3514
       190.0004        191.0004
  -7194804.67647  -5581367.62845  23156654.132    23156654.4704   23156656.2714
       156.0004        157.0004
 -10986864.97149  -8532573.19847  22303340.056    22303340.7924   22303347.7404
       209.0004        208.0004
 -15216057.25649 -11824206.93747  21531237.922    21531238.6634   21531245.3184
       202.0004        203.0004
  -1865231.93047  -1443384.10145  23380307.936    23380309.0184   23380313.1814
       153.0004        155.0004
  -7271838.44747  -5630110.81946  23105894.746    23105896.2284   23105901.9014
       164.0004        164.0004
  -8685497.52048  -6734601.30246  22852084.040    22852084.5924   22852092.9754
       170.0004        172.0004
 -13577066.92548 -10567017.00446  21782021.685    21782021.1114   21782025.9884
       186.0004        187.0004
 21  2  4  0 35  0.0000000  0  8G01G17G08G09G14G04G30G21
 -17565240.06548 -13666764.01447  21403690.594    21403691.2234   21403697.8254
       192.0004        193.0004
  -7274430.99247  -5643414.07345  23141501.080    23141502.7414   23141505.0144
       156.0004        160.0004
 -10896378.27549  -8462064.09747  22320559.122    22320559.2324   22320567.0664
       208.0004        208.0004
 -15155955.77549 -11777374.63247  21542675.480    21542675.3684   21542682.2064
       202.0004        202.0004
  -1891159.50147  -1463587.37045  23375373.554    23375373.9674   23375379.4144
       153.0004        156.0004
  -7174190.06447  -5554021.20946  23124476.606    23124477.7144   23124484.7414
       163.0004        164.0004
  -8772958.81148  -6802752.95946  22835442.136    22835442.6354   22835449.6514
       172.0004        173.0004
 -13563327.86248 -10556311.23746  21784635.856    21784635.4184   21784640.1454
       186.0004        187.0004
 21  2  4  0 35 30.0000000  0  8G01G17G08G09G14G04G30G21
 -17621943.28748 -13710948.32647  21392900.256    21392900.7634   21392907.8474
       192.0004        192.0004
  -7353713.65947  -5705192.70646  23126414.401    23126414.9374   23126420.3344
       158.0004        163.0004
 -10805743.45349  -8391439.54947  22337804.953    22337806.3074   22337814.3984
       207.0004        207.0004
 -15095510.81349 -11730274.67247  21554177.305    21554177.5204   21554184.6254
       202.0004        202.0004
  -1917082.58347  -1483787.11645  23370441.642    23370441.6974   23370446.4834
       155.0004        157.0004
  -7076480.19347  -5477883.64046  23143070.039    23143070.4604   23143077.9154
       162.0004        163.0004
  -8860368.05948  -6870864.05646  22818807.825    22818808.9114   22818815.8494
       171.0004        172.0004
 -13549094.08448 -10545219.95146  21787343.676    21787343.8454   21787349.1284
       186.0004        186.0004
 21  2  4  0 36  0.0000000  0  9G01G28G17G08G09G14G04G30G21
 -17678275.79848 -13754843.78547  21382180.076    21382180.5484   21382188.3514
       192.0004        192.0004
  -1029132.91156   -784203.74345  23682009.447                    23682015.7104
       108.0004        143.0004
  -7432652.55047  -5766703.46646  23111393.617    23111394.1754   23111399.4944
       163.0004        167.0004
 -10714964.97549  -8320703.06847  22355081.308    22355081.2824   22355088.2424
       207.0004        207.0004
 -15034726.74249 -11682910.47547  21565743.857    21565744.6244   21565751.3184
       202.0004        203.0004
  -1943003.88547  -1503985.48845  23365508.705    23365509.3294   23365514.5714
       156.0004        158.0004
  -6978713.23547  -5401701.61745  23161674.153    23161675.1034   23161682.8984
       161.0004        162.0004
  -8947724.44748  -6938933.97746  22802186.339    22802185.6844   22802192.7094
       174.0004        177.0004
 -13534367.16048 -10533744.40646  21790146.258    21790145.9414   21790151.2544
       186.0004        186.0004
 21  2  4  0 36 30.0000000  0  9G01G28G17G08G09G14G04G30G21
 -17734235.48148 -13798448.72647  21371531.420    21371531.7394   21371538.8614
       191.0004        191.0004
  -1044113.44446   -795876.85045  23679159.001    23679159.9754   23679164.4724
       134.0004        143.0004
  -7511246.92848  -5827945.76346  23096436.300    23096436.4624   23096444.4484
       166.0004        169.0004
 -10624046.89349  -8249857.79847  22372382.733    22372382.8574   22372389.7804
       207.0004        207.0004
 -14973607.26849 -11635284.91947  21577374.962    21577375.1124   21577382.4994
       203.0004        203.0004
  -1968925.37447  -1524184.02145  23360576.070    23360576.2994   23360580.6544
       158.0004        160.0004
  -6880892.92247  -5325478.03346  23180290.472    23180290.6604   23180297.0704
       162.0004        164.0004
  -9035026.67748  -7006961.66546  22785572.421    22785572.1574   22785579.3164
       176.0004        176.0004
 -13519146.98548 -10521884.51046  21793042.835    21793042.7424   21793048.2094
       187.0004        187.0004
 21  2  4  0 37  0.0000000  0  9G01G28G17G08G09G14G04G30G21
 -17789821.01948 -13841762.11947  21360953.293    21360953.3094   21360961.5974
       190.0004        189.0004
  -1059082.53447   -807541.03545  23676311.016    23676311.2914   23676316.7814
       138.0004        144.0004
  -7589496.92548  -5888919.71646  23081545.254    23081546.0104   23081554.3074
       168.0004        169.0004
 -10532993.23049  -8178906.88347  22389710.164    22389709.8764   22389716.6924
       207.0004        206.0004
 -14912157.05649 -11587401.63147  21589068.322    21589068.9924   21589075.7184
       203.0004        203.0004
  -1994849.95647  -1544384.93945  23355641.469    23355642.6734   23355648.3904
       158.0004        160.0004
  -6783023.91047  -5249216.49946  23198913.170    23198914.0544   23198920.8104
       162.0004        164.0004
  -9122274.18848  -7074946.74146  22768970.037    22768970.0344   22768976.7024
       177.0004        179.0004
 -13503435.46248 -10509641.74346  21796032.801    21796031.7614   21796037.0794
       186.0004        186.0004
 21  2  4  0 37 30.0000000  0  9G01G28G17G08G09G14G04G30G21
 -17845027.98548 -13884780.51247  21350447.141    21350447.2514   21350456.3574
       189.0004        189.0004
  -1074040.50747   -819196.58545  23673465.091    23673464.8374   23673470.7234
       141.0004        146.0004
  -7667399.84748  -5949623.24346  23066722.029    23066722.8024   23066729.8034
       170.0004        173.0004
 -10441805.58849  -8107851.58147  22407061.688    22407061.2734   22407069.3034
       206.0004        205.0004
 -14850377.54149 -11539261.73647  21600825.079    21600824.9904   21600831.7604
       202.0004        203.0004
  -2020777.41247  -1564588.14845  23350708.013    23350709.0474   23350714.7194
       158.0004        159.0004
  -6685107.69947  -5172918.19746  23217547.121    23217547.0674   23217554.1704
       163.0004        165.0004
  -9209463.41748  -7142886.38946  22752377.687    22752377.9234   22752385.0244
       177.0004        178.0004
 -13487230.71948 -10497014.64446  21799116.217    21799115.7164   21799121.0784
       186.0004        186.0004
 21  2  4  0 38  0.0000000  0  9G01G28G17G08G09G14G04G30G21
 -17899852.04048 -13927500.54347  21340014.183    21340014.9644   21340024.0344
       189.0004        190.0004
  -1088987.38947   -830843.47045  23670620.655    23670620.3314   23670625.6274
       142.0004        147.0004
  -7744953.27448  -6010054.41046  23051964.477    23051965.2874   23051971.8714
       172.0004        174.0004
 -10350485.14149  -8036692.79347  22424438.321    22424438.8054   22424447.3024
       205.0004        204.0004
 -14788270.37049 -11490866.49947  21612642.939    21612643.7074   21612650.0194
       202.0004        202.0004
  -2046707.54547  -1584793.40145  23345773.524    23345774.8354   23345779.1094
       157.0004        159.0004
  -6587145.86047  -5096584.31845  23236189.470    23236189.0884   23236195.3734
       162.0004        162.0004
  -9296590.71648  -7210777.78746  22735798.883    22735798.5514   22735806.5144
       179.0004        181.0004
 -13470531.15648 -10484001.98946  21802294.584    21802294.3384   21802299.1064
       186.0004        187.0004
 21  2  4  0 38 30.0000000  0  9G01G28G17G08G09G14G04G30G21
 -17954289.41348 -13969919.23247  21329655.346    21329655.8904   21329664.5514
       189.0004        190.0004
  -1103924.11347   -842482.43845  23667779.544    23667778.5354   23667782.2964
       144.0004        149.0004
  -7822154.71648  -6070211.29346  23037274.497    23037274.5164   23037279.9564
       173.0004        174.0004
 -10259034.12249  -7965432.25747  22441841.715    22441842.0314   22441849.7744
       205.0004        206.0004
 -14725837.61249 -11442217.56747  21624523.495    21624523.9914   21624531.5074
       202.0004        201.0004
  -2072640.68547  -1605001.01345  23340839.730    23340840.7434   23340844.7284
       159.0004        162.0004
  -6489140.43147  -5020216.43245  23254837.020    23254837.9194   23254844.5894
       160.0004        160.0004
  -9383653.05048  -7278618.53546  22719232.241    22719232.2604   22719238.2404
       181.0004        183.0004
 -13453335.62048 -10470602.84646  21805566.283    21805565.7204   21805571.2174
       186.0004        186.0004
 21  2  4  0 39  0.0000000  0  9G01G28G17G08G09G14G04G30G21
 -18008335.93448 -14012033.38647  21319370.749    21319371.6824   21319379.6324
       190.0004        191.0004
  -1118851.00047   -854113.71445  23664938.700    23664938.1624   23664942.5874
       147.0004        151.0004
  -7899001.38648  -6130091.74146  23022649.662    23022649.3874   23022656.6824
       172.0004        172.0004
 -10167454.23949  -7894071.29247  22459267.803    22459268.9444   22459277.0064
       206.0004        206.0004
 -14663081.09249 -11393316.36847  21636465.522    21636466.0104   21636473.0434
       201.0004        200.0004
  -2098576.79647  -1625210.94445  23335903.034    23335903.4704   23335909.1194
       160.0004        162.0004
  -6391093.15547  -4943815.96845  23273495.721    23273495.2794   23273502.9994
       160.0004        162.0004
  -9470646.96848  -7346405.99046  22702677.555    22702676.6274   22702683.4884
       180.0004        180.0004
 -13435642.80448 -10456816.22246  21808933.261    21808933.1474   21808937.3654
       186.0004        185.0004
 21  2  4  0 39 30.0000000  0  9G01G28G17G08G09G14G04G30G21
 -18061988.91448 -14053840.88047  21309162.194    21309162.4064   21309169.2144
       191.0004        192.0004
  -1133769.96447   -865738.83645  23662098.654    23662098.3474   23662104.6474
       149.0004        152.0004
  -7975492.16248  -6189694.87446  23008093.269    23008094.5324   23008099.7904
       171.0004        172.0004
 -10075748.31749  -7822612.12847  22476718.823    22476719.4004   22476728.0534
       205.0004        204.0004
 -14600004.01649 -11344165.39947  21648468.722    21648468.8404   21648476.1354
       200.0004        199.0004
  -2124517.28047  -1645424.28246  23330968.582    23330968.5774   23330972.9134
       161.0004        163.0004
  -6293007.17147  -4867385.36046  23292161.243    23292161.0774   23292167.6264
       161.0004        164.0004
  -9557570.45448  -7414138.56646  22686136.768    22686136.0704   22686142.3044
       179.0004        178.0004
 -13417452.67748 -10442642.08646  21812394.334    21812393.9944   21812398.3294
       185.0004        184.0004
 21  2  4  0 40  0.0000000  0  9G01G28G17G08G09G14G04G30G21
 -18115246.23948 -14095340.07447  21299026.876    21299027.4574   21299035.1464
       192.0004        193.0004
  -1148683.43147   -877359.67145  23659260.580    23659260.3394   23659265.1054
       148.0004        152.0004
  -8051626.84648  -6249020.55446  22993606.728    22993606.6824   22993612.3174
       171.0004        171.0004
  -9983920.29349  -7751057.84047  22494194.663    22494194.0414   22494202.1374
       204.0004        204.0004
 -14536610.09549 -11294767.55047  21660531.851    21660532.3054   21660539.8234
       199.0004        200.0004
  -2150464.11147  -1665642.57845  23326030.813    23326031.2284   23326035.1534
       161.0004        161.0004
  -6194886.17947  -4790927.47646  23310831.271    23310832.6754   23310840.0154
       162.0004        164.0004
  -9644422.11048  -7481815.16646  22669607.791    22669608.6474   22669614.7354
       177.0004        177.0004
 -13398766.01348 -10428081.01946  21815950.705    21815950.2874   21815955.7234
       185.0004        185.0004
 21  2  4  0 40 30.0000000  0  9G01G28G17G08G09G14G04G30G21
 -18168104.50148 -14136528.30847  21288968.312    21288968.8444   21288976.7764
       192.0004        194.0004
  -1163592.48347   -888977.07345  23656423.791    23656424.3894   23656428.5954
       149.0004        153.0004
  -8127403.51748  -6308067.25046  22979186.073    22979186.8824   22979191.9064
       171.0004        172.0004
  -9891971.89849  -7679409.73647  22511691.033    22511691.2354   22511698.7034
       204.0004        203.0004
 -14472901.82049 -11245124.74947  21672654.834    21672655.5944   21672662.5704
       199.0004        198.0004
  -2176417.94047  -1685866.29445  23321091.295    23321091.7284   23321096.5274
       158.0004        158.0004
  -6096732.57247  -4714444.17845  23329510.004    23329511.3484   23329517.9704
       161.0004        162.0004
  -9731199.06748  -7549433.58646  22653095.443    22653095.6394   22653101.6464
       179.0004        181.0004
 -13379582.26748 -10413132.64146  21819600.448    21819600.2084   21819606.0704
       185.0004        185.0004
 21  2  4  0 41  0.0000000  0  9G01G28G17G08G09G14G04G30G21
 -18220561.33448 -14177403.75947  21278986.181    21278987.1314   21278994.8534
       194.0004        194.0004
  -1178499.50547   -900592.90245  23653587.506    23653586.9984   23653591.2524
       151.0004        154.0004
  -8202821.18148  -6366834.22046  22964835.155    22964835.3954   22964839.4604
       171.0004        172.0004
  -9799906.83049  -7607670.72447  22529209.486    22529210.0534   22529218.3394
       202.0004        201.0004
 -14408882.75549 -11195239.77247  21684837.935    21684837.7444   21684845.8024
       198.0004        199.0004
  -2202380.48147  -1706096.81145  23316150.112    23316150.7294   23316157.3024
       157.0004        159.0004
  -5998549.75747  -4637938.13345  23348194.262    23348195.0794   23348200.6864
       161.0004        160.0004
  -9817899.71648  -7616992.50046  22636596.315    22636596.7154   22636603.7954
       180.0004        182.0004
 -13359902.16748 -10397797.48546  21823346.070    21823345.2764   21823350.9454
       185.0004        185.0004
 21  2  4  0 41 30.0000000  0  9G01G28G17G08G09G14G04G30G21
 -18272613.49048 -14217963.87547  21269081.724    21269082.5074   21269089.5054
       194.0004        195.0004
  -1193405.37047   -912207.81445  23650749.369    23650749.4624   23650755.4414
       151.0004        154.0004
  -8277878.22348  -6425320.18546  22950551.053    22950551.4954   22950555.5564
       169.0004        168.0004
  -9707727.60549  -7535842.76247  22546750.819    22546751.0904   22546759.9104
       202.0004        202.0004
 -14344555.45149 -11145114.62347  21697078.728    21697079.0254   21697086.4094
       198.0004        198.0004
  -2228352.44347  -1726334.69345  23311207.934    23311208.9014   23311214.3854
       156.0004        158.0004
  -5900340.22247  -4561411.24845  23366884.476    23366884.5114   23366889.6834
       160.0004        162.0004
  -9904521.33248  -7684489.85046  22620113.479    22620112.8534   22620119.6234
       181.0004        181.0004
 -13339724.57248 -10382074.67746  21827185.243    21827185.0554   21827190.7154
       185.0004        185.0004
 21  2  4  0 42  0.0000000  0  9G01G28G17G08G09G14G04G30G21
 -18324258.82048 -14258206.98647  21259253.300    21259254.0444   21259261.3994
       194.0004        195.0004
  -1208312.43247   -923823.66345  23647913.794    23647913.0924   23647917.7304
       152.0004        155.0004
  -8352573.78948  -6483524.46946  22936337.515    22936338.1164   22936341.6864
       168.0004        169.0004
  -9615437.49649  -7463928.36847  22564313.377    22564313.5094   22564322.4174
       203.0004        203.0004
 -14279923.69349 -11094752.21647  21709377.964    21709378.2904   21709385.8044
       198.0004        199.0004
  -2254335.74547  -1746581.41145  23306263.066    23306263.0424   23306269.5104
       156.0004        159.0004
  -5802107.64347  -4484866.39445  23385576.656    23385577.4974   23385583.1324
       160.0004        161.0004
  -9991062.39548  -7751924.41646  22603645.693    22603644.7124   22603651.5114
       181.0004        181.0004
 -13319050.57248 -10365965.05446  21831119.010    21831119.1804   21831124.6924
       185.0004        185.0004
 21  2  4  0 42 30.0000000  0  9G01G28G17G08G09G14G04G30G21
 -18375493.88048 -14298130.39047  21249503.683    21249504.1224   21249511.9904
       194.0004        194.0004
  -1223221.18847   -935440.83845  23645077.473    23645076.5104   23645080.5604
       153.0004        155.0004
  -8426906.01148  -6541445.61146  22922192.552    22922193.0654   22922197.8134
       170.0004        171.0004
  -9523038.99949  -7391929.53847  22581895.347    22581896.3724   22581905.4344
       203.0004        203.0004
 -14214989.95349 -11044154.50047  21721734.795    21721735.1024   21721742.5664
       199.0004        199.0004
  -2280330.95047  -1766837.39245  23301316.550    23301317.6214   23301323.1464
       156.0004        158.0004
  -5703854.29347  -4408305.34145  23404273.685    23404274.2944   23404280.6814
       159.0004        160.0004
 -10077520.08348  -7819294.02346  22587192.880    22587192.5954   22587199.2724
       180.0004        181.0004
 -13297879.61548 -10349468.18346  21835148.447    21835147.7884   21835152.9344
       185.0004        185.0004
 21  2  4  0 43  0.0000000  0  9G01G28G17G08G09G14G04G30G21
 -18426315.30848 -14337731.48747  21239832.370    21239832.6794   21239840.6714
       194.0004        194.0004
  -1238133.22947   -947060.54345  23642238.273    23642238.4274   23642243.5724
       151.0004        153.0004
  -8500873.72748  -6599082.75146  22908116.292    22908116.7894   22908122.0944
       171.0004        171.0004
  -9430533.91749  -7319847.64747  22599498.228    22599499.4414   22599508.3314
       202.0004        202.0004
 -14149756.70149 -10993323.39947  21734148.525    21734148.4534   21734155.7794
       199.0004        199.0004
  -2306338.63147  -1787103.08245  23296368.035    23296368.6604   23296372.7954
       157.0004        160.0004
  -5605582.46047  -4331729.88745  23422973.200    23422973.9344   23422979.5274
       159.0004        161.0004
 -10163891.49648  -7886596.40346  22570756.084    22570756.1034   22570763.6114
       181.0004        181.0004
 -13276210.96848 -10332583.50246  21839272.633    21839271.4854   21839276.2914
       185.0004        185.0004
 21  2  4  0 43 30.0000000  0  9G01G28G17G08G09G14G04G30G21
 -18476720.06448 -14377007.89447  21230240.793    21230241.4704   21230249.1024
       194.0004        194.0004
  -1253049.51247   -958683.55945  23639400.880    23639400.4044   23639405.7344
       153.0004        156.0004
  -8574474.97548  -6656434.33746  22894111.296    22894111.8514   22894115.9064
       171.0004        172.0004
  -9337925.12849  -7247684.97047  22617122.861    22617122.6544   22617131.0154
       201.0004        200.0004
 -14084226.64249 -10942261.03047  21746617.919    21746618.6124   21746625.5754
       198.0004        198.0004
  -2332359.71547  -1807379.25045  23291416.768    23291416.5604   23291420.1114
       158.0004        160.0004
  -5507294.86647  -4255142.19345  23441677.359    23441678.2354   23441683.2804
       157.0004        158.0004
 -10250174.16648  -7953829.63546  22554337.327    22554337.5094   22554344.6304
       180.0004        179.0004
 -13254044.70148 -10315311.06846  21843490.505    21843489.3274   21843494.8004
       185.0004        185.0004
 21  2  4  0 44  0.0000000  0  9G01G28G17G08G09G14G04G30G21
 -18526706.51848 -14415958.35547  21220728.848    21220729.1894   21220737.2634
       194.0004        194.0004
  -1267973.18447   -970312.36045  23636560.664    23636560.0194   23636565.1534
       152.0004        153.0004
  -8647709.54248  -6713500.19346  22880174.954    22880175.6284   22880179.9964
       171.0004        172.0004
  -9245216.63549  -7175444.58947  22634764.990    22634764.6224   22634773.1064
       200.0004        200.0004
 -14018404.08349 -10890970.74547  21759143.291    21759143.6214   21759150.8274
       198.0004        197.0004
  -2358396.59247  -1827667.70845  23286460.972    23286460.9664   23286467.7364
       159.0004        162.0004
  -5408995.59947  -4178545.39745  23460382.830    23460383.0314   23460389.0594
       157.0004        159.0004
 -10336366.98448  -8020992.86546  22537935.475    22537935.8454   22537943.0684
       179.0004        180.0004
 -13231381.75848 -10297651.62446  21847801.622    21847801.8744   21847807.7184
       185.0004        185.0004
 21  2  4  0 44 30.0000000  0  9G01G28G17G08G09G14G04G30G21
 -18576271.38748 -14454580.30447  21211296.869    21211297.5554   21211304.7514
       193.0004        193.0004
  -1282905.36647   -981947.77845  23633717.589    23633717.8874   23633724.1464
       149.0004        152.0004
  -8720575.99848  -6770279.17746  22866308.462    22866308.6924   22866314.3534
       172.0004        174.0004
  -9152410.90549  -7103128.42147  22652423.091    22652424.3414   22652433.5784
       200.0004        201.0004
 -13952291.57649 -10839454.50947  21771723.800    21771724.4324   21771732.1444
       197.0004        198.0004
  -2384449.81747  -1847968.89245  23281504.240    23281504.4954   23281509.9514
       161.0004        162.0004
  -5310686.91847  -4101941.27345  23479090.668    23479090.6124   23479096.7504
       156.0004        156.0004
 -10422467.12948  -8088083.87446  22521550.666    22521550.7374   22521558.5244
       178.0004        178.0004
 -13208221.94948 -10279604.99946  21852209.050    21852208.9934   21852214.1274
       185.0004        185.0004
 21  2  4  0 45  0.0000000  0  9G01G28G17G08G09G14G04G30G21
 -18625411.25148 -14492871.08947  21201944.224    21201945.6544   21201953.4944
       192.0004        192.0004
  -1297847.09647   -993590.67045  23630875.507    23630875.1304   23630880.1694
       149.0004        151.0004
  -8793072.63348  -6826770.03146  22852511.902    22852512.6864   22852519.5454
       172.0004        173.0004
  -9059509.51649  -7030737.73547  22670103.157    22670102.6324   22670111.1464
       200.0004        200.0004
 -13885891.51049 -10787714.20947  21784360.059    21784360.3814   21784367.7194
       197.0004        198.0004
  -2410519.89847  -1868283.21146  23276541.547    23276542.3664   23276549.0634
       161.0004        163.0004
  -5212371.06147  -4025331.56345  23497799.837    23497800.1714   23497804.4824
       154.0004        155.0004
 -10508471.62948  -8155100.35946  22505184.970    22505184.7984   22505191.8954
       178.0004        179.0004
 -13184564.86548 -10261170.89646  21856711.119    21856710.8604   21856716.0634
       184.0004        184.0004
 21  2  4  0 45 30.0000000  0  9G01G28G17G08G09G14G04G30G21
 -18674122.94848 -14530828.24647  21192676.386    21192676.7014   21192684.2144
       193.0004        194.0004
  -1312799.40347  -1005241.77945  23628029.749    23628029.8554   23628035.4444
       150.0004        154.0004
  -8865197.93348  -6882971.52446  22838788.353    22838788.5294   22838793.8194
       172.0004        173.0004
  -8966514.74749  -6958274.28447  22687798.093    22687798.7664   22687807.7234
       199.0004        199.0004
 -13819206.57649 -10735751.93247  21797049.512    21797050.3604   21797056.9404
       197.0004        197.0004
  -2436607.50847  -1888611.19745  23271577.492    23271578.8614   23271583.0024
       160.0004        160.0004
  -5114050.52947  -3948718.16345  23516509.280    23516509.4934   23516515.3794
       153.0004        154.0004
 -10594377.77848  -8222040.21946  22488838.230    22488838.1104   22488844.4424
       179.0004        180.0004
 -13160410.22048 -10242349.08246  21861307.612    21861307.5504   21861312.9094
       184.0004        184.0004
 21  2  4  0 46  0.0000000  0  9G01G28G17G08G09G14G04G30G21
 -18722404.06548 -14568449.87247  21183488.534    21183488.9314   21183496.9734
       194.0004        194.0004
  -1327764.08947  -1016902.56645  23625181.693    23625182.2304   23625185.0784
       150.0004        153.0004
  -8936950.82748  -6938882.80146  22825134.209    22825135.2604   22825140.1994
       174.0004        177.0004
  -8873430.24849  -6885740.91947  22705512.144    22705512.3964   22705521.5234
       198.0004        197.0004
 -13752240.17349 -10683570.30647  21809793.645    21809793.7984   21809799.9694
       197.0004        197.0004
  -2462714.10947  -1908953.99745  23266611.474    23266611.0474   23266615.6904
       160.0004        162.0004
  -5015728.43247  -3872103.57445  23535219.679    23535219.7634   23535225.5344
       153.0004        154.0004
 -10680183.55348  -8288901.84146  22472509.750    22472509.1224   22472516.5444
       180.0004        181.0004
 -13135758.36748 -10223139.82646  21865999.287    21865999.0434   21866003.6554
       185.0004        185.0004
 21  2  4  0 46 30.0000000  0  9G01G28G17G08G09G14G04G30G21
 -18770250.91148 -14605733.10947  21174383.054    21174384.0814   21174391.9544
       194.0004        194.0004
  -1342741.76347  -1028573.44645  23622332.759    23622333.0404   23622337.2644
       150.0004        152.0004
  -9008329.53348  -6994502.53046  22811551.140    22811550.9874   22811557.4724
       176.0004        176.0004
  -8780257.45349  -6813138.74847  22723242.962    22723243.0554   22723252.2914
       198.0004        199.0004
 -13684994.37249 -10631170.99447  21822590.402    21822590.3734   21822596.6024
       197.0004        197.0004
  -2488839.88847  -1929311.73746  23261639.227    23261639.6994   23261644.2004
       162.0004        165.0004
  -4917406.64547  -3795489.22445  23553929.481    23553930.6054   23553937.1324
       153.0004        157.0004
 -10765885.72748  -8355682.73846  22456200.424    22456200.5994   22456208.3804
       179.0004        179.0004
 -13110608.72448 -10203542.68546  21870785.324    21870785.1764   21870789.5754
       185.0004        185.0004
 21  2  4  0 47  0.0000000  0  9G01G28G17G08G09G14G04G30G21
 -18817662.23349 -14642676.96947  21165361.018    21165362.0804   21165370.1274
       195.0004        195.0004
  -1357735.28247  -1040256.66645  23619479.273    23619478.9864   23619484.3034
       149.0004        152.0004
  -9079334.17448  -7049830.78746  22798038.829    22798039.3024   22798045.2764
       174.0004        175.0004
  -8687000.47749  -6740470.97247  22740989.026    22740989.0174   22740998.8084
       199.0004        199.0004
 -13617473.75549 -10578557.51847  21835438.585    21835438.5954   21835446.4044
       197.0004        197.0004
  -2514987.37147  -1949686.38046  23256663.672    23256663.9064   23256668.7834
       164.0004        166.0004
  -4819089.55447  -3718878.55545  23572638.167    23572638.6404   23572645.2614
       154.0004        157.0004
 -10851483.38848  -8422382.20446  22439912.148    22439912.0784   22439919.4684
       179.0004        180.0004
 -13084962.84248 -10183558.86746  21875664.852    21875664.5914   21875669.5514
       185.0004        185.0004
 21  2  4  0 47 30.0000000  0  9G01G28G17G08G09G14G04G30G21
 -18864634.01049 -14679278.32947  21156423.709    21156423.7724   21156431.3714
       195.0004        196.0004
  -1372745.22947  -1051952.72145  23616622.217    23616622.2524   23616627.6654
       151.0004        155.0004
  -9149962.39348  -7104865.69946  22784600.241    22784599.7864   22784604.1784
       174.0004        174.0004
  -8593660.83649  -6667738.78247  22758749.791    22758750.4364   22758759.9884
       198.0004        198.0004
 -13549680.07249 -10525731.25847  21848338.450    21848338.8004   21848346.6804
       196.0004        195.0004
  -2541156.40248  -1970077.78746  23251683.207    23251684.8424   23251689.1374
       165.0004        166.0004
  -4720778.54147  -3642272.59845  23591345.121    23591345.6254   23591353.4314
       154.0004        154.0004
 -10936972.86248  -8488997.36646  22423643.070    22423643.6014   22423650.1704
       179.0004        179.0004
 -13058819.58548 -10163187.47346  21880640.308    21880639.7354   21880643.9194
       184.0004        185.0004
 21  2  4  0 48  0.0000000  0  9G01G28G17G08G09G14G04G30G21
 -18911163.47449 -14715535.05247  21147568.478    21147569.5124   21147577.0724
       196.0004        197.0004
  -1387772.75947  -1063662.44345  23613762.770    23613762.6954   23613767.6254
       152.0004        154.0004
  -9220213.03148  -7159606.40946  22771229.409    22771231.3534   22771235.7454
       172.0004        172.0004
  -8500241.01849  -6594944.12047  22776527.257    22776527.4324   22776536.7014
       197.0004        196.0004
 -13481616.30348 -10472694.58147  21861290.722    21861290.9234   21861298.6584
       194.0004        194.0004
  -2567347.92648  -1990486.73546  23246699.442    23246700.6504   23246705.2364
       166.0004        167.0004
  -4622476.45547  -3565673.63945  23610052.045    23610052.6154   23610059.1204
       151.0004        153.0004
 -11022351.69148  -8555526.31746  22407396.546    22407396.3944   22407403.9124
       179.0004        181.0004
 -13032179.32748 -10142428.83046  21885709.274    21885708.8374   21885713.7664
       184.0004        184.0004
 21  2  4  0 48 30.0000000  0  9G01G28G17G08G09G14G04G30G21
 -18957248.57049 -14751445.49147  21138798.366    21138799.4584   21138807.1924
       196.0004        196.0004
  -1402820.21247  -1075387.68845  23610900.447    23610899.6614   23610904.2924
       153.0004        156.0004
  -9290085.65248  -7214052.55946  22757935.186    22757934.7514   22757940.1174
       173.0004        175.0004
  -8406744.57849  -6522089.75047  22794318.936    22794319.3954   22794328.9034
       195.0004        194.0004
 -13413286.20548 -10419450.34347  21874291.764    21874292.8884   21874302.4544
       193.0004        194.0004
  -2593563.65348  -2010914.56046  23241711.521    23241712.1484   23241716.9064
       166.0004        168.0004
  -4524186.65147  -3489084.21145  23628756.241    23628756.4614   23628763.2984
       151.0004        154.0004
 -11107618.18448  -8621967.72346  22391171.480    22391171.0454   22391177.6724
       180.0004        180.0004
 -13005042.71248 -10121283.38346  21890872.684    21890873.2944   21890878.1264
       184.0004        184.0004
 21  2  4  0 49  0.0000000  0  9G01G28G17G08G09G14G04G30G21
 -19002887.89849 -14787008.59347  21130114.334    21130115.0454   21130122.5184
       196.0004        197.0004
  -1417890.13047  -1087130.44745  23608032.445    23608032.2484   23608036.9334
       154.0004        157.0004
  -9359580.28148  -7268204.18946  22744710.623    22744710.4274   22744716.1144
       174.0004        175.0004
  -8313175.46948  -6449178.76947  22812124.808    22812125.0474   22812134.0554
       194.0004        193.0004
 -13344694.09148 -10366001.96547  21887345.198    21887345.6994   21887354.0994
       192.0004        192.0004
  -2619805.91148  -2031363.05846  23236717.378    23236717.9604   23236723.1274
       167.0004        168.0004
  -4425913.17247  -3412507.52145  23647458.819    23647458.4494   23647464.4694
       153.0004        156.0004
 -11192771.17348  -8688320.70946  22374967.197    22374966.7314   22374973.9994
       180.0004        181.0004
 -12977411.49448 -10099752.55646  21896131.063    21896131.3094   21896136.2244
       184.0004        184.0004
 21  2  4  0 49 30.0000000  0  9G01G28G17G08G09G14G04G30G21
 -19048077.85549 -14822221.53647  21121515.311    21121515.9134   21121523.3484
       197.0004        198.0004
  -1432983.19947  -1098891.25645  23605159.289    23605159.8974   23605165.1944
       154.0004        157.0004
  -9428695.07848  -7322059.83046  22731557.995    22731558.7764   22731563.5794
       174.0004        174.0004
  -8219535.02248  -6376212.19347  22829945.665    22829945.5414   22829952.7484
       194.0004        195.0004
 -13275842.05948 -10312351.04547  21900446.019    21900446.9694   21900455.6404
       191.0004        190.0004
  -2646074.80848  -2051832.30046  23231718.553    23231719.1644   23231723.0694
       168.0004        169.0004
  -4327657.88547  -3335944.99445  23666154.358    23666155.4824   23666162.1824
       153.0004        155.0004
 -11277807.32448  -8754582.65146  22358785.288    22358785.6184   22358792.0304
       182.0004        184.0004
 -12949285.06748 -10077835.84746  21901483.409    21901483.1254   21901488.1914
       184.0004        184.0004
 21  2  4  0 50  0.0000000  0  9G01G28G17G08G09G14G04G30G21
 -19092814.48449 -14857081.22647  21113001.461    21113002.3184   21113009.8484
       197.0004        197.0004
  -1448099.66147  -1110670.28945  23602283.114    23602283.5344   23602288.0424
       154.0004        156.0004
  -9497427.74648  -7375617.70746  22718479.159    22718478.9664   22718485.0194
       173.0004        173.0004
  -8125824.76549  -6303191.19747  22847777.638    22847777.6084   22847785.4884
       195.0004        195.0004
 -13206731.96648 -10258499.04047  21913598.837    21913599.4124   21913608.0094
       191.0004        193.0004
  -2672370.06548  -2072322.09446  23226714.819    23226715.5914   23226719.6024
       167.0004        167.0004
  -4229422.24347  -3259397.75745  23684848.151    23684849.2924   23684856.0984
       153.0004        156.0004
 -11362722.95948  -8820750.67946  22342627.295    22342626.8314   22342632.7464
       184.0004        185.0004
 -12920662.31248 -10055532.38646  21906930.256    21906929.7054   21906934.3814
       184.0004        184.0004
 21  2  4  0 50 30.0000000  0  9G01G28G17G08G09G14G04G30G21
 -19137094.01349 -14891584.74447  21104575.447    21104576.0064   21104583.7104
       197.0004        198.0004
  -1463239.94547  -1122467.87345  23599402.524    23599402.6984   23599406.4794
       154.0004        156.0004
  -9565776.00748  -7428876.07846  22705472.456    22705472.8764   22705477.5094
       172.0004        171.0004
  -8032046.43949  -6230117.18447  22865622.425    22865622.5854   22865631.7774
       195.0004        195.0004
 -13137365.67848 -10204447.38547  21926800.510    21926800.9584   21926807.5924
       193.0004        195.0004
  -2698691.56847  -2092832.34646  23221704.908    23221705.9154   23221710.6114
       164.0004        164.0004
  -4131207.86947  -3182867.10745  23703537.139    23703538.6764   23703545.9814
       154.0004        157.0004
 -11447514.47448  -8886821.98946  22326491.239    22326491.3724   22326496.9064
       184.0004        185.0004
 -12891542.39748 -10032841.52946  21912471.468    21912471.5574   21912475.7504
       183.0004        183.0004
 21  2  4  0 51  0.0000000  0  9G01G28G17G08G09G14G04G30G21
 -19180913.78749 -14925730.00847  21096236.862    21096237.3854   21096245.2744
       197.0004        197.0004
  -1478405.18747  -1134284.90845  23596517.175    23596516.5584   23596520.7214
       153.0004        155.0004
  -9633738.94948  -7481834.16446  22692538.405    22692539.2054   22692544.3504
       171.0004        173.0004
  -7938202.20148  -6156991.82147  22883479.509    22883479.9694   22883489.4114
       193.0004        192.0004
 -13067746.29549 -10150198.50747  21940049.365    21940049.4224   21940055.5324
       195.0004        197.0004
  -2725040.29647  -2113363.81246  23216691.871    23216692.0194   23216697.0594
       162.0004        164.0004
  -4033017.41547  -3106355.10945  23722222.694    23722222.4984   23722231.9014
       155.0004        157.0004
 -11532179.39948  -8952794.65246  22310380.068    22310379.9484   22310386.6674
       185.0004        186.0004
 -12861925.85048 -10009763.68246  21918108.204    21918107.2734   21918111.7974
       183.0004        183.0004
 21  2  4  0 51 30.0000000  0  9G01G28G17G08G09G14G04G30G21
 -19224271.50249 -14959515.22347  21087985.417    21087986.8024   21087994.3434
       197.0004        197.0004
  -1493597.31547  -1146122.89745  23593624.435    23593625.1764   23593629.5564
       153.0004        155.0004
  -9701315.82148  -7534491.43446  22679679.345    22679680.0754   22679684.5854
       172.0004        171.0004
  -7844295.10748  -6083817.47747  22901350.656    22901350.7224   22901358.9194
       192.0004        192.0004
 -12997877.15049 -10095755.01447  21953344.439    21953345.3894   21953350.4344
       196.0004        196.0004
  -2751417.57647  -2133917.50646  23211672.889    23211673.2194   23211677.0684
       164.0004        166.0004
  -3934853.95047  -3029864.16045  23740902.775    23740903.1374   23740911.1334
       155.0004        157.0004
 -11616715.61948  -9018667.00046  22294293.554    22294293.3214   22294299.9634
       185.0004        186.0004
 -12831813.32648  -9986299.36246  21923837.972    21923837.2404   21923842.6004
       184.0004        185.0004
 21  2  4  0 52  0.0000000  0  9G01G28G17G08G09G14G04G30G21
 -19267166.26449 -14992939.71047  21079823.457    21079824.0914   21079831.8784
       197.0004        197.0004
  -1508819.38047  -1157984.22645  23590729.266    23590728.8094   23590732.5724
       153.0004        156.0004
  -9768507.18448  -7586848.30346  22666893.297    22666893.8014   22666898.9574
       172.0004        174.0004
  -7750329.70248  -6010597.69447  22919231.601    22919231.3204   22919240.4434
       192.0004        192.0004
 -12927763.07849 -10041120.67747  21966687.490    21966687.4914   21966693.8114
       198.0004        199.0004
  -2777826.12348  -2154495.55846  23206646.169    23206646.9904   23206651.7614
       165.0004        166.0004
  -3836721.89047  -2953397.68145  23759575.852    23759576.7654   23759584.9704
       155.0004        156.0004
 -11701122.42648  -9084438.51846  22278231.432    22278231.0434   22278237.0264
       185.0004        186.0004
 -12801206.90548  -9962450.19946  21929661.408    21929661.3354   21929666.3334
       184.0004        184.0004
 21  2  4  0 52 30.0000000  0  9G01G28G17G08G09G14G04G30G21
 -19309593.95849 -15026000.23447  21071749.533    21071750.2714   21071758.2684
       197.0004        197.0004
  -1524071.78547  -1169869.20145  23587826.210    23587826.2294   23587830.4074
       153.0004        155.0004
  -9835310.77148  -7638902.99246  22654179.973    22654181.2834   22654186.3024
       173.0004        174.0004
  -7656307.18048  -5937333.38447  22937122.990    22937122.5954   22937131.9954
       192.0004        192.0004
 -12857405.58749  -9986296.65547  21980075.087    21980075.1064   21980081.9774
       197.0004        196.0004
  -2804265.31947  -2175097.49346  23201613.903    23201614.6064   23201621.0694
       164.0004        163.0004
  -3738622.43447  -2876956.60245  23778243.282    23778244.3614   23778251.3754
       154.0004        155.0004
 -11785395.80048  -9150106.08646  22262194.569    22262194.8004   22262201.4304
       186.0004        187.0004
 -12770105.68548  -9938215.45646  21935579.215    21935579.3224   21935584.8544
       183.0004        183.0004
 21  2  4  0 53  0.0000000  0  9G01G28G17G08G09G14G04G30G21
 -19351552.53849 -15058695.21247  21063764.068    21063765.6014   21063773.6234
       196.0004        196.0004
  -1539355.84947  -1181778.83045  23584917.853    23584917.5984   23584921.8674
       152.0004        154.0004
  -9901725.99648  -7690655.08646  22641543.556    22641542.8974   22641547.8164
       174.0004        175.0004
  -7562229.95148  -5864026.45847  22955026.289    22955025.9284   22955034.8044
       193.0004        193.0004
 -12786808.26149  -9931285.75347  21993508.021    21993509.0684   21993516.2844
       195.0004        195.0004
  -2830736.73247  -2195724.55046  23196578.769    23196578.1454   23196583.7064
       162.0004        163.0004
  -3640558.68147  -2800543.32645  23796905.207    23796905.8164   23796912.5294
       154.0004        156.0004
 -11869533.79948  -9215668.15046  22246183.532    22246182.9094   22246189.9344
       186.0004        187.0004
 -12738510.46348  -9913595.79746  21941592.086    21941592.1234   21941597.5914
       183.0004        184.0004
 21  2  4  0 53 30.0000000  0  9G01G28G17G08G09G14G04G30G21
 -19393041.48349 -15091024.25947  21055870.186    21055870.8864   21055878.2084
       196.0004        196.0004
  -1554675.03847  -1193715.88245  23582002.066    23582002.1034   23582005.6814
       150.0004        151.0004
  -9967753.86548  -7742105.32146  22628978.550    22628978.3824   22628982.8244
       175.0004        176.0004
  -7468102.90048  -5790680.71947  22972937.399    22972937.3294   22972946.7254
       192.0004        192.0004
 -12715976.24548  -9876091.99447  22006986.499    22006987.1184   22006995.4244
       194.0004        194.0004
  -2857243.39747  -2216379.10345  23191534.450    23191534.4314   23191538.5684
       162.0004        162.0004
  -3542535.45847  -2724161.63845  23815559.038    23815559.5814   23815566.1444
       154.0004        157.0004
 -11953535.99748  -9281124.39647  22230199.254    22230198.1334   22230205.5414
       188.0004        190.0004
 -12706423.61448  -9888593.03446  21947698.140    21947697.8774   21947702.5274
       183.0004        183.0004
 21  2  4  0 54  0.0000000  0  9G01G28G17G08G09G14G04G30G21
 -19434056.82049 -15122984.24347  21048064.754    21048065.5804   21048072.9324
       195.0004        195.0004
  -1570029.97147  -1205680.74845  23579080.405    23579079.1274   23579084.6654
       148.0004        150.0004
 -10033392.14548  -7793251.98346  22616488.336    22616488.3214   22616492.4514
       175.0004        177.0004
  -7373927.22448  -5717297.07547  22990859.765    22990858.8464   22990867.5274
       192.0004        192.0004
 -12644911.08948  -9820716.57147  22020510.586    22020510.8254   22020517.7604
       192.0004        191.0004
  -2883784.76547  -2237060.68346  23186483.629    23186483.4664   23186488.2984
       162.0004        164.0004
  -3444553.96947  -2647812.46345  23834205.932    23834205.1494   23834212.5754
       155.0004        157.0004
 -12037398.40948  -9346471.72747  22214240.095    22214240.1874   22214247.3534
       190.0004        191.0004
 -12673844.19548  -9863206.46346  21953899.013    21953897.8774   21953902.9204
       183.0004        183.0004
 21  2  4  0 54 30.0000000  0  9G01G28G17G08G09G14G04G30G21
 -19474596.61849 -15154573.68447  21040350.885    21040351.1854   21040358.7834
       195.0004        195.0004
  -1585422.14247  -1217674.62145  23576150.981    23576151.2654   23576155.5064
       147.0004        151.0004
 -10098640.35148  -7844094.70246  22604070.564    22604070.7914   22604076.1884
       175.0004        175.0004
  -7279706.03248  -5643877.98547  23008787.344    23008787.8324   23008797.4234
       191.0004        191.0004
 -12573616.53948  -9765162.37547  22034077.572    22034077.8804   22034085.1724
       191.0004        192.0004
  -2910362.41547  -2257770.52046  23181425.428    23181426.1104   23181431.6804
       164.0004        166.0004
  -3346617.51347  -2571498.41645  23852841.933    23852842.7424   23852848.8724
       155.0004        156.0004
 -12121119.20948  -9411708.71247  22198307.700    22198308.5494   22198315.8704
       190.0004        190.0004
 -12640773.25748  -9837436.89746  21960191.081    21960191.1924   21960196.3734
       183.0004        182.0004
 21  2  4  0 55  0.0000000  0  9G01G28G17G08G09G14G04G30G21
 -19514655.85349 -15185788.65947  21032727.557    21032727.8064   21032735.8704
       195.0004        195.0004
  -1600850.60747  -1229696.80045  23573215.571    23573216.3974   23573219.9624
       146.0004        149.0004
 -10163495.39048  -7894631.07646  22591729.279    22591729.6214   22591735.1434
       176.0004        177.0004
  -7185439.72848  -5570423.72547  23026728.345    23026727.5064   23026735.2694
       192.0004        193.0004
 -12502093.14248  -9709429.86047  22047687.215    22047688.1164   22047694.9874
       192.0004        192.0004
  -2936974.73848  -2278507.36146  23176362.888    23176363.4504   23176367.0484
       166.0004        168.0004
  -3248726.17047  -2495219.51945  23871469.902    23871469.9434   23871477.2214
       153.0004        154.0004
 -12204693.34948  -9476831.41747  22182404.888    22182404.9474   22182411.6524
       189.0004        188.0004
 -12607209.03648  -9811282.93746  21966577.427    21966577.6224   21966583.7084
       183.0004        183.0004
 21  2  4  0 55 30.0000000  0  9G01G28G17G08G09G14G04G30G21
 -19554233.44949 -15216628.34247  21025195.694    21025196.6094   21025204.5384
       195.0004        195.0004
  -1616318.18947  -1241749.44145  23570272.420    23570270.9934   23570276.1394
       143.0004        147.0004
 -10227957.77148  -7944861.47546  22579464.469    22579464.5374   22579467.3324
       177.0004        178.0004
  -7091131.65348  -5496936.91647  23044673.302    23044673.4604   23044681.2604
       192.0004        193.0004
 -12430345.34248  -9653522.50747  22061341.174    22061341.2784   22061348.6904
       191.0004        192.0004
  -2963624.12148  -2299273.05446  23171292.408    23171293.0654   23171296.3074
       169.0004        172.0004
  -3150883.97647  -2418978.88145  23890088.921    23890088.1154   23890095.5604
       152.0004        155.0004
 -12288119.75248  -9541839.02247  22166530.018    22166529.6814   22166536.1724
       188.0004        189.0004
 -12573153.44048  -9784746.09846  21973058.241    21973058.0864   21973063.4954
       183.0004        182.0004
 21  2  4  0 56  0.0000000  0  9G01G28G17G08G09G14G04G30G21
 -19593326.61049 -15247090.52647  21017757.050    21017757.4894   21017764.9954
       195.0004        195.0004
  -1631825.96647  -1253833.37545  23567322.541    23567320.6834   23567324.3764
       143.0004        147.0004
 -10292026.21048  -7994784.86246  22567271.116    22567271.4444   22567276.9034
       176.0004        177.0004
  -6996784.05848  -5423419.31447  23062628.059    23062627.4404   23062635.6904
       193.0004        194.0004
 -12358375.91648  -9597442.39847  22075036.780    22075036.9704   22075044.4844
       192.0004        192.0004
  -2990311.09348  -2320068.04746  23166212.313    23166212.5354   23166217.3554
       169.0004        168.0004
  -3053093.33947  -2342778.43245  23908697.715    23908698.5084   23908704.2744
       151.0004        154.0004
 -12371395.55548  -9606729.24946  22150682.523    22150681.7914   22150689.3494
       188.0004        186.0004
 -12538606.71348  -9757826.55346  21979631.792    21979631.9594   21979636.7474
       182.0004        181.0004
 21  2  4  0 56 30.0000000  0  9G01G28G17G08G09G14G04G30G21
 -19631931.80249 -15277172.48547  21010409.774    21010410.9404   21010418.8244
       195.0004        196.0004
  -1647374.25747  -1265948.91045  23564361.804    23564362.5104   23564366.8254
       146.0004        151.0004
 -10355698.41348  -8044399.53346  22555153.970    22555155.0604   22555160.2284
       178.0004        180.0004
  -6902398.44648  -5349872.08747  23080587.544    23080587.9554   23080596.3764
       192.0004        192.0004
 -12286186.81048  -9541191.11447  22088773.986    22088774.1294   22088781.6264
       192.0004        192.0004
  -3017035.46048  -2340892.23746  23161123.789    23161124.8674   23161132.2984
       165.0004        165.0004
  -2955355.74347  -2266619.37245  23927296.097    23927297.6814   23927303.0264
       150.0004        152.0004
 -12454517.17748  -9671499.33246  22134864.411    22134864.5774   22134872.0444
       186.0004        187.0004
 -12503568.58948  -9730524.11346  21986300.907    21986300.6814   21986303.8824
       182.0004        182.0004
 21  2  4  0 57  0.0000000  0  9G01G28G17G08G09G14G04G30G21
 -19670046.23449 -15306872.03847  21003157.343    21003157.8834   21003165.9044
       195.0004        195.0004
  -1662963.98547  -1278096.74945  23561395.628    23561395.5624   23561401.0704
       149.0004        154.0004
 -10418973.84548  -8093705.04446  22543114.630    22543114.5154   22543118.8264
       179.0004        180.0004
  -6807976.82148  -5276296.83247  23098555.428    23098555.5754   23098564.4824
       192.0004        192.0004
 -12213780.84348  -9484770.85247  22102552.404    22102552.3094   22102560.5854
       193.0004        193.0004
  -3043797.82247  -2361746.03846  23156031.154    23156033.4134   23156038.3054
       163.0004        164.0004
  -2857673.53847  -2190503.49945  23945884.085    23945884.7404   23945890.9414
       149.0004        151.0004
 -12537481.62648  -9736146.95846  22119077.604    22119076.8684   22119083.9514
       186.0004        187.0004
 -12468039.07248  -9702838.76946  21993062.646    21993061.7064   21993065.4874
       182.0004        183.0004
 21  2  4  0 57 30.0000000  0  9G01G28G17G08G09G14G04G30G21
 -19707666.83849 -15336186.77347  20995997.850    20995998.8554   20996007.1544
       195.0004        196.0004
  -1678595.63447  -1290277.26045  23558420.815    23558420.4804   23558425.5564
       149.0004        152.0004
 -10481850.70748  -8142699.96546  22531148.455    22531149.2634   22531154.2594
       179.0004        180.0004
  -6713521.44348  -5202695.26347  23116529.221    23116529.6884   23116538.6614
       191.0004        191.0004
 -12141160.42048  -9428183.51747  22116370.722    22116371.4584   22116378.9154
       192.0004        193.0004
  -3070598.45648  -2382629.61746  23150935.400    23150935.5634   23150938.8274
       165.0004        167.0004
  -2760048.41247  -2114432.05945  23964461.727    23964461.9874   23964469.4314
       148.0004        151.0004
 -12620285.76748  -9800669.65647  22103319.316    22103319.4734   22103326.8854
       187.0004        188.0004
 -12432018.07848  -9674770.44846  21999915.547    21999915.1454   21999920.4214
       183.0004        183.0004
 21  2  4  0 58  0.0000000  0  9G01G28G17G08G09G14G04G30G21
 -19744793.80449 -15365116.86547  20988933.683    20988934.5404   20988942.4124
       195.0004        196.0004
  -1694273.52447  -1302493.75545  23555437.700    23555438.4674   23555440.3694
       148.0004        151.0004
 -10544330.82848  -8191385.73046  22519258.683    22519259.2384   22519264.7824
       181.0004        182.0004
  -6619037.05148  -5129071.05947  23134509.968    23134509.3734   23134518.8694
       190.0004        191.0004
 -12068331.25048  -9371433.55647  22130230.661    22130231.1494   22130237.5174
       192.0004        192.0004
  -3097440.84648  -2403545.70546  23145828.335    23145827.4294   23145832.0114
       167.0004        169.0004
  -2662485.74247  -2038409.25945  23983028.249    23983028.2044   23983034.0484
       147.0004        150.0004
 -12702929.70148  -9865067.51847  22087593.867    22087593.7534   22087600.4064
       187.0004        188.0004
 -12395509.17748  -9646321.93746  22006863.418    22006863.1964   22006868.1244
       182.0004        183.0004
 21  2  4  0 58 30.0000000  0  9G01G28G17G08G09G14G04G30G21
 -19781424.26649 -15393660.05847  20981964.025    20981964.4764   20981971.8104
       196.0004        197.0004
  -1709998.31047  -1314746.81745  23552446.102    23552446.0064   23552449.0434
       148.0004        151.0004
 -10606412.90948  -8239761.34446  22507446.146    22507445.5104   22507449.6804
       181.0004        181.0004
  -6524525.27448  -5055425.53047  23152494.131    23152494.8244   23152503.2494
       191.0004        192.0004
 -11995295.85548  -9314522.89147  22144128.871    22144129.1294   22144136.5344
       191.0004        192.0004
  -3124325.31847  -2424494.60346  23140709.855    23140710.2634   23140714.6414
       164.0004        164.0004
  -2564987.64547  -1962436.80745  24001581.814    24001581.5624   24001586.9374
       146.0004        149.0004
 -12785410.36548  -9929338.15947  22071898.208    22071897.6054   22071904.3764
       188.0004        188.0004
 -12358512.16548  -9617493.08646  22013904.428    22013903.7854   22013907.8014
       183.0004        183.0004
 21  2  4  0 59  0.0000000  0 10G01G28G17G08G09G14G04G30G21G19
 -19817554.82249 -15421813.72047  20975088.686    20975088.9174   20975096.6694
       197.0004        197.0004
  -1725770.36547  -1327036.71145  23549442.429    23549443.2604   23549448.1684
       148.0004        151.0004
 -10668095.12048  -8287825.35546  22495707.414    22495708.1004   22495712.2434
       181.0004        182.0004
  -6429987.61948  -4981759.82347  23170483.741    23170484.5614   23170493.2524
       191.0004        191.0004
 -11922056.21148  -9257453.05847  22158065.151    22158066.1114   22158073.2474
       191.0004        190.0004
  -3151251.67547  -2445476.19846  23135584.474    23135585.5384   23135590.9654
       163.0004        165.0004
  -2467555.60647  -1886515.82245  24020120.837    24020121.6084   24020128.2124
       144.0004        147.0004
 -12867724.14948  -9993478.76146  22056233.520    22056233.4694   22056240.8924
       187.0004        186.0004
 -12321026.57348  -9588283.52646  22021036.283    22021036.7324   22021041.3404
       182.0004        183.0004
  -1155353.84454   -886522.16445  24823148.485
        74.0004        149.0004
 21  2  4  0 59 30.0000000  0 10G01G28G17G08G09G14G04G30G21G19
 -19853182.48749 -15449575.53947  20968307.895    20968308.6114   20968316.5024
       197.0004        197.0004
  -1741590.56447  -1339364.13645  23546433.265    23546433.1914   23546437.6374
       148.0004        151.0004
 -10729376.24248  -8335576.85146  22484045.883    22484045.4174   22484051.1584
       180.0004        180.0004
  -6335426.32748  -4908075.71047  23188478.693    23188479.3374   23188487.6424
       190.0004        190.0004
 -11848614.81548  -9200226.00547  22172041.642    22172041.7174   22172048.9264
       191.0004        193.0004
  -3178220.21147  -2466490.62546  23130452.494    23130454.2514   23130459.4064
       164.0004        166.0004
  -2370191.48347  -1810647.73245  24038649.834    24038650.7784   24038657.5724
       144.0004        148.0004
 -12949867.86748 -10057486.84746  22040602.896    22040602.9484   22040609.1144
       187.0004        187.0004
 -12283052.99848  -9558693.72746  22028263.074    22028262.8854   22028267.8434
       183.0004        183.0004
  -1246822.95647   -957796.36545  24805741.657                    24805751.2074
       135.0004        150.0004
 21  2  4  1  0  0.0000000  0 10G01G28G17G08G09G14G04G30G21G19
 -19888308.07849 -15476946.10747  20961623.337    20961624.4644   20961632.1174
       197.0004        197.0004
  -1757463.15247  -1351732.36345  23543413.201    23543413.2694   23543417.7074
       148.0004        151.0004
 -10790258.74848  -8383017.71546  22472459.780    22472460.5154   22472466.5674
       180.0004        182.0004
  -6240846.67048  -4834377.27747  23206476.119    23206476.7144   23206486.2844
       189.0004        190.0004
 -11774977.83648  -9142846.54947  22186053.831    22186054.3854   22186061.4844
       191.0004        190.0004
  -3205234.83847  -2487540.94346  23125312.293    23125312.6774   23125318.8084
       164.0004        164.0004
  -2272900.97147  -1734837.00445  24057165.564    24057164.0404   24057170.1824
       143.0004        147.0004
 -13031842.04848 -10121362.81046  22025004.080    22025003.2984   22025009.9084
       186.0004        187.0004
 -12244595.00848  -9528726.44046  22035581.212    22035581.3754   22035585.8514
       182.0004        183.0004
  -1338087.47047  -1028911.22445  24788375.026    24788374.2844   24788382.1524
       145.0004        151.0004
 21  2  4  1  0 30.0000000  0 10G01G28G17G08G09G14G04G30G21G19
 -19922930.76149 -15503924.81447  20955035.390    20955035.8034   20955043.4924
       197.0004        198.0004
  -1773390.84247  -1364143.53845  23540380.442    23540380.6804   23540385.9404
       149.0004        153.0004
 -10850743.26948  -8430148.49246  22460950.323    22460950.3814   22460956.4734
       181.0004        181.0004
  -6146252.58248  -4760667.62047  23224478.735    23224477.7314   23224486.5114
       189.0004        189.0004
 -11701149.81848  -9085318.22247  22200101.771    22200102.3754   22200110.4364
       189.0004        188.0004
  -3232297.93347  -2508629.05946  23120162.596    23120162.8724   23120168.0824
       162.0004        163.0004
  -2175688.15747  -1659086.82645  24075663.419    24075662.8004   24075669.4664
       143.0004        148.0004
 -13113645.63048 -10185105.86346  22009435.901    22009435.8934   22009443.3754
       186.0004        187.0004
 -12205655.17848  -9498383.71246  22042991.340    22042990.9914   22042995.9934
       182.0004        183.0004
  -1429147.46947  -1099866.75745  24771045.997    24771045.4184   24771051.0474
       144.0004        148.0004
 21  2  4  1  1  0.0000000  0 10G01G28G17G08G09G14G04G30G21G19
 -19957045.49749 -15530507.70947  20948543.793    20948544.4884   20948552.1524
       198.0004        198.0004
  -1789372.15947  -1376596.47645  23537341.136    23537341.1134   23537344.9054
       151.0004        155.0004
 -10910826.37048  -8476966.44446  22449516.574    22449516.9724   22449522.5474
       181.0004        181.0004
  -6051643.59848  -4686946.33247  23242481.155    23242481.6504   23242489.4494
       188.0004        188.0004
 -11627131.09048  -9027641.27547  22214187.642    22214188.5184   22214195.2154
       189.0004        190.0004
  -3259407.48347  -2529753.36846  23115005.546    23115005.1734   23115009.6014
       161.0004        163.0004
  -2078552.79547  -1583397.00245  24094147.014    24094147.7514   24094153.5974
       144.0004        149.0004
 -13195273.24548 -10248711.78047  21993902.386    21993903.1004   21993910.6164
       187.0004        188.0004
 -12166231.14548  -9467663.67246  22050493.460    22050493.4814   22050498.2834
       182.0004        182.0004
  -1519998.53047  -1170659.42645  24753756.838    24753756.3374   24753764.3154
       142.0004        145.0004
 21  2  4  1  1 30.0000000  0 10G01G28G17G08G09G14G04G30G21G19
 -19990647.87949 -15556691.37547  20942149.491    20942150.0564   20942157.4474
       198.0004        198.0004
  -1805406.24047  -1389090.54945  23534290.010    23534289.7304   23534294.5664
       152.0004        154.0004
 -10970505.21448  -8523469.41046  22438160.724    22438161.1164   22438164.9934
       181.0004        181.0004
  -5957020.03848  -4613213.69147  23260488.512    23260488.3684   23260495.6884
       188.0004        188.0004
 -11552922.60248  -8969816.46647  22228309.268    22228309.1674   22228316.9814
       189.0004        189.0004
  -3286562.27947  -2550912.91246  23109835.273    23109836.7644   23109842.2334
       161.0004        163.0004
  -1981495.32247  -1507767.85745  24112617.325    24112616.4514   24112623.7194
       145.0004        149.0004
 -13276720.19248 -10312176.91047  21978405.045    21978404.8204   21978411.5564
       188.0004        189.0004
 -12126321.60648  -9436565.32246  22058088.108    22058087.5614   22058092.3324
       182.0004        182.0004
  -1610637.00947  -1241286.49145  24736508.389    24736508.0994   24736515.6464
       141.0004        145.0004
 21  2  4  1  2  0.0000000  0 10G01G28G17G08G09G14G04G30G21G19
 -20023735.08849 -15582473.61147  20935852.883    20935853.4934   20935861.4254
       198.0004        198.0004
  -1821494.08847  -1401626.52645  23531228.133    23531227.3954   23531232.1244
       150.0004        151.0004
 -11029778.54048  -8569656.36946  22426880.888    22426881.4024   22426885.9874
       180.0004        181.0004
  -5862383.26948  -4539470.75446  23278494.505    23278495.3254   23278505.0234
       187.0004        187.0004
 -11478526.83848  -8911845.74547  22242467.472    22242467.1974   22242474.1314
       190.0004        191.0004
  -3313762.48247  -2572107.85846  23104659.589    23104660.0424   23104666.1814
       162.0004        165.0004
  -1884517.66847  -1432200.96245  24131070.445    24131071.4934   24131078.0244
       147.0004        151.0004
 -13357983.29948 -10375498.80947  21962941.443    21962941.1644   21962947.6624
       190.0004        190.0004
 -12085927.06248  -9405089.03546  22065774.593    22065773.7034   22065779.3164
       181.0004        181.0004
  -1701060.63447  -1311746.18745  24719301.882    24719301.5174   24719308.1604
       142.0004        146.0004
 21  2  4  1  2 30.0000000  0 10G01G28G17G08G09G14G04G30G21G19
 -20056303.49249 -15607851.56947  20929655.320    20929655.9334   20929663.7084
       198.0004        198.0004
  -1837635.85247  -1414204.50445  23528156.657    23528157.1254   23528160.7054
       147.0004        150.0004
 -11088644.18048  -8615525.67446  22415679.368    22415679.3944   22415684.0134
       181.0004        182.0004
  -5767734.84348  -4465718.73146  23296506.989    23296506.4374   23296515.6404
       186.0004        186.0004
 -11403945.42948  -8853730.35547  22256658.369    22256658.9114   22256666.0294
       189.0004        189.0004
  -3341007.49648  -2593337.74246  23099476.682    23099477.2084   23099482.0074
       165.0004        168.0004
  -1787620.80747  -1356696.96145  24149509.165    24149508.3904   24149516.0804
       145.0004        148.0004
 -13439058.53148 -10438674.31047  21947512.489    21947512.5704   21947519.6564
       190.0004        190.0004
 -12045046.90548  -9373234.35646  22073554.421    22073554.3914   22073557.9594
       181.0004        181.0004
  -1791266.57647  -1382036.23545  24702135.907    24702134.8704   24702141.5044
       141.0004        145.0004
 21  2  4  1  3  0.0000000  0 10G01G28G17G08G09G14G04G30G21G19
 -20088353.70749 -15632825.75847  20923556.350    20923557.1074   20923564.7084
       199.0004        199.0004
  -1853834.80747  -1426827.03545  23525073.596    23525073.1754   23525078.9404
       146.0004        149.0004
 -11147104.47048  -8661079.12346  22404554.951    22404555.6834   22404559.9714
       183.0004        184.0004
  -5673079.72948  -4391961.50846  23314517.256    23314518.5304   23314528.1544
       186.0004        186.0004
 -11329184.29048  -8795474.92546  22270885.526    22270885.3194   22270892.6654
       188.0004        186.0004
  -3368300.99048  -2614605.38046  23094283.095    23094283.4064   23094287.8624
       166.0004        167.0004
  -1690810.22747  -1281260.24545  24167932.122    24167932.0884   24167939.9984
       144.0004        147.0004
 -13519946.19448 -10501703.65947  21932120.806    21932120.3944   21932127.1514
       191.0004        192.0004
 -12003684.57948  -9341003.96746  22081425.528    22081425.1024   22081429.9594
       181.0004        182.0004
  -1881256.03147  -1452157.62545  24685013.086    24685013.1294   24685016.5334
       143.0004        146.0004
 21  2  4  1  3 30.0000000  0 10G01G28G17G08G09G14G04G30G21G19
 -20119882.69749 -15657393.78747  20917556.669    20917557.5954   20917564.6384
       199.0004        199.0004
  -1870091.97047  -1439494.91745  23521980.518    23521980.2604   23521984.8664
       147.0004        151.0004
 -11205158.35448  -8706315.86546  22393508.542    22393507.8134   22393512.9824
       184.0004        185.0004
  -5578419.24448  -4318200.09346  23332530.304    23332531.6654   23332541.1464
       185.0004        184.0004
 -11254245.61948  -8737081.13846  22285145.493    22285145.6244   22285153.1714
       186.0004        187.0004
  -3395642.89148  -2635910.71146  23089078.670    23089080.0114   23089083.9174
       165.0004        166.0004
  -1594087.46347  -1205891.99645  24186337.643    24186338.4714   24186343.9854
       144.0004        146.0004
 -13600642.72648 -10564584.07347  21916764.414    21916764.4834   21916770.7504
       191.0004        191.0004
 -11961840.25448  -9308397.98046  22089388.327    22089387.5234   22089391.6344
       181.0004        181.0004
  -1971026.55947  -1522108.41245  24667931.331    24667929.5404   24667932.4884
       142.0004        144.0004
 21  2  4  1  4  0.0000000  0 10G01G28G17G08G09G14G04G30G21G19
 -20150889.18749 -15681554.68447  20911656.584    20911657.0734   20911664.2074
       199.0004        199.0004
  -1886409.34947  -1452209.72545  23518874.989    23518875.5664   23518880.0824
       148.0004        151.0004
 -11262805.86248  -8751235.98946  22382536.771    22382537.9274   22382543.2404
       184.0004        184.0004
  -5483756.58548  -4244436.98946  23350547.302    23350546.8934   23350555.2194
       184.0004        185.0004
 -11179133.35848  -8678552.08246  22299438.678    22299439.2454   22299446.0484
       186.0004        186.0004
  -3423034.80748  -2657255.05846  23083866.963    23083867.7604   23083872.1964
       165.0004        167.0004
  -1497456.00347  -1130594.90045  24204726.053    24204726.4904   24204732.9524
       145.0004        149.0004
 -13681146.47748 -10627314.27247  21901444.302    21901444.8284   21901451.8454
       191.0004        192.0004
 -11919515.85848  -9275417.91546  22097441.715    22097441.2144   22097446.1324
       181.0004        181.0004
  -2060577.82447  -1591888.37345  24650888.123    24650888.3584   24650891.6804
       139.0004        143.0004
 21  2  4  1  4 30.0000000  0 10G01G28G17G08G09G14G04G30G21G19
 -20181371.76349 -15705307.32747  20905856.082    20905856.3514   20905863.6994
       199.0004        199.0004
  -1902788.75247  -1464972.87445  23515756.738    23515757.1034   23515762.5124
       147.0004        150.0004
 -11320047.10348  -8795839.52546  22371645.782    22371645.5884   22371650.1064
       184.0004        183.0004
  -5389095.06048  -4170674.78446  23368562.420    23368561.2464   23368568.6594
       185.0004        186.0004
 -11103851.32948  -8619890.74846  22313764.274    22313764.9704   22313772.2324
       185.0004        186.0004
  -3450478.20348  -2678639.52646  23078644.596    23078645.0464   23078650.7534
       167.0004        168.0004
  -1400918.91847  -1055371.37545  24223095.015    24223097.5384   24223103.5654
       147.0004        150.0004
 -13761455.52048 -10689892.73647  21886163.504    21886163.2894   21886169.3284
       192.0004        193.0004
 -11876712.69848  -9242064.79646  22105586.673    22105586.7924   22105591.1624
       180.0004        181.0004
  -2149908.53947  -1661496.43545  24633887.044    24633886.3704   24633892.6684
       138.0004        143.0004
 21  2  4  1  5  0.0000000  0 10G01G28G17G08G09G14G04G30G21G19
 -20211327.22049 -15728649.23147  20900156.188    20900156.1474   20900163.4994
       199.0004        199.0004
  -1919230.01747  -1477784.24145  23512630.467    23512629.9714   23512634.5054
       149.0004        153.0004
 -11376880.01348  -8840124.87546  22360830.004    22360830.2904   22360834.3334
       182.0004        181.0004
  -5294435.38348  -4096914.03646  23386576.978    23386575.5744   23386581.1134
       186.0004        186.0004
 -11028401.47648  -8561098.65046  22328122.131    22328122.3624   22328129.3964
       185.0004        185.0004
  -3477972.79648  -2700063.84846  23073412.521    23073413.3044   23073418.0014
       165.0004        166.0004
  -1304477.51847   -980222.38745  24241448.207    24241448.8194   24241456.6004
       147.0004        150.0004
 -13841566.09548 -10752316.55147  21870918.337    21870918.4764   21870925.1594
       193.0004        194.0004
 -11833430.70648  -9208338.56646  22113823.773    22113823.1384   22113828.2374
       180.0004        180.0004
  -2239016.24647  -1730930.81145  24616931.696    24616931.2564   24616937.3474
       139.0004        144.0004
 21  2  4  1  5 30.0000000  0 10G01G28G17G08G09G14G04G30G21G19
 -20240755.04049 -15751579.98147  20894555.402    20894556.1004   20894564.0784
       199.0004        200.0004
  -1935736.41447  -1490646.36045  23509488.160    23509487.7474   23509491.8044
       150.0004        152.0004
 -11433305.89048  -8884093.05646  22350092.422    22350092.5684   22350096.2914
       180.0004        180.0004
  -5199782.00448  -4023158.15946  23404587.744    23404587.2824   23404592.6134
       186.0004        186.0004
 -10952788.44848  -8502179.42346  22342510.616    22342511.2624   22342518.5224
       184.0004        185.0004
  -3505520.87348  -2721529.86446  23068171.126    23068171.0304   23068175.8684
       166.0004        166.0004
  -1208135.83847   -905151.07845  24259781.149    24259781.9134   24259790.0874
       147.0004        150.0004
 -13921477.19048 -10814584.91747  21855710.956    21855711.3494   21855718.5454
       193.0004        193.0004
 -11789672.84648  -9174241.52746  22122151.154    22122149.7694   22122154.5024
       181.0004        181.0004
  -2327901.01547  -1800191.46745  24600018.346    24600017.9174   24600021.0724
       140.0004        144.0004
 21  2  4  1  6  0.0000000  0 10G01G28G17G08G09G14G04G30G21G19
 -20269651.57249 -15774096.75547  20889056.409    20889056.9334   20889065.2044
       200.0004        200.0004
  -1952307.82247  -1503559.10545  23506333.229    23506334.2454   23506339.2224
       146.0004        149.0004
 -11489322.92748  -8927742.67146  22339432.898    22339433.3054   22339437.0624
       180.0004        181.0004
  -5105135.02548  -3949407.28846  23422597.005    23422596.9684   23422604.4654
       186.0004        186.0004
 -10877013.68948  -8443134.16846  22356930.511    22356930.8834   22356937.9234
       184.0004        184.0004
  -3533121.64248  -2743036.94246  23062917.132    23062918.4334   23062923.3174
       165.0004        166.0004
  -1111894.77247   -830158.15945  24278095.817    24278096.2724   24278104.3064
       146.0004        149.0004
 -14001184.60748 -10876694.58647  21840543.989    21840543.7964   21840550.6244
       193.0004        193.0004
 -11745437.96348  -9139772.78846  22130568.750    22130567.5524   22130571.8254
       180.0004        180.0004
  -2416559.92647  -1869276.09845  24583144.507    24583143.8484   24583149.9274
       138.0004        143.0004
 21  2  4  1  6 30.0000000  0 10G01G28G17G08G09G14G04G30G21G19
 -20298013.86049 -15796197.22647  20883659.351    20883659.8384   20883667.9794
       199.0004        199.0004
  -1968944.08647  -1516522.42045  23503169.642    23503169.4334   23503174.3994
       148.0004        152.0004
 -11544929.78148  -8971072.65146  22328851.451    22328851.7014   22328856.0484
       181.0004        182.0004
  -5010496.17748  -3875662.78046  23440606.301    23440606.1454   23440613.1044
       184.0004        183.0004
 -10801079.35948  -8383964.55846  22371379.945    22371380.1484   22371386.9934
       184.0004        184.0004
  -3560774.90848  -2764584.92246  23057655.595    23057656.5804   23057661.4484
       165.0004        166.0004
  -1015755.82347   -755244.84945  24296389.388    24296390.5524   24296397.7144
       145.0004        147.0004
 -14080684.81948 -10938642.78847  21825415.454    21825415.2544   21825422.3884
       194.0004        194.0004
 -11700726.33748  -9104932.55646  22139075.945    22139075.9684   22139080.3614
       180.0004        180.0004
  -2504990.44547  -1938182.75445  24566316.115    24566316.4094   24566322.7314
       141.0004        146.0004
 21  2  4  1  7  0.0000000  0 11G01G28G17G08G09G14G04G30G21G22G19
 -20325840.16849 -15817880.04447  20878364.445    20878364.8124   20878372.1164
       199.0004        199.0004
  -1985647.03547  -1529537.67445  23499991.793    23499990.6644   23499995.4984
       149.0004        152.0004
 -11600126.01848  -9014082.67846  22318347.206    22318347.3894   22318352.2014
       181.0004        180.0004
  -4915868.00648  -3801926.53646  23458611.099    23458612.1794   23458620.2614
       183.0004        183.0004
 -10724988.79248  -8324673.20046  22385860.274    22385860.3394   22385867.1494
       184.0004        184.0004
  -3588481.69348  -2786174.61346  23052383.248    23052383.7314   23052388.6114
       167.0004        168.0004
   -919721.72047   -680413.22045  24314663.563    24314665.7474   24314673.4304
       144.0004        147.0004
 -14159975.50048 -11000427.72047  21810326.629    21810326.4704   21810334.1834
       194.0004        195.0004
 -11655539.59448  -9069722.10646  22147674.100    22147674.3654   22147678.7644
       179.0004        180.0004
  -1171749.07554   -891570.44243                                  24773181.5164
        74.0004         74.0004
  -2593191.80147  -2006910.86945  24549533.791    24549534.2164   24549538.5884
       142.0004        147.0004
 21  2  4  1  7 30.0000000  0 11G01G28G17G08G09G14G04G30G21G22G19
 -20353128.13749 -15839143.38747  20873171.624    20873171.9994   20873179.6314
       198.0004        198.0004
  -2002417.41147  -1542605.47745  23496798.640    23496797.7184   23496803.7874
       149.0004        151.0004
 -11654910.69048  -9056772.01546  22307921.515    22307922.1524   22307927.5184
       181.0004        182.0004
  -4821252.33948  -3728200.04446  23476615.120    23476615.6864   23476625.2414
       181.0004        181.0004
 -10648744.66248  -8265262.20846  22400368.185    22400368.1954   22400376.4224
       183.0004        185.0004
  -3616242.32648  -2807806.24846  23047099.250    23047100.5624   23047106.0514
       167.0004        168.0004
   -823794.46247   -605664.83845  24332920.153    24332921.7364   24332928.0104
       144.0004        148.0004
 -14239053.58748 -11062047.00647  21795278.873    21795279.1014   21795285.0074
       194.0004        195.0004
 -11609878.25748  -9034141.83546  22156364.165    22156363.3934   22156368.5964
       180.0004        179.0004
  -1171749.07544   -891570.442 3                                  24773181.516
        74.0004         74.000
  -2681161.67447  -2075458.64945  24532793.926    24532793.4514   24532799.2014
       144.0004        149.0004
 21  2  4  1  8  0.0000000  0 11G01G28G17G08G09G14G04G30G21G22G19
 -20379876.74249 -15859986.43847  20868080.668    20868081.8474   20868089.9014
       198.0004        198.0004
  -2019257.27247  -1555727.42945  23493594.499    23493594.2584   23493599.3464
       149.0004        154.0004
 -11709284.62348  -9099141.29346  22297576.446    22297575.8934   22297579.7794
       182.0004        182.0004
  -4726652.27048  -3654485.70846  23494617.869    23494618.7114   23494626.6064
       182.0004        183.0004
 -10572351.02148  -8205734.67246  22414905.472    22414905.8214   22414912.9284
       184.0004        184.0004
  -3644058.47448  -2829481.15546  23041807.676    23041808.1624   23041813.5664
       166.0004        167.0004
   -727977.42347   -531002.35445  24351153.503    24351154.6424   24351161.5274
       145.0004        148.0004
 -14317917.47149 -11123499.38147  21780272.418    21780272.0654   21780278.3564
       195.0004        195.0004
 -11563744.47548  -8998193.42146  22165142.865    22165143.2844   22165147.3274
       180.0004        180.0004
  -1171749.07544   -891570.442 4                                  24773181.516
        74.0004        113.000
  -2768899.61147  -2143825.67545  24516098.119    24516097.5044   24516102.4394
       147.0004        151.0004
 21  2  4  1  8 30.0000000  0 11G01G28G17G08G09G14G04G30G21G22G19
 -20406084.00649 -15880407.66747  20863093.956    20863094.9764   20863102.7644
       198.0004        199.0004
  -2036167.90347  -1568904.53545  23490376.614    23490377.5574   23490381.1154
       153.0004        157.0004
 -11763247.41048  -9141190.18946  22287306.397    22287306.5734   22287311.1574
       183.0004        184.0004
  -4632069.92948  -3580785.18446  23512617.683    23512617.2174   23512625.3064
       183.0004        183.0004
 -10495810.83748  -8146092.96946  22429471.664    22429471.3014   22429478.9894
       184.0004        184.0004
  -3671930.85248  -2851199.86746  23036502.607    23036503.6034   23036509.5224
       167.0004        168.0004
   -632272.99047   -456427.60145  24369365.049    24369366.1584   24369373.1514
       144.0004        147.0004
 -14396564.44548 -11184782.74147  21765305.253    21765305.2134   21765312.0364
       194.0004        194.0004
 -11517139.10448  -8961877.54846  22174011.552    22174010.9894   22174015.1894
       179.0004        178.0004
  -1171749.07554   -891570.442 3                                  24773181.516
        74.0004         74.000
  -2856404.43547  -2212011.04345  24499446.144    24499445.4244   24499451.2304
       150.0004        153.0004
 21  2  4  1  9  0.0000000  0 11G01G28G17G08G09G14G04G30G21G22G19
 -20431748.81449 -15900406.20847  20858210.393    20858211.0084   20858218.6734
       198.0004        198.0004
  -2053151.36247  -1582138.37845  23487146.521    23487146.0354   23487149.3284
       156.0004        159.0004
 -11816799.44948  -9182919.01646  22277115.294    22277115.7624   22277120.5214
       182.0004        182.0004
  -4537508.77248  -3507101.20346  23530611.860    23530612.2744   23530620.6884
       185.0004        186.0004
 -10419128.00848  -8086340.08646  22444062.394    22444063.5684   22444070.8364
       184.0004        184.0004
  -3699860.93648  -2872963.54046  23031187.587    23031188.4904   23031194.3474
       167.0004        169.0004
   -536684.38647   -381943.10645  24387555.488    24387554.7364   24387563.6234
       142.0004        144.0004
 -14474992.69048 -11245895.66547  21750381.185    21750381.1294   21750387.7584
       194.0004        195.0004
 -11470064.09348  -8925195.70446  22182969.990    22182969.0554   22182974.0284
       178.0004        180.0004
  -1171749.07544   -891570.442 3                                  24773181.516
        74.0004         74.000
  -2943675.05447  -2280013.95245  24482837.969    24482837.7744   24482843.8964
       149.0004        151.0004
 21  2  4  1  9 30.0000000  0 11G01G28G17G08G09G14G04G30G21G22G19
 -20456868.54949 -15919979.99647  20853430.328    20853430.8094   20853438.9124
       198.0004        199.0004
  -2070207.96347  -1595429.18045  23483900.061    23483899.6364   23483903.6754
       156.0004        157.0004
 -11869939.54148  -9224326.86346  22267003.057    22267003.7614   22267008.0624
       182.0004        183.0004
  -4442969.68348  -3433434.37846  23548601.029    23548602.3324   23548610.2584
       184.0004        185.0004
 -10342304.84848  -8026477.86746  22458683.189    22458683.4694   22458689.9094
       183.0004        184.0004
  -3727848.67548  -2894772.17146  23025863.696    23025863.9804   23025867.5594
       167.0004        168.0004
   -441213.23047   -307550.14945  24405721.905    24405723.5044   24405731.1124
       139.0004        143.0004
 -14553198.84048 -11306835.52447  21735498.543    21735499.2344   21735505.3784
       194.0004        195.0004
 -11422519.76648  -8888148.15146  22192017.585    22192016.5034   22192021.8914
       179.0004        180.0004
  -1171749.07544   -891570.442 3                                  24773181.516
        74.0004         74.000
  -3030709.69047  -2347832.97945  24466276.185    24466275.3634   24466280.7944
       150.0004        153.0004
 21  2  4  1 10  0.0000000  0 10G01G28G17G08G09G14G04G30G21G19
 -20481440.85249 -15939127.22747  20848754.017    20848755.0474   20848762.9804
       198.0004        199.0004
  -2087338.25547  -1608777.43645  23480640.119    23480639.8794   23480643.8154
       155.0004        157.0004
 -11922666.79048  -9265413.00246  22256969.690    22256969.9914   22256975.3414
       183.0004        184.0004
  -4348454.87448  -3359786.47346  23566589.491    23566588.8124   23566596.1544
       185.0004        185.0004
 -10265343.89048  -7966508.26346  22473327.438    22473327.9774   22473334.4464
       183.0004        183.0004
  -3755894.27848  -2916625.86746  23020525.490    23020526.2224   23020531.7094
       168.0004        170.0004
   -345861.36047   -233250.17945  24423869.549    24423869.2704   24423875.7094
       138.0004        142.0004
 -14631179.78449 -11367599.90047  21720660.244    21720659.8574   21720666.6874
       195.0004        196.0004
 -11374507.06648  -8850735.65746  22201153.107    22201153.1034   22201157.8804
       179.0004        179.0004
  -3117506.28247  -2415466.50945  24449759.238    24449758.1304   24449763.2254
       149.0004        152.0004
 21  2  4  1 10 30.0000000  0 10G01G28G17G08G09G14G04G30G21G19
 -20505464.44949 -15957846.90247  20844182.442    20844183.1404   20844191.2394
       198.0004        199.0004
  -2104544.16047  -1622184.58145  23477367.637    23477367.8994   23477369.3624
       156.0004        158.0004
 -11974981.64848  -9306177.79246  22247015.029    22247015.1214   22247019.6064
       184.0004        184.0004
  -4253966.59848  -3286159.28246  23584568.995    23584569.5194   23584575.7744
       184.0004        184.0004
 -10188248.80348  -7906434.14446  22487996.952    22487997.5184   22488005.2594
       182.0004        181.0004
  -3783998.98648  -2938525.60746  23015177.051    23015178.0604   23015182.9504
       168.0004        168.0004
   -250631.76047   -159045.47745  24441990.095    24441990.6274   24441998.7654
       136.0004        142.0004
 -14708933.39449 -11428187.12747  21705863.947    21705864.2674   21705870.4724
       196.0004        197.0004
 -11326027.51348  -8812959.37046  22210379.527    22210378.8884   22210383.2004
       179.0004        178.0004
  -3204063.84647  -2482913.82045  24433287.268    24433286.6494   24433291.8384
       148.0004        150.0004
 21  2  4  1 11  0.0000000  0 10G01G28G17G08G09G14G04G30G21G19
 -20528936.81349 -15976137.04847  20839715.399    20839716.3854   20839724.6744
       198.0004        198.0004
  -2121826.21447  -1635651.09145  23474077.108    23474078.2084   23474080.1234
       152.0004        151.0004
 -12026883.11648  -9346620.47846  22237138.021    22237139.1674   22237143.5574
       184.0004        186.0004
  -4159506.94348  -3212554.38546  23602543.638    23602543.2334   23602551.0014
       183.0004        183.0004
 -10111021.94348  -7846257.38246  22502692.344    22502693.1944   22502700.3824
       179.0004        180.0004
  -3812162.72048  -2960471.37546  23009819.540    23009819.6904   23009822.3404
       166.0004        167.0004
   -155526.02947    -84937.29545  24460088.292    24460089.0234   24460095.5984
       137.0004        143.0004
 -14786456.33749 -11488594.62147  21691112.089    21691111.9024   21691118.0934
       196.0004        197.0004
 -11277081.89348  -8774819.93346  22219692.841    22219693.1044   22219697.4724
       178.0004        179.0004
  -3290380.43947  -2550173.31245  24416861.678    24416861.2164   24416866.3534
       147.0004        151.0004
 21  2  4  1 11 30.0000000  0 10G01G28G17G08G09G14G04G30G21G19
 -20551856.14049 -15993996.25547  20835354.435    20835355.0714   20835362.3424
       198.0004        198.0004
  -2139185.19347  -1649177.56845  23470771.884    23470772.2874   23470779.3054
       148.0004        150.0004
 -12078370.61548  -9386740.57346  22227340.078    22227340.5124   22227346.1614
       185.0004        186.0004
  -4065077.47648  -3138973.01646  23620512.311    23620512.5304   23620520.7214
       181.0004        181.0004
 -10033666.39748  -7785980.36046  22517415.098    22517413.8994   22517421.5324
       180.0004        181.0004
  -3840386.15348  -2982463.66046  23004448.292    23004448.2524   23004452.4064
       166.0004        167.0004
    -60546.57347    -10927.47845  24478161.086    24478163.0724   24478170.6224
       137.0004        142.0004
 -14863745.98949 -11548820.31447  21676403.344    21676403.6024   21676411.1174
       196.0004        196.0004
 -11227670.77248  -8736317.76346  22229095.507    22229095.7114   22229099.9334
       179.0004        179.0004
  -3376454.83747  -2617244.11945  24400482.652    24400482.0454   24400486.6714
       148.0004        151.0004
 21  2  4  1 12  0.0000000  0 10G01G28G17G08G09G14G04G30G21G19
 -20574219.47549 -16011422.21847  20831098.375    20831099.7394   20831107.1674
       197.0004        197.0004
  -2156621.20047  -1662764.09645  23467453.044    23467452.9524   23467460.0014
       147.0004        150.0004
 -12129442.70448  -9426537.00546  22217620.753    22217621.6734   22217626.5604
       184.0004        184.0004
  -3970679.50248  -3065416.16846  23638472.406    23638475.0034   23638484.6644
       181.0004        182.0004
  -9956183.91448  -7725604.43446  22532158.876    22532158.5884   22532166.1844
       181.0004        182.0004
  -3868668.74648  -3004502.01046  22999064.463    22999065.6884   22999070.7324
       166.0004        168.0004
     34305.52747     62983.04445  24496211.693    24496212.0724   24496219.3104
       137.0004        142.0004
 -14940798.45749 -11608861.18747  21661740.653    21661741.0954   21661747.6874
       196.0004        196.0004
 -11177794.80048  -8697453.37146  22238587.093    22238586.3104   22238591.4024
       179.0004        179.0004
  -3462284.32847  -2684124.14045  24384150.311    24384149.5084   24384154.1814
       149.0004        153.0004
 21  2  4  1 12 30.0000000  0 10G01G28G17G08G09G14G04G30G21G19
 -20596026.11349 -16028414.39047  20826949.395    20826949.7994   20826957.7364
       198.0004        198.0004
  -2174136.59147  -1676412.42645  23464124.241    23464124.0914   23464126.4784
       150.0004        155.0004
 -12180100.07248  -9466010.23946  22207980.871    22207981.2454   22207986.3964
       184.0004        184.0004
  -3876316.12048  -2991886.24546  23656432.465    23656432.6134   23656440.7274
       180.0004        180.0004
  -9878578.54248  -7665132.74546  22546927.074    22546926.9034   22546933.4054
       182.0004        182.0004
  -3897012.17748  -3026587.77546  22993671.851    22993672.0714   22993677.5084
       167.0004        168.0004
    129026.85847    136791.69245  24514236.177    24514237.1174   24514246.0154
       137.0004        142.0004
 -15017612.17549 -11668716.01947  21647124.298    21647124.0904   21647131.1194
       196.0004        196.0004
 -11127456.17548  -8658228.46446  22248165.734    22248164.6104   22248170.4964
       178.0004        178.0004
  -3547868.53847  -2750812.99845  24367864.166    24367862.9564   24367866.7074
       149.0004        152.0004
 21  2  4  1 13  0.0000000  0 10G01G28G17G08G09G14G04G30G21G19
 -20617275.02849 -16044971.97947  20822904.774    20822905.9704   20822913.8124
       197.0004        197.0004
  -2191733.19547  -1690124.02845  23460776.511    23460776.5534   23460777.6504
       153.0004        156.0004
 -12230344.05248  -9505161.36746  22198421.331    22198421.0944   22198425.5824
       185.0004        187.0004
  -3781990.03948  -2918385.41946  23674381.609    23674382.5004   23674390.1684
       179.0004        179.0004
  -9800854.05448  -7604568.21146  22561716.765    22561716.8834   22561723.9194
       181.0004        182.0004
  -3925417.76548  -3048721.99046  22988266.676    22988267.0184   22988272.2004
       167.0004        167.0004
    223614.46847    210496.08045  24532236.820    24532237.2304   24532246.5134
       138.0004        143.0004
 -15094185.25649 -11728383.33347  21632551.157    21632551.5154   21632559.4964
       195.0004        195.0004
 -11076656.62148  -8618644.39046  22257831.788    22257832.1174   22257836.7564
       178.0004        178.0004
  -3633206.98947  -2817310.34745  24351625.099    24351624.3424   24351627.9834
       151.0004        155.0004
 21  2  4  1 13 30.0000000  0 10G01G28G17G08G09G14G04G30G21G19
 -20637964.04949 -16061093.27747  20818968.125    20818969.1174   20818976.8204
       197.0004        197.0004
  -2209412.01947  -1703899.73945  23457409.538    23457409.5404   23457413.0214
       153.0004        155.0004
 -12280173.19348  -9543989.23046  22188938.649    22188938.6464   22188943.5044
       186.0004        186.0004
  -3687703.28248  -2844915.23046  23692325.478    23692324.7024   23692332.9304
       179.0004        180.0004
  -9723013.03548  -7543912.87346  22576529.543    22576529.6064   22576537.4164
       182.0004        182.0004
  -3953885.69148  -3070904.78446  22982849.687    22982850.3014   22982854.4794
       167.0004        168.0004
    318066.46347    284094.79645  24550209.861    24550211.7714   24550220.9454
       139.0004        144.0004
 -15170514.49249 -11787860.64747  21618027.297    21618027.2174   21618034.1974
       195.0004        196.0004
 -11025397.44048  -8578702.15846  22267586.944    22267586.0074   22267591.4514
       178.0004        178.0004
  -3718297.92147  -2883614.84845  24335430.955    24335430.7304   24335436.2454
       152.0004        154.0004
 21  2  4  1 14  0.0000000  0 10G01G28G17G08G09G14G04G30G21G19
 -20658091.30549 -16076776.84647  20815138.915    20815139.3604   20815146.5354
       197.0004        197.0004
  -2227173.31447  -1717739.69145  23454026.823    23454027.5944   23454033.0284
       151.0004        152.0004
 -12329587.33148  -9582493.74546  22179534.874    22179535.6554   22179540.2494
       186.0004        187.0004
  -3593457.39648  -2771476.91646  23710259.235    23710258.9114   23710267.1564
       178.0004        178.0004
  -9645058.21748  -7483168.88046  22591363.466    22591364.4214   22591371.3724
       181.0004        182.0004
  -3982416.29248  -3093136.42646  22977420.502    22977420.3464   22977425.9364
       169.0004        171.0004
    412380.81147    357586.25045  24568157.920    24568159.4824   24568166.4104
       139.0004        143.0004
 -15246597.02349 -11847145.74147  21603549.303    21603549.6244   21603556.4104
       196.0004        196.0004
 -10973679.87648  -8538402.76146  22277428.052    22277428.1274   22277433.0814
       177.0004        176.0004
  -3803139.63947  -2949725.12245  24319285.452    24319285.1134   24319290.9444
       151.0004        154.0004
 21  2  4  1 14 30.0000000  0 10G01G28G17G08G09G14G04G30G21G19
 -20677653.52249 -16092020.11747  20811416.010    20811416.7944   20811424.5194
       198.0004        198.0004
  -2245016.31447  -1731643.30545  23450633.318    23450632.6994   23450636.3974
       148.0004        151.0004
 -12378584.49748  -9620673.33146  22170210.765    22170211.0964   22170216.1324
       185.0004        184.0004
  -3499252.77648  -2698070.72246  23728182.143    23728183.5284   23728193.6184
       177.0004        177.0004
  -9566991.10248  -7422337.37946  22606219.587    22606219.6024   22606226.7834
       181.0004        181.0004
  -4011008.54448  -3115416.09546  22971978.967    22971979.3094   22971984.2734
       170.0004        170.0004
    506556.87147    430969.94245  24586079.565    24586078.8594   24586087.4014
       137.0004        141.0004
 -15322428.59949 -11906235.27547  21589119.344    21589119.5194   21589126.4694
       196.0004        196.0004
 -10921502.80848  -8497745.29646  22287357.754    22287356.7914   22287362.9584
       177.0004        178.0004
  -3887728.94947  -3015638.74045  24303190.397    24303189.5724   24303194.1654
       152.0004        155.0004
 21  2  4  1 15  0.0000000  0 10G01G28G17G08G09G14G04G30G21G19
 -20696649.81849 -16106822.40647  20807800.653    20807801.7824   20807809.2284
       198.0004        198.0004
  -2262943.07847  -1745612.20345  23447223.468    23447224.0434   23447226.5604
       149.0004        153.0004
 -12427165.23748  -9658528.42646  22160966.620    22160967.1664   22160971.8894
       184.0004        184.0004
  -3405092.21148  -2624698.88846  23746100.404    23746101.6944   23746111.6654
       175.0004        175.0004
  -9488815.42048  -7361421.25646  22621095.499    22621096.3584   22621103.2864
       181.0004        182.0004
  -4039663.79748  -3137744.83846  22966526.112    22966526.9204   22966531.7424
       170.0004        171.0004
    600591.57747    504243.48745  24603973.809    24603974.3024   24603981.0514
       136.0004        141.0004
 -15398007.32649 -11965127.77447  21574737.238    21574736.6864   21574743.9294
       196.0004        196.0004
 -10868868.59048  -8456731.60946  22297372.844    22297373.0224   22297379.3404
       177.0004        178.0004
  -3972065.16747  -3081355.16345  24287140.960    24287140.9064   24287146.2524
       153.0004        156.0004
 21  2  4  1 15 30.0000000  0 10G01G28G17G08G09G14G04G30G21G19
 -20715079.34949 -16121183.07047  20804293.541    20804294.9334   20804302.3894
       198.0004        199.0004
  -2280955.89447  -1759648.14745  23443794.909    23443795.3154   23443800.0614
       152.0004        156.0004
 -12475330.36448  -9696059.67946  22151801.932    22151801.9094   22151806.0844
       185.0004        185.0004
  -3310978.89048  -2551363.86146  23764012.019    23764012.0004   23764021.4384
       176.0004        178.0004
  -9410534.88648  -7300423.44646  22635992.610    22635992.4864   22635999.5284
       181.0004        182.0004
  -4068383.38348  -3160123.72346  22961061.337    22961061.9054   22961066.5844
       170.0004        171.0004
    694481.99947    577404.56645  24621841.053    24621842.7434   24621847.7804
       135.0004        141.0004
 -15473331.25049 -12023821.76147  21560403.094    21560403.4664   21560409.8804
       196.0004        196.0004
 -10815779.43748  -8415363.43746  22307476.083    22307474.8124   22307479.4854
       177.0004        177.0004
  -4056148.24047  -3146874.32945  24271139.133    24271139.0974   24271145.3124
       152.0004        153.0004
 21  2  4  1 16  0.0000000  0 10G01G28G17G08G09G14G04G30G21G19
 -20732940.58249 -16135100.90547  20800895.778    20800896.1604   20800903.4544
       198.0004        198.0004
  -2299055.39547  -1773751.64045  23440351.066    23440351.0414   23440355.8914
       155.0004        158.0004
 -12523079.83248  -9733267.03046  22142715.171    22142715.2344   22142719.7234
       185.0004        186.0004
  -3216914.47748  -2478066.95446  23781911.829    23781912.4034   23781920.6924
       176.0004        176.0004
  -9332152.53948  -7239346.30246  22650907.089    22650907.2414   22650915.5124
       181.0004        181.0004
  -4097167.83648  -3182553.15946  22955584.383    22955583.9314   22955588.8964
       170.0004        171.0004
    788225.80747    650451.44445  24639679.552    24639680.2884   24639688.2544
       137.0004        142.0004
 -15548397.71449 -12082315.10547  21546118.703    21546118.9714   21546126.0374
       196.0004        197.0004
 -10762236.92848  -8373642.00346  22317664.709    22317664.6564   22317669.7104
       176.0004        176.0004
  -4139976.77747  -3212195.15645  24255188.256    24255187.6194   24255190.9214
       147.0004        149.0004
 21  2  4  1 16 30.0000000  0 10G01G28G17G08G09G14G04G30G21G19
 -20750232.45549 -16148575.07347  20797604.065    20797604.6334   20797612.8104
       198.0004        197.0004
  -2317243.41547  -1787924.09545  23436889.856    23436890.2934   23436894.5514
       155.0004        158.0004
 -12570413.87448  -9770150.68946  22133707.097    22133707.9064   22133712.1084
       185.0004        185.0004
  -3122901.87448  -2404810.36246  23799802.082    23799802.5594   23799811.9414
       176.0004        177.0004
  -9253671.90348  -7178192.58146  22665841.805    22665842.4364   22665850.3124
       181.0004        183.0004
  -4126018.26648  -3205034.03746  22950093.513    22950094.0584   22950097.9424
       169.0004        170.0004
    881820.25647    723381.89245  24657490.718    24657492.3564   24657498.7774
       139.0004        143.0004
 -15623204.57149 -12140606.15147  21531883.202    21531883.5264   21531890.5204
       197.0004        198.0004
 -10708243.01648  -8331568.80946  22327940.006    22327939.2944   22327944.5254
       176.0004        177.0004
  -4223550.70547  -3277317.58345  24239284.074    24239282.7124   24239289.3104
       147.0004        150.0004
 21  2  4  1 17  0.0000000  0 10G01G28G17G08G09G14G04G30G21G19
 -20766952.58749 -16161603.74847  20794422.772    20794423.9204   20794430.9594
       198.0004        198.0004
  -2335519.86047  -1802165.47345  23433413.144    23433413.0784   23433416.3464
       155.0004        156.0004
 -12617331.68348  -9806710.01147  22124779.557    22124780.2884   22124783.9054
       187.0004        188.0004
  -3028941.91448  -2331594.83746  23817682.269    23817682.9884   23817691.1554
       176.0004        177.0004
  -9175095.08248  -7116963.90446  22680795.355    22680795.4394   22680802.4564
       181.0004        181.0004
  -4154934.33948  -3227566.02446  22944590.758    22944591.1174   22944595.0504
       169.0004        170.0004
    975264.01847    796194.91745  24675271.882    24675273.2254   24675281.5944
       139.0004        144.0004
 -15697748.29049 -12198692.16047  21517698.094    21517698.0734   21517705.1824
       198.0004        199.0004
 -10653797.97448  -8289144.10546  22338299.812    22338298.9314   22338304.8394
       175.0004        176.0004
  -4306866.54347  -3342238.89845  24223430.348    24223429.0304   24223434.7774
       147.0004        150.0004
 21  2  4  1 17 30.0000000  0 10G01G28G17G08G09G14G04G30G21G19
 -20783099.70549 -16174185.90347  20791350.160    20791350.9654   20791358.6094
       198.0004        198.0004
  -2353886.43747  -1816477.07845  23429916.966    23429916.2194   23429921.3404
       154.0004        157.0004
 -12663833.37848  -9842945.05647  22115930.410    22115931.2504   22115935.4704
       187.0004        188.0004
  -2935037.09348  -2258422.27846  23835553.128    23835552.2914   23835560.4034
       175.0004        175.0004
  -9096425.24448  -7055662.74046  22695765.327    22695765.4944   22695772.5324
       180.0004        180.0004
  -4183916.74848  -3250149.69946  22939076.211    22939077.0134   22939081.9444
       171.0004        173.0004
   1068554.71647    868888.62345  24693025.060    24693026.0574   24693034.3614
       138.0004        143.0004
 -15772026.38049 -12256571.18447  21503563.693    21503563.8244   21503570.7994
       198.0004        199.0004
 -10598903.40048  -8246369.10546  22348745.162    22348744.7864   22348750.0294
       175.0004        176.0004
  -4389923.62047  -3406958.61445  24207624.863    24207624.7234   24207628.2764
       148.0004        152.0004
 21  2  4  1 18  0.0000000  0 10G01G28G17G08G09G14G04G30G21G19
 -20798672.33549 -16186320.41847  20788387.174    20788387.6594   20788395.4094
       199.0004        199.0004
  -2372343.89047  -1830859.49445  23426405.068    23426405.0264   23426409.1754
       155.0004        157.0004
 -12709919.01448  -9878855.93647  22107160.710    22107160.8674   22107166.3664
       187.0004        188.0004
  -2841188.99848  -2185293.90746  23853409.896    23853410.3064   23853418.7484
       172.0004        173.0004
  -9017665.40648  -6994291.45346  22710752.605    22710753.2424   22710760.5084
       179.0004        180.0004
  -4212966.07648  -3272785.53546  22933548.196    22933547.8764   22933553.7674
       171.0004        171.0004
   1161690.09147    941461.28645  24710747.384    24710748.9624   24710755.5864
       137.0004        140.0004
 -15846036.25149 -12314241.21347  21489479.751    21489479.9394   21489487.3564
       199.0004        199.0004
 -10543561.05648  -8203245.20246  22359276.502    22359276.6104   22359281.4994
       175.0004        175.0004
  -4472720.93847  -3471475.91945  24191869.798    24191868.4334   24191872.5134
       150.0004        153.0004
 21  2  4  1 18 30.0000000  0 10G01G28G17G08G09G14G04G30G21G19
 -20813667.56849 -16198004.99847  20785533.456    20785534.2514   20785541.5784
       199.0004        199.0004
  -2390891.59747  -1845312.26145  23422876.043    23422875.7214   23422878.0334
       156.0004        158.0004
 -12755586.93948  -9914441.31547  22098470.709    22098471.1684   22098475.4644
       188.0004        189.0004
  -2747398.86748  -2112210.70946  23871259.395    23871258.3854   23871266.8054
       172.0004        172.0004
  -8938817.08448  -6932851.19746  22725756.566    22725757.1474   22725764.7214
       179.0004        179.0004
  -4242081.31648  -3295472.73446  22928007.474    22928007.8884   22928012.2424
       170.0004        170.0004
   1254669.43947   1013912.33545  24728442.634    24728442.4424   24728451.0564
       136.0004        142.0004
 -15919773.72749 -12371698.97247  21475448.172    21475448.2874   21475454.6354
       199.0004        199.0004
 -10487770.81248  -8159772.27346  22369893.634    22369892.9834   22369897.9524
       174.0004        175.0004
  -4555255.82347  -3535788.72445  24176162.225    24176161.8104   24176167.1814
       151.0004        155.0004
 21  2  4  1 19  0.0000000  0  9G01G28G17G08G09G14G30G21G19
 -20828083.33749 -16209238.04447  20782789.520    20782790.6874   20782798.5064
       199.0004        199.0004
  -2409530.25547  -1859835.85245  23419327.870    23419326.9764   23419331.7574
       155.0004        157.0004
 -12800836.39848  -9949700.60947  22089859.295    22089859.7944   22089864.8014
       188.0004        188.0004
  -2653667.28448  -2039173.16846  23889095.873    23889095.2074   23889103.2624
       173.0004        174.0004
  -8859882.62248  -6871343.83546  22740777.339    22740778.3884   22740785.8564
       178.0004        179.0004
  -4271262.38448  -3318211.23946  22922454.747    22922455.2764   22922459.7434
       170.0004        171.0004
 -15993235.48849 -12428941.90947  21461468.783    21461468.7674   21461475.0544
       199.0004        199.0004
 -10431533.99648  -8115951.36646  22380595.657    22380595.5904   22380599.5304
       175.0004        175.0004
  -4637526.33947  -3599895.50845  24160507.543    24160506.7024   24160511.5614
       154.0004        158.0004
 21  2  4  1 19 30.0000000  0  9G01G28G17G08G09G14G30G21G19
 -20841918.79249 -16220018.91647  20780157.479    20780157.5214   20780165.3854
       199.0004        199.0004
  -2428261.36747  -1874431.49645  23415763.660    23415762.9684   23415767.7064
       155.0004        158.0004
 -12845668.31248  -9984634.55147  22081328.220    22081329.0084   22081333.2294
       188.0004        190.0004
  -2559997.05248  -1966183.36646  23906920.628    23906921.0434   23906928.1904
       177.0004        179.0004
  -8780865.48548  -6809772.04746  22755815.538    22755815.2504   22755821.8184
       178.0004        179.0004
  -4300510.28348  -3341001.80146  22916887.711    22916888.2854   22916892.8334
       169.0004        168.0004
 -16066419.42449 -12485968.36847  21447541.990    21447542.1094   21447549.5704
       200.0004        200.0004
 -10374851.85948  -8071783.46646  22391381.158    22391380.6474   22391384.7384
       174.0004        174.0004
  -4719531.71047  -3663795.66945  24144901.047    24144900.9644   24144906.0354
       153.0004        155.0004
 21  2  4  1 20  0.0000000  0  9G01G28G17G08G09G14G30G21G19
 -20855174.90849 -16230348.35347  20777634.318    20777635.5014   20777643.3954
       198.0004        199.0004
  -2447087.78947  -1889101.42345  23412181.865    23412181.3774   23412184.1774
       156.0004        158.0004
 -12890084.36248 -10019244.44047  22072876.382    22072876.6744   22072881.6754
       190.0004        191.0004
  -2466392.33148  -1893244.65046  23924734.195    23924733.3764   23924741.4704
       177.0004        177.0004
  -8701771.01148  -6748140.03046  22770864.668    22770865.6714   22770873.2794
       178.0004        178.0004
  -4329827.76848  -3363846.59646  22911309.078    22911309.3844   22911314.7964
       169.0004        170.0004
 -16139325.16049 -12542778.04247  21433669.261    21433669.2974   21433676.0924
       200.0004        201.0004
 -10317728.14348  -8027271.47846  22402252.255    22402251.5024   22402256.2984
       174.0004        174.0004
  -4801273.00347  -3727490.11345  24129346.773    24129345.8994   24129351.2754
       154.0004        156.0004
 21  2  4  1 20 30.0000000  0  9G01G28G17G08G09G14G30G21G19
 -20867849.28249 -16240224.47447  20775223.255    20775223.1254   20775231.2054
       199.0004        199.0004
  -2466009.86447  -1903845.90345  23408581.397    23408580.9474   23408585.2224
       157.0004        160.0004
 -12934084.22448 -10053530.03647  22064502.834    22064503.2214   22064508.7024
       190.0004        190.0004
  -2372854.32648  -1820357.86646  23942532.826    23942533.2244   23942540.4054
       176.0004        176.0004
  -8622601.01048  -6686449.15646  22785930.728    22785931.7444   22785938.5524
       177.0004        177.0004
  -4359214.27848  -3386745.18846  22905717.806    22905717.3604   22905722.5504
       170.0004        170.0004
 -16211948.95049 -12599368.00947  21419849.179    21419848.9034   21419856.1154
       201.0004        201.0004
 -10260163.71748  -7982416.07646  22413206.378    22413206.2714   22413210.0384
       174.0004        175.0004
  -4882748.06047  -3790977.07745  24113841.437    24113841.1404   24113847.7994
       152.0004        154.0004
 21  2  4  1 21  0.0000000  0  9G01G28G17G08G09G14G30G21G19
 -20879940.59449 -16249646.26547  20772921.758    20772922.7034   20772930.1284
       199.0004        199.0004
  -2485028.42147  -1918665.53145  23404961.614    23404961.0414   23404964.9894
       156.0004        157.0004
 -12977667.26748 -10087490.83047  22056209.571    22056210.2544   22056214.3364
       190.0004        190.0004
  -2279384.61948  -1747524.35246  23960319.073    23960319.9224   23960327.3394
       176.0004        177.0004
  -8543358.42748  -6624701.66846  22801009.688    22801009.7584   22801018.3904
       176.0004        176.0004
  -4388670.22248  -3409697.85746  22900112.281    22900113.4164   22900117.8984
       169.0004        170.0004
 -16284288.11749 -12655736.18547  21406083.110    21406083.3354   21406090.4414
       200.0004        200.0004
 -10202160.22548  -7937218.52746  22424243.818    22424243.9144   22424247.1084
       173.0004        174.0004
  -4963955.56047  -3854255.56745  24098390.597    24098390.4414   24098393.9524
       154.0004        158.0004
 21  2  4  1 21 30.0000000  0  9G01G28G17G08G09G14G30G21G19
 -20891447.15149 -16258612.40947  20770733.005    20770732.9664   20770740.5894
       199.0004        199.0004
  -2504144.03547  -1933560.81345  23401322.734    23401323.9424   23401329.0564
       154.0004        156.0004
 -13020834.03248 -10121127.23747  22047995.177    22047995.8254   22048000.0624
       190.0004        190.0004
  -2185984.91148  -1674745.36646  23978092.366    23978092.4434   23978100.0154
       175.0004        175.0004
  -8464045.87248  -6562899.72946  22816103.187    22816103.6284   22816111.0044
       176.0004        176.0004
  -4418195.63448  -3432704.65146  22894493.514    22894493.6794   22894497.9774
       168.0004        169.0004
 -16356339.60449 -12711880.18847  21392372.172    21392371.7524   21392379.0364
       200.0004        199.0004
 -10143719.13548  -7891679.99946  22435364.798    22435364.2434   22435367.9524
       173.0004        174.0004
  -5044894.17047  -3917324.54545  24082987.137    24082986.8104   24082991.3834
       155.0004        157.0004
 21  2  4  1 22  0.0000000  0  9G01G28G17G08G09G14G30G21G19
 -20902367.14049 -16267121.48947  20768653.564    20768654.7014   20768663.0574
       199.0004        199.0004
  -2523357.05647  -1948532.00045  23397667.538    23397667.3934   23397671.5154
       154.0004        157.0004
 -13063583.89348 -10154438.80047  22039860.777    22039860.9424   22039865.6894
       190.0004        190.0004
  -2092656.42148  -1602021.89846  23995853.159    23995852.6474   23995859.8094
       172.0004        172.0004
  -8384665.65648  -6501045.03846  22831208.603    22831209.5854   22831216.0414
       175.0004        176.0004
  -4447790.39548  -3455765.50246  22888862.229    22888862.8994   22888867.4364
       169.0004        171.0004
 -16428100.14349 -12767797.50047  21378716.615    21378716.7874   21378723.6594
       200.0004        200.0004
 -10084841.18448  -7845801.05846  22446569.608    22446569.2234   22446572.2694
       173.0004        174.0004
  -5125561.93447  -3980182.42645  24067636.964    24067636.5954   24067641.5234
       155.0004        158.0004
 21  2  4  1 22 30.0000000  0  9G01G28G17G08G09G14G30G21G19
 -20912701.11549 -16275173.94147  20766688.575    20766689.0624   20766696.4784
       199.0004        200.0004
  -2542670.09347  -1963581.08445  23393993.187    23393992.2494   23393996.7674
       154.0004        157.0004
 -13105918.31748 -10187426.66247  22031804.748    22031804.9714   22031809.6794
       190.0004        191.0004
  -1999402.93848  -1529356.86546  24013599.816    24013598.8204   24013605.3994
       173.0004        174.0004
  -8305222.48148  -6439141.25646  22846326.015    22846326.4154   22846332.9344
       175.0004        175.0004
  -4477456.71648  -3478882.11846  22883217.000    22883217.3544   22883221.9664
       169.0004        170.0004
 -16499568.89949 -12823487.45347  21365116.942    21365116.6994   21365123.6944
       200.0004        200.0004
 -10025529.07148  -7799583.82946  22457856.205    22457855.0484   22457858.8244
       172.0004        172.0004
  -5205959.63147  -4042829.89845  24052338.108    24052337.1474   24052342.6774
       157.0004        159.0004
 21  2  4  1 23  0.0000000  0  9G01G28G17G08G09G14G30G21G19
 -20922446.23649 -16282767.52347  20764833.558    20764833.9804   20764841.7234
       199.0004        200.0004
  -2562082.46947  -1978707.58145  23390298.914    23390298.1164   23390302.2484
       156.0004        159.0004
 -13147836.01948 -10220089.79147  22023827.580    22023828.2674   22023832.6904
       190.0004        190.0004
  -1906224.34048  -1456750.16046  24031327.933    24031327.8954   24031335.9034
       170.0004        170.0004
  -8225717.60148  -6377189.37246  22861454.818    22861455.5724   22861463.0014
       174.0004        174.0004
  -4507193.41448  -3502053.56346  22877556.471    22877558.0984   22877562.3864
       168.0004        168.0004
 -16570741.55749 -12878946.65847  21351572.276    21351572.7054   21351580.4774
       200.0004        200.0004
  -9965783.48548  -7753028.79946  22469224.177    22469224.4504   22469228.1124
       172.0004        173.0004
  -5286084.40847  -4105264.67145  24037090.206    24037089.4244   24037094.6934
       156.0004        158.0004
 21  2  4  1 23 30.0000000  0  9G01G28G17G08G09G14G30G21G19
 -20931600.46449 -16289900.68047  20763090.971    20763092.2404   20763099.7844
       199.0004        199.0004
  -2581594.35747  -1993911.63045  23386585.908    23386583.8814   23386589.4344
       155.0004        155.0004
 -13189336.22248 -10252427.59747  22015930.596    22015931.1804   22015934.9944
       190.0004        190.0004
  -1813122.02548  -1384202.90646  24049043.399    24049045.0604   24049054.5654
       174.0004        176.0004
  -8146153.11548  -6315191.04446  22876595.400    22876596.1464   22876604.1424
       174.0004        176.0004
  -4536999.96648  -3525279.44546  22871886.548    22871886.9534   22871891.6314
       169.0004        170.0004
 -16641614.54249 -12934172.36247  21338086.388    21338086.6664   21338093.6134
       200.0004        201.0004
  -9905605.26448  -7706136.67546  22480676.107    22480675.9444   22480679.1504
       172.0004        172.0004
  -5365933.94147  -4167485.03445  24021895.177    24021894.3474   24021898.6224
       155.0004        158.0004
 21  2  4  1 24  0.0000000  0  9G01G28G17G08G09G14G30G21G19
 -20940163.09249 -16296572.85747  20761462.335    20761462.8864   20761470.3784
       199.0004        200.0004
  -2601207.11847  -2009194.30845  23382853.536    23382852.6644   23382857.5794
       153.0004        157.0004
 -13230419.41648 -10284440.47247  22008112.513    22008112.6004   22008116.2774
       189.0004        188.0004
  -1720098.17348  -1311716.83246  24066745.588    24066745.8664   24066756.2474
       172.0004        173.0004
  -8066532.33948  -6253148.85946  22891747.924    22891748.2834   22891755.5274
       176.0004        177.0004
  -4566877.21448  -3548560.42846  22866201.094    22866201.1774   22866205.5194
       169.0004        170.0004
 -16712185.65249 -12989162.83747  21324657.175    21324657.3494   21324664.3374
       201.0004        201.0004
  -9844996.02748  -7658908.71246  22492210.312    22492210.0294   22492212.5434
       171.0004        172.0004
  -5445507.85147  -4229490.58845  24006753.255    24006752.4234   24006755.0474
       156.0004        158.0004
 21  2  4  1 24 30.0000000  0  9G01G28G17G08G09G14G30G21G19
 -20948133.34349 -16302783.42847  20759944.935    20759945.8934   20759953.5434
       199.0004        199.0004
  -2620921.85847  -2024556.45745  23379101.630    23379100.8884   23379106.3244
       156.0004        160.0004
 -13271086.31548 -10316128.93547  22000373.757    22000374.2164   22000378.5854
       188.0004        188.0004
  -1627154.76248  -1239293.43846  24084432.583    24084433.6344   24084442.4484
       172.0004        172.0004
  -7986858.57548  -6191065.39446  22906908.632    22906908.6774   22906916.8034
       175.0004        175.0004
  -4596825.88948  -3571897.04346  22860501.034    22860502.4104   22860506.3564
       169.0004        169.0004
 -16782452.51549 -13043916.23947  21311285.500    21311286.0224   21311292.7064
       201.0004        201.0004
  -9783958.23648  -7611346.78046  22503825.332    22503824.1084   22503827.9184
       172.0004        172.0004
  -5524805.36047  -4291280.77745  23991663.346    23991663.2664   23991665.1654
       155.0004        156.0004
 21  2  4  1 25  0.0000000  0  9G01G28G17G08G09G14G30G21G19
 -20955510.93049 -16308532.19447  20758541.823    20758542.3864   20758549.5224
       199.0004        199.0004
  -2640740.27147  -2039999.36945  23375329.527    23375329.7394   23375335.0914
       156.0004        157.0004
 -13311337.95848 -10347493.83947  21992714.143    21992714.1794   21992718.6314
       188.0004        188.0004
  -1534294.81248  -1166935.04146  24102104.609    24102104.7374   24102113.3844
       173.0004        174.0004
  -7907135.50548  -6128943.53246  22922080.214    22922080.1134   22922087.1674
       174.0004        175.0004
  -4626847.14248  -3595290.23946  22854789.044    22854789.3454   22854794.9094
       170.0004        171.0004
 -16852413.32649 -13098431.16547  21297973.063    21297972.8634   21297979.4244
       201.0004        201.0004
  -9722493.96648  -7563452.54646  22515520.897    22515520.8894   22515524.2714
       171.0004        173.0004
  -5603826.15247  -4352855.33645  23976624.888    23976623.9594   23976626.4204
       152.0004        154.0004
 21  2  4  1 25 30.0000000  0  9G01G28G17G08G09G14G30G21G19
 -20962293.80549 -16313817.54647  20757251.209    20757251.5114   20757258.8114
       199.0004        199.0004
  -2660662.30647  -2055523.00845  23371539.291    23371538.8794   23371543.9244
       155.0004        158.0004
 -13351173.51048 -10378534.50547  21985133.609    21985133.7914   21985138.4384
       188.0004        189.0004
  -1441518.63848  -1094641.98546  24119760.386    24119760.0204   24119767.9444
       172.0004        174.0004
  -7827365.04748  -6066784.72246  22937257.933    22937258.7494   22937265.9664
       172.0004        173.0004
  -4656940.36348  -3618739.47746  22849061.912    22849063.3584   22849067.6624
       170.0004        172.0004
 -16922064.40949 -13152704.73747  21284717.819    21284718.2614   21284725.6164
       201.0004        201.0004
  -9660603.97848  -7515226.58246  22527298.590    22527298.4954   22527301.6194
       171.0004        172.0004
  -5682568.08647  -4414212.61145  23961641.584    23961640.5534   23961645.4704
       156.0004        159.0004
 21  2  4  1 26  0.0000000  0  9G01G28G17G08G09G14G30G21G19
 -20968482.12549 -16318639.58847  20756072.523    20756073.2894   20756081.1124
       199.0004        199.0004
  -2680689.90347  -2071128.92645  23367728.452    23367727.9864   23367732.0114
       155.0004        157.0004
 -13390594.59148 -10409252.23047  21977632.789    21977632.9744   21977636.4894
       189.0004        188.0004
  -1348829.84448  -1022416.95346  24137399.623    24137398.8134   24137407.1604
       176.0004        178.0004
  -7747551.25548  -6004592.17946  22952448.261    22952448.2684   22952455.2004
       174.0004        176.0004
  -4687107.00448  -3642245.95746  22843321.910    22843322.8534   22843326.0764
       170.0004        169.0004
 -16991404.30949 -13206735.82147  21271523.699    21271523.3884   21271530.5294
       201.0004        201.0004
  -9598291.57648  -7466671.43346  22539157.450    22539155.8834   22539159.1634
       172.0004        173.0004
  -5761031.33947  -4475352.70045  23946709.237    23946709.1354   23946713.5504
       156.0004        158.0004
 21  2  4  1 26 30.0000000  0  9G01G28G17G08G09G14G30G21G19
 -20974074.41749 -16322997.20347  20755008.786    20755009.5724   20755016.7014
       198.0004        198.0004
  -2700823.58847  -2086817.48645  23363897.365    23363896.4884   23363900.7824
       155.0004        158.0004
 -13429600.65948 -10439646.56447  21970209.427    21970209.8014   21970214.5584
       189.0004        189.0004
  -1256229.16648   -950260.62846  24155018.525    24155019.4054   24155027.7284
       174.0004        175.0004
  -7667696.48448  -5942367.68546  22967643.976    22967644.2904   22967650.8604
       174.0004        175.0004
  -4717347.01348  -3665809.58846  22837567.262    22837566.9864   22837572.2804
       168.0004        168.0004
 -17060429.86049 -13260521.97547  21258387.868    21258388.5134   21258395.4954
       201.0004        202.0004
  -9535557.73648  -7417787.92346  22551094.195    22551094.1514   22551097.5874
       172.0004        174.0004
  -5839214.28147  -4536274.41845  23931832.936    23931832.6304   23931836.2714
       158.0004        161.0004
 21  2  4  1 27  0.0000000  0  9G01G28G17G08G09G14G30G21G19
 -20979068.73849 -16326888.86547  20754058.269    20754059.0614   20754066.6864
       198.0004        199.0004
  -2721063.16947  -2102588.53245  23360045.890    23360046.4414   23360048.0984
       156.0004        158.0004
 -13468191.50848 -10469717.34146  21962866.284    21962866.0464   21962869.8214
       188.0004        187.0004
  -1163717.41048   -878173.57046  24172623.661    24172623.3364   24172632.5734
       176.0004        177.0004
  -7587802.62648  -5880112.71246  22982845.788    22982846.3964   22982855.4344
       173.0004        174.0004
  -4747659.70148  -3689429.85846  22831798.616    22831799.6714   22831803.0504
       168.0004        170.0004
 -17129137.45649 -13314060.35147  21245314.096    21245313.7604   21245321.3984
       202.0004        202.0004
  -9472403.39748  -7368576.74446  22563111.929    22563110.8354   22563116.0314
       173.0004        174.0004
  -5917114.97847  -4596976.17045  23917008.489    23917007.4914   23917012.4384
       157.0004        158.0004
 21  2  4  1 27 30.0000000  0  9G01G28G17G08G09G14G30G21G19
 -20983464.21249 -16330313.90247  20753222.322    20753222.6304   20753230.2894
       199.0004        199.0004
  -2741409.50747  -2118442.85845  23356173.696    23356172.9374   23356178.5614
       155.0004        158.0004
 -13506367.30948 -10499464.69546  21955600.352    21955601.2634   21955605.3544
       187.0004        187.0004
  -1071297.13748   -806157.82946  24190211.454    24190211.1814   24190218.3984
       174.0004        174.0004
  -7507872.70548  -5817829.66046  22998056.724    22998057.4944   22998065.1094
       174.0004        175.0004
  -4778045.41048  -3713107.04746  22826017.363    22826017.5044   22826022.1214
       170.0004        171.0004
 -17197524.50349 -13367348.96547  21232300.115    21232300.2144   21232307.2814
       202.0004        202.0004
  -9408830.04548  -7319039.04646  22575209.127    22575209.7754   22575213.2784
       173.0004        174.0004
  -5994732.35247  -4657457.17545  23902237.957    23902237.0864   23902242.2154
       158.0004        160.0004
 21  2  4  1 28  0.0000000  0  9G01G28G17G08G09G14G30G21G19
 -20987259.83949 -16333271.51647  20752499.970    20752500.6864   20752508.4004
       199.0004        200.0004
  -2761863.47147  -2134380.99545  23352280.436    23352280.7434   23352284.8874
       153.0004        155.0004
 -13544128.00848 -10528888.60647  21948416.277    21948416.5854   21948419.9604
       188.0004        189.0004
   -978969.05348   -734213.89946  24207780.501    24207780.2074   24207789.3014
       172.0004        172.0004
  -7427909.45748  -5755520.67146  23013273.955    23013274.3574   23013280.3694
       173.0004        173.0004
  -4808504.46948  -3736841.37346  22820219.936    22820220.7744   22820226.2904
       169.0004        170.0004
 -17265588.30149 -13420385.69347  21219347.118    21219347.6304   21219355.1914
       201.0004        202.0004
  -9344839.47848  -7269176.26346  22587386.653    22587386.6844   22587391.0604
       174.0004        175.0004
  -6072065.26847  -4717716.50446  23887523.354    23887522.8044   23887526.5424
       160.0004        163.0004
 21  2  4  1 28 30.0000000  0  9G01G28G17G08G09G14G30G21G19
 -20990455.50749 -16335761.63947  20751890.992    20751892.0264   20751900.2974
       199.0004        199.0004
  -2782426.60047  -2150404.21845  23348368.848    23348368.9694   23348371.8994
       153.0004        156.0004
 -13581475.04348 -10557990.17647  21941308.414    21941309.3174   21941313.4474
       189.0004        190.0004
   -886735.91848   -662343.95446  24225329.346    24225331.1384   24225341.1284
       173.0004        175.0004
  -7347916.47048  -5693188.50446  23028496.677    23028496.7474   23028502.9134
       172.0004        172.0004
  -4839037.90748  -3760633.64646  22814410.134    22814410.7464   22814414.9664
       168.0004        169.0004
 -17333326.99149 -13473169.08347  21206457.789    21206458.0014   21206465.3614
       202.0004        203.0004
  -9280434.17448  -7218990.30246  22599642.743    22599641.9424   22599647.1184
       174.0004        175.0004
  -6149113.44047  -4777753.99045  23872860.509    23872859.6124   23872864.1554
       159.0004        161.0004
 21  2  4  1 29  0.0000000  0  9G01G28G17G08G09G14G30G21G19
 -20993049.28049 -16337782.72847  20751397.989    20751398.7544   20751406.5314
       199.0004        199.0004
  -2803098.32747  -2166512.04945  23344435.505    23344434.9044   23344438.2954
       154.0004        157.0004
 -13618407.76548 -10586768.90847  21934279.700    21934281.0374   21934285.0594
       189.0004        189.0004
   -794598.45148   -590548.54146  24242863.893    24242864.6014   24242874.0364
       174.0004        175.0004
  -7267895.47648  -5630834.45746  23043722.260    23043723.1094   23043730.0874
       172.0004        173.0004
  -4869644.87248  -3784483.22146  22808586.035    22808586.6774   22808591.7454
       170.0004        171.0004
 -17400736.77149 -13525696.18847  21193631.023    21193630.3914   21193637.0514
       203.0004        203.0004
  -9215615.13548  -7168481.94246  22611978.196    22611976.6104   22611982.2384
       174.0004        176.0004
  -6225874.77747  -4837567.92046  23858254.332    23858253.1364   23858257.7244
       161.0004        163.0004
 21  2  4  1 29 30.0000000  0  9G01G28G17G08G09G14G30G21G19
 -20995040.80449 -16339334.55047  20751019.294    20751019.9304   20751027.3814
       199.0004        199.0004
  -2823880.17747  -2182705.66645  23340478.476    23340479.1344   23340484.4944
       155.0004        158.0004
 -13654926.86748 -10615225.34247  21927331.294    21927331.5554   21927335.8244
       189.0004        190.0004
   -702559.06248   -518829.56346  24260380.973    24260380.3244   24260387.8394
       174.0004        175.0004
  -7187849.82048  -5568461.21446  23058955.904    23058955.9094   23058963.0124
       172.0004        174.0004
  -4900326.12348  -3808390.65346  22802747.951    22802747.8594   22802752.8744
       170.0004        170.0004
 -17467815.55849 -13577965.37347  21180865.118    21180865.2844   21180872.6474
       203.0004        203.0004
  -9150384.49348  -7117652.87646  22624389.639    22624389.5324   22624395.5654
       174.0004        175.0004
  -6302349.10247  -4897158.22745  23843699.674    23843699.7384   23843705.6794
       160.0004        161.0004
 21  2  4  1 30  0.0000000  0  9G01G28G17G08G09G14G30G21G19
 -20996429.76549 -16340416.83147  20750754.349    20750755.2244   20750762.6554
       199.0004        199.0004
  -2844773.43547  -2198986.10645  23336502.985    23336502.7344   23336508.5954
       154.0004        158.0004
 -13691033.19548 -10643360.12747  21920460.827    21920461.1824   21920465.7734
       190.0004        191.0004
   -610619.65048   -447188.46446  24277875.531    24277875.2434   24277883.2324
       173.0004        173.0004
  -7107782.80948  -5506071.33646  23074191.006    23074191.8154   23074199.1664
       173.0004        174.0004
  -4931082.41348  -3832356.56046  22796894.616    22796895.8934   22796899.9894
       170.0004        170.0004
 -17534561.12849 -13629974.90547  21168163.736    21168164.2444   21168171.6384
       203.0004        204.0004
  -9084744.56648  -7066504.87246  22636880.523    22636880.0284   22636886.3164
       175.0004        175.0004
  -6378535.52247  -4956524.20245  23829202.821    23829202.7144   23829206.7784
       159.0004        161.0004
 21  2  4  1 30 30.0000000  0  9G01G28G17G08G09G14G30G21G19
 -20997214.08849 -16341027.97447  20750604.947    20750606.3514   20750613.5044
       199.0004        200.0004
  -2865777.55947  -2215352.94445  23332506.698    23332506.6244   23332510.0854
       153.0004        155.0004
 -13726725.90048 -10671172.60947  21913667.754    21913668.0844   21913672.6234
       190.0004        190.0004
   -518781.11748   -375626.00846  24295351.965    24295352.2034   24295359.6884
       173.0004        174.0004
  -7027695.96248  -5443666.00846  23089430.712    23089431.2024   23089439.2334
       171.0004        170.0004
  -4961912.66048  -3856380.13746  22791027.711    22791028.2174   22791033.1744
       169.0004        170.0004
 -17600969.57049 -13681721.74047  21155527.764    21155527.4134   21155534.5224
       204.0004        205.0004
  -9018696.05948  -7015038.52246  22649449.704    22649448.5504   22649454.3724
       175.0004        175.0004
  -6454431.89847  -5015664.17245  23814760.505    23814759.5644   23814764.8724
       160.0004        162.0004
 21  2  4  1 31  0.0000000  0  9G01G28G17G08G09G14G30G21G19
 -20997393.57049 -16341167.81747  20750571.813    20750572.1354   20750579.9554
       199.0004        200.0004
  -2886893.78247  -2231807.14445  23328487.289    23328487.7734   23328492.7674
       152.0004        155.0004
 -13762006.12248 -10698663.69547  21906954.653    21906954.9544   21906959.0174
       190.0004        190.0004
   -427045.24448   -304143.51446  24312808.211    24312807.9694   24312816.9884
       172.0004        173.0004
  -6947592.61148  -5381247.80446  23104674.960    23104675.0184   23104682.7674
       170.0004        172.0004
  -4992817.67848  -3880461.97546  22785146.662    22785147.1744   22785151.7654
       168.0004        169.0004
 -17667038.82449 -13733204.27647  21142954.253    21142954.3124   21142961.9174
       204.0004        204.0004
  -8952240.86548  -6963255.25846  22662094.771    22662094.8794   22662101.4614
       175.0004        176.0004
  -6530037.77747  -5074577.79145  23800373.243    23800371.9914   23800376.3474
       160.0004        161.0004
 21  2  4  1 31 30.0000000  0  9G01G28G17G08G09G14G30G21G19
 -20996967.67049 -16340835.93647  20750652.334    20750653.1974   20750660.8984
       200.0004        200.0004
  -2908123.00647  -2248349.38545  23324449.414    23324448.8174   23324453.9224
       154.0004        157.0004
 -13796874.49648 -10725833.83647  21900319.052    21900319.2784   21900323.8864
       190.0004        190.0004
   -335413.83348   -232742.44046  24330244.876    24330244.7804   24330253.0274
       169.0004        169.0004
  -6867475.69948  -5318819.03646  23119920.726    23119920.2514   23119928.6154
       171.0004        171.0004
  -5023797.78448  -3904602.30546  22779251.842    22779251.9304   22779257.0304
       168.0004        169.0004
 -17732766.35349 -13784420.52647  21130447.178    21130447.2864   21130454.2944
       204.0004        205.0004
  -8885381.32948  -6911156.91046  22674818.512    22674816.9374   22674823.7914
       175.0004        175.0004
  -6605352.28247  -5133264.36045  23786040.072    23786039.6354   23786044.6734
       160.0004        161.0004
 21  2  4  1 32  0.0000000  0  9G01G28G17G08G09G14G30G21G19
 -20995935.62849 -16340031.74947  20750849.024    20750849.7784   20750856.8424
       200.0004        200.0004
  -2929465.91947  -2264980.21445  23320386.678    23320386.1474   23320392.7654
       153.0004        155.0004
 -13831330.79648 -10752682.87347  21893762.506    21893762.7544   21893766.9434
       189.0004        189.0004
   -243888.46248   -161424.01046  24347663.195    24347662.3514   24347669.7444
       170.0004        172.0004
  -6787348.10948  -5256381.99246  23135168.727    23135168.9824   23135175.8854
       169.0004        170.0004
  -5054853.21048  -3928801.32746  22773342.279    22773342.5344   22773347.0994
       168.0004        169.0004
 -17798149.52449 -13835368.44747  21118005.836    21118005.2934   21118012.5164
       205.0004        206.0004
  -8818119.37048  -6858745.01546  22687617.213    22687617.0104   22687623.4024
       174.0004        175.0004
  -6680374.63347  -5191723.30145  23771763.796    23771763.4064   23771767.4194
       159.0004        162.0004
 21  2  4  1 32 30.0000000  0  9G01G28G17G08G09G14G30G21G19
 -20994296.79749 -16338754.72447  20751160.526    20751161.4084   20751168.7164
       199.0004        199.0004
  -2950923.29247  -2281700.24145  23316304.290    23316304.5604   23316307.5794
       152.0004        156.0004
 -13865375.93048 -10779211.52647  21887283.701    21887284.1834   21887288.9974
       189.0004        190.0004
   -152470.81848    -90189.52746  24365057.524    24365058.5234   24365066.1934
       170.0004        171.0004
  -6707212.51548  -5193938.69746  23150416.956    23150417.6144   23150424.5944
       168.0004        168.0004
  -5085984.15448  -3953059.19346  22767417.353    22767417.2244   22767424.0384
       168.0004        168.0004
 -17863185.76549 -13886046.01547  21105629.622    21105629.3884   21105636.4404
       206.0004        206.0004
  -8750456.90448  -6806021.02846  22700493.658    22700493.1474   22700499.1004
       174.0004        175.0004
  -6755103.86847  -5249953.80746  23757544.505    23757543.3334   23757547.8714
       161.0004        164.0004
 21  2  4  1 33  0.0000000  0  9G01G28G17G08G09G14G30G21G19
 -20992050.03349 -16337003.98347  20751587.908    20751588.4234   20751595.9074
       199.0004        200.0004
  -2972495.09947  -2298509.43645  23312199.411    23312199.0964   23312202.9784
       154.0004        156.0004
 -13899010.54448 -10805420.31347  21880883.682    21880883.9254   21880888.4304
       189.0004        191.0004
    -61161.68148    -19039.56246  24382433.473    24382433.4174   24382440.6764
       170.0004        170.0004
  -6627071.16048  -5131490.94346  23165668.048    23165668.1984   23165675.6974
       167.0004        169.0004
  -5117190.24548  -3977375.61346  22761478.378    22761480.1404   22761484.0774
       167.0004        168.0004
 -17927871.87649 -13936450.78047  21093320.306    21093320.0324   21093327.0314
       206.0004        206.0004
  -8682394.93548  -6752985.72446  22713445.409    22713444.8474   22713450.0934
       174.0004        174.0004
  -6829538.20247  -5307954.54646  23743379.787    23743378.9274   23743382.9774
       163.0004        165.0004
 21  2  4  1 33 30.0000000  0  9G01G28G17G08G09G14G30G21G19
 -20989195.44949 -16334779.62047  20752131.705    20752132.2854   20752139.4634
       200.0004        200.0004
  -2994183.12047  -2315409.18345  23308071.505    23308072.4004   23308076.0284
       154.0004        157.0004
 -13932235.07448 -10831309.55347  21874560.994    21874561.2014   21874566.4464
       190.0004        191.0004
     30036.16348     52023.66946  24399784.862    24399786.9384   24399796.0784
       169.0004        170.0004
  -6546927.46448  -5069041.31946  23180918.579    23180919.4964   23180927.1264
       170.0004        172.0004
  -5148472.34848  -4001751.28046  22755527.343    22755527.3894   22755531.9764
       168.0004        170.0004
 -17992206.00549 -13986581.26047  21081077.889    21081077.6784   21081084.7144
       206.0004        206.0004
  -8613936.55148  -6699641.53846  22726472.593    22726472.1674   22726477.3754
       172.0004        172.0004
  -6903677.70047  -5365725.55346  23729269.836    23729270.0384   23729274.6664
       162.0004        163.0004
 21  2  4  1 34  0.0000000  0  9G01G28G17G08G09G14G30G21G19
 -20985731.51049 -16332080.43947  20752790.565    20752791.3284   20752798.3664
       199.0004        199.0004
  -3015987.02047  -2332399.23745  23303923.322    23303924.2344   23303927.6434
       155.0004        159.0004
 -13965049.16648 -10856878.96747  21868316.850    21868317.2214   21868321.4574
       190.0004        189.0004
    121122.19148    122999.76146  24417122.232    24417121.5854   24417128.3724
       169.0004        170.0004
  -6466783.24948  -5006591.26946  23196169.649    23196169.6274   23196177.5824
       170.0004        171.0004
  -5179829.67848  -4026185.53946  22749559.566    22749559.9154   22749566.1394
       169.0004        171.0004
 -18056184.54749 -14036434.66347  21068902.791    21068902.9854   21068909.7414
       206.0004        207.0004
  -8545082.34148  -6645988.90846  22739575.258    22739574.3344   22739580.0374
       172.0004        173.0004
  -6977520.54047  -5423265.35746  23715219.604    23715219.0644   23715222.7344
       163.0004        165.0004
 21  2  4  1 34 30.0000000  0  9G01G28G17G08G09G14G30G21G19
 -20981659.18749 -16328907.19047  20753565.074    20753565.8754   20753573.2624
       199.0004        199.0004
  -3037908.77647  -2349481.11445  23299751.442    23299750.7524   23299755.5324
       156.0004        158.0004
 -13997455.31148 -10882130.49747  21862149.852    21862150.6994   21862154.6014
       189.0004        189.0004
    212093.56748    193886.54846  24434431.410    24434432.0134   24434441.9804
       170.0004        171.0004
  -6386642.79448  -4944144.12846  23211418.909    23211419.2124   23211427.0424
       167.0004        168.0004
  -5211263.87648  -4050679.71746  22743578.037    22743578.8574   22743583.1634
       170.0004        171.0004
 -18119806.40249 -14086010.13847  21056795.878    21056796.0524   21056802.4864
       207.0004        207.0004
  -8475835.81148  -6592030.56246  22752752.712    22752752.0004   22752756.8034
       172.0004        173.0004
  -7051067.04947  -5480574.26246  23701223.364    23701222.9434   23701227.5744
       162.0004        164.0004
 21  2  4  1 35  0.0000000  0  9G01G28G17G08G09G14G30G21G19
 -20976977.11049 -16325258.80747  20754456.299    20754457.2414   20754464.2374
       199.0004        199.0004
  -3059948.06347  -2366654.54545  23295555.668    23295556.4464   23295561.5404
       154.0004        156.0004
 -14029453.05548 -10907063.78847  21856061.007    21856061.4074   21856066.7084
       190.0004        192.0004
    302949.21548    264683.15546  24451723.018    24451721.8224   24451730.0644
       169.0004        170.0004
  -6306507.96748  -4881701.41446  23226669.580    23226669.6574   23226676.4564
       166.0004        168.0004
  -5242774.29348  -4075233.28146  22737581.461    22737581.9294   22737586.5674
       170.0004        171.0004
 -18183068.16549 -14135305.02047  21044757.658    21044757.4294   21044764.6294
       206.0004        206.0004
  -8406198.55048  -6537767.76746  22766003.916    22766003.3544   22766008.5384
       171.0004        172.0004
  -7124316.10647  -5537651.41846  23687286.287    23687285.0254   23687288.6444
       163.0004        165.0004
 21  2  4  1 35 30.0000000  0  9G01G28G17G08G09G14G30G21G19
 -20971684.93949 -16321135.02747  20755463.626    20755464.5214   20755472.1434
       199.0004        200.0004
  -3082105.95047  -2383920.43845  23291340.600    23291340.6114   23291344.8084
       156.0004        159.0004
 -14061042.68148 -10931679.05947  21850049.907    21850049.8574   21850054.5554
       192.0004        192.0004
    393687.62148    335388.39246  24468988.775    24468988.8944   24468998.1424
       171.0004        172.0004
  -6226381.73948  -4819265.39346  23241915.941    23241916.6014   23241924.0174
       166.0004        168.0004
  -5274361.10448  -4099846.38846  22731570.228    22731570.9944   22731576.0874
       170.0004        171.0004
 -18245967.34049 -14184317.36047  21032787.926    21032788.2484   21032795.1624
       206.0004        207.0004
  -8336171.89548  -6483201.54146  22779328.696    22779329.0344   22779334.0384
       170.0004        170.0004
  -7197266.41247  -5594495.75145  23673403.526    23673402.8524   23673406.9844
       161.0004        162.0004
 21  2  4  1 36  0.0000000  0  9G01G28G17G08G09G14G30G21G19
 -20965781.84949 -16316535.20947  20756587.582    20756587.9024   20756594.9844
       200.0004        200.0004
  -3104382.58347  -2401278.84645  23287102.899    23287102.6544   23287105.9744
       155.0004        156.0004
 -14092224.61148 -10955976.65447  21844116.141    21844116.3954   21844121.1044
       192.0004        192.0004
    484307.86248    406001.53646  24486229.344    24486231.4934   24486241.5654
       169.0004        168.0004
  -6146266.34148  -4756837.82646  23257161.800    23257161.5404   23257169.7634
       166.0004        167.0004
  -5306024.09148  -4124518.85046  22725544.954    22725545.9604   22725551.2394
       170.0004        170.0004
 -18308500.97249 -14233044.88347  21020888.717    21020888.5154   21020895.0324
       207.0004        207.0004
  -8265757.76348  -6428333.39246  22792727.487    22792727.8064   22792733.8874
       169.0004        169.0004
  -7269916.87147  -5651106.45646  23659577.753    23659577.4894   23659581.1324
       162.0004        163.0004
 21  2  4  1 36 30.0000000  0  9G01G28G17G08G09G14G30G21G19
 -20959266.43049 -16311458.25447  20757826.945    20757827.2694   20757834.8244
       199.0004        199.0004
  -3126777.59347  -2418729.49445  23282840.793    23282839.6704   23282844.7894
       154.0004        156.0004
 -14122999.05648 -10979956.73647  21838260.494    21838260.7494   21838264.3914
       191.0004        191.0004
    574809.08148    476521.96046  24503455.070    24503455.4664   24503462.9594
       167.0004        169.0004
  -6066163.54848  -4694420.09946  23272404.260    23272404.4404   23272412.7864
       179.0004        184.0004
  -5337762.34648  -4149249.98746  22719506.185    22719506.5784   22719511.4214
       169.0004        169.0004
 -18370665.52449 -14281484.80847  21009058.745    21009059.1494   21009066.0094
       207.0004        208.0004
  -8194957.10148  -6373164.02946  22806202.809    22806201.7854   22806206.2914
       169.0004        170.0004
  -7342265.95347  -5707482.31646  23645811.397    23645810.3314   23645814.9334
       163.0004        164.0004
 21  2  4  1 37  0.0000000  0  9G01G28G17G08G09G14G30G21G19
 -20952140.19649 -16305905.35247  20759183.030    20759183.2104   20759190.4134
       199.0004        199.0004
  -3149293.64747  -2436274.44145  23278556.198    23278555.4394   23278560.6124
       154.0004        157.0004
 -14153367.50948 -11003620.46947  21832479.869    21832480.8294   21832486.1954
       190.0004        190.0004
    665187.83248    546946.94746  24520651.904    24520653.6294   24520661.7544
       166.0004        166.0004
  -5986077.97548  -4632015.76146  23287645.192    23287645.7844   23287652.5044
       184.0004        186.0004
  -5369577.91748  -4174041.32646  22713450.500    22713450.8124   22713456.8314
       168.0004        168.0004
 -18432460.31449 -14329636.61447  20997300.375    20997300.0684   20997306.6454
       207.0004        207.0004
  -8123773.92248  -6317696.62246  22819748.804    22819747.5394   22819752.0644
       169.0004        169.0004
  -7414314.52347  -5763624.03346  23632100.340    23632100.3504   23632103.4084
       162.0004        164.0004
 21  2  4  1 37 30.0000000  0  9G01G28G17G08G09G14G30G21G19
 -20944401.58649 -16299875.25647  20760655.530    20760656.0904   20760663.3324
       199.0004        199.0004
  -3171930.15547  -2453913.27545  23274247.308    23274247.7214   23274251.9924
       155.0004        158.0004
 -14183330.65248 -11026968.35747  21826779.357    21826779.5934   21826784.3114
       191.0004        191.0004
    755444.47447    617276.74746  24537827.878    24537827.8734   24537836.2204
       163.0004        165.0004
  -5906011.10149  -4569625.94947  23302881.732    23302881.4664   23302888.3164
       195.0004        198.0004
  -5401469.62948  -4198892.01746  22707382.798    22707383.6904   22707387.8194
       168.0004        169.0004
 -18493881.58749 -14377497.35447  20985611.670    20985611.5384   20985618.6184
       207.0004        207.0004
  -8052209.27248  -6261931.96846  22833364.712    22833365.2614   22833369.7804
       168.0004        168.0004
  -7486060.62347  -5819530.06046  23618446.402    23618446.0644   23618451.8074
       162.0004        163.0004
 21  2  4  1 38  0.0000000  0  9G01G28G17G08G09G14G30G21G19
 -20936049.82649 -16293367.38647  20762245.713    20762245.5594   20762252.9734
       199.0004        200.0004
  -3194687.19347  -2471646.05345  23269918.295    23269918.2364   23269922.0744
       156.0004        159.0004
 -14212888.30148 -11050000.27947  21821154.172    21821154.8564   21821159.4384
       191.0004        192.0004
    845577.24147    687510.02846  24554980.539    24554980.4634   24554989.4714
       163.0004        165.0004
  -5825965.22349  -4507252.56147  23318111.897    23318112.9674   23318120.6544
       196.0004        197.0004
  -5433437.09248  -4223801.73646  22701300.095    22701300.9354   22701305.8694
       169.0004        172.0004
 -18554926.26249 -14425064.64047  20973995.958    20973995.6884   20974002.6574
       207.0004        208.0004
  -7980264.40048  -6205871.02746  22847056.553    22847056.8444   22847060.0414
       167.0004        168.0004
  -7557502.85047  -5875199.30145  23604852.858    23604851.6384   23604854.1324
       162.0004        162.0004
 21  2  4  1 38 30.0000000  0  9G01G28G17G08G09G14G30G21G19
 -20927085.88649 -16286382.48247  20763950.187    20763950.8584   20763958.4154
       199.0004        199.0004
  -3217566.77347  -2489474.28645  23265563.038    23265563.0644   23265568.0154
       156.0004        159.0004
 -14242041.71148 -11072717.20347  21815606.562    21815607.3474   21815612.1254
       192.0004        193.0004
    935583.56648    757644.75846  24572108.642    24572108.4154   24572116.9164
       165.0004        167.0004
  -5745944.31949  -4444898.63947  23333341.234    23333341.2854   23333347.9644
       197.0004        197.0004
  -5465481.68248  -4248771.52246  22695202.574    22695202.7744   22695207.3044
       171.0004        171.0004
 -18615593.12249 -14472337.51847  20962451.187    20962451.1774   20962457.2794
       208.0004        208.0004
  -7907942.98548  -6149516.66046  22860818.803    22860817.7984   22860821.5644
       166.0004        166.0004
  -7628641.77247  -5930632.19546  23591314.356    23591314.4124   23591318.2384
       161.0004        163.0004
 21  2  4  1 39  0.0000000  0  9G01G28G17G08G09G14G30G21G19
 -20917508.51149 -16278919.58547  20765773.012    20765773.5174   20765781.1944
       199.0004        199.0004
  -3240568.16147  -2507397.45345  23261185.691    23261185.4514   23261190.7624
       156.0004        159.0004
 -14270791.50348 -11095119.62947  21810135.851    21810136.4764   21810140.8004
       193.0004        193.0004
   1025462.81247    827680.51245  24589212.665    24589211.9134   24589220.0774
       162.0004        162.0004
  -5665949.96449  -4382565.40947  23348562.901    23348563.5774   23348570.6664
       197.0004        197.0004
  -5497602.42848  -4273800.67646  22689089.410    22689089.9394   22689093.8894
       169.0004        170.0004
 -18675878.64349 -14519313.24147  20950978.802    20950978.7604   20950985.5204
       207.0004        207.0004
  -7835245.44348  -6092869.21646  22874653.071    22874651.7064   22874656.0504
       165.0004        167.0004
  -7699475.72647  -5985827.45646  23577834.037    23577834.9024   23577839.6484
       162.0004        164.0004
 21  2  4  1 39 30.0000000  0  9G01G28G17G08G09G14G30G21G19
 -20907318.23849 -16270979.10947  20767711.512    20767712.5344   20767719.9864
       199.0004        198.0004
  -3263693.18347  -2525416.95345  23256785.744    23256786.4524   23256790.3024
       157.0004        160.0004
 -14299138.84548 -11117208.46947  21804741.652    21804741.9614   21804746.2744
       193.0004        192.0004
   1115213.25647    897615.86446  24606294.111    24606292.3884   24606299.9504
       163.0004        165.0004
  -5585985.61949  -4320255.56247  23363779.721    23363780.2524   23363787.6664
       197.0004        197.0004
  -5529800.13248  -4298889.81546  22682962.559    22682962.1624   22682968.0164
       168.0004        168.0004
 -18735781.02449 -14565990.42247  20939579.983    20939579.8714   20939586.7584
       207.0004        207.0004
  -7762174.94048  -6035931.16646  22888556.669    22888556.8534   22888560.1874
       165.0004        165.0004
  -7770004.62947  -6040785.02046  23564414.487    23564413.6104   23564417.8354
       163.0004        165.0004
 21  2  4  1 40  0.0000000  0  9G01G28G17G08G09G14G30G21G19
 -20896514.44549 -16262560.55847  20769767.832    20769768.4894   20769775.5204
       198.0004        199.0004
  -3286941.24947  -2543532.34045  23252362.454    23252362.3494   23252366.5194
       159.0004        161.0004
 -14327084.14148 -11138984.00447  21799423.349    21799424.2744   21799428.2824
       192.0004        192.0004
   1204833.51947    967449.80745  24623343.512    24623343.7334   24623354.1264
       161.0004        162.0004
  -5506053.51549  -4257970.84947  23378991.202    23378991.2924   23378997.8884
       198.0004        198.0004
  -5562074.41848  -4324038.58846  22676819.703    22676820.6464   22676826.2594
       168.0004        170.0004
 -18795297.32149 -14612366.76147  20928254.294    20928254.3494   20928261.2184
       208.0004        208.0004
  -7688733.18347  -5978703.81646  22902532.064    22902532.5624   22902535.9064
       164.0004        165.0004
  -7840227.23847  -6095503.91146  23551051.743    23551050.7484   23551055.2744
       163.0004        164.0004
 21  2  4  1 40 30.0000000  0  9G01G28G17G08G09G14G30G21G19
 -20885096.53849 -16253663.49047  20771939.903    20771941.4224   20771948.3324
       198.0004        198.0004
  -3310313.06147  -2561744.11645  23247914.001    23247914.4694   23247918.4254
       158.0004        159.0004
 -14354627.37748 -11160446.25347  21794181.954    21794181.9314   21794186.9994
       191.0004        191.0004
   1294322.96557   1037181.77546  24640371.677    24640372.6925   24640382.7844
       162.0004        164.0004
  -5426155.94949  -4195713.03847  23394194.643    23394195.5224   23394201.5384
       198.0004        198.0004
  -5594424.91548  -4349246.76946  22670663.620    22670664.8784   22670669.3254
       169.0004        170.0004
 -18854424.63649 -14658439.99847  20917002.377    20917002.6464   20917009.8734
       208.0004        208.0004
  -7614921.77148  -5921188.42946  22916578.455    22916577.6704   22916582.2454
       165.0004        166.0004
  -7910142.61047  -6149983.40546  23537746.668    23537746.1144   23537750.9624
       162.0004        163.0004
 21  2  4  1 41  0.0000000  0  9G01G28G17G08G09G14G30G21G19
 -20873064.24049 -16244287.64947  20774229.255    20774230.3134   20774238.2914
       198.0004        198.0004
  -3333808.62347  -2580052.34345  23243443.454    23243443.6064   23243446.2904
       158.0004        160.0004
 -14381769.84448 -11181596.19947  21789017.477    21789017.7104   21789022.0484
       191.0004        192.0004
   1383680.04647   1106810.65946  24657375.785    24657376.4804   24657386.8644
       163.0004        164.0004
  -5346295.42249  -4133484.09947  23409391.523    23409392.0714   23409398.0654
       197.0004        196.0004
  -5626851.38648  -4374514.15846  22664494.933    22664495.5574   22664499.8174
       171.0004        173.0004
 -18913160.29749 -14704208.02347  20905825.662    20905825.6244   20905832.6504
       208.0004        208.0004
  -7540742.67548  -5863386.53146  22930694.058    22930694.4844   22930697.7874
       165.0004        166.0004
  -7979749.83347  -6204222.77645  23524501.596    23524501.1984   23524503.9424
       161.0004        161.0004
 21  2  4  1 41 30.0000000  0  9G01G28G17G08G09G14G30G21G19
 -20860417.69049 -16234433.19347  20776636.482    20776637.7104   20776644.9804
       198.0004        199.0004
  -3357429.10447  -2598457.91045  23238948.650    23238948.7784   23238952.3324
       158.0004        160.0004
 -14408512.16248 -11202434.36247  21783928.438    21783928.7034   21783933.5794
       192.0004        193.0004
   1472902.73247   1176334.77446  24674357.842    24674357.5904   24674364.4984
       164.0004        167.0004
  -5266474.80449  -4071286.25947  23424581.449    23424581.2944   23424588.0344
       196.0004        194.0004
  -5659354.17348  -4399840.99446  22658309.286    22658310.7484   22658314.7334
       174.0004        177.0004
 -18971502.10049 -14749669.16347  20894724.170    20894723.8704   20894730.5264
       208.0004        208.0004
  -7466198.28948  -5805299.98246  22944880.787    22944879.5904   22944883.1014
       165.0004        166.0004
  -8049048.63647  -6258221.81045  23511314.099    23511313.2564   23511316.2894
       159.0004        160.0004
 21  2  4  1 42  0.0000000  0  9G01G28G17G08G09G14G30G21G19
 -20847157.52649 -16224100.60247  20779160.856    20779161.0834   20779168.1804
       199.0004        199.0004
  -3381175.61947  -2616961.68945  23234429.649    23234429.4074   23234434.8714
       158.0004        160.0004
 -14434856.00848 -11222962.03447  21778915.536    21778916.0924   21778919.8954
       192.0004        193.0004
   1561989.27148   1245752.83746  24691309.605    24691309.9384   24691317.2164
       166.0004        168.0004
  -5186697.28448  -4009121.98447  23439762.295    23439762.5794   23439769.7464
       194.0004        195.0004
  -5691933.98948  -4425227.85846  22652110.165    22652110.2704   22652114.6514
       176.0004        175.0004
 -19029448.23349 -14794821.99247  20883696.688    20883696.7634   20883703.6544
       208.0004        208.0004
  -7391291.06148  -5746930.72646  22959133.442    22959134.0204   22959138.7594
       165.0004        167.0004
  -8118038.89947  -6311980.43846  23498185.365    23498185.0324   23498189.7804
       162.0004        165.0004
 21  2  4  1 42 30.0000000  0  9G01G28G17G08G09G14G30G21G19
 -20833282.64949 -16213288.99347  20781799.988    20781800.8324   20781808.0114
       198.0004        198.0004
  -3405047.47047  -2635563.14146  23229888.889    23229888.2994   23229891.1724
       160.0004        163.0004
 -14460801.22948 -11243179.08247  21773977.916    21773978.4644   21773983.3384
       193.0004        193.0004
   1650939.33447   1315064.51946  24708235.116    24708236.1444   24708244.2534
       164.0004        165.0004
  -5106964.47349  -3946992.48947  23454934.647    23454935.3754   23454942.4454
       196.0004        197.0004
  -5724589.69748  -4450673.85846  22645894.818    22645895.5864   22645901.1164
       175.0004        176.0004
 -19086995.19049 -14839663.76447  20872746.265    20872746.0244   20872752.9284
       208.0004        208.0004
  -7316022.89048  -5688280.20046  22973457.070    22973457.6544   22973462.3154
       166.0004        168.0004
  -8186718.81947  -6365497.23746  23485115.980    23485115.9884   23485118.9114
       162.0004        164.0004
 21  2  4  1 43  0.0000000  0  9G01G28G17G08G09G14G30G21G19
 -20818793.50149 -16201998.74747  20784556.739    20784557.7954   20784565.5434
       198.0004        198.0004
  -3429045.93047  -2654263.22145  23225318.772    23225320.2374   23225325.0564
       159.0004        160.0004
 -14486349.12548 -11263086.52147  21769116.333    21769116.7994   21769121.5094
       193.0004        194.0004
   1739751.45447   1384268.74545  24725134.778    24725135.2144   24725142.7794
       161.0004        160.0004
  -5027279.55549  -3884900.28647  23470098.928    23470098.7764   23470106.7404
       198.0004        199.0004
  -5757321.76348  -4476179.35946  22639666.764    22639667.4504   22639671.7714
       175.0004        175.0004
 -19144140.96049 -14884192.91847  20861870.569    20861871.1524   20861878.4494
       208.0004        208.0004
  -7240395.57948  -5629349.83446  22987847.847    22987848.0644   22987853.7464
       166.0004        168.0004
  -8255088.28647  -6418772.10746  23472105.739    23472105.1064   23472109.1734
       162.0004        164.0004
 21  2  4  1 43 30.0000000  0  9G01G28G17G08G09G14G30G21G19
 -20803689.87349 -16190229.67147  20787430.362    20787431.8324   20787439.4484
       198.0004        198.0004
  -3453171.00647  -2673061.99545  23220730.198    23220729.1164   23220733.7624
       159.0004        161.0004
 -14511500.46948 -11282684.95847  21764329.779    21764330.2344   21764335.0254
       193.0004        193.0004
   1828423.86147   1453364.04646  24742011.397    24742010.4094   24742017.8934
       160.0004        163.0004
  -4947644.92249  -3822847.29547  23485251.675    23485252.2044   23485259.5654
       198.0004        197.0004
  -5790129.87348  -4501744.09946  22633422.848    22633423.8854   22633428.9134
       174.0004        174.0004
 -19200882.84549 -14928407.36247  20851074.074    20851073.7574   20851080.7464
       207.0004        207.0004
  -7164411.53148  -5570141.48046  23002307.886    23002307.6034   23002312.9414
       167.0004        169.0004
  -8323146.30847  -6471804.30246  23459155.175    23459153.8014   23459158.4284
       162.0004        163.0004
 21  2  4  1 44  0.0000000  0  8G01G28G17G09G14G30G21G19
 -20787970.09149 -16177980.49047  20790422.714    20790423.7184   20790431.4224
       198.0004        198.0004
  -3477421.57447  -2691958.53745  23216113.945    23216114.3684   23216118.1234
       159.0004        161.0004
 -14536254.14548 -11301973.51947  21759619.987    21759620.5074   21759624.6834
       193.0004        194.0004
  -4868061.52149  -3760834.27447  23500396.068    23500396.3814   23500403.6354
       195.0004        192.0004
  -5823012.31048  -4527366.75746  22627166.130    22627166.9084   22627171.0614
       174.0004        174.0004
 -19257216.70749 -14972303.87947  20840353.650    20840353.8034   20840360.6464
       207.0004        208.0004
  -7088070.91848  -5510655.28546  23016835.173    23016834.5924   23016840.0274
       167.0004        168.0004
  -8390890.90647  -6524592.28546  23446264.212    23446263.4584   23446267.1874
       164.0004        167.0004
 21  2  4  1 44 30.0000000  0  8G01G28G17G09G14G30G21G19
 -20771635.15649 -16165251.96147  20793531.473    20793532.2594   20793539.3934
       198.0004        198.0004
  -3501798.93547  -2710953.91145  23211476.860    23211476.3464   23211479.6994
       159.0004        161.0004
 -14560612.07948 -11320953.70947  21754985.245    21754985.5894   21754989.1164
       194.0004        194.0004
  -4788532.79448  -3698863.88847  23515529.881    23515530.5884   23515537.4124
       192.0004        191.0004
  -5855969.89848  -4553048.01746  22620895.146    22620895.7504   22620899.0814
       175.0004        176.0004
 -19313141.00449 -15015881.24747  20829712.051    20829711.8784   20829718.9104
       208.0004        208.0004
  -7011377.13348  -5450893.87646  23031427.213    23031427.8484   23031434.8074
       166.0004        168.0004
  -8458322.02247  -6577135.97746  23433430.522    23433430.6724   23433434.8544
       163.0004        164.0004
 21  2  4  1 45  0.0000000  0  8G01G28G17G09G14G30G21G19
 -20754685.78449 -16152044.65247  20796756.677    20796757.1554   20796764.9204
       198.0004        198.0004
  -3526304.10047  -2730048.83145  23206812.032    23206812.3234   23206817.4554
       159.0004        160.0004
 -14584576.16448 -11339627.00747  21750424.177    21750424.8094   21750429.2594
       194.0004        194.0004
  -4709061.92948  -3636938.60847  23530653.621    23530653.5864   23530660.8284
       192.0004        192.0004
  -5889003.15648  -4578788.21746  22614608.273    22614609.2044   22614614.3144
       176.0004        177.0004
 -19368653.92449 -15059138.07147  20819148.481    20819148.3704   20819154.9504
       208.0004        208.0004
  -6934332.89348  -5390859.42946  23046090.387    23046089.6364   23046095.3874
       166.0004        168.0004
  -8525439.74647  -6629435.46246  23420660.100    23420659.0534   23420663.3304
       163.0004        164.0004
 21  2  4  1 45 30.0000000  0  8G01G28G17G09G14G30G21G19
 -20737123.43149 -16138359.70147  20800098.361    20800099.3004   20800107.2904
       198.0004        198.0004
  -3550938.94847  -2749244.80645  23202124.843    23202124.4004   23202129.4864
       158.0004        159.0004
 -14608148.11848 -11357994.76747  21745938.123    21745938.9054   21745943.5504
       194.0004        193.0004
  -4629652.67848  -3575061.31447  23545763.772    23545764.5754   23545772.3164
       192.0004        193.0004
  -5922113.28848  -4604588.32546  22608307.832    22608308.0794   22608313.1744
       177.0004        177.0004
 -19423754.36549 -15102073.49547  20808662.291    20808662.5004   20808669.7784
       208.0004        208.0004
  -6856941.34148  -5330554.32946  23060818.478    23060818.2734   23060821.6294
       166.0004        168.0004
  -8592244.55147  -6681491.14846  23407946.855    23407945.6904   23407950.6104
       162.0004        163.0004
 21  2  4  1 46  0.0000000  0  8G01G28G17G09G14G30G21G19
 -20718947.93449 -16124196.96847  20803557.724    20803558.5154   20803566.1704
       198.0004        199.0004
  -3575703.59447  -2768541.93945  23197411.670    23197411.2344   23197415.7414
       158.0004        160.0004
 -14631328.93248 -11376057.72947  21741528.352    21741528.3244   21741532.8644
       194.0004        194.0004
  -4550307.34548  -3513233.83447  23560862.574    23560863.1124   23560870.7554
       192.0004        192.0004
  -5955299.88848  -4630448.01146  22601992.106    22601992.3194   22601998.1264
       175.0004        174.0004
 -19478439.59649 -15144685.38047  20798256.479    20798256.4134   20798263.3794
       208.0004        208.0004
  -6779204.42148  -5269980.10746  23075610.750    23075610.2564   23075615.5874
       167.0004        167.0004
  -8658736.18247  -6733302.79846  23395293.246    23395293.7734   23395297.9824
       161.0004        163.0004
 21  2  4  1 46 30.0000000  0  8G01G28G17G09G14G30G21G19
 -20700158.06449 -16109555.50347  20807132.140    20807133.2604   20807141.5414
       198.0004        198.0004
  -3600597.35147  -2787939.68245  23192675.172    23192675.6504   23192679.2894
       157.0004        158.0004
 -14654118.20148 -11393815.56747  21737190.047    21737190.8224   21737196.4124
       194.0004        194.0004
  -4471027.04548  -3451457.02047  23575949.766    23575949.9794   23575957.3214
       191.0004        191.0004
  -5988561.41748  -4656366.09346  22595664.168    22595663.6244   22595667.8874
       174.0004        174.0004
 -19532705.81549 -15186970.74847  20787930.092    20787929.8784   20787936.9894
       208.0004        208.0004
  -6701123.36648  -5209137.73246  23090467.555    23090468.4284   23090473.8434
       165.0004        166.0004
  -8724912.49247  -6784868.72346  23382703.047    23382700.9444   23382705.5974
       163.0004        165.0004
 21  2  4  1 47  0.0000000  0  8G01G28G17G09G14G30G21G19
 -20680754.93249 -16094436.18647  20810824.683    20810825.8694   20810833.1504
       198.0004        197.0004
  -3625621.01147  -2807438.63045  23187913.717    23187913.9984   23187917.4694
       158.0004        162.0004
 -14676517.94048 -11411269.90947  21732928.388    21732928.9894   21732933.4284
       194.0004        195.0004
  -4391815.20948  -3389733.54847  23591023.085    23591023.6514   23591030.4764
       191.0004        191.0004
  -6021898.64448  -4682343.16546  22589320.316    22589320.6494   22589324.1054
       175.0004        175.0004
 -19586551.45149 -15228928.39547  20777683.271    20777683.5604   20777690.4194
       208.0004        208.0004
  -6622700.95447  -5148029.36746  23105392.471    23105391.9574   23105396.3194
       164.0004        165.0004
  -8790773.57947  -6836189.02746  23370167.575    23370167.0154   23370172.2114
       162.0004        163.0004
 21  2  4  1 47 30.0000000  0  8G01G28G17G09G14G30G21G19
 -20660738.43549 -16078838.90147  20814634.581    20814635.0324   20814643.2254
       197.0004        197.0004
  -3650774.55547  -2827038.79245  23183127.664    23183127.2384   23183132.6404
       160.0004        162.0004
 -14698528.44448 -11428420.93747  21728739.945    21728740.3394   21728745.4344
       194.0004        195.0004
  -4312674.05248  -3328065.16847  23606083.995    23606083.8944   23606091.4934
       192.0004        192.0004
  -6055310.99648  -4708378.78846  22582961.112    22582961.9994   22582965.4004
       175.0004        175.0004
 -19639973.79449 -15270556.19647  20767517.550    20767517.1554   20767524.3964
       208.0004        208.0004
  -6543939.06347  -5086656.46146  23120380.465    23120379.7734   23120383.7204
       164.0004        165.0004
  -8856318.59747  -6887263.04545  23357694.331    23357693.9794   23357698.7184
       159.0004        160.0004
 21  2  4  1 48  0.0000000  0  8G01G28G17G09G14G30G21G19
 -20640108.98249 -16062763.99947  20818559.711    20818560.4604   20818568.4764
       197.0004        198.0004
  -3676058.90047  -2846740.85045  23178314.409    23178314.9354   23178319.5734
       160.0004        161.0004
 -14720151.02348 -11445269.68647  21724625.548    21724625.7694   21724630.3664
       194.0004        194.0004
  -4233606.17448  -3266453.86647  23621128.837    23621129.5724   23621137.8754
       190.0004        189.0004
  -6088798.47448  -4734472.93346  22576587.901    22576588.7304   22576593.3774
       175.0004        176.0004
 -19692970.57749 -15311852.39047  20757432.344    20757432.2854   20757439.3444
       208.0004        208.0004
  -6464840.11347  -5025020.91046  23135432.004    23135431.9604   23135435.6964
       164.0004        164.0004
  -8921547.14047  -6938090.45145  23345283.664    23345281.8474   23345286.3244
       159.0004        161.0004
 21  2  4  1 48 30.0000000  0  8G01G28G17G09G14G30G21G19
 -20618865.74549 -16046210.84247  20822602.944    20822603.4324   20822610.2864
       197.0004        198.0004
  -3701473.17447  -2866544.18045  23173478.391    23173477.7104   23173483.4504
       159.0004        160.0004
 -14741385.44048 -11461815.97947  21720584.650    21720585.0104   21720589.4774
       194.0004        195.0004
  -4154612.85348  -3204900.69547  23636162.971    23636162.3974   23636169.1594
       189.0004        189.0004
  -6122359.80848  -4760624.61846  22570201.473    22570202.4054   22570207.5864
       175.0004        176.0004
 -19745538.32549 -15352814.28047  20747429.045    20747429.0244   20747436.4104
       208.0004        208.0004
  -6385404.98847  -4963123.41745  23150548.272    23150547.6444   23150550.9624
       162.0004        162.0004
  -8986457.62747  -6988670.04045  23332929.500    23332929.6584   23332934.6304
       160.0004        161.0004
 21  2  4  1 49  0.0000000  0  8G01G28G17G09G14G30G21G19
 -20597009.62349 -16029180.09147  20826761.304    20826762.0414   20826769.6784
       197.0004        197.0004
  -3727017.92847  -2886449.19545  23168617.646    23168618.3794   23168621.8014
       158.0004        160.0004
 -14762233.57949 -11478061.26747  21716617.302    21716617.9124   21716622.8754
       195.0004        195.0004
  -4075697.18548  -3143407.98047  23651177.226    23651178.4274   23651186.4744
       188.0004        188.0004
  -6155995.34548  -4786834.13846  22563802.642    22563802.6004   22563807.2704
       176.0004        176.0004
 -19797675.28349 -15393440.47547  20737507.272    20737507.6424   20737514.7224
       208.0004        208.0004
  -6305637.10047  -4900966.61446  23165725.655    23165726.7254   23165731.0544
       161.0004        163.0004
  -9051050.28047  -7039001.94046  23320639.187    23320638.3934   23320642.2364
       161.0004        164.0004
 21  2  4  1 49 30.0000000  0  8G01G28G17G09G14G30G21G19
 -20574540.76449 -16011671.87847  20831038.148    20831038.1374   20831045.7794
       197.0004        198.0004
  -3752693.70647  -2906456.28445  23163731.782    23163731.3864   23163736.5604
       158.0004        159.0004
 -14782696.04449 -11494006.03547  21712723.611    21712724.0134   21712728.8914
       195.0004        196.0004
  -3996861.50248  -3081977.60347  23666180.844    23666181.1644   23666188.2134
       189.0004        190.0004
  -6189704.67448  -4813101.12246  22557385.623    22557386.4024   22557392.1154
       176.0004        176.0004
 -19849378.85349 -15433728.97247  20727668.867    20727668.9014   20727676.0824
       208.0004        209.0004
  -6225537.90447  -4838551.65146  23180969.867    23180969.5444   23180972.6124
       161.0004        164.0004
  -9115324.21547  -7089085.49146  23308408.691    23308407.4944   23308411.9174
       162.0004        163.0004
 21  2  4  1 50  0.0000000  0  8G01G28G17G09G14G30G21G19
 -20551459.99449 -15993686.84947  20835429.514    20835429.9154   20835437.9314
       198.0004        198.0004
  -3778500.93047  -2926565.80545  23158820.946    23158821.8044   23158825.6724
       159.0004        162.0004
 -14802774.45149 -11509651.53647  21708902.828    21708903.3094   21708907.8554
       195.0004        196.0004
  -3918108.58648  -3020611.68047  23681167.506    23681167.4664   23681174.7704
       190.0004        190.0004
  -6223488.00448  -4839425.80146  22550958.297    22550958.3674   22550962.3294
       177.0004        178.0004
 -19900647.14049 -15473678.28847  20717913.080    20717912.9324   20717920.0564
       209.0004        209.0004
  -6145110.08847  -4775880.62546  23196274.951    23196274.9684   23196279.1264
       163.0004        166.0004
  -9179279.40247  -7138920.71346  23296236.801    23296237.3804   23296241.5494
       161.0004        163.0004
 21  2  4  1 50 30.0000000  0  9G01G28G17G09G14G30G21G22G19
 -20527768.67149 -15975226.06747  20839938.267    20839938.6804   20839945.8274
       197.0004        198.0004
  -3804441.15147  -2946778.96045  23153884.532    23153885.2824   23153888.7744
       159.0004        160.0004
 -14822471.01849 -11524999.50847  21705154.516    21705154.9274   21705159.2334
       195.0004        194.0004
  -3839441.86148  -2959312.94747  23696137.576    23696137.4544   23696144.1984
       189.0004        189.0004
  -6257346.07048  -4865808.72546  22544515.793    22544515.9934   22544520.2474
       178.0004        178.0004
 -19951478.74349 -15513287.33347  20708239.992    20708240.3044   20708247.1924
       209.0004        210.0004
  -6064357.06747  -4712956.19146  23211641.236    23211640.7764   23211646.3164
       163.0004        164.0004
  -4280656.51956  -3329735.64045  24787624.280    24787623.6365   24787625.7564
       132.0004        136.0004
  -9242916.49647  -7188508.05946  23284127.872    23284127.0984   23284132.5104
       162.0004        165.0004
 21  2  4  1 51  0.0000000  0  9G01G28G17G09G14G30G21G22G19
 -20503466.44049 -15956289.24847  20844562.679    20844563.3844   20844570.0504
       197.0004        197.0004
  -3830513.79247  -2967095.31645  23148924.019    23148924.4984   23148928.0054
       159.0004        161.0004
 -14841785.84548 -11540050.02447  21701479.117    21701479.2934   21701483.2494
       194.0004        194.0004
  -3760862.96948  -2898082.63146  23711089.680    23711089.7004   23711097.2294
       188.0004        187.0004
  -6291277.83148  -4892249.04346  22538058.225    22538058.9604   22538063.8824
       178.0004        179.0004
 -20001870.54049 -15552553.67147  20698650.599    20698651.0944   20698657.7994
       209.0004        210.0004
  -5983280.26047  -4649779.45946  23227069.251    23227068.9814   23227074.6964
       163.0004        165.0004
  -4303144.50646  -3347258.76845  24783347.776    24783345.3904   24783346.0694
       131.0004        137.0004
  -9306234.11747  -7237846.42646  23272079.568    23272079.2724   23272082.3984
       162.0004        164.0004
 21  2  4  1 51 30.0000000  0  9G01G28G17G09G14G30G21G22G19
 -20478553.77249 -15936876.75647  20849302.847    20849303.5414   20849311.0784
       197.0004        197.0004
  -3856719.05947  -2987514.99645  23143937.156    23143937.3714   23143942.0964
       160.0004        161.0004
 -14860720.08548 -11554803.97147  21697875.310    21697876.1324   21697881.1604
       194.0004        194.0004
  -3682374.40648  -2836922.70446  23726024.244    23726024.6524   23726033.7474
       187.0004        187.0004
  -6325282.96748  -4918746.57946  22531587.105    22531588.3254   22531592.3484
       178.0004        178.0004
 -20051820.20949 -15591475.49747  20689145.652    20689145.7244   20689152.5024
       210.0004        210.0004
  -5901881.71947  -4586352.03646  23242559.285    23242559.2434   23242564.6684
       163.0004        164.0004
  -4325538.24846  -3364708.42945  24779081.659    24779083.0774   24779084.0324
       132.0004        138.0004
  -9369231.61647  -7286935.36746  23260090.990    23260089.6264   23260094.8444
       162.0004        163.0004
 21  2  4  1 52  0.0000000  0  9G01G28G17G09G14G30G21G22G19
 -20453029.78849 -15916987.93847  20854159.592    20854160.6794   20854168.3594
       197.0004        197.0004
  -3883055.82747  -3008037.16445  23138925.118    23138924.8024   23138928.6814
       160.0004        161.0004
 -14879273.54648 -11569261.20247  21694345.218    21694345.1834   21694350.2614
       194.0004        193.0004
  -3603977.22048  -2775834.03646  23740944.257    23740944.0934   23740951.3324
       187.0004        187.0004
  -6359359.87248  -4945300.02046  22525101.977    22525102.9314   22525107.7024
       178.0004        178.0004
 -20101324.10849 -15630049.96547  20679725.764    20679725.5694   20679732.3534
       210.0004        210.0004
  -5820162.46747  -4522674.68846  23258109.991    23258109.4194   23258115.7414
       163.0004        165.0004
  -4347834.02046  -3382081.73745  24774838.654    24774837.5804   24774842.3494
       133.0004        140.0004
  -9431907.54747  -7335773.75746  23248164.997    23248163.4054   23248167.8294
       163.0004        166.0004
 21  2  4  1 52 30.0000000  0  9G01G28G17G09G14G30G21G22G19
 -20426895.21449 -15896623.32147  20859133.524    20859134.1694   20859140.7354
       197.0004        197.0004
  -3909524.80847  -3028662.31345  23133887.481    23133888.1844   23133892.7274
       158.0004        159.0004
 -14897447.58548 -11583422.77347  21690886.616    21690887.1034   21690891.4034
       194.0004        195.0004
  -3525673.92448  -2714818.50846  23755844.723    23755844.8844   23755852.1584
       187.0004        187.0004
  -6393508.44448  -4971909.26346  22518604.387    22518605.8094   22518610.2684
       178.0004        178.0004
 -20150380.12449 -15668275.41247  20670390.539    20670390.3944   20670397.5824
       210.0004        211.0004
  -5738125.51047  -4458749.78246  23273721.114    23273720.6624   23273725.8024
       163.0004        164.0004
  -4370029.59447  -3399377.02145  24770617.417    24770616.7224   24770619.1374
       136.0004        142.0004
  -9494261.43847  -7384361.21146  23236298.090    23236297.9854   23236302.1334
       164.0004        166.0004
 21  2  4  1 53  0.0000000  0  9G01G28G17G09G14G30G21G22G19
 -20400151.82149 -15875784.29747  20864223.248    20864223.4934   20864230.0804
       197.0004        197.0004
  -3936127.16047  -3049391.38945  23128825.181    23128824.9714   23128831.0874
       158.0004        161.0004
 -14915244.20949 -11597290.26247  21687500.948    21687501.1364   21687504.9604
       195.0004        195.0004
  -3447468.09048  -2653878.89146  23770727.332    23770727.2184   23770734.0884
       186.0004        186.0004
  -6427729.61248  -4998575.12346  22512092.278    22512092.9804   22512097.3294
       178.0004        178.0004
 -20198987.20549 -15706151.05247  20661140.984    20661141.2804   20661147.9114
       211.0004        212.0004
  -5655773.83447  -4394579.66146  23289391.561    23289391.1614   23289396.9034
       162.0004        163.0004
  -4392124.02247  -3416593.48245  24766411.024    24766411.7844   24766415.2284
       135.0004        140.0004
  -9556294.30948  -7432698.48846  23224495.295    23224493.9474   23224497.3444
       165.0004        166.0004
 21  2  4  1 53 30.0000000  0  9G01G28G17G09G14G30G21G22G19
 -20372799.23049 -15854470.57947  20869427.869    20869428.1104   20869435.4864
       197.0004        197.0004
  -3962862.05547  -3070223.78145  23123739.035    23123738.3254   23123742.4704
       160.0004        162.0004
 -14932663.91349 -11610864.05147  21684185.784    21684186.0474   21684190.1734
       195.0004        195.0004
  -3369361.18148  -2593016.37946  23785589.521    23785589.8444   23785597.9114
       187.0004        187.0004
  -6462022.08448  -5025296.52346  22505565.878    22505567.4294   22505571.8694
       178.0004        179.0004
 -20247142.10249 -15743674.34548  20651977.908    20651977.5994   20651984.5724
       212.0004        213.0004
  -5573108.36347  -4330165.00746  23305123.452    23305122.6824   23305127.6604
       161.0004        163.0004
  -4414113.90546  -3433728.44145  24762227.876    24762227.6444   24762231.4504
       133.0004        139.0004
  -9618004.69047  -7480784.47646  23212749.551    23212749.2364   23212754.1324
       163.0004        164.0004
 21  2  4  1 54  0.0000000  0  9G01G28G17G09G14G30G21G22G19
 -20344839.22349 -15832683.56747  20874748.184    20874748.7864   20874755.9664
       196.0004        197.0004
  -3989731.23447  -3091160.81245  23118625.922    23118625.6014   23118630.1994
       161.0004        162.0004
 -14949709.35849 -11624146.22347  21680942.043    21680942.3964   21680946.1844
       195.0004        194.0004
  -3291356.83848  -2532233.85247  23800435.001    23800435.2494   23800441.0434
       189.0004        190.0004
  -6496386.70348  -5052074.15846  22499027.358    22499028.3234   22499032.6584
       179.0004        179.0004
 -20294843.81249 -15780844.52547  20642900.092    20642900.0294   20642907.1964
       212.0004        212.0004
  -5490133.26347  -4265509.10246  23320913.764    23320913.1364   23320917.7424
       162.0004        164.0004
  -4435997.94647  -3450780.92345  24758065.785    24758064.3454   24758066.2024
       135.0004        141.0004
  -9679393.36347  -7528619.80546  23201069.822    23201068.9164   23201072.7934
       164.0004        166.0004
 21  2  4  1 54 30.0000000  0  9G01G28G17G09G14G30G21G22G19
 -20316272.82549 -15810424.02847  20880184.090    20880184.7244   20880192.2614
       197.0004        197.0004
  -4016735.26347  -3112202.93346  23113487.477    23113487.2084   23113490.1644
       160.0004        163.0004
 -14966381.67048 -11637137.63447  21677768.990    21677769.4004   21677773.2364
       194.0004        195.0004
  -3213457.68448  -2471533.28647  23815258.036    23815258.3204   23815265.0104
       190.0004        191.0004
  -6530823.48848  -5078908.01446  22492473.402    22492474.1434   22492479.9334
       178.0004        176.0004
 -20342090.40449 -15817660.05448  20633909.187    20633909.2254   20633916.6844
       212.0004        213.0004
  -5406850.91447  -4200613.76745  23336760.937    23336760.4234   23336765.0154
       160.0004        161.0004
  -4457774.11447  -3467749.36845  24753920.804    24753919.8804   24753922.7644
       137.0004        143.0004
  -9740460.23848  -7576204.35346  23189449.466    23189448.2474   23189451.8434
       166.0004        167.0004
 21  2  4  1 55  0.0000000  0  9G01G28G17G09G14G30G21G22G19
 -20287099.98149 -15787691.93847  20885735.993    20885736.7244   20885743.9774
       197.0004        198.0004
  -4043873.23347  -3133349.43045  23108321.212    23108322.2914   23108326.6014
       158.0004        158.0004
 -14982681.71549 -11649838.96947  21674667.896    21674668.1344   21674671.6424
       195.0004        195.0004
  -3135665.36548  -2410915.97047  23830059.137    23830060.2184   23830068.9884
       189.0004        189.0004
  -6565331.42348  -5105797.31146  22485908.013    22485908.2744   22485912.4854
       177.0004        176.0004
 -20388878.95649 -15854118.67847  20625005.288    20625005.7944   20625012.5204
       212.0004        212.0004
  -5323262.67747  -4135480.07445  23352666.653    23352666.2754   23352672.1694
       160.0004        161.0004
  -4479440.08947  -3484631.93445  24749796.970    24749795.8844   24749799.2144
       139.0004        144.0004
  -9801204.37748  -7623537.44346  23177888.998    23177888.6864   23177892.6514
       165.0004        167.0004
 21  2  4  1 55 30.0000000  0  9G01G28G17G09G14G30G21G22G19
 -20257320.30349 -15764486.98447  20891402.370    20891402.8224   20891410.3604
       197.0004        197.0004
  -4071144.42047  -3154599.70045  23103133.615    23103133.7114   23103137.4504
       158.0004        160.0004
 -14998609.28849 -11662250.05347  21671636.144    21671636.6004   21671640.8564
       195.0004        194.0004
  -3057981.07048  -2350382.80647  23844843.174    23844843.5034   23844852.1264
       190.0004        191.0004
  -6599909.03848  -5132740.89946  22479326.057    22479327.1614   22479332.6184
       176.0004        175.0004
 -20435206.19049 -15890217.83247  20616189.557    20616189.6814   20616196.6984
       211.0004        212.0004
  -5239370.16247  -4070109.30545  23368630.079    23368631.2104   23368635.2174
       159.0004        161.0004
  -4500992.14447  -3501425.77545  24745694.793    24745695.2744   24745699.2394
       139.0004        143.0004
  -9861624.43448  -7670617.97946  23166392.103    23166391.3374   23166394.9814
       166.0004        168.0004
 21  2  4  1 56  0.0000000  0  9G01G28G17G09G14G30G21G22G19
 -20226935.02549 -15740810.12847  20897184.608    20897185.2994   20897193.0154
       196.0004        196.0004
  -4098549.67847  -3175954.45746  23097918.670    23097917.8994   23097923.0854
       159.0004        163.0004
 -15014166.21849 -11674372.32647  21668676.472    21668676.4924   21668681.2904
       195.0004        196.0004
  -2980407.57848  -2289935.96847  23859605.111    23859605.6604   23859613.3874
       191.0004        191.0004
  -6634556.43248  -5159738.85646  22472734.698    22472735.4154   22472739.8064
       177.0004        178.0004
 -20481070.39349 -15925956.18447  20607462.599    20607462.5664   20607469.1744
       212.0004        212.0004
  -5155176.08647  -4004503.52545  23384652.333    23384651.0284   23384655.0634
       157.0004        158.0004
  -4522428.03247  -3518129.06245  24741616.723    24741615.0924   24741620.2124
       139.0004        143.0004
  -9921720.41948  -7717446.01646  23154956.409    23154955.1534   23154959.4604
       166.0004        167.0004
 21  2  4  1 56 30.0000000  0  9G01G28G17G09G14G30G21G22G19
 -20195945.66049 -15716662.55947  20903081.888    20903082.0674   20903090.1984
       197.0004        198.0004
  -4126089.83847  -3197414.32745  23092677.524    23092677.9974   23092681.9644
       160.0004        162.0004
 -15029354.86749 -11686207.62847  21665785.653    21665786.0024   21665791.5374
       196.0004        197.0004
  -2902948.05648  -2229577.95647  23874345.367    23874345.6614   23874353.4334
       189.0004        189.0004
  -6669273.98348  -5186791.46846  22466126.452    22466128.0564   22466133.3414
       177.0004        177.0004
 -20526470.13749 -15961332.62347  20598823.097    20598823.0344   20598829.9564
       212.0004        212.0004
  -5070683.54947  -3938665.19545  23400730.786    23400730.3154   23400733.5604
       156.0004        157.0004
  -4543746.70947  -3534740.99345  24737559.651    24737558.2354   24737562.2364
       138.0004        143.0004
  -9981493.08348  -7764022.10746  23143580.777    23143580.2274   23143584.2864
       166.0004        169.0004
 21  2  4  1 57  0.0000000  0 10G01G28G17G09G14G03G30G21G22G19
 -20164351.97049 -15692044.09047  20909093.388    20909094.2484   20909101.8014
       197.0004        196.0004
  -4153764.01147  -3218978.60845  23087411.181    23087411.0384   23087414.7154
       160.0004        162.0004
 -15044175.09549 -11697755.84447  21662966.319    21662966.6584   21662970.7864
       197.0004        198.0004
  -2825603.80448  -2169309.76546  23889064.920    23889064.3204   23889071.5254
       188.0004        187.0004
  -6704060.27048  -5213897.65746  22459509.057    22459508.5354   22459513.8474
       178.0004        179.0004
   -116032.36654    -74076.323 3                                  24664277.239
        74.0004         74.000
 -20571402.22849 -15996344.63948  20590272.954    20590272.8914   20590279.7364
       212.0004        213.0004
  -4985893.84947  -3872595.26345  23416865.998    23416865.5094   23416868.8134
       155.0004        158.0004
  -4564944.55347  -3551258.78445  24733525.861    24733525.2274   24733529.0584
       139.0004        144.0004
 -10040940.85048  -7810345.03046  23132270.052    23132268.6514   23132272.7654
       169.0004        172.0004
 21  2  4  1 57 30.0000000  0 10G01G28G17G09G14G03G30G21G22G19
 -20132156.36849 -15666956.60247  20915220.273    20915220.8394   20915228.2464
       196.0004        196.0004
  -4181573.83547  -3240648.60846  23082119.526    23082119.0834   23082123.3684
       161.0004        163.0004
 -15058630.11349 -11709019.49147  21660214.725    21660215.5624   21660220.2734
       196.0004        196.0004
  -2748378.64248  -2109134.36247  23903759.984    23903760.2504   23903767.1084
       187.0004        188.0004
  -6738916.53648  -5241058.36146  22452874.570    22452875.6854   22452880.6554
       178.0004        178.0004
   -116032.36644    -74076.323 3                                  24664277.239
        74.0004         74.000
 -20615866.07749 -16030991.78548  20581811.819    20581811.7204   20581818.5744
       213.0004        213.0004
  -4900810.76547  -3806296.76545  23433056.843    23433056.3724   23433060.3894
       156.0004        159.0004
  -4586020.95547  -3567681.96345  24729516.028    24729515.6784   24729518.7254
       141.0004        146.0004
 -10100065.15748  -7856415.89646  23121017.542    23121017.3864   23121021.4714
       170.0004        172.0004
 21  2  4  1 58  0.0000000  0 11G01G28G17G06G09G14G03G30G21G22G19
 -20099359.59549 -15641400.66847  20921461.017    20921461.5344   20921469.5324
       196.0004        196.0004
  -4209519.40547  -3262424.34445  23076799.567    23076800.1894   23076806.8614
       160.0004        161.0004
 -15072720.86149 -11719999.29047  21657533.465    21657533.4284   21657537.8454
       195.0004        194.0004
   -600556.03357   -422828.13445  24458821.770    24458822.1435   24458832.2614
       135.0004        142.0004
  -2671274.76848  -2049053.50347  23918432.908    23918432.9574   23918439.1604
       188.0004        188.0004
  -6773842.26548  -5268273.26046  22446229.664    22446230.2444   22446234.2834
       177.0004        177.0004
   -204503.39747   -143014.57246  24647320.822                    24647329.2824
       162.0004        173.0004
 -20659859.51349 -16065272.38148  20573439.938    20573440.1144   20573446.9734
       213.0004        213.0004
  -4815436.63747  -3739771.47145  23449301.548    23449302.2294   23449306.9744
       157.0004        159.0004
  -4606973.45747  -3584008.59345  24725530.412    24725529.0824   24725531.6454
       142.0004        147.0004
 -10158865.64548  -7902234.44546  23109828.114    23109827.6194   23109832.8784
       171.0004        172.0004
 21  2  4  1 58 30.0000000  0 11G01G28G17G06G09G14G03G30G21G22G19
 -20065961.71449 -15615376.33247  20927816.139    20927816.6954   20927825.0274
       196.0004        196.0004
  -4237599.94047  -3284305.31745  23071458.596    23071457.3444   23071461.3124
       159.0004        160.0004
 -15086447.95649 -11730695.71047  21654921.461    21654921.6764   21654926.4934
       195.0004        196.0004
   -709208.99747   -507492.31645  24438146.473    24438147.0414   24438155.9904
       135.0004        140.0004
  -2594293.59648  -1989068.22446  23933081.121    23933081.5464   23933088.1254
       187.0004        186.0004
  -6808836.14248  -5295541.19246  22439568.954    22439569.5614   22439575.5544
       176.0004        175.0004
   -243098.93248   -173088.95546  24639976.929    24639977.4844   24639983.5974
       173.0004        176.0004
 -20703379.59149 -16099184.11448  20565158.437    20565158.4234   20565164.9904
       213.0004        213.0004
  -4729773.15447  -3673020.71645  23465603.636    23465603.7824   23465609.4964
       157.0004        159.0004
  -4627798.86347  -3600236.18245  24721564.925    24721564.2744   24721566.8374
       140.0004        143.0004
 -10217341.19548  -7947799.82446  23098701.471    23098700.9354   23098704.1594
       171.0004        172.0004
 21  2  4  1 59  0.0000000  0 11G01G28G17G06G09G14G03G30G21G22G19
 -20031963.56149 -15588884.26347  20934286.220    20934287.2314   20934294.5744
       196.0004        195.0004
  -4265815.45047  -3306291.42745  23066088.050    23066088.3774   23066093.0784
       158.0004        159.0004
 -15099812.55449 -11741109.67547  21652377.992    21652378.5114   21652383.1054
       196.0004        197.0004
   -817863.93947   -592158.11545  24417468.955    24417470.0004   24417479.4874
       136.0004        142.0004
  -2517437.40048  -1929180.29146  23947705.432    23947706.2924   23947713.9114
       185.0004        184.0004
  -6843897.66448  -5322861.84146  22432897.799    22432898.4784   22432903.4924
       176.0004        176.0004
   -281769.33348   -203221.69646  24632617.541    24632618.5064   24632624.8354
       173.0004        173.0004
 -20746424.12949 -16132725.31448  20556967.471    20556967.5554   20556974.0514
       213.0004        213.0004
  -4643822.38247  -3606046.12245  23481960.697    23481959.8284   23481965.5174
       159.0004        161.0004
  -4648494.98947  -3616363.00845  24717625.474    24717624.5144   24717630.7194
       137.0004        142.0004
 -10275491.29848  -7993111.57246  23087635.976    23087635.3644   23087638.0244
       172.0004        173.0004
 21  2  4  1 59 30.0000000  0 11G01G28G17G06G09G14G03G30G21G22G19
 -19997364.50749 -15561923.94247  20940869.830    20940871.1074   20940878.3384
       196.0004        196.0004
  -4294164.63847  -3328381.69445  23060693.156    23060692.7024   23060698.0974
       158.0004        160.0004
 -15112814.46849 -11751241.03047  21649903.236    21649904.2524   21649909.0674
       196.0004        196.0004
   -926516.69647   -676822.19945  24396792.465    24396794.0794   24396803.7894
       138.0004        141.0004
  -2440706.78948  -1869390.22446  23962306.471    23962307.0634   23962315.0874
       183.0004        182.0004
  -6879024.78548  -5350233.62046  22426213.753    22426213.8974   22426218.8534
       176.0004        176.0004
   -320510.67648   -233409.71046  24625244.051    24625245.0544   24625252.8394
       169.0004        168.0004
 -20788989.48649 -16165893.11348  20548867.251    20548867.3854   20548874.2384
       213.0004        213.0004
  -4557585.36147  -3538848.44046  23498369.845    23498370.1504   23498376.3854
       160.0004        163.0004
  -4669057.84047  -3632386.02245  24713713.331    24713711.7774   24713716.3464
       137.0004        143.0004
 -10333314.63848  -8038168.71946  23076631.792    23076631.1874   23076635.4244
       170.0004        170.0004
 21  2  4  2  0  0.0000000  0 11G01G28G17G06G09G14G03G30G21G22G19
 -19962166.20049 -15534496.69047  20947567.313    20947568.2634   20947576.6254
       195.0004        195.0004
  -4322648.15747  -3350576.64945  23055273.999    23055273.6384   23055278.0014
       159.0004        162.0004
 -15125455.66249 -11761091.30847  21647498.668    21647498.4364   21647503.1374
       196.0004        196.0004
  -1035165.27047   -761483.06645  24376118.429    24376118.5884   24376128.3654
       139.0004        144.0004
  -2364104.72748  -1809700.35846  23976884.462    23976884.8564   23976891.5074
       183.0004        184.0004
  -6914217.83148  -5377656.77446  22419515.708    22419516.7324   22419521.4934
       175.0004        175.0004
   -359321.29147   -263651.70046  24617857.718    24617858.7534   24617866.5954
       164.0004        164.0004
 -20831074.28249 -16198686.46348  20540859.092    20540859.0004   20540865.7274
       213.0004        213.0004
  -4471065.27247  -3471430.19445  23514834.111    23514834.7224   23514841.1894
       160.0004        161.0004
  -4689485.85447  -3648303.97245  24709829.133    24709826.3244   24709829.6254
       140.0004        146.0004
 -10390811.36048  -8082971.34446  23065690.846    23065690.1204   23065693.8894
       169.0004        169.0004
 21  2  4  2  0 30.0000000  0 11G01G28G17G06G09G14G03G30G21G22G19
 -19926370.62449 -15506604.02947  20954379.559    20954380.5854   20954387.6154
       195.0004        196.0004
  -4351267.15747  -3372877.16745  23049827.531    23049827.0814   23049831.8304
       160.0004        161.0004
 -15137738.92749 -11770662.66647  21645161.010    21645161.4334   21645165.0254
       195.0004        195.0004
  -1143808.00647   -846139.39245  24355443.533    24355443.9284   24355454.4324
       140.0004        145.0004
  -2287634.42848  -1750113.14946  23991437.674    23991438.1354   23991443.5274
       185.0004        187.0004
  -6949477.21748  -5405131.62146  22412807.834    22412807.8264   22412811.8474
       175.0004        175.0004
   -398199.72947   -293946.56245  24610459.463    24610459.4934   24610469.0874
       160.0004        161.0004
 -20872677.45549 -16231104.52248  20532941.676    20532941.8314   20532948.7224
       213.0004        213.0004
  -4384265.10147  -3403793.71645  23531352.283    23531351.8574   23531357.5034
       159.0004        160.0004
  -4709777.60947  -3664115.74245  24705965.304    24705964.0664   24705968.6594
       139.0004        143.0004
 -10447982.52048  -8127520.28346  23054810.899    23054811.7154   23054815.2624
       168.0004        169.0004
 21  2  4  2  1  0.0000000  0 11G01G28G17G06G09G14G03G30G21G22G19
 -19889979.05649 -15478246.95947  20961305.585    20961306.0694   20961313.2934
       196.0004        196.0004
  -4380021.97547  -3395283.52545  23044355.460    23044354.5214   23044359.9864
       158.0004        159.0004
 -15149665.44349 -11779956.04047  21642891.148    21642891.9094   21642895.9904
       195.0004        195.0004
  -1252442.47747   -930789.30245  24334771.314    24334771.4174   24334780.5174
       141.0004        145.0004
  -2211298.48748  -1690630.69246  24005963.281    24005963.1354   24005971.1674
       186.0004        186.0004
  -6984802.74448  -5432658.01646  22406084.498    22406084.9594   22406089.1314
       174.0004        174.0004
   -437143.75047   -324292.51546  24603050.965    24603050.6574   24603058.7304
       161.0004        163.0004
 -20913797.19849 -16263145.89248  20525117.245    20525117.2064   20525123.7944
       213.0004        213.0004
  -4297187.52447  -3335941.08245  23547921.370    23547922.0984   23547927.4144
       159.0004        160.0004
  -4729931.26847  -3679819.87545  24702129.109    24702129.6754   24702134.1384
       139.0004        143.0004
 -10504828.05648  -8171815.49846  23043994.660    23043993.7954   23043997.9404
       170.0004        172.0004
 21  2  4  2  1 30.0000000  0 11G01G28G17G06G09G14G03G30G21G22G19
 -19852992.43249 -15449426.20147  20968343.295    20968343.8184   20968351.5534
       196.0004        196.0004
  -4408912.48447  -3417795.60145  23038858.300    23038857.5884   23038862.1234
       158.0004        160.0004
 -15161236.70149 -11788972.59247  21640689.408    21640689.5384   21640694.3884
       195.0004        195.0004
  -1361065.91347  -1015430.61545  24314100.186    24314100.6324   24314111.1804
       142.0004        146.0004
  -2135098.82848  -1631254.43246  24020462.345    24020463.0734   24020471.3194
       184.0004        182.0004
  -7020193.79248  -5460235.45846  22399351.318    22399351.9124   22399356.0494
       176.0004        177.0004
   -476150.96147   -354687.66046  24595627.055    24595627.4324   24595635.0644
       163.0004        165.0004
 -20954431.41949 -16294808.92448  20517384.560    20517384.6254   20517391.6354
       213.0004        213.0004
  -4209834.75247  -3267873.97245  23564545.930    23564544.9284   23564550.5934
       159.0004        161.0004
  -4749944.31847  -3695414.45945  24698319.382    24698319.8664   24698323.6164
       136.0004        141.0004
 -10561347.59648  -8215856.67546  23033239.124    23033238.6214   23033242.1334
       171.0004        173.0004
 21  2  4  2  2  0.0000000  0 11G01G28G17G06G09G14G03G30G21G22G19
 -19815411.50349 -15420142.35147  20975493.978    20975495.1614   20975503.1224
       195.0004        195.0004
  -4437938.23747  -3440413.05745  23033334.151    23033334.4024   23033339.2594
       158.0004        160.0004
 -15172453.71949 -11797713.11547  21638554.445    21638555.1834   21638560.1554
       195.0004        196.0004
  -1469675.41447  -1100061.10545  24293432.839    24293433.1574   24293442.4944
       143.0004        147.0004
  -2059037.43048  -1571985.86446  24034935.136    24034936.4694   24034945.5714
       182.0004        182.0004
  -7055649.55348  -5487863.30946  22392603.225    22392603.5734   22392608.1134
       176.0004        176.0004
   -515218.62748   -385129.96246  24588193.771    24588194.6104   24588200.7714
       165.0004        169.0004
 -20994577.80349 -16326091.82448  20509745.305    20509745.2894   20509752.2414
       213.0004        214.0004
  -4122209.11647  -3199594.26245  23581220.444    23581220.0854   23581224.7704
       159.0004        160.0004
  -4769814.24647  -3710897.51545  24694542.617    24694541.0374   24694543.4144
       136.0004        142.0004
 -10617540.80348  -8259643.56746  23022545.511    23022544.8824   23022548.3904
       171.0004        171.0004
 21  2  4  2  2 30.0000000  0 11G01G28G17G06G09G14G03G30G21G22G19
 -19777237.75149 -15390396.56747  20982759.097    20982760.0564   20982767.0654
       195.0004        195.0004
  -4467099.68047  -3463136.24845  23027785.059    23027785.2954   23027789.1564
       158.0004        159.0004
 -15183318.67449 -11806179.30647  21636487.189    21636487.7374   21636492.4184
       196.0004        197.0004
  -1578268.64747  -1184678.91845  24272768.498    24272768.1874   24272778.1324
       143.0004        147.0004
  -1983116.85348  -1512827.07646  24049384.010    24049384.5394   24049392.4284
       181.0004        181.0004
  -7091169.91048  -5515541.49146  22385842.566    22385843.9554   22385848.5554
       176.0004        177.0004
   -554344.60848   -415617.72446  24580745.199    24580746.8104   24580755.2514
       167.0004        169.0004
 -21034234.72549 -16356993.32948  20502198.658    20502198.8034   20502205.6454
       214.0004        214.0004
  -4034313.04847  -3131103.82845  23597947.036    23597946.1684   23597950.5404
       158.0004        160.0004
  -4789539.04547  -3726267.48145  24690786.204    24690785.6704   24690791.4794
       138.0004        144.0004
 -10673408.12248  -8303176.54446  23011914.767    23011913.1964   23011917.5324
       171.0004        171.0004
 21  2  4  2  3  0.0000000  0 11G01G28G17G06G09G14G03G30G21G22G19
 -19738471.58349 -15360189.15847  20990135.143    20990136.2984   20990143.9214
       195.0004        195.0004
  -4496396.26047  -3485964.74645  23022210.220    23022210.7664   23022214.7284
       159.0004        161.0004
 -15193831.49449 -11814371.09747  21634486.670    21634486.6954   21634491.9914
       196.0004        196.0004
  -1686842.19247  -1269281.43845  24252107.011    24252107.1964   24252116.7874
       143.0004        147.0004
  -1907338.49648  -1453779.10246  24063803.868    24063804.5514   24063813.1244
       181.0004        182.0004
  -7126753.56448  -5543268.99546  22379072.010    22379072.4814   22379076.7934
       176.0004        176.0004
   -593525.84748   -446148.54446  24573290.542    24573292.2624   24573300.2884
       170.0004        171.0004
 -21073399.49449 -16387511.34848  20494745.959    20494746.0314   20494752.6834
       214.0004        214.0004
  -3946148.34447  -3062404.06645  23614723.827    23614723.1464   23614727.4504
       158.0004        159.0004
  -4809115.73047  -3741522.01745  24687061.584    24687061.1974   24687065.9134
       139.0004        144.0004
 -10728948.61548  -8346454.82146  23001345.441    23001344.6254   23001348.7554
       172.0004        173.0004
 21  2  4  2  3 30.0000000  0 11G01G28G17G06G09G14G03G30G21G22G19
 -19699114.42548 -15329521.24247  20997624.744    20997625.8014   20997633.3424
       194.0004        194.0004
  -4525828.25547  -3508898.78045  23016608.297    23016609.6644   23016614.0344
       159.0004        161.0004
 -15203994.63549 -11822290.42547  21632552.728    21632553.2884   21632557.7644
       196.0004        196.0004
  -1795393.55947  -1353866.69545  24231450.248    24231450.1554   24231460.3644
       145.0004        149.0004
  -1831704.76348  -1394843.78946  24078196.894    24078197.2994   24078206.0994
       181.0004        182.0004
  -7162400.16248  -5571045.57446  22372289.205    22372289.3234   22372294.4734
       176.0004        176.0004
   -632760.08648   -476720.64546  24565824.686    24565826.2314   24565833.5304
       168.0004        168.0004
 -21112070.40949 -16417644.54748  20487387.243    20487386.8964   20487393.8884
       214.0004        214.0004
  -3857718.08847  -2993497.36345  23631551.724    23631551.1854   23631554.9644
       156.0004        157.0004
  -4828542.38147  -3756659.67445  24683363.664    24683363.7354   24683367.7124
       137.0004        141.0004
 -10784162.26648  -8389478.45146  22990839.234    22990838.6694   22990842.2694
       173.0004        174.0004
 21  2  4  2  4  0.0000000  0 11G01G28G17G06G09G14G03G30G21G22G19
 -19659167.39248 -15298393.67747  21005226.326    21005227.5064   21005234.7964
       194.0004        194.0004
  -4555395.54747  -3531938.21445  23010982.450    23010982.2004   23010986.9694
       159.0004        162.0004
 -15213809.24049 -11829938.16347  21630686.024    21630685.8874   21630689.8314
       196.0004        196.0004
  -1903920.03247  -1438432.53445  24210797.223    24210798.5624   24210808.3604
       147.0004        150.0004
  -1756217.77948  -1336022.79646  24092562.703    24092562.8564   24092570.1924
       182.0004        182.0004
  -7198109.17948  -5598870.76446  22365493.099    22365494.4064   22365499.7744
       177.0004        177.0004
   -672044.97048   -507332.21146  24558348.283    24558349.7074   24558357.8464
       165.0004        165.0004
 -21150245.49149 -16447391.36948  20480122.533    20480122.3134   20480129.5634
       214.0004        214.0004
  -3769024.34347  -2924385.34945  23648428.892    23648428.4234   23648431.8814
       154.0004        155.0004
  -4847816.61447  -3771678.55945  24679697.553    24679696.7854   24679698.8124
       135.0004        140.0004
 -10839049.01848  -8432247.33546  22980393.702    22980392.8164   22980397.4944
       172.0004        172.0004
 21  2  4  2  4 30.0000000  0 11G01G28G17G06G09G14G03G30G21G22G19
 -19618631.48748 -15266807.25547  21012940.615    21012941.3844   21012949.0264
       194.0004        194.0004
  -4585097.76147  -3555082.80145  23005330.705    23005330.2114   23005336.2814
       160.0004        162.0004
 -15223276.65849 -11837315.36447  21628884.092    21628884.2754   21628888.4614
       196.0004        196.0004
  -2012418.77447  -1522976.77045  24190150.198    24190151.8994   24190161.1134
       146.0004        150.0004
  -1680879.45048  -1277317.63246  24106898.866    24106898.4284   24106905.6154
       179.0004        178.0004
  -7233879.80148  -5626743.97946  22358687.294    22358686.3784   22358692.4584
       177.0004        177.0004
   -711377.66447   -537981.03846  24550866.303    24550866.0834   24550873.6844
       164.0004        165.0004
 -21187922.61949 -16476750.18648  20472952.491    20472952.9314   20472959.5244
       214.0004        214.0004
  -3680069.17447  -2855069.63345  23665357.393    23665355.7304   23665360.3604
       154.0004        156.0004
  -4866935.82447  -3786576.66645  24676060.365    24676060.2574   24676062.5374
       135.0004        141.0004
 -10893608.72048  -8474761.40046  22970012.611    22970011.5924   22970015.3724
       173.0004        175.0004
 21  2  4  2  5  0.0000000  0 11G01G28G17G06G09G14G03G30G21G22G19
 -19577509.38548 -15234764.04547  21020766.560    21020766.8304   21020774.4604
       194.0004        194.0004
  -4614936.35047  -3578333.66146  22999653.394    22999653.2294   22999657.6284
       161.0004        163.0004
 -15232399.86049 -11844424.34447  21627147.575    21627148.2144   21627152.5884
       197.0004        198.0004
  -2120888.48447  -1607498.41245  24169510.460    24169510.5874   24169519.5374
       146.0004        150.0004
  -1605693.45248  -1218731.23746  24121204.395    24121204.8784   24121212.5184
       175.0004        175.0004
  -7269712.97348  -5654665.93446  22351867.624    22351869.1184   22351873.0794
       176.0004        174.0004
   -750757.30348   -568666.46746  24543371.066    24543371.6594   24543378.6764
       165.0004        168.0004
 -21225101.32649 -16505720.61548  20465877.916    20465878.1744   20465884.5874
       214.0004        214.0004
  -3590856.46947  -2785553.22145  23682334.170    23682332.9714   23682337.2284
       153.0004        156.0004
  -4885899.36047  -3801353.43045  24672451.477    24672449.4194   24672454.3564
       136.0004        142.0004
 -10947842.83948  -8517021.72446  22959691.296    22959691.0404   22959694.4614
       174.0004        176.0004
 21  2  4  2  5 30.0000000  0 11G01G28G17G06G09G14G03G30G21G22G19
 -19535800.70248 -15202263.76347  21028702.848    21028704.1174   21028710.6354
       193.0004        193.0004
  -4644909.78447  -3601689.56845  22993949.548    22993949.1594   22993953.4754
       161.0004        162.0004
 -15241178.56249 -11851264.87947  21625477.131    21625477.3344   21625481.9544
       197.0004        196.0004
  -2229324.76047  -1691994.00345  24148874.856    24148875.0614   24148884.9794
       147.0004        150.0004
  -1530660.11848  -1160263.75746  24135483.717    24135484.2544   24135491.5664
       175.0004        177.0004
  -7305606.35948  -5682634.81046  22345037.749    22345038.2994   22345042.5904
       175.0004        175.0004
   -790179.65948   -599385.13146  24535867.614    24535869.7334   24535878.0374
       167.0004        169.0004
 -21261778.07149 -16534299.89248  20458899.088    20458899.0094   20458905.6104
       214.0004        215.0004
  -3501387.09847  -2715836.83845  23699358.554    23699358.2674   23699363.1634
       154.0004        157.0004
  -4904703.23847  -3816005.83745  24668871.100    24668870.0224   24668875.2244
       136.0004        141.0004
 -11001749.24448  -8559026.70846  22949433.087    22949432.3904   22949435.8794
       173.0004        172.0004
 21  2  4  2  6  0.0000000  0 11G01G28G17G06G09G14G03G30G21G22G19
 -19493507.03648 -15169307.65047  21036751.232    21036751.5204   21036759.4204
       193.0004        193.0004
  -4675018.13647  -3625150.63246  22988219.598    22988220.1204   22988223.2414
       161.0004        163.0004
 -15249614.57249 -11857838.38947  21623871.438    21623871.7334   21623876.3444
       195.0004        195.0004
  -2337725.23647  -1776461.73545  24128246.926    24128247.9124   24128256.1664
       145.0004        149.0004
  -1455781.97748  -1101917.18546  24149733.046    24149733.6214   24149741.7334
       179.0004        180.0004
  -7341559.58148  -5710650.31946  22338197.295    22338197.2514   22338201.0064
       177.0004        176.0004
   -829642.61648   -630135.41646  24528359.724    24528360.1624   24528368.5184
       168.0004        169.0004
 -21297951.30649 -16562486.83248  20452015.589    20452015.3104   20452022.3934
       215.0004        215.0004
  -3411664.01747  -2645922.75445  23716432.183    23716432.2604   23716438.2184
       154.0004        157.0004
  -4923345.67447  -3830532.40445  24665321.810    24665322.4064   24665328.6774
       135.0004        140.0004
 -11055328.43148  -8600776.70746  22939237.977    22939237.0174   22939240.5404
       172.0004        173.0004
 21  2  4  2  6 30.0000000  0 11G01G28G17G06G09G14G03G30G21G22G19
 -19450629.67848 -15135896.71547  21044910.056    21044911.0494   21044918.9494
       193.0004        193.0004
  -4705261.35847  -3648716.79045  22982464.252    22982464.2494   22982468.3704
       160.0004        161.0004
 -15257709.62449 -11864146.21847  21622331.445    21622331.8114   21622335.7534
       195.0004        195.0004
  -2446087.22947  -1860899.46445  24107626.688    24107626.9614   24107636.0044
       146.0004        150.0004
  -1381061.09648  -1043693.18846  24163950.472    24163951.5194   24163959.6644
       179.0004        179.0004
  -7377572.16448  -5738712.06746  22331341.567    22331342.6244   22331348.3354
       176.0004        176.0004
   -869143.63848   -660915.40846  24520844.262    24520843.6944   24520850.8764
       167.0004        168.0004
 -21333619.15849 -16590279.96248  20445227.887    20445227.9444   20445234.5404
       215.0004        215.0004
  -3321689.16247  -2575812.50445  23733555.427    23733554.5464   23733559.9864
       156.0004        159.0004
  -4941824.05247  -3844931.13245  24661806.659    24661806.6144   24661812.8384
       137.0004        142.0004
 -11108580.34848  -8642271.68846  22929103.610    22929103.0964   22929107.7344
       172.0004        173.0004
 21  2  4  2  7  0.0000000  0 11G01G28G17G06G09G14G03G30G21G22G19
 -19407170.09848 -15102032.10247  21053180.233    21053180.4434   21053188.3974
       193.0004        193.0004
  -4735639.60147  -3672388.14646  22976683.277    22976683.1254   22976688.3894
       161.0004        165.0004
 -15265465.25149 -11870189.55047  21620855.122    21620855.5894   21620859.8474
       195.0004        196.0004
  -2554408.04347  -1945305.14345  24087013.435    24087014.0824   24087023.3894
       148.0004        153.0004
  -1306499.57848   -985593.33646  24178140.953    24178140.6464   24178148.9214
       179.0004        179.0004
  -7413643.45148  -5766819.55046  22324478.618    22324479.3194   22324484.0444
       177.0004        178.0004
   -908680.38848   -691723.23846  24513318.840    24513319.7294   24513324.9854
       165.0004        165.0004
 -21368779.93349 -16617677.96348  20438537.021    20438536.9844   20438543.7454
       215.0004        215.0004
  -3231465.17447  -2505508.11545  23750723.133    23750722.8444   23750728.5794
       157.0004        159.0004
  -4960136.54047  -3859200.63345  24658324.131    24658323.7964   24658325.8314
       139.0004        143.0004
 -11161505.30748  -8683511.90546  22919031.533    22919030.8744   22919035.7134
       170.0004        171.0004
 21  2  4  2  7 30.0000000  0 11G01G28G17G06G09G14G03G30G21G22G19
 -19363130.23748 -15067715.32347  21061561.132    21061562.0484   21061568.8964
       192.0004        192.0004
  -4766153.28247  -3696165.04946  22970877.571    22970877.2604   22970882.8474
       163.0004        165.0004
 -15272883.54749 -11875970.02547  21619443.925    21619444.3324   21619448.8274
       196.0004        197.0004
  -2662685.57747  -2029677.11745  24066408.375    24066408.2994   24066417.7584
       149.0004        152.0004
  -1232100.09948   -927619.71746  24192298.910    24192299.0804   24192306.1144
       180.0004        181.0004
  -7449773.44148  -5794972.77546  22317604.097    22317604.0134   22317608.7644
       177.0004        177.0004
   -948250.91848   -722557.38946  24505788.457    24505790.3224   24505797.5884
       166.0004        168.0004
 -21403432.40749 -16644679.87148  20431943.032    20431942.9114   20431949.9924
       215.0004        215.0004
  -3140995.30247  -2435012.10245  23767938.396    23767938.5204   23767944.0864
       156.0004        157.0004
  -4978281.34747  -3873339.44945  24654871.228    24654870.1404   24654871.7724
       137.0004        142.0004
 -11214103.77248  -8724497.70746  22909023.064    22909022.7834   22909026.6174
       171.0004        172.0004
 21  2  4  2  8  0.0000000  0 11G01G28G17G06G09G14G03G30G21G22G19
 -19318510.62448 -15032946.78947  21070051.687    21070052.5054   21070060.0034
       192.0004        193.0004
  -4796801.17847  -3720046.52746  22965045.573    22965045.3674   22965049.8664
       163.0004        165.0004
 -15279965.14549 -11881488.13647  21618096.039    21618096.3494   21618101.2994
       196.0004        196.0004
  -2770916.21447  -2114012.53745  24045812.146    24045813.0714   24045822.4754
       149.0004        152.0004
  -1157863.88448   -869773.35946  24206425.637    24206425.5554   24206433.3254
       179.0004        179.0004
  -7485960.60048  -5823170.55146  22310717.186    22310718.5604   22310722.0494
       176.0004        177.0004
   -987851.84948   -753415.22246  24498253.635    24498254.1194   24498262.9964
       167.0004        168.0004
 -21437573.85249 -16671283.58648  20425445.941    20425445.7394   20425452.5324
       215.0004        215.0004
  -3050281.00247  -2364325.65645  23785199.717    23785200.2114   23785206.8354
       155.0004        157.0004
  -4996255.24347  -3887345.08345  24651453.191    24651450.9734   24651450.8164
       136.0004        141.0004
 -11266374.96248  -8765228.50146  22899076.939    22899076.2044   22899080.6144
       173.0004        176.0004
 21  2  4  2  8 30.0000000  0 11G01G28G17G06G09G14G03G30G21G22G19
 -19273313.67548 -14997728.38247  21078652.345    21078653.1854   21078660.8864
       193.0004        193.0004
  -4827584.32147  -3744033.40746  22959186.643    22959186.1764   22959190.4404
       162.0004        164.0004
 -15286712.75049 -11886745.99847  21616811.642    21616812.2054   21616817.1504
       196.0004        196.0004
  -2879098.20547  -2198310.04645  24025225.045    24025226.6524   24025236.3374
       150.0004        153.0004
  -1083793.98648   -812056.59846  24220520.705    24220520.9664   24220528.9494
       179.0004        180.0004
  -7522205.26348  -5851413.15746  22303820.646    22303821.3534   22303825.5804
       177.0004        178.0004
  -1027481.73548   -784295.63846  24490712.055    24490712.8124   24490720.7344
       167.0004        167.0004
 -21471203.62949 -16697488.59748  20419046.299    20419046.1474   20419053.0984
       214.0004        215.0004
  -2959325.48947  -2293451.25345  23802506.363    23802508.3154   23802513.6974
       153.0004        154.0004
  -5014057.30747  -3901216.84145  24648063.142    24648061.2244   24648064.7044
       137.0004        142.0004
 -11318319.86548  -8805705.03646  22889192.540    22889192.1294   22889194.8614
       175.0004        176.0004
 21  2  4  2  9  0.0000000  0 11G01G28G17G06G09G14G03G30G21G22G19
 -19227539.50248 -14962060.19647  21087362.474    21087363.2534   21087371.2744
       192.0004        192.0004
  -4858501.12047  -3768124.40046  22953303.346    22953303.0654   22953308.3544
       162.0004        165.0004
 -15293126.49149 -11891743.71447  21615591.553    21615591.7384   21615596.3634
       196.0004        197.0004
  -2987227.49147  -2282566.51145  24004649.423    24004650.5444   24004659.0644
       152.0004        155.0004
  -1009891.13548   -754470.02446  24234583.663    24234584.2784   24234591.8884
       180.0004        181.0004
  -7558505.38148  -5879698.96146  22296913.289    22296913.8144   22296917.3864
       177.0004        177.0004
  -1067136.63847   -815195.53846  24483165.129    24483166.3344   24483172.8594
       163.0004        163.0004
 -21504318.54349 -16723292.41848  20412744.725    20412744.6714   20412751.6654
       214.0004        215.0004
  -2868130.02347  -2222389.85045  23819861.385    23819861.6994   23819868.2264
       150.0004        152.0004
  -5031683.77147  -3914951.73545  24644707.841    24644706.7114   24644710.4814
       137.0004        142.0004
 -11369937.23348  -8845926.35546  22879368.867    22879368.5954   22879372.7544
       175.0004        175.0004
 21  2  4  2  9 30.0000000  0 11G01G28G17G06G09G14G03G30G21G22G19
 -19181190.42648 -14925944.04147  21096183.005    21096183.7234   21096191.3174
       192.0004        192.0004
  -4889552.44247  -3792320.22346  22947395.506    22947395.8064   22947399.5974
       164.0004        166.0004
 -15299208.86549 -11896483.22547  21614434.442    21614434.6974   21614438.6724
       196.0004        196.0004
  -3095302.21747  -2366780.46945  23984083.317    23984084.5124   23984093.3464
       152.0004        155.0004
   -936158.25648   -697015.93746  24248615.092    24248615.0094   24248623.2734
       181.0004        181.0004
  -7594861.19148  -5908028.17146  22289994.150    22289995.1084   22289999.4504
       178.0004        178.0004
  -1106815.01347   -846113.77646  24475614.758    24475615.8414   24475624.1104
       162.0004        164.0004
 -21536917.80949 -16748694.45648  20406540.729    20406541.2624   20406547.9814
       215.0004        215.0004
  -2776698.11047  -2151144.18745  23837262.969    23837261.7604   23837266.6024
       150.0004        153.0004
  -5049133.08047  -3928548.60745  24641386.892    24641386.2804   24641392.2384
       138.0004        144.0004
 -11421227.96648  -8885893.16846  22869609.028    22869608.2304   22869612.9354
       174.0004        174.0004
 21  2  4  2 10  0.0000000  0 11G01G28G17G06G09G14G03G30G21G22G19
 -19134268.64348 -14889381.61147  21105111.195    21105112.2114   21105120.3834
       192.0004        192.0004
  -4920738.78747  -3816621.27446  22941460.761    22941460.3064   22941464.0284
       163.0004        164.0004
 -15304962.25348 -11900966.36847  21613338.553    21613339.1884   21613344.0714
       194.0004        194.0004
  -3203320.28247  -2450950.28345  23963528.717    23963530.3714   23963537.8934
       152.0004        155.0004
   -862597.96848   -639696.30746  24262610.897    24262611.8674   24262620.3114
       179.0004        179.0004
  -7631272.56648  -5936400.64446  22283064.859    22283066.0814   22283070.7694
       178.0004        179.0004
  -1146514.94147   -877048.75346  24468061.402    24468061.5274   24468067.9514
       163.0004        165.0004
 -21569000.32749 -16773693.81848  20400436.061    20400436.0104   20400443.0874
       215.0004        215.0004
  -2685032.47647  -2079716.44445  23854705.511    23854703.8084   23854709.2374
       149.0004        151.0004
  -5066403.98847  -3942006.47145  24638099.412    24638099.4254   24638104.0034
       138.0004        143.0004
 -11472192.94848  -8925606.11246  22859910.744    22859909.8584   22859914.3514
       174.0004        175.0004
 21  2  4  2 10 30.0000000  0 11G01G28G17G06G09G14G03G30G21G22G19
 -19086774.35548 -14852373.07447  21114148.845    21114150.2794   21114158.1204
       191.0004        191.0004
  -4952058.92148  -3841026.60846  22935500.595    22935500.2974   22935505.1444
       165.0004        168.0004
 -15310386.89848 -11905193.35647  21612307.175    21612307.1874   21612311.2234
       194.0004        195.0004
  -3311277.59347  -2535072.76045  23942984.943    23942985.6614   23942995.0274
       153.0004        156.0004
   -789210.95648   -582511.69046  24276578.082    24276578.6864   24276586.0334
       180.0004        181.0004
  -7667737.55548  -5964814.92046  22276126.865    22276127.2024   22276131.6834
       178.0004        179.0004
  -1186232.48948   -907997.48046  24460504.736    24460504.9554   24460509.5684
       165.0004        168.0004
 -21600563.14349 -16798288.21948  20394429.939    20394429.9854   20394436.6444
       215.0004        215.0004
  -2593134.40747  -2008107.57445  23872193.883    23872193.1134   23872197.3104
       148.0004        150.0004
  -5083492.79847  -3955322.37745  24634850.502    24634849.7344   24634852.6264
       138.0004        143.0004
 -11522830.82748  -8965064.18146  22850274.762    22850274.1874   22850278.1224
       174.0004        174.0004
 21  2  4  2 11  0.0000000  0 11G01G28G17G06G09G14G03G30G21G22G19
 -19038710.43348 -14814920.66147  21123295.262    21123296.4344   21123304.4704
       191.0004        191.0004
  -4983513.50748  -3865536.64746  22929515.068    22929514.7584   22929519.9634
       167.0004        168.0004
 -15315485.76049 -11909166.48047  21611337.031    21611337.2824   21611341.6074
       195.0004        197.0004
  -3419172.76047  -2619146.80245  23922453.479    23922454.1374   23922463.0324
       152.0004        154.0004
   -716000.53648   -525464.67446  24290509.540    24290510.0804   24290516.6564
       181.0004        182.0004
  -7704256.76748  -5993271.46146  22269176.515    22269177.1574   22269182.9394
       179.0004        179.0004
  -1225966.67148   -938959.16846  24452941.806    24452942.3754   24452948.9924
       168.0004        169.0004
 -21631605.90949 -16822477.38548  20388522.823    20388522.8174   20388529.7994
       215.0004        215.0004
  -2501007.98047  -1936320.75245  23889723.887    23889724.2694   23889726.7554
       147.0004        150.0004
  -5100398.86447  -3968495.96145  24631634.241    24631632.9124   24631634.9224
       140.0004        144.0004
 -11573143.07148  -9004268.51546  22840700.026    22840700.0344   22840703.3924
       173.0004        174.0004
 21  2  4  2 11 30.0000000  0 11G01G28G17G06G09G14G03G30G21G22G19
 -18990077.58048 -14777024.93047  21132551.258    21132551.9494   21132558.5204
       191.0004        192.0004
  -5015101.87148  -3890150.94146  22923503.968    22923503.4974   22923509.0644
       166.0004        168.0004
 -15320259.66949 -11912886.40647  21610428.086    21610428.5174   21610432.9624
       197.0004        197.0004
  -3527002.10947  -2703169.54645  23901934.495    23901934.6844   23901943.1694
       151.0004        154.0004
   -642967.91448   -468556.24146  24304406.680    24304406.8314   24304414.8034
       180.0004        181.0004
  -7740828.53248  -6021768.92846  22262218.270    22262218.5674   22262222.9264
       179.0004        180.0004
  -1265713.96448   -969931.07746  24445376.872    24445377.4194   24445386.8214
       166.0004        167.0004
 -21662126.06649 -16846259.31948  20382714.686    20382714.7004   20382722.0214
       215.0004        215.0004
  -2408654.23247  -1864356.77245  23907296.851    23907297.5454   23907303.6304
       147.0004        150.0004
  -5117118.81047  -3981524.49145  24628452.352    24628451.5484   24628452.8214
       139.0004        144.0004
 -11623128.88848  -9043218.49846  22831187.853    22831187.0264   22831191.4534
       173.0004        175.0004
 21  2  4  2 12  0.0000000  0 11G01G28G17G06G09G14G03G30G21G22G19
 -18940877.01848 -14738686.83747  21141913.682    21141913.9244   21141921.3474
       191.0004        191.0004
  -5046823.13348  -3914868.82346  22917468.050    22917467.5064   22917471.2924
       166.0004        167.0004
 -15324709.78649 -11916354.04347  21609582.117    21609582.2424   21609586.2934
       197.0004        197.0004
  -3634762.54147  -2787138.61245  23881427.908    23881428.1994   23881436.8284
       150.0004        153.0004
   -570114.54448   -411787.43346  24318270.903    24318271.3804   24318278.4024
       181.0004        182.0004
  -7777451.73848  -6050306.49746  22255247.823    22255249.2864   22255253.3774
       179.0004        180.0004
  -1305471.37748  -1000910.83046  24437811.995    24437812.9864   24437820.4704
       166.0004        167.0004
 -21692121.64349 -16869632.50948  20377007.373    20377007.1564   20377013.9184
       215.0004        216.0004
  -2316075.66747  -1792217.65845  23924915.766    23924915.2384   23924919.7254
       146.0004        148.0004
  -5133650.13047  -3994406.04245  24625305.867    24625304.4234   24625308.5124
       140.0004        145.0004
 -11672788.28748  -9081914.15146  22821739.615    22821738.3284   22821742.4084
       175.0004        177.0004
 21  2  4  2 12 30.0000000  0 11G01G28G17G06G09G14G03G30G21G22G19
 -18891110.63149 -14699907.84347  21151382.672    21151383.7814   21151391.9444
       204.0004        208.0004
  -5078677.50147  -3939690.38646  22911405.811    22911406.2934   22911409.3654
       164.0004        165.0004
 -15328838.09349 -11919570.88447  21608796.241    21608796.4164   21608800.7684
       197.0004        197.0004
  -3742451.58547  -2871052.04945  23860935.067    23860935.3684   23860943.1424
       150.0004        153.0004
   -497442.75548   -355160.13846  24332101.160    24332101.3174   24332107.4084
       183.0004        184.0004
  -7814125.91748  -6078883.74646  22248269.194    22248270.4494   22248275.0774
       180.0004        181.0004
  -1345236.76148  -1031896.83446  24430244.870    24430245.2044   24430253.9104
       165.0004        167.0004
 -21721591.32149 -16892595.89048  20371399.232    20371399.1514   20371406.0094
       215.0004        216.0004
  -2223275.15147  -1719905.58645  23942576.874    23942575.4274   23942578.7594
       146.0004        150.0004
  -5149991.08047  -4007139.22945  24622195.975    24622194.2744   24622198.0564
       140.0004        144.0004
 -11722121.54948  -9120355.63446  22812351.371    22812350.8044   22812353.9304
       175.0004        176.0004
 21  2  4  2 13  0.0000000  0 11G01G28G17G06G09G14G03G30G21G22G19
 -18840780.25749 -14660689.35947  21160960.948    21160961.5014   21160968.8714
       209.0004        208.0004
  -5110665.18647  -3964615.86246  22905318.790    22905319.1864   22905323.2694
       164.0004        166.0004
 -15332646.60449 -11922538.54447  21608071.147    21608071.1374   21608075.9734
       197.0004        196.0004
  -3850066.61547  -2954907.80145  23840455.358    23840456.3454   23840464.8734
       149.0004        152.0004
   -424954.59148   -298675.94446  24345893.992    24345894.5144   24345902.2074
       184.0004        184.0004
  -7850850.41048  -6107500.22046  22241282.158    22241282.2454   22241286.8674
       180.0004        180.0004
  -1385007.60248  -1062887.07546  24422676.891    24422676.9744   24422685.4844
       165.0004        166.0004
 -21750533.65149 -16915148.35448  20365891.451    20365891.5534   20365898.8004
       215.0004        216.0004
  -2130254.96747  -1647422.32345  23960276.493    23960275.9044   23960280.0224
       147.0004        149.0004
  -5166139.84747  -4019722.68045  24619121.685    24619120.7534   24619124.4544
       138.0004        142.0004
 -11771128.66148  -9158542.98046  22803024.640    22803024.4024   22803028.7614
       175.0004        175.0004
 21  2  4  2 13 30.0000000  0 11G01G28G17G06G09G14G03G30G21G22G19
 -18789887.57049 -14621032.71148  21170645.067    21170645.8174   21170653.3834
       218.0004        222.0004
  -5142785.71648  -3989644.85346  22899206.756    22899206.4444   22899210.9424
       165.0004        168.0004
 -15336137.10249 -11925258.40247  21607406.313    21607406.9794   21607411.7084
       196.0004        197.0004
  -3957604.89147  -3038703.74845  23819992.496    23819992.1244   23820001.1394
       150.0004        154.0004
   -352652.01148   -242336.32846  24359652.285    24359652.5444   24359661.1524
       183.0004        183.0004
  -7887624.52748  -6136155.37846  22234282.462    22234283.6414   22234287.6684
       179.0004        178.0004
  -1424781.38147  -1093879.63246  24415107.176    24415108.0224   24415116.2154
       163.0004        164.0004
 -21778947.07149 -16937288.69048  20360484.644    20360484.8124   20360491.3684
       215.0004        215.0004
  -2037017.51247  -1574769.78045  23978018.301    23978017.2444   23978023.4324
       147.0004        151.0004
  -5182093.76947  -4032154.29945  24616085.743    24616084.0794   24616089.5284
       137.0004        142.0004
 -11819810.66448  -9196476.99146  22793761.554    22793760.6274   22793764.5134
       173.0004        173.0004
 21  2  4  2 14  0.0000000  0 11G01G28G17G06G09G14G03G30G21G22G19
 -18738433.02149 -14580938.25548  21180436.179    21180437.0964   21180444.7894
       221.0004        222.0004
  -5175037.54848  -4014776.15246  22893068.909    22893069.0694   22893073.6164
       166.0004        167.0004
 -15339309.80349 -11927730.63247  21606803.531    21606803.9114   21606807.6784
       196.0004        197.0004
  -4065062.34547  -3122436.75645  23799543.533    23799544.5024   23799552.6524
       152.0004        155.0004
   -280535.71748   -186141.85646  24373374.291    24373375.3044   24373384.7624
       181.0004        181.0004
  -7924446.27248  -6164847.67846  22227276.000    22227277.2334   22227281.4854
       179.0004        181.0004
  -1464554.32447  -1124871.53146  24407539.958    24407540.2144   24407547.4704
       164.0004        166.0004
 -21806828.83049 -16959014.74748  20355178.757    20355178.8894   20355185.6244
       215.0004        215.0004
  -1943564.15347  -1501948.98945  23995801.822    23995801.2554   23995808.2454
       148.0004        152.0004
  -5197849.40647  -4044431.44845  24613086.964    24613087.7884   24613092.9614
       137.0004        142.0004
 -11868166.30648  -9234156.69346  22784559.235    22784558.1364   22784563.2304
       172.0004        173.0004
 21  2  4  2 14 30.0000000  0 11G01G28G17G06G09G14G03G30G21G22G19
 -18686419.84349 -14540408.51948  21190334.706    21190335.3764   21190342.6814
       222.0004        222.0004
  -5207421.69848  -4040010.55246  22886907.103    22886906.8184   22886911.2284
       166.0004        169.0004
 -15342167.74349 -11929957.59447  21606259.758    21606259.8224   21606264.0134
       197.0004        197.0004
  -4172437.75347  -3206105.84945  23779110.373    23779110.7654   23779119.7924
       152.0004        154.0004
   -208609.15048   -130095.23946  24387061.874    24387062.8784   24387071.4464
       180.0004        180.0004
  -7961316.18548  -6193577.48246  22220259.821    22220260.7054   22220265.6134
       181.0004        179.0004
  -1504325.36148  -1155861.94346  24399969.170    24399971.2314   24399979.2574
       165.0004        167.0004
 -21834178.92849 -16980326.51948  20349974.356    20349974.4004   20349981.4434
       215.0004        216.0004
  -1849898.65147  -1428962.92445  24013625.744    24013626.2094   24013631.3104
       148.0004        151.0004
  -5213406.25647  -4056553.67745  24610127.387    24610127.1984   24610132.4574
       139.0004        144.0004
 -11916196.59848  -9271582.88246  22775419.364    22775419.1784   22775423.0474
       172.0004        174.0004
 21  2  4  2 15  0.0000000  0 11G01G28G17G06G09G14G03G30G21G22G19
 -18633849.37149 -14499444.50748  21200338.911    21200339.5694   21200346.2874
       222.0004        222.0004
  -5239937.32448  -4065347.41646  22880719.789    22880719.6994   22880723.8524
       168.0004        170.0004
 -15344711.87449 -11931940.02947  21605775.483    21605775.8344   21605779.6364
       197.0004        197.0004
  -4279727.90547  -3289708.44545  23758694.213    23758695.6134   23758703.7414
       152.0004        155.0004
   -136873.83148    -74197.67346  24400715.500    24400715.0954   24400723.0814
       181.0004        182.0004
  -7998233.04848  -6222343.84846  22213234.379    22213235.4064   22213240.4124
       181.0004        181.0004
  -1544091.54548  -1186848.55846  24392402.553    24392404.0904   24392412.2334
       167.0004        169.0004
 -21860995.39849 -17001222.47748  20344871.211    20344871.3044   20344878.1614
       215.0004        215.0004
  -1756023.07747  -1355813.13545  24031490.112    24031489.6774   24031494.4064
       146.0004        148.0004
  -5228761.69047  -4068518.93945  24607207.780    24607206.2254   24607208.9374
       139.0004        144.0004
 -11963901.63248  -9308755.61646  22766342.344    22766340.7184   22766344.8564
       174.0004        176.0004
 21  2  4  2 15 30.0000000  0 11G01G28G17G06G09G14G03G30G21G22G19
 -18580724.06949 -14458048.16548  21210447.114    21210448.2454   21210455.6534
       221.0004        221.0004
  -5272585.33348  -4090787.42146  22874506.450    22874506.7274   22874511.0354
       169.0004        170.0004
 -15346945.64249 -11933680.62847  21605349.688    21605350.2084   21605355.0524
       196.0004        196.0004
  -4386930.73647  -3373243.02445  23738295.081    23738295.5324   23738303.1144
       153.0004        156.0004
    -65332.39148    -18451.23046  24414327.782    24414328.7124   24414336.5004
       181.0004        181.0004
  -8035196.83148  -6251146.77046  22206202.503    22206202.6474   22206206.7504
       182.0004        182.0004
  -1583850.89548  -1217829.86646  24384837.402    24384838.8054   24384847.0374
       170.0004        172.0004
 -21887277.51349 -17021702.06348  20339870.030    20339870.1404   20339877.3144
       215.0004        216.0004
  -1661941.33247  -1282502.69245  24049394.847    24049394.3014   24049397.7944
       146.0004        150.0004
  -5243914.42047  -4080326.25345  24604322.536    24604320.2604   24604325.3224
       138.0004        141.0004
 -12011282.37048  -9345675.67446  22757325.271    22757324.9884   22757328.8064
       175.0004        177.0004
 21  2  4  2 16  0.0000000  0 11G01G28G17G06G09G14G03G30G21G22G19
 -18527045.89149 -14416221.01648  21220662.115    21220662.9964   21220670.6014
       222.0004        222.0004
  -5305365.39448  -4116330.30946  22868268.667    22868268.2984   22868273.4814
       169.0004        169.0004
 -15348870.79849 -11935180.74147  21604983.596    21604984.0594   21604988.4314
       195.0004        195.0004
  -4494043.56947  -3456707.47745  23717912.411    23717912.5364   23717920.5534
       154.0004        158.0004
      6013.31448     37142.73046  24427904.641    24427905.1684   24427913.1734
       179.0004        178.0004
  -8072206.83348  -6279985.72646  22199158.697    22199158.7384   22199162.7204
       180.0004        179.0004
  -1623601.04148  -1248804.00746  24377273.389    24377274.9144   24377282.0894
       170.0004        171.0004
 -21913023.92849 -17041764.21248  20334970.720    20334970.6984   20334977.9204
       216.0004        216.0004
  -1567655.15147  -1209032.95445  24067336.852    24067335.7064   24067339.8944
       147.0004        150.0004
  -5258862.51847  -4091974.13345  24601475.915    24601476.2674   24601478.7794
       135.0004        140.0004
 -12058339.69348  -9382343.70446  22748370.118    22748369.9014   22748373.5904
       175.0004        176.0004
 21  2  4  2 16 30.0000000  0 11G01G28G17G06G09G14G03G30G21G22G19
 -18472815.16649 -14373963.29548  21230981.753    21230982.7884   21230990.1244
       222.0004        221.0004
  -5338275.81448  -4141974.77546  22862006.871    22862006.4934   22862010.1084
       168.0004        170.0004
 -15350487.16049 -11936440.24447  21604676.670    21604676.5284   21604680.7984
       195.0004        196.0004
  -4601062.13347  -3540098.51745  23697546.110    23697547.3674   23697555.1404
       155.0004        157.0004
     77162.77048     92583.76146  24441443.746    24441444.0984   24441452.7664
       177.0004        177.0004
  -8109260.70048  -6308858.85846  22192106.983    22192108.0494   22192112.4754
       179.0004        179.0004
  -1663337.93448  -1279767.79146  24369711.910    24369712.7914   24369720.8384
       170.0004        170.0004
 -21938231.75949 -17061406.68048  20330173.799    20330173.7754   20330180.7634
       216.0004        216.0004
  -1473166.59647  -1135405.52245  24085316.831    24085316.3274   24085319.6474
       148.0004        151.0004
  -5273602.02847  -4103459.49945  24598673.600    24598673.4524   24598676.8324
       136.0004        142.0004
 -12105072.16348  -9418758.62046  22739478.253    22739477.2364   22739480.7334
       176.0004        178.0004
 21  2  4  2 17  0.0000000  0 11G01G28G17G06G09G14G03G30G21G22G19
 -18418035.06149 -14331277.50148  21241406.092    21241406.9614   21241414.1254
       221.0004        221.0004
  -5371317.61048  -4167721.59846  22855718.882    22855718.9634   22855722.4384
       168.0004        169.0004
 -15351797.74849 -11937461.47347  21604426.037    21604427.0854   21604431.4714
       196.0004        198.0004
  -4707985.06047  -3623415.03545  23677199.473    23677200.1444   23677208.2194
       154.0004        156.0004
    148112.89448    147869.48046  24454946.061    24454945.3264   24454953.7564
       177.0004        177.0004
  -8146358.92448  -6337766.56846  22185047.974    22185048.2604   22185052.6704
       179.0004        180.0004
  -1703060.29648  -1310720.24646  24362154.849    24362154.6144   24362162.3004
       169.0004        170.0004
 -21962900.92749 -17080629.41448  20325479.047    20325479.4044   20325486.3734
       215.0004        216.0004
  -1378478.06647  -1061622.27145  24103336.125    24103334.5284   24103338.7844
       146.0004        149.0004
  -5288132.55147  -4114781.95145  24595906.769    24595905.8834   24595910.8774
       137.0004        142.0004
 -12151481.35748  -9454921.60246  22730646.108    22730646.2814   22730649.5864
       176.0004        177.0004
 21  2  4  2 17 30.0000000  0 11G01G28G17G06G09G14G03G30G21G22G19
 -18362706.51049 -14288164.35048  21251934.092    21251935.4264   21251942.8264
       221.0004        220.0004
  -5404489.49748  -4193569.82246  22849405.479    22849405.3754   22849410.0144
       168.0004        168.0004
 -15352803.54349 -11938245.20847  21604235.699    21604235.9624   21604240.2644
       197.0004        198.0004
  -4814808.52047  -3706654.02745  23656871.562    23656872.4264   23656880.4764
       156.0004        159.0004
    218862.68648    202999.11846  24468408.083    24468409.1104   24468416.5464
       177.0004        178.0004
  -8183499.65448  -6366707.39846  22177980.741    22177980.6334   22177985.5314
       181.0004        182.0004
  -1742764.56348  -1341658.64846  24354600.153    24354599.1754   24354605.9934
       170.0004        171.0004
 -21987029.09949 -17099430.60348  20320888.197    20320888.0934   20320894.8914
       216.0004        216.0004
  -1283591.76247   -987684.91245  24121389.837    24121389.2574   24121395.0164
       145.0004        149.0004
  -5302450.82247  -4125939.07145  24593183.749    24593183.3194   24593185.9434
       137.0004        143.0004
 -12197566.59948  -9490832.17346  22721877.171    22721875.8284   22721879.2434
       175.0004        174.0004
