     2.11           OBSERVATION DATA    G (GPS)             RINEX VERSION / TYPE
teqc  2018Jun8                          20210202 03:10:48UTCPGM / RUN BY / DATE
Linux2.6.32-573.12.1.el6.x86_64|x86_64|gcc|Win64-MinGW64|=+ COMMENT
BIT 2 OF LLI FLAGS DATA COLLECTED UNDER A/S CONDITION       COMMENT
-Unknown-                                                   MARKER NAME
CRNO                                                        MARKER NUMBER
-Unknown-           -Unknown-                               OBSERVER / AGENCY
-Unknown-           ASHTECH             -Unknown-           REC # / TYPE / VERS
-Unknown-           -Unknown-                               ANT # / TYPE
   408077.7307 -6158370.0938  1605161.0710                  APPROX POSITION XYZ
        0.0000        0.0000        0.0000                  ANTENNA: DELTA H/E/N
     1     1                                                WAVELENGTH FACT L1/2
     7    L1    L2    C1    P1    P2    S1    S2            # / TYPES OF OBSERV
    30.0000                                                 INTERVAL
Forced Modulo Decimation to 30 seconds                      COMMENT
 SNR is mapped to RINEX snr flag value [1-9]                COMMENT
  L1: 1 -> 1;  90 -> 5; 210 -> 9                            COMMENT
  L2: 1 -> 1; 150 -> 5; 250 -> 9                            COMMENT
pseudorange smoothing corrections not applied               COMMENT
  2021     2     4     0     0   30.0000000     GPS         TIME OF FIRST OBS
                                                            END OF HEADER
 21  2  4  0  0 30.0000000  0  9G14G30G21G01G08G09G07G17G04
  -1219974.62247   -941635.31845  23445182.461    23445184.1624   23445190.1504
       160.0004        161.0004
  -7215728.18448  -5599360.92146  23055443.981    23055444.5214   23055451.7464
       171.0004        173.0004
 -16054385.97948 -12494843.69546  21747395.023    21747394.4244   21747398.9334
       184.0004        184.0004
 -16597122.13848 -12919091.78647  21538021.357    21538021.5344   21538029.8194
       188.0004        188.0004
 -13585767.08049 -10570308.93748  22095678.944    22095678.7964   22095686.2274
       215.0004        215.0004
 -15098183.80249 -11736923.79047  21419717.265    21419717.2794   21419724.8894
       203.0004        203.0004
 -18117328.61049 -14096423.29647  21125478.316    21125478.9524   21125483.0084
       202.0004        203.0004
  -7309950.24448  -5675869.10946  23278585.015    23278584.5464   23278591.0464
       165.0004        167.0004
  -7841837.65648  -6084262.52446  22926852.638    22926853.6994   22926860.8614
       169.0004        170.0004
 21  2  4  0  1  0.0000000  0  9G14G30G21G01G08G09G07G17G04
  -1246142.32147   -962025.71945  23440203.325    23440204.1424   23440210.9304
       159.0004        160.0004
  -7303748.63648  -5667948.24846  23038694.583    23038693.8814   23038702.6754
       172.0004        173.0004
 -16046266.79948 -12488517.04446  21748938.953    21748938.7224   21748943.7914
       184.0004        184.0004
 -16658085.34448 -12966595.56447  21526420.619    21526421.2874   21526428.5724
       188.0004        189.0004
 -13497327.73149 -10501395.14648  22112509.430    22112508.5304   22112515.2514
       215.0004        214.0004
 -15041452.67449 -11692717.71747  21430511.964    21430512.5164   21430520.9684
       203.0004        204.0004
 -18181895.63449 -14146735.26047  21113191.840    21113192.3854   21113196.3394
       203.0004        203.0004
  -7392710.11348  -5740357.24546  23262836.294    23262836.8164   23262842.9564
       167.0004        169.0004
  -7744847.76248  -6008686.01446  22945311.061    22945311.1444   22945316.8494
       168.0004        169.0004
 21  2  4  0  1 30.0000000  0  9G14G30G21G01G08G09G07G17G04
  -1272295.75947   -982404.95545  23435226.764    23435228.2324   23435233.3234
       158.0004        161.0004
  -7391745.29548  -5736517.03646  23021948.786    23021949.1124   23021956.1424
       172.0004        172.0004
 -16037661.07048 -12481811.25546  21750576.933    21750576.8144   21750581.5044
       184.0004        185.0004
 -16718716.74348 -13013840.77847  21514883.729    21514883.4294   21514891.0764
       188.0004        189.0004
 -13408710.31149 -10432342.59148  22129372.079    22129371.9384   22129378.3724
       214.0004        214.0004
 -14984353.31149 -11648224.69447  21441378.681    21441378.6004   21441386.0594
       203.0004        204.0004
 -18246227.66149 -14196864.09747  21100949.383    21100950.1114   21100953.9674
       203.0004        203.0004
  -7475143.38648  -5804590.89146  23247149.901    23247150.2334   23247156.4294
       168.0004        170.0004
  -7647770.39148  -5933041.29246  22963784.479    22963784.6544   22963790.2674
       168.0004        169.0004
 21  2  4  0  2  0.0000000  0  9G14G30G21G01G08G09G07G17G04
  -1298435.32347  -1002773.42046  23430253.506    23430254.1224   23430259.6034
       160.0004        163.0004
  -7479715.29248  -5805065.06746  23005208.792    23005208.6134   23005215.8034
       171.0004        171.0004
 -16028567.24748 -12474725.15246  21752307.384    21752307.2004   21752313.1014
       185.0004        186.0004
 -16779012.40648 -13060824.38947  21503407.685    21503408.2964   21503417.1304
       188.0004        188.0004
 -13319916.51649 -10363152.63047  22146268.879    22146268.0314   22146275.4524
       213.0004        212.0004
 -14926887.73349 -11603446.34147  21452312.666    21452313.5684   21452321.0844
       202.0004        202.0004
 -18310321.42749 -14246807.28747  21088752.610    21088752.7974   21088757.8484
       203.0004        204.0004
  -7557247.39548  -5868567.98046  23231525.005    23231525.7194   23231532.9984
       168.0004        168.0004
  -7550607.68848  -5857330.08546  22982272.549    22982273.9344   22982280.6114
       168.0004        169.0004
 21  2  4  0  2 30.0000000  0  9G14G30G21G01G08G09G07G17G04
  -1324562.37547  -1023132.09745  23425280.729    23425281.7084   23425287.3014
       160.0004        162.0004
  -7567656.61148  -5873590.75346  22988474.882    22988473.6894   22988481.0104
       171.0004        173.0004
 -16018984.95848 -12467258.41246  21754132.434    21754131.2284   21754136.7434
       186.0004        186.0004
 -16838969.33948 -13107544.03547  21491998.148    21491998.7624   21492008.2774
       188.0004        190.0004
 -13230949.58549 -10293827.73447  22163196.796    22163197.5234   22163205.4824
       212.0004        211.0004
 -14869058.85849 -11558384.88247  21463318.302    21463318.5664   21463325.7474
       202.0004        203.0004
 -18374174.12749 -14296562.62247  21076602.225    21076602.3284   21076606.8214
       203.0004        203.0004
  -7639020.67948  -5932287.37346  23215965.029    23215965.1994   23215971.3464
       168.0004        169.0004
  -7453362.74648  -5781554.83346  23000777.351    23000778.1884   23000785.2144
       168.0004        168.0004
 21  2  4  0  3  0.0000000  0  9G14G30G21G01G08G09G07G17G04
  -1350676.29147  -1043480.58245  23420312.727    23420313.1674   23420317.5364
       161.0004        162.0004
  -7655565.36848  -5942091.05346  22971745.730    22971746.3164   22971753.1094
       172.0004        174.0004
 -16008911.93848 -12459409.28446  21756048.009    21756047.3114   21756053.0444
       186.0004        186.0004
 -16898582.59948 -13153995.91847  21480657.190    21480657.3554   21480664.2314
       192.0004        194.0004
 -13141810.28549 -10224368.54147  22180159.528    22180160.4644   22180167.8764
       212.0004        211.0004
 -14810867.71349 -11513041.14347  21474391.484    21474391.9044   21474399.6914
       202.0004        202.0004
 -18437781.25649 -14346126.62647  21064498.034    21064498.6354   21064502.3514
       203.0004        203.0004
  -7720459.92548  -5995746.48846  23200467.985    23200467.7094   23200473.2574
       167.0004        167.0004
  -7356036.69448  -5705716.37446  23019298.524    23019298.7764   23019305.9934
       167.0004        168.0004
 21  2  4  0  3 30.0000000  0 10G14G28G30G21G01G08G09G07G17G04
  -1376780.24747  -1063821.30845  23415345.416    23415345.4884   23415350.8864
       161.0004        162.0004
   -626826.15754   -457370.276 3                                  24701795.018
        74.0004         74.000
  -7743441.33148  -6010565.80846  22955023.962    22955023.2294   22955030.7534
       173.0004        173.0004
 -15998349.31348 -12451178.64946  21758058.964    21758058.5544   21758062.7804
       187.0004        187.0004
 -16957851.01148 -13200179.10147  21469379.139    21469379.3414   21469385.2724
       194.0004        195.0004
 -13052503.85849 -10154779.11747  22197155.183    22197155.2844   22197162.5764
       212.0004        212.0004
 -14752319.01049 -11467418.78247  21485532.941    21485533.2454   21485540.4484
       202.0004        202.0004
 -18501142.20249 -14395498.77047  21052440.487    21052441.0474   21052445.4774
       203.0004        204.0004
  -7801565.23347  -6058945.40045  23185033.215    23185034.0244   23185037.6414
       164.0004        162.0004
  -7258634.45348  -5629818.54746  23037834.128    23037834.3474   23037841.5874
       168.0004        168.0004
 21  2  4  0  4  0.0000000  0 10G14G28G30G21G01G08G09G07G17G04
  -1402874.99047  -1084154.83545  23410378.204    23410378.9104   23410385.3064
       158.0004        159.0004
   -374978.23454   -287161.582 3                                  23701225.388
        74.0004         74.000
  -7831281.93248  -6079012.99446  22938306.721    22938308.0704   22938315.4844
       171.0004        171.0004
 -15987296.30148 -12442565.88046  21760160.399    21760160.0434   21760166.7584
       187.0004        187.0004
 -17016771.04548 -13246090.80947  21458164.789    21458165.3534   21458173.1294
       193.0004        191.0004
 -12963032.31749 -10085061.02147  22214180.009    22214180.4514   22214189.0424
       212.0004        212.0004
 -14693415.12949 -11421519.65947  21496741.615    21496742.2004   21496749.4064
       202.0004        203.0004
 -18564253.37749 -14444676.29547  21040430.862    21040431.3014   21040436.0054
       204.0004        204.0004
  -7882334.83047  -6121882.69046  23169663.617    23169664.2384   23169666.7664
       162.0004        164.0004
  -7161158.48848  -5553863.24546  23056383.052    23056383.0404   23056389.8204
       167.0004        168.0004
 21  2  4  0  4 30.0000000  0 10G14G28G30G21G01G08G09G07G17G04
  -1428960.02147  -1104480.81045  23405415.078    23405414.9104   23405420.6084
       157.0004        158.0004
   -389107.23144   -298169.563 4                                  23698491.825
        74.0004         99.000
  -7919083.31948  -6147429.61146  22921599.427    22921599.0894   22921607.1774
       170.0004        171.0004
 -15975750.69948 -12433569.28546  21762357.663    21762357.7724   21762363.7324
       187.0004        187.0004
 -17075337.95848 -13291727.32146  21447017.681    21447018.6894   21447028.2734
       189.0004        187.0004
 -12873397.22749 -10015215.49447  22231237.552    22231237.8114   22231245.6704
       211.0004        211.0004
 -14634157.23349 -11375344.67147  21508018.519    21508018.5564   21508025.9534
       202.0004        202.0004
 -18627110.71249 -14493656.02147  21028469.535    21028470.1404   21028474.3184
       204.0004        204.0004
  -7962765.38347  -6184555.82146  23154359.326    23154358.4174   23154361.7864
       162.0004        163.0004
  -7063610.06848  -5477851.50146  23074945.063    23074946.3154   23074952.3954
       167.0004        167.0004
 21  2  4  0  5  0.0000000  0 10G14G28G30G21G01G08G09G07G17G04
  -1455037.62947  -1124801.01045  23400452.848    23400453.7704   23400459.0014
       157.0004        159.0004
   -404976.47544   -310524.287 4                                  23695497.771
        74.0004        111.000
  -8006844.40348  -6215814.86346  22904898.614    22904899.2334   22904906.5854
       169.0004        171.0004
 -15963713.29248 -12424189.45546  21764649.161    21764648.7484   21764654.4464
       187.0004        187.0004
 -17133549.71048 -13337087.09147  21435939.637    21435941.3504   21435950.7864
       187.0004        188.0004
 -12783602.15749  -9945245.32047  22248325.918    22248325.6474   22248332.8494
       210.0004        210.0004
 -14574549.24149 -11328896.88847  21519361.195    21519361.6994   21519369.3034
       202.0004        203.0004
 -18689712.58849 -14542436.69747  21016557.035    21016557.2984   21016561.4524
       204.0004        204.0004
  -8042856.52647  -6246964.48545  23139116.990    23139116.8004   23139120.0284
       159.0004        160.0004
  -6965993.19048  -5401786.41446  23093522.339    23093522.2784   23093528.9644
       166.0004        166.0004
 21  2  4  0  5 30.0000000  0  9G14G30G21G01G08G09G07G17G04
  -1481108.67947  -1145116.10445  23395492.617    23395492.6734   23395497.9864
       157.0004        159.0004
  -8094562.69248  -6284166.75546  22888205.591    22888206.6024   22888214.8854
       170.0004        171.0004
 -15951183.06448 -12414425.61646  21767034.121    21767033.0064   21767038.1444
       187.0004        187.0004
 -17191402.84948 -13382167.42547  21424932.312    21424933.6344   21424941.8564
       188.0004        191.0004
 -12693650.01049  -9875152.73447  22265442.331    22265442.7884   22265450.2444
       210.0004        210.0004
 -14514593.67849 -11282178.26947  21530770.632    21530771.0734   21530778.3704
       203.0004        203.0004
 -18752055.74149 -14591015.76347  21004693.033    21004693.9264   21004698.2854
       204.0004        204.0004
  -8122606.00447  -6309106.90545  23123940.668    23123940.5844   23123943.6224
       159.0004        160.0004
  -6868310.49747  -5325670.04646  23112108.371    23112109.1384   23112117.1104
       164.0004        164.0004
 21  2  4  0  6  0.0000000  0 10G14G28G30G21G01G08G09G07G17G04
  -1507174.52347  -1165427.11745  23390531.228    23390531.3594   23390537.7354
       156.0004        157.0004
   -434631.24044   -214131.269 4                                  23689855.223
        74.0004        113.000
  -8182236.18148  -6352483.71646  22871522.630    22871522.7204   22871529.8254
       170.0004        172.0004
 -15938159.77548 -12404277.56346  21769511.343    21769510.9454   21769516.3944
       187.0004        187.0004
 -17248894.48548 -13426966.08447  21413993.065    21413993.6374   21414001.1804
       190.0004        192.0004
 -12603543.52249  -9804939.87847  22282587.482    22282588.8684   22282597.0144
       210.0004        209.0004
 -14454293.57849 -11235191.17247  21542245.640    21542246.1224   21542252.9334
       203.0004        203.0004
 -18814137.77049 -14639391.35947  20992879.928    20992880.0394   20992884.4804
       204.0004        204.0004
  -8202012.36647  -6370981.96145  23108829.689    23108830.4004   23108836.7464
       159.0004        162.0004
  -6770565.03147  -5249504.76846  23130709.888    23130710.0054   23130717.1414
       162.0004        163.0004
 21  2  4  0  6 30.0000000  0 10G14G28G30G21G01G08G09G07G17G04
  -1533234.98547  -1185733.98845  23385571.088    23385571.2064   23385578.6004
       154.0004        156.0004
   -448424.86744   -224879.633 5                                  23687228.265
        74.0004        135.000
  -8269861.38348  -6420763.07546  22854848.366    22854847.6504   22854856.6534
       171.0004        171.0004
 -15924642.28548 -12393744.43246  21772084.401    21772083.9224   21772088.8044
       187.0004        187.0004
 -17306020.32248 -13471479.71547  21403122.897    21403123.4094   21403130.5564
       192.0004        193.0004
 -12513284.47749  -9734608.15547  22299765.354    22299765.0394   22299772.6844
       210.0004        210.0004
 -14393650.49449 -11187936.82947  21553786.308    21553786.1474   21553792.9054
       203.0004        203.0004
 -18875954.48649 -14687560.22047  20981115.460    20981116.6284   20981120.9374
       204.0004        205.0004
  -8281072.95247  -6432587.56646  23093786.299    23093786.6534   23093791.1484
       163.0004        167.0004
  -6672758.44447  -5173291.86146  23149320.868    23149322.1014   23149329.0654
       161.0004        163.0004
 21  2  4  0  7  0.0000000  0 10G14G28G30G21G01G08G09G07G17G04
  -1559295.53047  -1206040.85745  23380613.011    23380613.4924   23380618.8254
       154.0004        157.0004
   -465710.10946   -238348.49245  23683938.084                    23683943.7614
       128.0004        141.0004
  -8357440.29548  -6489006.34146  22838182.495    22838183.4384   22838190.6394
       172.0004        173.0004
 -15910633.49248 -12382828.47746  21774749.348    21774749.2854   21774754.6244
       187.0004        187.0004
 -17362781.43948 -13515709.14447  21392321.544    21392321.7874   21392329.0644
       193.0004        193.0004
 -12422879.87749  -9664163.02947  22316968.568    22316968.3164   22316975.9904
       209.0004        208.0004
 -14332671.53349 -11140420.75547  21565389.221    21565390.1614   21565397.0504
       204.0004        204.0004
 -18937507.60449 -14735523.68247  20969402.756    20969403.0654   20969407.8834
       204.0004        204.0004
  -8359790.71948  -6493926.03846  23078807.455    23078806.2974   23078813.1304
       167.0004        170.0004
  -6574897.82547  -5097036.86845  23167943.231    23167944.0764   23167951.8314
       161.0004        162.0004
 21  2  4  0  7 30.0000000  0 10G14G28G30G21G01G08G09G07G17G04
  -1585356.76547  -1226348.28845  23375654.418    23375654.9774   23375659.2044
       155.0004        158.0004
   -480725.23247   -250048.57945  23681080.083    23681080.7834   23681086.5284
       136.0004        143.0004
  -8444970.23148  -6557211.48046  22821525.007    22821525.9854   22821533.2604
       171.0004        172.0004
 -15896132.84548 -12371529.26746  21777509.562    21777509.2814   21777514.2484
       187.0004        187.0004
 -17419174.40248 -13559651.70747  21381589.842    21381590.4454   21381598.1394
       193.0004        193.0004
 -12332332.00349  -9593606.24447  22334199.396    22334198.9524   22334206.8464
       208.0004        208.0004
 -14271359.07249 -11092644.82947  21577056.975    21577057.4394   21577064.1774
       203.0004        204.0004
 -18998793.74049 -14783279.11547  20957740.100    20957741.0224   20957744.9924
       203.0004        204.0004
  -8438163.76848  -6554995.89646  23063891.498    23063892.0474   23063899.5354
       167.0004        169.0004
  -6476985.61847  -5020741.67746  23186577.370    23186576.9104   23186584.5204
       162.0004        164.0004
 21  2  4  0  8  0.0000000  0 10G14G28G30G21G01G08G09G07G17G04
  -1611418.15447  -1246655.80645  23370694.866    23370695.4394   23370699.8054
       157.0004        161.0004
   -495725.44547   -261737.02945  23678226.949    23678227.9104   23678231.9404
       138.0004        143.0004
  -8532447.17648  -6625375.31046  22804880.552    22804880.9474   22804887.7574
       174.0004        178.0004
 -15881138.33048 -12359845.19346  21780362.743    21780362.0684   21780367.3194
       187.0004        187.0004
 -17475194.33548 -13603303.57947  21370929.658    21370930.2514   21370937.3604
       192.0004        191.0004
 -12241641.80049  -9522938.53547  22351456.598    22351456.9694   22351464.3864
       208.0004        207.0004
 -14209714.29049 -11044609.92747  21588787.388    21588787.4824   21588794.6884
       203.0004        203.0004
 -19059808.55649 -14830823.12447  20946130.294    20946130.8144   20946134.5244
       204.0004        204.0004
  -8516188.63148  -6615794.46646  23049043.410    23049044.3724   23049052.4514
       170.0004        172.0004
  -6379022.92047  -4944407.11946  23205217.562    23205218.8764   23205226.2374
       163.0004        164.0004
 21  2  4  0  8 30.0000000  0 10G14G28G30G21G01G08G09G07G17G04
  -1637479.40047  -1266963.24845  23365734.682    23365735.4674   23365741.2194
       158.0004        161.0004
   -510711.40447   -273414.35645  23675374.483    23675374.3294   23675381.3494
       139.0004        144.0004
  -8619867.54948  -6693495.06346  22788244.649    22788244.8004   22788252.4694
       176.0004        177.0004
 -15865648.25948 -12347774.99846  21783310.577    21783310.0364   21783314.7584
       187.0004        187.0004
 -17530836.82248 -13646661.35047  21360341.339    21360340.9634   21360349.2734
       191.0004        190.0004
 -12150811.03549  -9452161.32747  22368742.093    22368741.6544   22368748.8654
       208.0004        208.0004
 -14147738.65249 -10996317.23547  21600581.464    21600581.6044   21600588.6414
       203.0004        203.0004
 -19120547.72449 -14878152.34547  20934571.329    20934571.6994   20934576.7424
       204.0004        204.0004
  -8593862.29548  -6676319.34546  23034263.852    23034263.9664   23034271.7814
       172.0004        174.0004
  -6281011.23747  -4868034.40246  23223869.378    23223869.7264   23223876.9874
       162.0004        163.0004
 21  2  4  0  9  0.0000000  0 10G14G28G30G21G01G08G09G07G17G04
  -1663540.18147  -1287270.30145  23360775.596    23360776.0694   23360782.6434
       160.0004        162.0004
   -525682.98247   -285080.49645  23672525.810    23672525.9614   23672530.9374
       142.0004        147.0004
  -8707227.55948  -6761567.76946  22771620.932    22771620.6404   22771628.0664
       177.0004        178.0004
 -15849660.84548 -12335317.24446  21786352.287    21786351.3504   21786356.6984
       187.0004        186.0004
 -17586097.36548 -13689721.47847  21349824.199    21349825.3964   21349833.6984
       190.0004        190.0004
 -12059840.79349  -9381275.41547  22386052.477    22386052.1224   22386059.2524
       207.0004        206.0004
 -14085433.53349 -10947767.77647  21612436.770    21612437.3484   21612445.6544
       203.0004        203.0004
 -19181007.20849 -14925263.61247  20923066.031    20923066.5744   20923071.2574
       204.0004        204.0004
  -8671181.82248  -6736568.28146  23019550.998    23019551.1144   23019557.3714
       173.0004        175.0004
  -6182951.96547  -4791624.57745  23242528.734    23242529.6344   23242536.8704
       160.0004        160.0004
 21  2  4  0  9 30.0000000  0 10G14G28G30G21G01G08G09G07G17G04
  -1689602.66347  -1307578.70145  23355816.647    23355816.4264   23355821.9604
       159.0004        160.0004
   -540642.52747   -296737.25845  23669678.747    23669678.8584   23669684.1174
       143.0004        147.0004
  -8794525.96448  -6829592.47946  22755008.655    22755008.9954   22755015.0584
       177.0004        179.0004
 -15833177.32548 -12322472.92946  21789488.599    21789488.6034   21789494.1334
       187.0004        187.0004
 -17640973.96548 -13732482.44447  21339381.566    21339382.3244   21339391.3244
       190.0004        191.0004
 -11968734.80749  -9310283.75047  22403387.600    22403388.5914   22403396.7904
       206.0004        206.0004
 -14022802.89649 -10898964.69447  21624355.129    21624355.7944   21624363.1414
       202.0004        202.0004
 -19241185.28349 -14972155.62747  20911615.172    20911615.6784   20911619.3984
       204.0004        204.0004
  -8748147.01148  -6796541.08846  23004904.976    23004905.5494   23004910.8424
       173.0004        174.0004
  -6084849.05947  -4715180.77745  23261197.036    23261197.3154   23261204.5124
       159.0004        161.0004
 21  2  4  0 10  0.0000000  0 10G14G28G30G21G01G08G09G07G17G04
  -1715667.39147  -1327888.84045  23350855.685    23350856.3654   23350862.1764
       158.0004        161.0004
   -555591.25847   -308385.56645  23666835.244    23666834.4784   23666839.8314
       145.0004        149.0004
  -8881759.99048  -6897567.03146  22738409.011    22738408.2574   22738415.7144
       180.0004        181.0004
 -15816195.99148 -12309240.70746  21792720.492    21792720.2274   21792725.4384
       187.0004        186.0004
 -17695463.09248 -13774941.46347  21329012.646    21329013.0324   21329022.5024
       190.0004        191.0004
 -11877495.45249  -9239188.16247  22420750.406    22420750.9454   22420759.4774
       206.0004        205.0004
 -13959849.10049 -10849909.79547  21636334.710    21636335.2254   21636342.5074
       201.0004        201.0004
 -19301078.55949 -15018825.71147  20900218.178    20900218.1544   20900222.6714
       204.0004        205.0004
  -8824755.55648  -6856235.99246  22990326.396    22990325.9834   22990332.5354
       173.0004        173.0004
  -5986704.70447  -4638704.68246  23279874.047    23279874.7434   23279881.8214
       160.0004        163.0004
 21  2  4  0 10 30.0000000  0 10G14G28G30G21G01G08G09G07G17G04
  -1741736.78547  -1348202.60946  23345895.231    23345895.5284   23345902.3714
       161.0004        163.0004
   -570531.89147   -320027.58645  23663991.798    23663991.6794   23663996.1654
       148.0004        152.0004
  -8968928.69148  -6965490.67646  22721821.581    22721821.2184   22721828.0164
       181.0004        182.0004
 -15798717.86548 -12295621.37646  21796046.316    21796045.9024   21796051.2454
       186.0004        186.0004
 -17749563.01648 -13817097.24047  21318718.262    21318718.9124   21318726.7794
       190.0004        191.0004
 -11786126.88549  -9167991.88747  22438138.692    22438138.1754   22438146.3234
       206.0004        206.0004
 -13896576.35449 -10800606.37747  21648374.986    21648375.3824   21648382.8694
       200.0004        200.0004
 -19360685.50949 -15065272.68647  20888874.352    20888875.2814   20888880.1094
       205.0004        205.0004
  -8901007.39848  -6915653.00546  22975816.269    22975816.2184   22975822.3024
       172.0004        174.0004
  -5888523.13747  -4562199.58146  23298557.454    23298557.7034   23298564.4714
       162.0004        164.0004
 21  2  4  0 11  0.0000000  0 10G14G28G30G21G01G08G09G07G17G04
  -1767812.22347  -1368521.10546  23340933.234    23340934.5304   23340938.6924
       161.0004        163.0004
   -585466.28447   -331664.74845  23661149.032    23661149.6564   23661154.9664
       150.0004        153.0004
  -9056029.94248  -7033361.74846  22705246.044    22705245.6734   22705253.0854
       180.0004        179.0004
 -15780743.55048 -12281615.40746  21799466.103    21799465.5564   21799471.1334
       186.0004        186.0004
 -17803270.91848 -13858947.52947  21308498.864    21308499.4604   21308506.6094
       191.0004        192.0004
 -11694632.05949  -9096697.21047  22455548.803    22455549.1424   22455556.9834
       206.0004        206.0004
 -13832987.79849 -10751056.85647  21660475.482    21660476.1904   21660483.6054
       200.0004        200.0004
 -19420003.65249 -15111494.63947  20877587.088    20877587.2974   20877591.3224
       204.0004        204.0004
  -8976901.43348  -6974791.17146  22961374.863    22961374.4154   22961380.4064
       173.0004        175.0004
  -5790307.42147  -4485667.88745  23317246.513    23317247.1664   23317254.6114
       161.0004        162.0004
 21  2  4  0 11 30.0000000  0 10G14G28G30G21G01G08G09G07G17G04
  -1793893.86647  -1388844.42646  23335971.385    23335971.2074   23335976.0784
       162.0004        164.0004
   -600394.97747   -343297.46345  23658308.264    23658308.2154   23658313.8874
       149.0004        152.0004
  -9143060.53148  -7101177.78446  22688684.400    22688684.2074   22688691.9814
       179.0004        180.0004
 -15762271.72448 -12267221.75846  21802981.448    21802981.2444   21802986.7144
       186.0004        186.0004
 -17856583.00548 -13900489.40247  21298353.091    21298354.0184   21298361.9784
       192.0004        193.0004
 -11603012.49549  -9025305.34947  22472982.525    22472983.0924   22472991.7934
       206.0004        205.0004
 -13769085.46449 -10701262.83447  21672636.037    21672636.4744   21672643.0084
       199.0004        199.0004
 -19479029.51449 -15157488.82747  20866354.577    20866355.4224   20866359.4734
       204.0004        205.0004
  -9052435.39348  -7033648.76546  22947000.509    22947001.1834   22947006.2294
       173.0004        173.0004
  -5692059.46747  -4409111.06246  23335943.455    23335943.4884   23335951.0324
       161.0004        163.0004
 21  2  4  0 12  0.0000000  0 10G14G28G30G21G01G08G09G07G17G04
  -1819983.32347  -1409173.83145  23331006.659    23331006.5814   23331011.5474
       161.0004        162.0004
   -615320.16247   -354927.46345  23655468.617    23655468.5924   23655473.2224
       150.0004        153.0004
  -9230018.61848  -7168937.30746  22672136.345    22672136.8354   22672143.4134
       178.0004        178.0004
 -15743302.92248 -12252440.83546  21806590.876    21806591.2994   21806596.0194
       186.0004        187.0004
 -17909496.74648 -13941720.85547  21288284.166    21288284.6964   21288292.5424
       193.0004        194.0004
 -11511271.75449  -8953819.04447  22490440.738    22490440.9664   22490449.3584
       205.0004        204.0004
 -13704872.73249 -10651226.92847  21684855.310    21684855.9874   21684863.1694
       199.0004        200.0004
 -19537760.63649 -15203253.32147  20855179.768    20855179.6674   20855183.3664
       205.0004        206.0004
  -9127608.27148  -7092224.98046  22932695.247    22932695.8574   22932699.2564
       171.0004        171.0004
  -5593782.58647  -4332531.68645  23354645.804    23354645.5304   23354651.6484
       161.0004        162.0004
 21  2  4  0 12 30.0000000  0 10G14G28G30G21G01G08G09G07G17G04
  -1846080.70947  -1429509.41945  23326039.366    23326039.5914   23326044.4144
       158.0004        158.0004
   -630242.41347   -366555.16545  23652628.467    23652628.5774   23652633.6674
       151.0004        154.0004
  -9316900.87548  -7236637.76246  22655604.308    22655604.2134   22655610.3174
       179.0004        181.0004
 -15723835.80648 -12237271.63246  21810296.037    21810294.9784   21810300.1384
       186.0004        185.0004
 -17962008.15348 -13982638.82047  21278291.123    21278292.0504   21278300.3414
       194.0004        195.0004
 -11419411.66549  -8882239.76247  22507921.778    22507921.3294   22507929.3434
       204.0004        204.0004
 -13640351.56049 -10600950.69647  21697133.645    21697133.8484   21697141.2524
       199.0004        200.0004
 -19596193.43549 -15248785.36247  20844059.365    20844060.1844   20844063.8764
       205.0004        206.0004
  -9202418.05648  -7150518.28046  22918458.646    22918458.9494   22918463.3714
       170.0004        171.0004
  -5495478.56747  -4255931.15445  23373352.495    23373351.8174   23373357.9114
       161.0004        162.0004
 21  2  4  0 13  0.0000000  0 10G14G28G30G21G01G08G09G07G17G04
  -1872188.57747  -1449853.15845  23321071.164    23321071.8644   23321078.1364
       157.0004        159.0004
   -645164.62247   -378182.82945  23649789.064    23649788.4024   23649793.6124
       152.0004        154.0004
  -9403706.53348  -7304278.50946  22639085.707    22639085.6484   22639091.9934
       181.0004        182.0004
 -15703871.60548 -12221715.09646  21814094.993    21814094.9184   21814099.5404
       186.0004        186.0004
 -18014115.89748 -14023242.22847  21268376.250    21268376.4184   21268384.6204
       194.0004        195.0004
 -11327436.24749  -8810570.60947  22525422.766    22525423.1094   22525431.7964
       202.0004        202.0004
 -13575526.42449 -10550437.59747  21709469.358    21709469.9644   21709476.7984
       200.0004        201.0004
 -19654326.61549 -15294083.94447  20832997.021    20832997.5084   20833001.2174
       205.0004        205.0004
  -9276864.64048  -7208528.55146  22904292.940    22904292.7824   22904297.2644
       171.0004        173.0004
  -5397151.82047  -4179312.90845  23392062.672    23392063.1464   23392070.1124
       160.0004        161.0004
 21  2  4  0 13 30.0000000  0 10G14G28G30G21G01G08G09G07G17G04
  -1898306.91047  -1470205.10445  23316101.079    23316101.9274   23316106.8394
       157.0004        158.0004
   -660087.17447   -389810.77445  23646949.204    23646949.5254   23646954.4954
       153.0004        155.0004
  -9490432.18648  -7371856.91146  22622582.989    22622581.8894   22622589.3414
       182.0004        182.0004
 -15683409.34548 -12205770.45346  21817988.594    21817988.3704   21817993.3024
       186.0004        186.0004
 -18065815.86949 -14063527.91547  21258537.948    21258538.3734   21258546.2504
       195.0004        195.0004
 -11235347.02349  -8738812.78247  22542946.526    22542947.3114   22542955.8434
       202.0004        203.0004
 -13510399.20449 -10499689.11847  21721862.738    21721863.2494   21721870.4504
       200.0004        200.0004
 -19712156.24349 -15339145.99147  20821992.352    20821992.9784   20821996.9444
       205.0004        206.0004
  -9350945.58048  -7266253.92046  22890196.159    22890196.3174   22890200.8604
       173.0004        174.0004
  -5298804.03747  -4102678.28145  23410776.319    23410777.2284   23410783.9364
       159.0004        159.0004
 21  2  4  0 14  0.0000000  0 10G14G28G30G21G01G08G09G07G17G04
  -1924437.09347  -1490566.26145  23311127.746    23311128.4134   23311134.1134
       156.0004        157.0004
   -675011.68247   -401440.24645  23644110.455    23644109.7734   23644113.1964
       153.0004        155.0004
  -9577075.67548  -7439371.30746  22606094.994    22606094.0454   22606101.3024
       181.0004        181.0004
 -15662449.00348 -12189437.69946  21821977.361    21821976.6054   21821982.1764
       185.0004        185.0004
 -18117105.43649 -14103493.80047  21248777.824    21248778.4244   21248785.9994
       195.0004        195.0004
 -11143147.28449  -8666968.81847  22560491.591    22560492.7774   22560501.4594
       203.0004        204.0004
 -13444973.05349 -10448707.72147  21734312.226    21734312.8044   21734320.3704
       199.0004        199.0004
 -19769679.85049 -15383969.58847  20811046.444    20811046.3474   20811050.6474
       205.0004        206.0004
  -9424659.82648  -7323693.55546  22876167.552    22876168.1224   22876172.7034
       173.0004        174.0004
  -5200438.23047  -4026029.60545  23429494.908    23429496.6584   23429501.8794
       158.0004        159.0004
 21  2  4  0 14 30.0000000  0 10G14G28G30G21G01G08G09G07G17G04
  -1950580.02947  -1510937.34645  23306154.221    23306154.5604   23306159.0504
       156.0004        159.0004
   -689939.26947   -413072.07345  23641268.849    23641268.5264   23641273.6874
       152.0004        156.0004
  -9663634.54348  -7506819.76546  22589622.355    22589622.4664   22589629.1464
       180.0004        180.0004
 -15640990.74548 -12172716.96846  21826060.958    21826060.1814   21826065.5514
       185.0004        185.0004
 -18167981.49049 -14143137.46647  21239096.832    21239096.8004   21239104.6254
       195.0004        195.0004
 -11050839.07849  -8595040.35847  22578058.216    22578058.2504   22578067.6794
       203.0004        203.0004
 -13379250.83149 -10397495.60447  21746819.127    21746819.4994   21746826.8534
       199.0004        199.0004
 -19826894.67049 -15428552.56847  20800158.160    20800158.9894   20800163.2544
       206.0004        206.0004
  -9498005.94648  -7380846.33746  22862210.919    22862210.5974   22862215.7994
       172.0004        172.0004
  -5102057.08547  -3949368.99545  23448217.974    23448217.8204   23448222.8534
       157.0004        159.0004
 21  2  4  0 15  0.0000000  0 10G14G28G30G21G01G08G09G07G17G04
  -1976737.98647  -1531320.14845  23301175.682    23301175.9874   23301181.7784
       157.0004        159.0004
   -704873.26747   -424708.88645  23638427.273    23638426.4874   23638432.1714
       153.0004        155.0004
  -9750107.63448  -7574201.37846  22573166.849    22573166.9884   22573174.3684
       181.0004        181.0004
 -15619035.17948 -12155608.71046  21830238.733    21830238.3654   21830244.2774
       185.0004        185.0004
 -18218442.41548 -14182457.64347  21229493.992    21229494.3314   21229502.5934
       194.0004        194.0004
 -10958426.73249  -8523030.73947  22595642.775    22595643.4924   22595652.2724
       203.0004        202.0004
 -13313236.67449 -10346056.00447  21759381.392    21759381.4904   21759388.4754
       199.0004        199.0004
 -19883799.08949 -15472893.68047  20789330.243    20789330.3704   20789334.8704
       206.0004        206.0004
  -9570983.29248  -7437711.73446  22848323.946    22848323.6934   22848328.3154
       172.0004        174.0004
  -5003664.58147  -3872699.53345  23466941.920    23466941.8024   23466946.1414
       157.0004        159.0004
 21  2  4  0 15 30.0000000  0 10G14G28G30G21G01G08G09G07G17G04
  -2002911.42747  -1551715.03045  23296194.737    23296195.6724   23296201.2144
       159.0004        161.0004
   -719814.32047   -436351.23745  23635583.541    23635582.5974   23635587.9834
       152.0004        154.0004
  -9836491.97248  -7641513.83346  22556728.868    22556729.0624   22556735.9064
       180.0004        181.0004
 -15596582.04648 -12138112.74646  21834510.838    21834510.5164   21834515.9994
       186.0004        186.0004
 -18268484.74048 -14221451.63947  21219971.454    21219971.6894   21219980.0134
       194.0004        195.0004
 -10865912.26149  -8450941.54947  22613246.676    22613247.6224   22613257.5604
       201.0004        200.0004
 -13246933.01949 -10294390.81647  21771999.216    21771999.5424   21772006.2014
       199.0004        199.0004
 -19940389.82849 -15516990.35847  20778560.943    20778561.2214   20778565.6924
       206.0004        206.0004
  -9643590.83648  -7494289.00546  22834506.106    22834507.4964   22834513.1994
       174.0004        175.0004
  -4905262.96847  -3796022.95945  23485665.307    23485665.8764   23485672.7524
       156.0004        157.0004
 21  2  4  0 16  0.0000000  0 10G14G28G30G21G01G08G09G07G17G04
  -2029099.63747  -1572121.38445  23291211.131    23291212.0944   23291218.0184
       159.0004        161.0004
   -734762.47747   -447999.11545  23632738.333    23632738.9444   23632743.5464
       150.0004        152.0004
  -9922783.41648  -7708753.88946  22540308.234    22540308.1524   22540315.6914
       180.0004        181.0004
 -15573629.23348 -12120227.40946  21838879.198    21838878.8294   21838883.6644
       186.0004        186.0004
 -18318103.77548 -14260115.78647  21210528.678    21210529.1474   21210537.1324
       194.0004        194.0004
 -10773296.76549  -8378773.63947  22630872.384    22630872.0874   22630881.4364
       200.0004        200.0004
 -13180340.99349 -10242500.91647  21784670.812    21784670.9704   21784678.4164
       199.0004        199.0004
 -19996662.07049 -15560838.86047  20767852.663    20767853.3894   20767857.5414
       206.0004        206.0004
  -9715824.99248  -7550575.31746  22820760.730    22820760.6974   22820766.8064
       173.0004        174.0004
  -4806853.12247  -3719339.93745  23504391.477    23504392.9154   23504399.1954
       154.0004        157.0004
 21  2  4  0 16 30.0000000  0 10G14G28G30G21G01G08G09G07G17G04
  -2055305.24847  -1592541.31046  23286225.374    23286225.8034   23286231.1694
       161.0004        164.0004
   -749720.28547   -459654.53445  23629892.756    23629892.4044   23629897.8294
       150.0004        153.0004
 -10008981.14348  -7775920.93846  22523905.040    22523905.0094   22523912.0654
       179.0004        179.0004
 -15550178.69048 -12101954.23946  21843341.630    21843340.8824   21843346.6184
       185.0004        186.0004
 -18367298.26148 -14298449.13147  21201166.111    21201166.9284   21201175.6684
       193.0004        192.0004
 -10680584.17449  -8306530.06547  22648515.400    22648515.5404   22648524.4134
       200.0004        201.0004
 -13113465.19449 -10190389.90547  21797397.270    21797397.4934   21797403.9144
       199.0004        198.0004
 -20052615.04049 -15604438.58747  20757205.283    20757205.4804   20757210.0054
       206.0004        206.0004
  -9787686.48848  -7606571.24446  22807086.224    22807086.6454   22807091.8954
       174.0004        176.0004
  -4708439.50547  -3642654.03445  23523119.987    23523121.1204   23523127.5034
       154.0004        156.0004
 21  2  4  0 17  0.0000000  0 10G14G28G30G21G01G08G09G07G17G04
  -2081529.12147  -1612975.42146  23281233.732    23281235.1094   23281240.8964
       161.0004        163.0004
   -764689.11847   -471318.51745  23627043.943    23627043.7034   23627049.1024
       151.0004        155.0004
 -10095082.60348  -7843012.97046  22507520.632    22507520.3894   22507526.9984
       178.0004        178.0004
 -15526230.52348 -12083293.31446  21847898.108    21847898.5964   21847902.8464
       185.0004        186.0004
 -18416065.15648 -14336449.29647  21191887.394    21191887.8464   21191895.3394
       193.0004        194.0004
 -10587777.38649  -8234213.07347  22666176.136    22666176.0844   22666184.5264
       201.0004        201.0004
 -13046308.45549 -10138059.96847  21810177.080    21810176.9824   21810183.4724
       198.0004        198.0004
 -20108245.86649 -15647787.27747  20746618.503    20746618.9064   20746623.9964
       206.0004        206.0004
  -9859173.81048  -7662275.60146  22793482.488    22793483.1674   22793488.8754
       176.0004        177.0004
  -4610024.68447  -3565967.16645  23541847.672    23541847.5764   23541855.5654
       154.0004        156.0004
 21  2  4  0 17 30.0000000  0 10G14G28G30G21G01G08G09G07G17G04
  -2107772.62847  -1633424.89346  23276240.901    23276241.4664   23276245.8894
       161.0004        163.0004
   -779671.31347   -482992.94045  23624192.379    23624193.0174   23624196.4054
       151.0004        154.0004
 -10181085.70748  -7910028.35846  22491154.912    22491155.0684   22491160.8344
       178.0004        179.0004
 -15501785.18048 -12064244.97546  21852550.470    21852550.2354   21852555.2324
       185.0004        184.0004
 -18464402.01448 -14374114.34547  21182689.138    21182689.3524   21182697.7144
       194.0004        194.0004
 -10494879.15449  -8161824.85347  22683853.532    22683853.5064   22683861.9214
       200.0004        199.0004
 -12978874.08449 -10085513.70647  21823008.190    21823008.8294   21823016.5604
       198.0004        198.0004
 -20163552.24249 -15690883.15747  20736093.999    20736094.7514   20736099.3814
       206.0004        206.0004
  -9930286.17348  -7717687.79746  22779950.110    22779950.6514   22779956.7724
       175.0004        175.0004
  -4511611.73547  -3489281.77145  23560575.195    23560575.0884   23560583.2854
       155.0004        158.0004
 21  2  4  0 18  0.0000000  0 10G14G28G30G21G01G08G09G07G17G04
  -2134036.63847  -1653890.33446  23271243.693    23271243.4574   23271248.6404
       162.0004        165.0004
   -794668.00347   -494678.63645  23621339.637    23621339.9574   23621344.1544
       150.0004        153.0004
 -10266987.90948  -7976965.12646  22474808.973    22474808.0374   22474815.4464
       180.0004        181.0004
 -15476842.30848 -12044808.95646  21857298.017    21857297.2874   21857301.8224
       185.0004        185.0004
 -18512305.86148 -14411442.00447  21173573.092    21173573.5134   21173581.8634
       194.0004        195.0004
 -10401891.83849  -8089367.20347  22701547.110    22701548.0474   22701557.2314
       198.0004        198.0004
 -12911164.98549 -10032753.36847  21835892.651    21835893.2694   21835900.6244
       197.0004        196.0004
 -20218531.17249 -15733723.89347  20725632.966    20725633.1594   20725637.2254
       206.0004        207.0004
 -10001022.11848  -7772806.67646  22766490.399    22766490.8794   22766495.4684
       175.0004        177.0004
  -4413203.29547  -3412599.87945  23579300.985    23579301.6714   23579308.7074
       156.0004        158.0004
 21  2  4  0 18 30.0000000  0 10G14G28G30G21G01G08G09G07G17G04
  -2160321.40548  -1674371.96246  23266241.610    23266241.7864   23266246.7914
       165.0004        167.0004
   -809679.56347   -506375.91345  23618482.883    23618483.1044   23618487.3014
       151.0004        154.0004
 -10352786.03748  -8043820.78246  22458481.059    22458481.0904   22458487.5764
       179.0004        180.0004
 -15451401.24548 -12024984.72346  21862138.032    21862137.5104   21862143.4354
       186.0004        185.0004
 -18559773.07749 -14448429.41447  21164540.242    21164541.1644   21164549.4094
       195.0004        196.0004
 -10308817.34549  -8016841.62047  22719259.947    22719259.8874   22719268.9854
       198.0004        199.0004
 -12843183.30449  -9979780.62347  21848828.851    21848828.9954   21848837.1244
       195.0004        194.0004
 -20273179.08649 -15776306.66747  20715232.891    20715233.5024   20715237.9024
       206.0004        207.0004
 -10071379.66448  -7827630.68646  22753100.886    22753101.3014   22753107.0074
       175.0004        176.0004
  -4314801.24047  -3335922.96245  23598027.460    23598027.5254   23598034.1634
       154.0004        156.0004
 21  2  4  0 19  0.0000000  0 10G14G28G30G21G01G08G09G07G17G04
  -2186628.90648  -1694871.27946  23261234.897    23261235.8224   23261240.3914
       165.0004        166.0004
   -824708.70047   -518086.90645  23615621.879    23615622.5024   23615627.6604
       152.0004        155.0004
 -10438478.58448  -8110594.17646  22442174.274    22442174.8744   22442181.9484
       179.0004        181.0004
 -15425463.14348 -12004773.20046  21867074.420    21867073.7444   21867078.5624
       185.0004        185.0004
 -18606801.90349 -14485075.23147  21155591.385    21155592.2694   21155599.6524
       196.0004        196.0004
 -10215659.64149  -7944251.21347  22736987.205    22736987.3614   22736997.0114
       199.0004        200.0004
 -12774933.01948  -9926598.59047  21861816.076    21861816.3974   21861825.3294
       193.0004        193.0004
 -20327494.33549 -15818630.23447  20704897.549    20704897.6264   20704902.1784
       206.0004        207.0004
 -10141358.67648  -7882159.75646  22739784.724    22739785.1794   22739790.1964
       176.0004        178.0004
  -4216409.37847  -3259254.01545  23616749.052    23616750.4864   23616756.7744
       152.0004        154.0004
 21  2  4  0 19 30.0000000  0 10G14G28G30G21G01G08G09G07G17G04
  -2212958.92148  -1715388.13646  23256225.402    23256225.8054   23256230.1444
       166.0004        168.0004
   -839755.41947   -529811.57145  23612759.643    23612760.1754   23612764.0114
       153.0004        156.0004
 -10524061.92348  -8177282.47346  22425887.890    22425887.8164   22425895.3964
       179.0004        180.0004
 -15399027.06148 -11984173.63746  21872104.564    21872104.5534   21872109.0074
       185.0004        185.0004
 -18653388.32349 -14521376.31847  21146725.828    21146726.9504   21146734.8864
       196.0004        197.0004
 -10122419.90449  -7871596.87247  22754730.116    22754730.2974   22754739.6894
       199.0004        199.0004
 -12706415.93748  -9873208.67747  21874853.203    21874854.7104   21874862.8504
       192.0004        192.0004
 -20381472.80349 -15860691.38447  20694625.637    20694626.2904   20694630.6554
       207.0004        208.0004
 -10210956.67648  -7936391.92446  22726540.899    22726541.0774   22726546.3174
       177.0004        178.0004
  -4118029.09947  -3182594.08945  23635470.902    23635472.3934   23635477.9004
       153.0004        156.0004
 21  2  4  0 20  0.0000000  0 10G14G28G30G21G01G08G09G07G17G04
  -2239313.38648  -1735924.05046  23251209.605    23251210.0534   23251215.4494
       166.0004        167.0004
   -854822.26047   -541551.91945  23609893.082    23609892.6174   23609896.6744
       154.0004        156.0004
 -10609534.53748  -8243884.48346  22409623.278    22409623.0514   22409630.4564
       179.0004        180.0004
 -15372094.12548 -11963186.90246  21877229.952    21877229.8254   21877234.3834
       185.0004        184.0004
 -18699530.46249 -14557331.20847  21137945.190    21137945.9514   21137953.8554
       197.0004        197.0004
 -10029101.77549  -7798881.44247  22772487.767    22772488.0584   22772497.1164
       199.0004        198.0004
 -12637635.98848  -9819613.92747  21887942.911    21887942.9804   21887951.2154
       192.0004        192.0004
 -20435113.00749 -15902488.93947  20684418.361    20684418.7304   20684423.0134
       207.0004        208.0004
 -10280173.54748  -7990327.08746  22713368.165    22713368.6754   22713374.4564
       177.0004        177.0004
  -4019664.08647  -3105946.04345  23654189.132    23654190.2904   23654196.5654
       154.0004        156.0004
 21  2  4  0 20 30.0000000  0 10G14G28G30G21G01G08G09G07G17G04
  -2265692.20948  -1756478.94546  23246190.440    23246191.0634   23246196.2574
       167.0004        169.0004
   -869909.35347   -553308.02645  23607021.354    23607021.0804   23607026.3474
       155.0004        157.0004
 -10694892.89748  -8310397.47146  22393380.460    22393380.0664   22393386.5074
       180.0004        181.0004
 -15344663.22448 -11941812.15446  21882449.834    21882449.4204   21882454.1834
       184.0004        185.0004
 -18745224.56349 -14592936.97647  21129250.288    21129251.1024   21129258.9874
       197.0004        197.0004
  -9935706.42949  -7726105.85047  22790260.678    22790260.6334   22790269.7774
       196.0004        195.0004
 -12568595.14448  -9765815.87347  21901081.543    21901082.1914   21901090.0424
       193.0004        196.0004
 -20488410.88049 -15944019.75047  20674275.704    20674276.3054   20674280.9574
       207.0004        207.0004
 -10349007.25148  -8043963.70046  22700270.701    22700270.6234   22700275.6684
       176.0004        176.0004
  -3921315.99047  -3029311.14645  23672904.229    23672904.7724   23672911.9374
       153.0004        155.0004
 21  2  4  0 21  0.0000000  0 10G14G28G30G21G01G08G09G07G17G04
  -2292097.59448  -1777054.54246  23241165.216    23241165.5324   23241170.2944
       167.0004        168.0004
   -885019.62447   -565082.23145  23604146.023    23604145.4784   23604151.3244
       155.0004        157.0004
 -10780135.74048  -8376820.46046  22377158.701    22377158.8064   22377166.3184
       180.0004        181.0004
 -15316735.76648 -11920050.49346  21887764.242    21887763.4184   21887768.6154
       184.0004        184.0004
 -18790469.09049 -14628192.43247  21120640.743    21120641.1624   21120648.9964
       197.0004        198.0004
  -9842237.90049  -7653273.24647  22808047.797    22808048.1004   22808055.9804
       195.0004        195.0004
 -12499297.60049  -9711817.78147  21914269.602    21914269.8854   21914276.6924
       195.0004        196.0004
 -20541365.16049 -15985282.82047  20664198.840    20664199.5324   20664203.9174
       207.0004        207.0004
 -10417457.89948  -8097301.82746  22687243.951    22687244.9734   22687249.7414
       175.0004        176.0004
  -3822988.68447  -2952692.47845  23691614.639    23691615.7434   23691623.2094
       154.0004        156.0004
 21  2  4  0 21 30.0000000  0 10G14G28G30G21G01G08G09G07G17G04
  -2318529.31448  -1797650.65746  23236135.813    23236136.2284   23236140.9914
       168.0004        168.0004
   -900153.25847   -576874.63445  23601265.076    23601266.0284   23601270.6964
       154.0004        156.0004
 -10865259.41648  -8443150.58646  22360960.484    22360961.0054   22360967.7684
       182.0004        183.0004
 -15288311.10548 -11897901.38146  21893172.582    21893172.0774   21893177.1894
       184.0004        183.0004
 -18835260.14149 -14663094.53947  21112116.777    21112117.7154   21112125.4174
       198.0004        198.0004
  -9748697.72949  -7580384.79647  22825847.393    22825847.3034   22825856.1594
       195.0004        195.0004
 -12429745.18049  -9657621.09447  21927505.048    21927505.3974   21927511.8154
       196.0004        198.0004
 -20593971.91049 -16026275.09347  20654188.984    20654189.1204   20654193.0544
       207.0004        208.0004
 -10485522.95448  -8150339.51046  22674292.029    22674292.6074   22674297.4444
       176.0004        177.0004
  -3724683.69647  -2876091.20445  23710321.576    23710322.1854   23710330.7794
       153.0004        155.0004
 21  2  4  0 22  0.0000000  0 10G14G28G30G21G01G08G09G07G17G04
  -2344988.16948  -1818267.94446  23231100.650    23231100.4904   23231105.9024
       167.0004        167.0004
   -915311.44147   -588686.15545  23598382.365    23598381.2964   23598386.5614
       154.0004        156.0004
 -10950261.30748  -8509385.81246  22344785.796    22344785.6294   22344792.4294
       184.0004        185.0004
 -15259389.41748 -11875364.98246  21898675.274    21898675.9814   21898681.3714
       184.0004        184.0004
 -18879594.87749 -14697641.06947  21103680.349    21103681.2214   21103688.4404
       198.0004        198.0004
  -9655088.05449  -7507442.18747  22843660.452    22843660.5264   22843668.9224
       195.0004        195.0004
 -12359940.82349  -9603228.08647  21940788.410    21940788.9944   21940795.1834
       198.0004        198.0004
 -20646228.45149 -16066994.47047  20644243.804    20644244.5324   20644249.0774
       207.0004        208.0004
 -10553201.33348  -8203075.86446  22661413.371    22661413.6574   22661418.9494
       176.0004        176.0004
  -3626403.55247  -2799509.29245  23729024.422    23729024.7414   23729032.0524
       154.0004        157.0004
 21  2  4  0 22 30.0000000  0 10G14G28G30G21G01G08G09G07G17G04
  -2371476.25947  -1838908.00146  23226059.244    23226060.6324   23226064.4164
       164.0004        163.0004
   -930496.73547   -600518.81445  23595492.185    23595492.1504   23595496.8444
       154.0004        156.0004
 -11035140.05948  -8575525.08546  22328633.933    22328634.0924   22328640.2304
       185.0004        185.0004
 -15229971.87048 -11852442.21146  21904274.303    21904273.8834   21904279.3024
       183.0004        184.0004
 -18923471.69349 -14731830.77947  21095331.498    21095332.2264   21095339.3564
       198.0004        198.0004
  -9561412.83549  -7434448.51847  22861485.364    22861486.5504   22861495.2614
       195.0004        196.0004
 -12289888.55349  -9548641.89747  21954118.928    21954119.3464   21954125.6974
       198.0004        199.0004
 -20698132.57049 -16107439.24847  20634367.154    20634367.7794   20634372.0214
       207.0004        208.0004
 -10620492.87748  -8255510.79646  22648607.357    22648608.1694   22648614.0234
       174.0004        175.0004
  -3528152.03447  -2722949.69745  23747720.844    23747720.9404   23747728.9714
       155.0004        157.0004
 21  2  4  0 23  0.0000000  0 10G14G28G30G21G01G08G09G07G17G04
  -2397993.25047  -1859570.56546  23221013.909    23221014.1434   23221019.3114
       163.0004        165.0004
   -945709.26247   -612372.68045  23592595.931    23592596.3934   23592601.4594
       153.0004        156.0004
 -11119891.87348  -8641565.45546  22312506.067    22312506.4214   22312513.0144
       186.0004        187.0004
 -15200057.54148 -11829132.31846  21909967.535    21909967.0464   21909972.0694
       184.0004        184.0004
 -18966886.69449 -14765660.61647  21087069.163    21087069.8804   21087077.9364
       198.0004        198.0004
  -9467673.25148  -7361404.69347  22879324.708    22879324.4504   22879333.1234
       194.0004        193.0004
 -12219590.17549  -9493863.92447  21967496.180    21967495.9614   21967503.4504
       198.0004        197.0004
 -20749680.70349 -16147606.60747  20624557.608    20624558.0974   20624563.0364
       207.0004        208.0004
 -10687395.59948  -8307642.74446  22635876.191    22635876.5294   22635881.2524
       174.0004        174.0004
  -3429930.54347  -2646413.48245  23766410.797    23766412.0174   23766419.1914
       154.0004        157.0004
 21  2  4  0 23 30.0000000  0 10G14G28G30G21G01G08G09G07G17G04
  -2424541.16047  -1880257.20846  23215962.682    23215963.0114   23215966.7844
       164.0004        165.0004
   -960951.66647   -624249.85745  23589696.185    23589695.9334   23589700.2984
       154.0004        156.0004
 -11204515.30748  -8707505.78346  22296402.347    22296402.8264   22296409.2534
       186.0004        186.0004
 -15169648.03548 -11805436.58546  21915754.059    21915753.3734   21915758.5994
       184.0004        185.0004
 -19009838.23849 -14799129.34247  21078895.402    21078896.2824   21078904.5314
       198.0004        198.0004
  -9373872.94148  -7288313.54947  22897173.913    22897174.2564   22897182.8164
       192.0004        193.0004
 -12149049.75649  -9438897.36447  21980919.164    21980919.3064   21980926.5274
       196.0004        195.0004
 -20800871.45649 -16187495.51447  20614817.254    20614817.3264   20614821.3694
       208.0004        208.0004
 -10753909.65148  -8359471.86246  22623218.953    22623219.9844   22623224.8664
       174.0004        176.0004
  -3331742.77947  -2569903.54845  23785095.263    23785095.8944   23785104.6214
       154.0004        156.0004
 21  2  4  0 24  0.0000000  0 10G14G28G30G21G01G08G09G07G17G04
  -2451120.03847  -1900967.97846  23210903.013    23210903.1524   23210909.2524
       164.0004        165.0004
   -976224.29747   -636150.56245  23586790.515    23586789.7134   23586794.4224
       153.0004        156.0004
 -11289007.05048  -8773343.47846  22280324.833    22280324.4544   22280330.9054
       186.0004        187.0004
 -15138742.90648 -11781354.64546  21921634.414    21921634.3954   21921639.6154
       184.0004        184.0004
 -19052322.89849 -14832234.24847  21070810.909    21070811.7254   21070820.1194
       198.0004        198.0004
  -9280013.42148  -7215176.26647  22915034.579    22915034.5414   22915043.7094
       192.0004        192.0004
 -12078269.48948  -9383743.89947  21994386.317    21994387.1274   21994395.8204
       194.0004        193.0004
 -20851701.43349 -16227103.28147  20605144.099    20605144.6684   20605148.7654
       208.0004        208.0004
 -10820032.77648  -8410996.33146  22610637.136    22610637.1754   22610642.4264
       177.0004        179.0004
  -3233590.50847  -2493421.27245  23803773.947    23803774.4244   23803782.8634
       153.0004        156.0004
 21  2  4  0 24 30.0000000  0 10G14G28G30G21G01G08G09G07G17G04
  -2477731.84547  -1921704.44346  23205839.987    23205840.2844   23205845.9904
       164.0004        165.0004
   -991529.48547   -648076.65545  23583877.168    23583876.6764   23583881.4564
       152.0004        154.0004
 -11373365.59548  -8839077.42847  22264271.744    22264271.5364   22264278.2844
       186.0004        188.0004
 -15107343.52748 -11756887.59046  21927609.648    21927609.4384   21927614.9814
       184.0004        184.0004
 -19094339.06349 -14864974.10747  21062814.758    21062816.2714   21062824.4194
       197.0004        197.0004
  -9186098.29048  -7141995.64947  22932905.587    22932906.1374   22932915.7144
       193.0004        193.0004
 -12007253.41848  -9328406.73447  22007901.159    22007901.9784   22007909.2124
       193.0004        193.0004
 -20902168.75749 -16266428.47247  20595540.236    20595540.8494   20595545.6474
       208.0004        209.0004
 -10885765.33648  -8462216.49246  22598128.981    22598129.2464   22598133.6754
       178.0004        178.0004
  -3135477.41547  -2416969.52245  23822444.759    23822444.7604   23822452.1714
       154.0004        157.0004
 21  2  4  0 25  0.0000000  0 10G14G28G30G21G01G08G09G07G17G04
  -2504377.33747  -1942467.13346  23200769.663    23200770.0214   23200775.4174
       163.0004        164.0004
  -1006868.37047   -660029.03845  23580958.662    23580959.0144   23580962.3254
       150.0004        151.0004
 -11457588.21548  -8904705.43146  22248244.399    22248244.5964   22248251.4384
       187.0004        187.0004
 -15075449.93048 -11732035.41346  21933679.586    21933679.3954   21933684.1604
       184.0004        184.0004
 -19135883.93349 -14897346.71147  21054910.879    21054910.8624   21054918.4344
       197.0004        197.0004
  -9092129.82648  -7068773.46647  22950786.291    22950787.6774   22950797.6524
       193.0004        194.0004
 -11936004.38748  -9272888.01047  22021459.763    22021460.3594   22021467.5564
       193.0004        193.0004
 -20952270.39649 -16305468.70147  20586005.888    20586006.5754   20586011.2274
       208.0004        209.0004
 -10951106.17448  -8513131.38946  22585694.729    22585694.7574   22585699.4814
       178.0004        179.0004
  -3037405.98947  -2340550.27345  23841108.403    23841108.4514   23841115.1624
       154.0004        157.0004
 21  2  4  0 25 30.0000000  0 10G14G28G30G21G01G08G09G07G17G04
  -2531057.11947  -1963256.58046  23195693.108    23195693.4614   23195696.9664
       162.0004        163.0004
  -1022242.43347   -672008.80445  23578032.889    23578032.3704   23578037.8024
       148.0004        151.0004
 -11541672.12848  -8970225.35047  22232243.339    22232243.3054   22232251.1094
       187.0004        188.0004
 -15043062.47048 -11706798.41546  21939842.889    21939841.3474   21939846.7144
       184.0004        184.0004
 -19176954.61449 -14929349.82647  21047094.858    21047094.9674   21047103.0394
       196.0004        196.0004
  -8998110.58548  -6995511.71247  22968678.192    22968678.1114   22968688.9774
       192.0004        192.0004
 -11864525.17848  -9217189.92947  22035062.333    22035062.6074   22035069.3024
       193.0004        193.0004
 -21002003.64849 -16344221.89547  20576542.575    20576542.7624   20576547.3284
       208.0004        209.0004
 -11016053.80448  -8563739.90746  22573335.054    22573335.4564   22573340.6674
       178.0004        179.0004
  -2939378.47347  -2264165.22545  23859763.028    23859762.0714   23859769.1044
       154.0004        155.0004
 21  2  4  0 26  0.0000000  0 10G14G28G30G21G01G08G09G07G17G04
  -2557772.72447  -1984073.90846  23190607.502    23190608.9804   23190613.6784
       163.0004        165.0004
  -1037653.35547   -684017.27945  23575100.094    23575099.7304   23575105.4444
       149.0004        152.0004
 -11625615.33548  -9035635.62747  22216269.986    22216269.8284   22216277.4244
       189.0004        191.0004
 -15010182.14848 -11681177.36646  21946099.519    21946098.5794   21946103.8514
       183.0004        183.0004
 -19217549.16749 -14960981.91747  21039369.598    21039369.9384   21039377.7844
       196.0004        196.0004
  -8904043.44848  -6922212.68347  22986580.554    22986580.0484   22986589.2074
       192.0004        193.0004
 -11792819.36648  -9161315.26347  22048707.216    22048707.4764   22048714.3054
       193.0004        193.0004
 -21051366.23249 -16382686.23047  20567148.547    20567149.2264   20567153.9004
       208.0004        209.0004
 -11080608.08448  -8614041.89746  22561052.039    22561052.2264   22561056.1604
       179.0004        179.0004
  -2841398.08847  -2187816.89745  23878407.487    23878406.9714   23878413.7604
       153.0004        155.0004
 21  2  4  0 26 30.0000000  0 10G14G28G30G21G01G08G09G07G17G04
  -2584524.06948  -2004919.09446  23185518.243    23185518.9394   23185523.6154
       165.0004        167.0004
  -1053101.48547   -696054.78845  23572160.028    23572160.5284   23572164.6934
       147.0004        148.0004
 -11709414.38148  -9100933.58547  22200323.127    22200323.5184   22200330.4704
       191.0004        191.0004
 -14976808.44748 -11655171.87646  21952449.211    21952449.2914   21952454.5734
       183.0004        184.0004
 -19257664.08249 -14992240.27447  21031735.344    21031735.9954   21031744.4584
       196.0004        196.0004
  -8809929.74348  -6848877.33947  23004489.620    23004489.3044   23004498.4964
       193.0004        193.0004
 -11720889.05948  -9105265.67847  22062395.400    22062395.4664   22062403.2994
       193.0004        194.0004
 -21100354.76449 -16420859.11247  20557827.167    20557827.6514   20557831.6714
       208.0004        209.0004
 -11144767.17048  -8664035.96646  22548842.161    22548842.4704   22548846.4914
       178.0004        180.0004
  -2743466.49347  -2111506.57845  23897043.637    23897043.3324   23897050.3724
       152.0004        154.0004
 21  2  4  0 27  0.0000000  0 10G14G28G30G21G01G08G09G07G17G04
  -2611312.27648  -2025792.96646  23180422.070    23180422.8694   23180425.6124
       167.0004        169.0004
  -1068588.50847   -708122.54145  23569214.455    23569214.3274   23569217.7044
       144.0004        146.0004
 -11793066.95348  -9166117.38247  22184404.834    22184404.1264   22184411.8404
       189.0004        189.0004
 -14942941.89848 -11628782.32846  21958894.882    21958893.7054   21958899.5764
       183.0004        184.0004
 -19297297.01149 -15023123.05647  21024193.698    21024194.5054   21024202.5114
       196.0004        196.0004
  -8715772.80548  -6775508.29647  23022408.181    23022407.6794   23022415.0804
       192.0004        193.0004
 -11648737.47148  -9049043.66447  22076124.775    22076125.5064   22076133.2064
       193.0004        193.0004
 -21148966.82549 -16458738.63047  20548576.456    20548576.5804   20548581.1814
       209.0004        209.0004
 -11208530.36748  -8713721.55046  22536708.178    22536708.1704   22536713.9204
       180.0004        182.0004
  -2645586.52247  -2035236.49845  23915668.450    23915669.0404   23915675.3494
       150.0004        152.0004
 21  2  4  0 27 30.0000000  0 10G14G28G30G21G01G08G09G07G17G04
  -2638138.00448  -2046696.06246  23175317.075    23175317.5894   23175320.6124
       168.0004        170.0004
  -1084115.48647   -720221.44945  23566259.841    23566258.7104   23566262.5694
       144.0004        148.0004
 -11876570.23548  -9231184.87147  22168515.398    22168515.5424   22168521.6024
       189.0004        190.0004
 -14908582.83548 -11602009.01746  21965431.636    21965431.9914   21965437.5334
       182.0004        182.0004
 -19336445.25249 -15053628.16447  21016744.364    21016744.9414   21016752.6514
       196.0004        197.0004
  -8621573.76948  -6702106.43947  23040333.603    23040333.1094   23040340.9904
       193.0004        194.0004
 -11576367.42648  -8992651.42847  22089896.482    22089897.1524   22089904.5774
       192.0004        192.0004
 -21197199.43249 -16496322.48647  20539397.614    20539398.5714   20539402.7134
       209.0004        210.0004
 -11271896.43548  -8763097.69046  22524649.608    22524650.2044   22524654.8044
       181.0004        182.0004
  -2547760.47747  -1959008.44645  23934282.071    23934284.2484   23934291.4824
       149.0004        152.0004
 21  2  4  0 28  0.0000000  0 10G14G28G30G21G01G08G09G07G17G04
  -2665001.77648  -2067628.86146  23170202.647    23170202.0934   23170209.5464
       168.0004        168.0004
  -1099683.54047   -732352.36545  23563295.893    23563296.6354   23563300.9974
       147.0004        151.0004
 -11959921.36148  -9296133.80547  22152654.466    22152654.1924   22152660.5134
       189.0004        189.0004
 -14873731.85248 -11574852.40546  21972064.820    21972064.5664   21972068.4094
       182.0004        182.0004
 -19375106.00449 -15083753.41547  21009386.003    21009387.4134   21009395.8994
       196.0004        196.0004
  -8527335.76348  -6628674.24247  23058265.834    23058266.0814   23058274.1094
       194.0004        195.0004
 -11503781.70448  -8936091.12847  22103709.242    22103710.0964   22103716.4194
       192.0004        193.0004
 -21245049.64049 -16533608.36047  20530292.876    20530293.1234   20530297.0944
       209.0004        210.0004
 -11334864.47648  -8812163.66646  22512668.014    22512668.3364   22512672.8004
       182.0004        184.0004
  -2449990.65347  -1882824.21245  23952888.842    23952889.0584   23952896.2934
       148.0004        151.0004
 21  2  4  0 28 30.0000000  0 10G14G28G30G21G01G08G09G07G17G04
  -2691904.13748  -2088591.74746  23165080.566    23165082.1464   23165090.3024
       165.0004        164.0004
  -1115293.79247   -744516.19345  23560325.094    23560325.6204   23560330.1064
       150.0004        154.0004
 -12043117.51548  -9360961.95647  22136820.391    22136820.9474   22136828.7744
       188.0004        188.0004
 -14838388.86848 -11547312.39646  21978791.149    21978790.4834   21978795.2444
       182.0004        183.0004
 -19413276.47849 -15113496.62147  21002123.482    21002124.2344   21002132.2194
       196.0004        196.0004
  -8433060.37348  -6555212.89047  23076205.622    23076205.3854   23076212.9524
       193.0004        193.0004
 -11430983.00848  -8879364.87247  22117562.898    22117562.6084   22117569.8104
       192.0004        192.0004
 -21292514.83649 -16570594.22447  20521260.066    20521260.6194   20521264.7834
       209.0004        210.0004
 -11397432.82248  -8860918.19746  22500760.217    22500761.0074   22500767.4434
       183.0004        184.0004
  -2352279.32547  -1806685.54745  23971483.812    23971483.5804   23971489.7834
       148.0004        151.0004
 21  2  4  0 29  0.0000000  0 10G14G28G30G21G01G08G09G07G17G04
  -2718846.20048  -2109585.54746  23159957.523    23159958.2414   23159961.6304
       165.0004        168.0004
  -1130947.54747   -756713.90545  23557347.588    23557347.1144   23557352.2894
       149.0004        152.0004
 -12126156.26548  -9425667.46446  22121019.703    22121019.6514   22121026.8474
       187.0004        187.0004
 -14802554.97048 -11519389.86546  21985608.682    21985608.3564   21985613.5974
       183.0004        182.0004
 -19450954.38449 -15142856.00547  20994953.003    20994954.0494   20994962.1684
       195.0004        196.0004
  -8338750.47748  -6481724.67447  23094151.721    23094151.4384   23094159.7964
       192.0004        192.0004
 -11357974.56248  -8822475.17847  22131456.002    22131455.9274   22131463.4594
       193.0004        193.0004
 -21339592.37549 -16607278.01847  20512301.256    20512301.7564   20512306.5544
       209.0004        210.0004
 -11459601.63048  -8909361.41846  22488931.347    22488930.9244   22488936.8194
       184.0004        184.0004
  -2254629.22747  -1730594.59245  23990066.755    23990066.6324   23990071.0274
       147.0004        151.0004
 21  2  4  0 29 30.0000000  0 10G14G28G30G21G01G08G09G07G17G04
  -2745829.98148  -2130611.82446  23154825.124    23154825.0364   23154828.2134
       168.0004        169.0004
  -1146647.30947   -768947.44445  23554359.727    23554358.8764   23554363.4464
       149.0004        153.0004
 -12209036.19448  -9490249.21546  22105247.763    22105247.7354   22105255.3164
       187.0004        187.0004
 -14766231.87148 -11491086.14046  21992520.022    21992520.6804   21992525.8604
       182.0004        182.0004
 -19488138.47349 -15171830.60347  20987877.801    20987878.4084   20987886.3594
       196.0004        196.0004
  -8244409.82448  -6408212.48747  23112103.997    23112103.7824   23112113.0614
       192.0004        192.0004
 -11284760.56048  -8765425.31247  22145387.511    22145388.1974   22145395.0104
       192.0004        192.0004
 -21386280.67249 -16643658.51147  20503417.217    20503417.6304   20503422.0924
       210.0004        211.0004
 -11521370.59948  -8957493.06346  22477175.735    22477177.0014   22477182.0204
       183.0004        183.0004
  -2157044.10447  -1654554.25045  24008633.878    24008634.7514   24008641.5694
       147.0004        149.0004
 21  2  4  0 30  0.0000000  0 10G14G28G30G21G01G08G09G07G17G04
  -2772854.78848  -2151670.05346  23149681.132    23149681.4474   23149684.9004
       168.0004        168.0004
  -1162392.84747   -781216.66945  23551363.244    23551362.8714   23551367.1214
       149.0004        152.0004
 -12291753.26448  -9554704.05647  22089508.097    22089508.0744   22089515.1674
       187.0004        188.0004
 -14729418.79048 -11462400.59246  21999526.392    21999526.0684   21999530.8654
       183.0004        183.0004
 -19524824.83249 -15200417.34447  20980897.393    20980897.7984   20980905.0714
       197.0004        197.0004
  -8150038.97348  -6334676.74447  23130062.254    23130061.9304   23130071.0694
       191.0004        191.0004
 -11211342.57148  -8708216.47747  22159358.753    22159359.4964   22159366.3804
       192.0004        192.0004
 -21432576.00249 -16679732.78647  20494607.141    20494607.8624   20494612.2074
       210.0004        210.0004
 -11582737.84748  -9005311.66546  22465499.084    22465499.6064   22465503.1814
       182.0004        182.0004
  -2059524.90047  -1578565.29945  24027192.156    24027193.2424   24027198.6084
       144.0004        147.0004
 21  2  4  0 30 30.0000000  0 10G14G28G30G21G01G08G09G07G17G04
  -2799922.99047  -2172762.13346  23144528.287    23144529.3024   23144533.5944
       164.0004        164.0004
  -1178187.04247   -793523.81345  23548356.367    23548357.3994   23548361.7034
       149.0004        152.0004
 -12374306.35648  -9619031.13947  22073798.778    22073798.5334   22073804.9614
       188.0004        188.0004
 -14692117.60148 -11433334.71846  22006625.013    22006624.0894   22006628.7874
       183.0004        183.0004
 -19561012.58249 -15228615.58347  20974011.396    20974011.4474   20974019.1334
       197.0004        198.0004
  -8055641.79048  -6261120.52447  23148025.254    23148025.8034   23148034.2924
       192.0004        193.0004
 -11137725.11548  -8650852.23847  22173367.584    22173368.0394   22173375.7834
       192.0004        193.0004
 -21478477.08749 -16715499.86647  20485872.308    20485872.7214   20485877.3594
       209.0004        210.0004
 -11643703.88348  -9052817.64546  22453897.146    22453897.5814   22453902.0374
       182.0004        183.0004
  -1962075.75447  -1502630.94945  24045737.033    24045736.7134   24045743.1564
       143.0004        148.0004
 21  2  4  0 31  0.0000000  0 11G14G28G30G21G01G08G19G09G07G17G04
  -2827034.03047  -2193887.61346  23139367.981    23139369.3314   23139375.3224
       163.0004        164.0004
  -1194030.07647   -805869.00245  23545342.312    23545341.7924   23545346.9194
       148.0004        151.0004
 -12456691.56648  -9683227.40747  22058120.218    22058121.0654   22058128.1424
       188.0004        188.0004
 -14654327.80848 -11403888.12446  22013816.125    22013815.8774   22013820.1944
       183.0004        183.0004
 -19596697.98449 -15256422.38647  20967219.933    20967220.4404   20967228.1104
       198.0004        198.0004
  -7961219.86048  -6187544.99147  23165992.924    23165993.3494   23166002.1654
       192.0004        193.0004
   -389552.27656   -277852.21145  24781667.649                    24781671.9804
       133.0004        150.0004
 -11063909.92148  -8593333.91247  22187413.799    22187413.9874   22187421.8674
       191.0004        191.0004
 -21523980.15349 -16750956.80847  20477213.532    20477213.9934   20477218.4104
       210.0004        211.0004
 -11704266.44748  -9100009.23446  22442372.494    22442372.7064   22442378.0734
       182.0004        182.0004
  -1864697.77547  -1426752.04645  24064268.233    24064268.0084   24064274.3704
       143.0004        146.0004
 21  2  4  0 31 30.0000000  0 11G14G28G30G21G01G08G19G09G07G17G04
  -2854189.26248  -2215047.50846  23134201.960    23134202.2584   23134207.7574
       165.0004        167.0004
  -1209923.57247   -818253.51945  23542318.799    23542318.3334   23542321.7314
       149.0004        153.0004
 -12538906.79848  -9747291.22047  22042476.195    22042475.8484   22042482.7544
       187.0004        188.0004
 -14616050.56148 -11374061.68046  22021100.390    22021099.2984   22021104.6194
       183.0004        183.0004
 -19631879.20849 -15283836.31547  20960524.924    20960525.7904   20960533.4904
       198.0004        198.0004
  -7866775.70148  -6113952.12347  23183963.362    23183964.9154   23183974.3114
       191.0004        191.0004
   -480648.38447   -348836.12945  24764333.963    24764332.3164   24764337.8064
       143.0004        149.0004
 -10989900.51048  -8535664.24747  22201496.878    22201497.9324   22201504.9264
       190.0004        189.0004
 -21569082.91849 -16786101.82547  20468630.534    20468631.0114   20468635.6884
       210.0004        210.0004
 -11764425.84848  -9146886.67946  22430924.852    22430925.0714   22430930.4684
       182.0004        183.0004
  -1767394.03747  -1350931.02845  24082784.712    24082784.2264   24082789.6004
       143.0004        147.0004
 21  2  4  0 32  0.0000000  0 11G14G28G30G21G01G08G19G09G07G17G04
  -2881390.43447  -2236243.18946  23129025.017    23129025.7874   23129032.0544
       164.0004        164.0004
  -1225869.66847   -830678.99945  23539283.105    23539282.8294   23539287.4354
       150.0004        154.0004
 -12620950.37248  -9811221.26446  22026864.360    22026863.4834   22026869.8354
       187.0004        187.0004
 -14577287.64348 -11343856.78246  22028476.206    22028475.5504   22028480.6874
       183.0004        183.0004
 -19666554.84049 -15310856.26247  20953926.808    20953927.4174   20953934.7904
       198.0004        198.0004
  -7772312.49448  -6040344.43247  23201940.251    23201940.5824   23201950.7254
       191.0004        191.0004
   -571535.95047   -419657.55145  24747036.954    24747036.4944   24747040.6764
       143.0004        147.0004
 -10915700.87748  -8477846.34347  22215617.752    22215617.7224   22215624.9634
       189.0004        189.0004
 -21613783.89749 -16820933.75347  20460124.513    20460125.0544   20460129.3174
       210.0004        211.0004
 -11824182.04348  -9193449.92746  22419552.813    22419553.7084   22419558.3484
       181.0004        181.0004
  -1670167.96347  -1275170.47245  24101285.147    24101285.8734   24101292.4044
       144.0004        149.0004
 21  2  4  0 32 30.0000000  0 11G14G28G30G21G01G08G19G09G07G17G04
  -2908638.16547  -2257475.16345  23123839.044    23123840.5614   23123846.0044
       162.0004        162.0004
  -1241869.44547   -843146.33145  23536239.854    23536239.3364   23536243.6114
       152.0004        155.0004
 -12702819.53848  -9875015.42547  22011283.982    22011284.5264   22011291.8294
       187.0004        188.0004
 -14538039.52348 -11313273.81146  22035945.381    22035944.2794   22035949.2424
       183.0004        182.0004
 -19700722.40249 -15337480.31547  20947424.668    20947425.1964   20947433.2874
       198.0004        199.0004
  -7677832.62248  -5966723.77547  23219920.652    23219920.2754   23219929.1494
       190.0004        190.0004
   -662212.75547   -490314.72645  24729781.275    24729779.2044   24729786.9074
       140.0004        144.0004
 -10841313.85948  -8419882.44347  22229772.852    22229773.1904   22229780.6994
       189.0004        190.0004
 -21658080.44149 -16855450.54047  20451695.662    20451695.7924   20451700.0474
       210.0004        211.0004
 -11883534.27848  -9239698.38946  22408258.576    22408258.5794   22408264.0624
       181.0004        183.0004
  -1573021.89447  -1199472.28245  24119770.646    24119771.9864   24119778.7014
       147.0004        150.0004
 21  2  4  0 33  0.0000000  0 11G14G28G30G21G01G08G19G09G07G17G04
  -2935932.95447  -2278743.81846  23118647.080    23118646.4504   23118651.7424
       162.0004        164.0004
  -1257923.90247   -855656.27345  23533184.299    23533183.7094   23533188.6394
       152.0004        155.0004
 -12784511.36748  -9938671.39147  21995739.367    21995739.2414   21995746.7304
       188.0004        190.0004
 -14498306.75848 -11282313.19546  22043506.322    22043505.6324   22043509.9514
       183.0004        182.0004
 -19734379.30949 -15363706.45847  20941020.197    20941020.6914   20941028.4454
       199.0004        199.0004
  -7583338.03648  -5893091.63947  23237901.404    23237902.4484   23237910.4084
       188.0004        188.0004
   -752676.69147   -560806.09345  24712566.211    24712565.9704   24712571.5454
       142.0004        146.0004
 -10766742.28148  -8361774.72147  22243963.277    22243963.7014   22243970.9004
       190.0004        191.0004
 -21701969.79749 -16889650.02747  20443343.495    20443343.9384   20443348.1884
       210.0004        211.0004
 -11942481.35648  -9285631.16046  22397040.326    22397041.7684   22397047.1484
       181.0004        181.0004
  -1475958.03647  -1123838.15045  24138241.470    24138241.9094   24138247.5004
       146.0004        149.0004
 21  2  4  0 33 30.0000000  0 11G14G28G30G21G01G08G19G09G07G17G04
  -2963274.01547  -2300048.49046  23113443.247    23113442.9574   23113450.2454
       162.0004        163.0004
  -1274032.58847   -868208.48545  23530118.259    23530118.6874   23530122.3354
       149.0004        151.0004
 -12866021.59048 -10002185.84247  21980228.934    21980228.2664   21980235.9394
       190.0004        191.0004
 -14458088.48848 -11250974.26746  22051158.388    22051158.1424   22051163.1314
       182.0004        182.0004
 -19767521.62449 -15389531.63047  20934713.287    20934713.9814   20934721.6654
       199.0004        199.0004
  -7488829.77548  -5819448.84947  23255887.386    23255886.7114   23255895.4424
       188.0004        189.0004
   -842924.89747   -631129.32445  24695392.599    24695391.7114   24695396.5304
       142.0004        145.0004
 -10691987.47548  -8303524.23347  22258188.118    22258188.3944   22258196.2754
       190.0004        190.0004
 -21745447.47749 -16923528.74647  20435069.937    20435070.5064   20435074.3384
       210.0004        211.0004
 -12001021.03548  -9331246.45246  22385902.418    22385902.2084   22385907.1404
       182.0004        183.0004
  -1378977.11247  -1048268.67745  24156698.111    24156696.0764   24156703.7544
       145.0004        148.0004
 21  2  4  0 34  0.0000000  0 11G14G28G30G21G01G08G19G09G07G17G04
  -2990662.87047  -2321390.44646  23108231.574    23108232.1724   23108237.0374
       163.0004        166.0004
  -1290197.83747   -880804.75945  23527042.636    23527042.3974   23527046.0944
       147.0004        150.0004
 -12947348.46948 -10065557.43147  21964752.617    21964752.6974   21964759.1544
       190.0004        191.0004
 -14417386.72348 -11219258.57946  22058904.395    22058904.0434   22058908.1004
       182.0004        182.0004
 -19800147.97949 -15414954.74047  20928504.654    20928505.0994   20928513.4944
       199.0004        200.0004
  -7394310.61648  -5745797.56247  23273873.760    23273873.1494   23273881.3774
       189.0004        188.0004
   -932956.60647   -701283.88445  24678261.706    24678260.9954   24678263.4364
       142.0004        147.0004
 -10617053.35548  -8245134.02047  22272447.781    22272448.2884   22272455.9584
       189.0004        189.0004
 -21788511.97949 -16957085.50147  20426875.385    20426875.4844   20426879.8334
       210.0004        211.0004
 -12059153.69248  -9376544.59146  22374839.795    22374840.5714   22374845.1494
       183.0004        184.0004
  -1282082.53147   -972766.47345  24175136.030    24175135.4884   24175141.5204
       143.0004        146.0004
 21  2  4  0 34 30.0000000  0 11G14G28G30G21G01G08G19G09G07G17G04
  -3018099.61948  -2342769.70446  23103011.604    23103012.2154   23103016.7034
       166.0004        169.0004
  -1306420.23747   -893445.52945  23523955.027    23523954.2364   23523959.3594
       147.0004        150.0004
 -13028488.61548 -10128783.51547  21949311.701    21949311.4924   21949318.5864
       190.0004        190.0004
 -14376200.95248 -11187165.74446  22066742.243    22066741.3084   22066745.6024
       182.0004        182.0004
 -19832255.36449 -15439973.46247  20922394.619    20922395.1974   20922403.3644
       199.0004        200.0004
  -7299782.52748  -5672139.29246  23291860.361    23291860.3594   23291868.9954
       187.0004        187.0004
  -1022769.47847   -771267.89345  24661172.292    24661171.3284   24661171.7074
       142.0004        144.0004
 -10541942.21248  -8186605.86047  22286740.795    22286741.4124   22286749.0554
       189.0004        189.0004
 -21831160.19949 -16990317.88147  20418759.219    20418759.8034   20418764.2084
       211.0004        211.0004
 -12116877.59748  -9421524.21746  22363854.536    22363855.0174   22363859.8024
       183.0004        183.0004
  -1185276.00147   -897332.84745  24193556.735    24193556.3594   24193562.3164
       144.0004        149.0004
 21  2  4  0 35  0.0000000  0 11G14G28G30G21G01G08G19G09G07G17G04
  -3045585.58048  -2364187.29846  23097779.374    23097780.4964   23097785.6144
       166.0004        166.0004
  -1322701.44947   -906132.17045  23520855.754    23520856.1464   23520861.8794
       148.0004        151.0004
 -13109439.96048 -10191862.48747  21933907.290    21933907.4404   21933914.4014
       191.0004        192.0004
 -14334532.62048 -11154696.89946  22074671.266    22074670.5214   22074674.7004
       182.0004        182.0004
 -19863842.14349 -15464586.52647  20916384.116    20916384.6464   20916392.2424
       199.0004        200.0004
  -7205247.80748  -5598475.86847  23309848.882    23309849.3444   23309859.0274
       187.0004        188.0004
  -1112362.38747   -841080.52145  24644121.298    24644119.4804   24644122.8864
       139.0004        143.0004
 -10466657.62748  -8127942.55746  22301067.192    22301067.6334   22301075.2994
       187.0004        187.0004
 -21873390.19849 -17023224.38547  20410723.265    20410723.9174   20410727.9974
       211.0004        212.0004
 -12174193.12948  -9466185.64746  22352948.147    22352949.2924   22352953.8164
       184.0004        185.0004
  -1088560.52447   -821970.18845  24211960.264    24211961.5514   24211968.0004
       146.0004        150.0004
 21  2  4  0 35 30.0000000  0 11G14G28G30G21G01G08G19G09G07G17G04
  -3073120.77048  -2385643.25646  23092540.438    23092541.4124   23092545.9434
       165.0004        166.0004
  -1339041.72047   -918864.81945  23517748.777    23517748.8404   23517752.4134
       149.0004        152.0004
 -13190199.18448 -10254791.75447  21918540.068    21918539.6754   21918546.2124
       192.0004        192.0004
 -14292382.26548 -11121852.44746  22082691.911    22082691.2244   22082696.2854
       181.0004        181.0004
 -19894905.47149 -15488791.69147  20910472.968    20910473.5564   20910481.0634
       200.0004        199.0004
  -7110708.40948  -5524808.79946  23327836.116    23327838.7384   23327849.0514
       186.0004        186.0004
  -1201733.18447   -910720.03145  24627113.866    24627113.1294   24627118.5024
       139.0004        144.0004
 -10391201.97148  -8069145.95147  22315426.939    22315426.6344   22315433.6554
       187.0004        188.0004
 -21915198.89049 -17055802.58347  20402767.105    20402767.7304   20402772.4554
       211.0004        212.0004
 -12231098.77648  -9510527.67046  22342119.074    22342119.3794   22342124.6364
       183.0004        182.0004
   -991937.86547   -746679.85545  24230346.778    24230348.4874   24230354.3124
       148.0004        152.0004
 21  2  4  0 36  0.0000000  0 11G14G28G30G21G01G08G19G09G07G17G04
  -3100705.49948  -2407137.83846  23087291.987    23087292.0874   23087297.4584
       167.0004        169.0004
  -1355442.12147   -931644.32945  23514625.156    23514626.0814   23514630.9944
       148.0004        151.0004
 -13270763.17648 -10317568.89347  21903209.225    21903208.5234   21903215.4564
       192.0004        193.0004
 -14249750.14048 -11088632.59846  22090804.360    22090803.9964   22090808.4414
       181.0004        181.0004
 -19925442.68849 -15512586.92147  20904662.135    20904662.7924   20904669.8984
       200.0004        200.0004
  -7016166.13648  -5451139.50646  23345829.777    23345830.8404   23345839.5854
       184.0004        185.0004
  -1290879.85747   -980184.93345  24610148.739    24610149.3204   24610154.9914
       138.0004        143.0004
 -10315577.77048  -8010218.02146  22329816.996    22329817.6284   22329824.4744
       187.0004        187.0004
 -21956583.23749 -17088050.13447  20394891.872    20394892.7914   20394896.7394
       211.0004        212.0004
 -12287593.65248  -9554549.63946  22331369.205    22331369.4674   22331373.9474
       181.0004        182.0004
   -895409.94647   -671463.33545  24248716.517    24248717.0454   24248724.2524
       149.0004        152.0004
 21  2  4  0 36 30.0000000  0 11G14G28G30G21G01G08G19G09G07G17G04
  -3128342.88148  -2428673.46046  23082031.862    23082032.9224   23082037.8964
       167.0004        168.0004
  -1371906.24947   -944473.49245  23511494.347    23511494.8814   23511498.4514
       150.0004        154.0004
 -13351131.73148 -10380193.73047  21887914.409    21887915.0814   21887922.2084
       193.0004        194.0004
 -14206639.60048 -11055039.94446  22099008.568    22099007.1884   22099012.2834
       181.0004        181.0004
 -19955454.05449 -15535972.38247  20898951.035    20898951.6364   20898958.9564
       200.0004        200.0004
  -6921625.82248  -5377471.74046  23363822.577    23363822.6344   23363830.3064
       185.0004        187.0004
  -1379803.39647  -1049476.00545  24593229.008    24593228.6264   24593231.7764
       139.0004        144.0004
 -10239790.53048  -7951163.02846  22344239.255    22344239.5664   22344246.4754
       186.0004        186.0004
 -21997542.83249 -17119966.70047  20387097.609    20387098.2684   20387102.2524
       211.0004        212.0004
 -12343679.73248  -9598253.04346  22320695.792    22320696.3574   22320700.1904
       181.0004        182.0004
   -798981.57547   -596324.39945  24267066.100    24267066.2084   24267073.2914
       148.0004        151.0004
 21  2  4  0 37  0.0000000  0 11G14G28G30G21G01G08G19G09G07G17G04
  -3156033.09848  -2450250.21046  23076763.351    23076763.0304   23076768.3414
       166.0004        166.0004
  -1388434.61547   -957352.73445  23508346.884    23508347.2514   23508351.5904
       150.0004        152.0004
 -13431301.58248 -10442663.73147  21872659.391    21872659.5944   21872665.7214
       194.0004        194.0004
 -14163050.88448 -11021074.68646  22107303.211    22107302.1754   22107307.6034
       181.0004        182.0004
 -19984936.91649 -15558946.01747  20893340.232    20893340.9504   20893348.7124
       200.0004        200.0004
  -6827089.22748  -5303806.88146  23381814.968    23381813.3384   23381819.9064
       186.0004        187.0004
  -1468501.55447  -1118591.41445  24576348.996    24576348.6514   24576352.6714
       138.0004        143.0004
 -10163842.67148  -7891982.87046  22358690.660    22358690.9384   22358698.9034
       185.0004        185.0004
 -22038075.03149 -17151550.22147  20379384.932    20379385.1944   20379389.8834
       211.0004        212.0004
 -12399355.81548  -9641636.97246  22310100.546    22310100.7824   22310106.1604
       182.0004        184.0004
   -702654.63947   -521264.50245  24285395.747    24285396.0394   24285403.5084
       146.0004        148.0004
 21  2  4  0 37 30.0000000  0 11G14G28G30G21G01G08G19G09G07G17G04
  -3183777.49548  -2471869.19546  23071482.554    23071483.0874   23071488.9814
       166.0004        166.0004
  -1405029.19347   -970283.56845  23505190.356    23505189.0584   23505194.4394
       147.0004        149.0004
 -13511270.73748 -10504977.36547  21857441.454    21857441.3904   21857448.1004
       193.0004        193.0004
 -14118985.78748 -10986738.24346  22115688.460    22115687.4384   22115692.6334
       181.0004        181.0004
 -20013889.72949 -15581506.64147  20887830.832    20887831.3804   20887839.4684
       200.0004        200.0004
  -6732558.67448  -5230146.71746  23399803.213    23399802.6794   23399807.5734
       187.0004        187.0004
  -1556973.47047  -1187530.50045  24559511.843    24559511.6164   24559517.9144
       139.0004        145.0004
 -10087737.83348  -7832680.41346  22373174.153    22373174.5344   22373180.3794
       185.0004        185.0004
 -22078178.08149 -17182799.34947  20371753.178    20371753.6804   20371758.1224
       211.0004        212.0004
 -12454621.72048  -9684701.29446  22299584.755    22299585.1194   22299588.4234
       182.0004        181.0004
   -606432.14847   -446285.98645  24303705.566    24303706.2304   24303713.6024
       145.0004        148.0004
 21  2  4  0 38  0.0000000  0 11G14G28G30G21G01G08G19G09G07G17G04
  -3211575.13748  -2493529.66046  23066193.344    23066193.8554   23066199.2034
       165.0004        166.0004
  -1421689.53147   -983265.61945  23502020.009    23502020.3044   23502025.6304
       149.0004        153.0004
 -13591034.87548 -10567131.24047  21842262.615    21842262.5294   21842269.2614
       193.0004        193.0004
 -14074443.74748 -10952030.13946  22124163.456    22124163.7074   22124167.8564
       181.0004        181.0004
 -20042308.83749 -15603651.38547  20882422.854    20882423.2044   20882431.3954
       200.0004        200.0004
  -6638035.03148  -5156491.92946  23417788.319    23417788.3764   23417795.0234
       186.0004        186.0004
  -1645216.04947  -1256290.88945  24542722.289    24542721.9044   24542725.9614
       142.0004        147.0004
 -10011477.42948  -7773256.71146  22387684.403    22387684.7914   22387693.0754
       184.0004        185.0004
 -22117847.58449 -17213710.65147  20364204.714    20364205.0594   20364209.0404
       211.0004        212.0004
 -12509475.55548  -9727444.51246  22289145.463    22289145.8174   22289151.5064
       182.0004        183.0004
   -510314.81647   -371389.39445  24321996.461    24321998.0114   24322004.7444
       145.0004        149.0004
 21  2  4  0 38 30.0000000  0 11G14G28G30G21G01G08G19G09G07G17G04
  -3239426.50348  -2515232.01146  23060893.718    23060894.9184   23060899.2554
       166.0004        167.0004
  -1438416.76747   -996299.79745  23498837.815    23498837.4964   23498842.2344
       150.0004        152.0004
 -13670591.20048 -10629123.18047  21827124.148    21827123.4624   21827130.9034
       194.0004        195.0004
 -14029425.10448 -10916950.67546  22132730.589    22132730.4864   22132734.6804
       180.0004        181.0004
 -20070192.02749 -15625378.52747  20877117.095    20877117.4194   20877125.1204
       200.0004        199.0004
  -6543520.56548  -5082844.29946  23435774.663    23435773.8224   23435781.2524
       185.0004        185.0004
  -1733227.41247  -1324871.13845  24525974.126    24525974.1074   24525978.9784
       145.0004        150.0004
  -9935064.29248  -7713714.03146  22402226.560    22402226.7804   22402233.5344
       185.0004        186.0004
 -22157081.29949 -17244282.36847  20356738.105    20356738.6814   20356743.1394
       211.0004        212.0004
 -12563916.72548  -9769866.18246  22278785.870    22278786.2854   22278791.7894
       182.0004        182.0004
   -414304.88547   -296576.50645  24340269.042    24340269.7184   24340275.4354
       146.0004        150.0004
 21  2  4  0 39  0.0000000  0 11G14G28G30G21G01G08G19G09G07G17G04
  -3267333.66448  -2536977.83146  23055581.616    23055582.8204   23055589.4634
       166.0004        168.0004
  -1455213.26147  -1009387.95345  23495639.609    23495639.3274   23495645.0284
       149.0004        152.0004
 -13749938.36549 -10690952.12547  21812023.964    21812024.0654   21812031.5874
       195.0004        195.0004
 -13983932.57248 -10881501.93746  22141387.366    22141386.5964   22141392.1444
       180.0004        180.0004
 -20097538.51649 -15646687.46247  20871912.834    20871913.1784   20871920.9954
       199.0004        199.0004
  -6449018.79748  -5009206.56046  23453755.195    23453756.6304   23453763.7914
       184.0004        184.0004
  -1821007.51547  -1393271.18345  24509271.243    24509270.3574   24509275.5514
       149.0004        154.0004
  -9858502.77748  -7654055.70646  22416796.625    22416796.2554   22416803.4814
       185.0004        186.0004
 -22195878.13249 -17274513.66148  20349355.697    20349356.2704   20349360.6024
       212.0004        213.0004
 -12617946.27348  -9811967.11246  22268505.481    22268505.8344   22268510.0014
       183.0004        185.0004
   -318406.01647   -221850.16245  24358516.513    24358518.8004   24358523.7864
       146.0004        149.0004
 21  2  4  0 39 30.0000000  0 11G14G28G30G21G01G08G19G09G07G17G04
  -3295295.14248  -2558765.96446  23050261.533    23050262.0514   23050267.6764
       166.0004        168.0004
  -1472077.67747  -1022529.01945  23492431.734    23492431.2104   23492436.4404
       151.0004        155.0004
 -13829071.57249 -10752614.34647  21796965.170    21796965.4224   21796973.1134
       195.0004        195.0004
 -13937965.17948 -10845683.17646  22150134.686    22150134.4594   22150139.6124
       180.0004        180.0004
 -20124344.23649 -15667575.02047  20866810.769    20866812.3174   20866820.1854
       199.0004        199.0004
  -6354529.39248  -4935578.43946  23471735.528    23471735.8574   23471744.8824
       183.0004        182.0004
  -1908552.80347  -1461488.23745  24492611.674    24492610.2354   24492615.2524
       151.0004        155.0004
  -9781793.79548  -7594282.45446  22431391.587    22431392.5394   22431400.7004
       186.0004        187.0004
 -22234233.41749 -17304400.89048  20342057.298    20342057.5574   20342061.7634
       212.0004        213.0004
 -12671561.35848  -9853745.05446  22258302.046    22258302.8104   22258307.0994
       184.0004        185.0004
   -222618.49447   -147210.56645  24376743.922    24376744.6184   24376751.8474
       144.0004        147.0004
 21  2  4  0 40  0.0000000  0 11G14G28G30G21G01G08G19G09G07G17G04
  -3323312.63148  -2580597.76246  23044931.374    23044931.7424   23044936.3874
       166.0004        168.0004
  -1489012.46547  -1035724.96545  23489209.890    23489209.7434   23489213.2494
       154.0004        158.0004
 -13907989.15049 -10814108.55647  21781948.895    21781948.8114   21781955.4794
       195.0004        196.0004
 -13891524.78348 -10809495.83946  22158972.953    22158971.7834   22158976.6294
       180.0004        180.0004
 -20150608.19249 -15688040.42747  20861813.647    20861814.5804   20861822.1304
       199.0004        199.0004
  -6260055.89348  -4861962.74046  23489713.673    23489713.4784   23489722.1104
       182.0004        182.0004
  -1995862.78047  -1529521.95445  24475995.683    24475995.2564   24475999.7614
       151.0004        154.0004
  -9704941.34848  -7534397.44846  22446018.242    22446018.0604   22446024.8024
       185.0004        185.0004
 -22272145.62149 -17333942.87847  20334842.091    20334842.7624   20334846.6244
       211.0004        212.0004
 -12724762.72548  -9895200.64446  22248177.508    22248177.7294   22248183.3614
       184.0004        183.0004
   -126945.68247    -72660.35845  24394949.838    24394950.6134   24394956.9874
       141.0004        144.0004
 21  2  4  0 40 30.0000000  0 11G14G28G30G21G01G08G19G09G07G17G04
  -3351387.16448  -2602473.98746  23039587.888    23039588.0674   23039593.8494
       167.0004        169.0004
  -1506019.20647  -1048976.93345  23485973.962    23485973.8034   23485976.8444
       156.0004        159.0004
 -13986688.80249 -10875432.95647  21766972.747    21766972.6354   21766979.0904
       195.0004        195.0004
 -13844612.87148 -10772941.08146  22167898.644    22167898.4134   22167903.0434
       179.0004        179.0004
 -20176328.81949 -15708082.44647  20856919.154    20856920.1304   20856927.9784
       199.0004        199.0004
  -6165601.19248  -4788361.65546  23507687.962    23507688.1954   23507696.3694
       183.0004        184.0004
  -2082936.17447  -1597371.29745  24459426.741    24459426.2444   24459430.5234
       151.0004        153.0004
  -9627948.83348  -7474403.28046  22460668.082    22460668.7534   22460675.4804
       183.0004        183.0004
 -22309613.02749 -17363138.25648  20327712.283    20327712.8504   20327717.3244
       211.0004        213.0004
 -12777550.35348  -9936333.83346  22238132.929    22238133.6434   22238138.0554
       183.0004        183.0004
    -31390.22847      1798.38145  24413133.563    24413133.2294   24413142.5784
       139.0004        142.0004
 21  2  4  0 41  0.0000000  0 11G14G28G30G21G01G08G19G09G07G17G04
  -3379519.50948  -2624395.28446  23034234.318    23034234.5804   23034240.4444
       168.0004        170.0004
  -1523099.21447  -1062285.99245  23482722.369    23482722.5174   23482726.3164
       156.0004        158.0004
 -14065167.99049 -10936585.58147  21752038.401    21752038.3264   21752044.8214
       195.0004        195.0004
 -13797230.58748 -10736019.82246  22176916.264    22176916.0494   22176920.2784
       179.0004        179.0004
 -20201504.27249 -15727699.67447  20852128.658    20852129.1984   20852136.9974
       199.0004        200.0004
  -6071167.16148  -4714776.72146  23525658.494    23525658.7744   23525667.1874
       184.0004        186.0004
  -2169772.03647  -1665035.55845  24442901.775    24442901.7384   24442906.2164
       151.0004        153.0004
  -9550819.38148  -7414302.41846  22475344.106    22475345.3504   22475353.0114
       182.0004        182.0004
 -22346633.53649 -17391985.42448  20320668.550    20320668.7074   20320672.6364
       212.0004        213.0004
 -12829923.83548  -9977144.32646  22228165.982    22228167.2024   22228171.4564
       183.0004        183.0004
     64045.40547     76163.73645  24431293.473    24431296.2774   24431303.4724
       136.0004        141.0004
 21  2  4  0 41 30.0000000  0 11G14G28G30G21G01G08G19G09G07G17G04
  -3407709.44648  -2646361.44646  23028871.457    23028871.4704   23028875.6204
       169.0004        170.0004
  -1540252.71947  -1075652.33445  23479459.147    23479459.1194   23479463.1674
       156.0004        159.0004
 -14143423.18649 -10997563.65147  21737146.884    21737146.9414   21737153.5154
       195.0004        195.0004
 -13749378.47248 -10698732.44146  22186021.647    22186021.1784   22186026.3704
       179.0004        180.0004
 -20226131.79549 -15746889.93347  20847441.881    20847443.1184   20847451.1774
       199.0004        200.0004
  -5976754.79048  -4641208.63346  23543623.398    23543624.4284   23543632.9114
       184.0004        184.0004
  -2256367.91147  -1732512.84945  24426422.967    24426422.7824   24426426.9824
       150.0004        152.0004
  -9473555.13148  -7354096.51146  22490047.516    22490048.3664   22490055.6834
       181.0004        181.0004
 -22383203.69649 -17420481.67247  20313708.627    20313709.3994   20313713.5204
       212.0004        212.0004
 -12881881.86248 -10017631.08046  22218279.726    22218279.5074   22218284.6164
       184.0004        184.0004
    159359.74247    150434.61345  24449431.591    24449432.7014   24449441.1624
       137.0004        143.0004
 21  2  4  0 42  0.0000000  0 11G14G28G30G21G01G08G19G09G07G17G04
  -3435958.38148  -2668373.57246  23023493.992    23023495.4314   23023500.5224
       169.0004        171.0004
  -1557481.45647  -1089077.25845  23476181.659    23476180.8794   23476184.1234
       156.0004        158.0004
 -14221452.46949 -11058365.67547  21722298.750    21722298.8244   21722304.9784
       195.0004        196.0004
 -13701058.19648 -10661080.25646  22195217.198    22195216.3154   22195220.9004
       179.0004        179.0004
 -20250210.28249 -15765652.37747  20842860.261    20842861.1174   20842869.0214
       199.0004        199.0004
  -5882367.44348  -4567660.03846  23561587.223    23561587.3084   23561595.0784
       185.0004        185.0004
  -2342723.09447  -1799802.51545  24409990.330    24409989.0764   24409993.8884
       149.0004        152.0004
  -9396159.84748  -7293788.48146  22504776.634    22504776.7624   22504784.6594
       181.0004        182.0004
 -22419322.02249 -17448625.80548  20306835.273    20306835.9774   20306840.3244
       211.0004        213.0004
 -12933425.25848 -10057794.71846  22208471.452    22208471.6684   22208475.5764
       184.0004        184.0004
    254549.66347    224608.55145  24467547.354    24467548.4834   24467555.4604
       140.0004        144.0004
 21  2  4  0 42 30.0000000  0 11G14G28G30G21G01G08G19G09G07G17G04
  -3464267.69548  -2690432.74046  23018108.137    23018107.9974   23018112.1964
       168.0004        168.0004
  -1574787.61347  -1102562.56145  23472887.020    23472886.9164   23472890.0594
       152.0004        153.0004
 -14299253.89949 -11118990.15647  21707493.210    21707493.7464   21707500.5094
       196.0004        198.0004
 -13652271.54948 -10623064.67446  22204501.397    22204500.7734   22204505.2244
       179.0004        180.0004
 -20273738.58149 -15783986.10247  20838382.267    20838383.4514   20838391.7334
       199.0004        199.0004
  -5788008.13848  -4494133.34346  23579544.387    23579544.1404   23579550.5774
       185.0004        186.0004
  -2428836.88647  -1866904.12945  24393603.897    24393603.9264   24393606.6914
       149.0004        152.0004
  -9318637.29948  -7233381.29546  22519528.028    22519528.5224   22519537.0044
       182.0004        182.0004
 -22454986.84949 -17476416.57648  20300048.831    20300049.3564   20300053.9394
       212.0004        213.0004
 -12984554.37148 -10097635.54846  22198741.157    22198741.1824   22198746.0384
       183.0004        182.0004
    349612.14247    298683.14545  24485637.402    24485636.8594   24485645.3684
       141.0004        145.0004
 21  2  4  0 43  0.0000000  0 11G14G28G30G21G01G08G19G09G07G17G04
  -3492637.08048  -2712538.75446  23012710.179    23012709.5444   23012713.7514
       167.0004        167.0004
  -1592171.06047  -1116108.07645  23469575.342    23469575.6814   23469581.7434
       148.0004        149.0004
 -14376823.88549 -11179434.29947  21692733.107    21692732.0924   21692739.3564
       197.0004        197.0004
 -13603018.86548 -10584685.95246  22213873.226    22213872.3044   22213877.9004
       179.0004        180.0004
 -20296713.98349 -15801888.99147  20834010.545    20834011.4904   20834019.4914
       199.0004        199.0004
  -5693677.61048  -4420629.03246  23597493.703    23597493.9424   23597500.2074
       184.0004        184.0004
  -2514706.86547  -1933815.78145  24377263.751    24377263.1784   24377266.9814
       150.0004        153.0004
  -9240989.56148  -7172876.58546  22534304.932    22534305.0754   22534311.7104
       182.0004        183.0004
 -22490195.32349 -17503851.74848  20293348.934    20293349.4174   20293353.6244
       212.0004        213.0004
 -13035268.02048 -10137152.63946  22189089.881    22189090.7344   22189095.6604
       184.0004        185.0004
    444545.82147    372657.39145  24503700.350    24503701.8864   24503708.4934
       140.0004        144.0004
 21  2  4  0 43 30.0000000  0 11G14G28G30G21G01G08G19G09G07G17G04
  -3521066.67448  -2734691.67346  23007298.669    23007300.0904   23007303.7974
       165.0004        166.0004
  -1609632.57247  -1129714.49145  23466254.168    23466254.0374   23466260.7814
       147.0004        151.0004
 -14454159.27549 -11239695.62947  21678015.244    21678015.3274   21678022.9294
       196.0004        196.0004
 -13553301.31748 -10545944.99446  22223334.515    22223334.1774   22223338.7924
       179.0004        180.0004
 -20319134.21249 -15819359.28247  20829744.098    20829745.1564   20829752.9424
       199.0004        199.0004
  -5599377.88648  -4347148.74746  23615436.408    23615437.1804   23615445.2124
       182.0004        181.0004
  -2600331.45047  -2000536.20845  24360970.592    24360969.1094   24360972.4174
       150.0004        153.0004
  -9163219.20248  -7112276.29646  22549103.079    22549103.1334   22549110.9814
       182.0004        183.0004
 -22524944.47649 -17530929.02048  20286736.274    20286736.5944   20286741.0684
       212.0004        213.0004
 -13085565.19748 -10176345.21846  22179519.935    22179520.0544   22179524.2554
       185.0004        186.0004
    539348.88447    446529.86145  24521741.936    24521741.8034   24521751.6564
       140.0004        144.0004
 21  2  4  0 44  0.0000000  0 11G14G28G30G21G01G08G19G09G07G17G04
  -3549556.48348  -2756891.48146  23001876.888    23001877.5794   23001882.4774
       166.0004        167.0004
  -1627172.73047  -1143382.07845  23462920.051    23462919.3794   23462922.4254
       151.0004        156.0004
 -14531256.74349 -11299771.55747  21663343.880    21663343.8254   21663351.3744
       196.0004        196.0004
 -13503118.83748 -10506841.74046  22232883.796    22232882.9164   22232887.8284
       179.0004        180.0004
 -20340996.78749 -15836395.02547  20825584.488    20825584.9944   20825592.3254
       199.0004        199.0004
  -5505110.14348  -4273693.36946  23633371.855    23633374.1314   23633384.5914
       181.0004        181.0004
  -2685708.28147  -2067063.55945  24344723.722    24344723.1854   24344725.9884
       151.0004        154.0004
  -9085328.51248  -7051582.26246  22563925.083    22563926.2354   22563934.3274
       182.0004        184.0004
 -22559231.41549 -17557646.10548  20280211.756    20280212.1694   20280216.5744
       212.0004        213.0004
 -13135444.98748 -10215212.54046  22170027.154    22170027.7284   22170032.9434
       186.0004        187.0004
    634019.83347    520299.36345  24539756.840    24539757.4594   24539765.1734
       138.0004        143.0004
 21  2  4  0 44 30.0000000  0 11G14G28G30G21G01G08G19G09G07G17G04
  -3578107.65548  -2779139.13746  22996444.716    22996444.7404   22996449.7144
       167.0004        169.0004
  -1644792.99847  -1157112.14345  23459567.767    23459567.1344   23459568.9624
       154.0004        158.0004
 -14608114.22049 -11359660.51847  21648718.706    21648719.4354   21648725.7284
       196.0004        197.0004
 -13452473.52248 -10467377.86046  22242520.328    22242520.5294   22242524.7914
       178.0004        178.0004
 -20362300.62549 -15852995.41247  20821529.758    20821530.4154   20821538.3384
       198.0004        198.0004
  -5410877.32348  -4200265.18846  23651306.452    23651307.0514   23651315.4524
       180.0004        180.0004
  -2770836.65547  -2133397.31645  24328523.141    24328522.1994   24328527.5564
       152.0004        155.0004
  -9007321.18548  -6990797.34546  22578769.858    22578770.2774   22578778.0784
       183.0004        183.0004
 -22593054.29749 -17584001.61348  20273775.629    20273776.2564   20273780.4414
       212.0004        214.0004
 -13184907.96248 -10253755.10846  22160615.550    22160615.6194   22160620.5744
       186.0004        186.0004
    728555.57647    593963.50745  24557745.530    24557746.5704   24557754.6264
       138.0004        143.0004
 21  2  4  0 45  0.0000000  0 11G14G28G30G21G01G08G19G09G07G17G04
  -3606721.06948  -2801435.28346  22990999.575    22991000.5414   22991005.4374
       167.0004        168.0004
  -1662494.99547  -1170905.88745  23456195.693    23456195.3134   23456200.3684
       153.0004        155.0004
 -14684729.26549 -11419360.53947  21634139.578    21634139.2324   21634146.8084
       196.0004        196.0004
 -13401366.84548 -10427554.46546  22252246.024    22252245.4444   22252251.7914
       178.0004        179.0004
 -20383044.21949 -15869159.23547  20817582.156    20817583.4054   20817590.7744
       198.0004        199.0004
  -5316681.74148  -4126866.05846  23669232.276    23669232.7034   23669240.9534
       179.0004        180.0004
  -2855715.56547  -2199536.67245  24312370.559    24312370.4504   24312375.7994
       151.0004        154.0004
  -8929200.38648  -6929923.99246  22593636.380    22593635.8734   22593642.7774
       182.0004        182.0004
 -22626411.44649 -17609994.20048  20267428.293    20267428.4884   20267432.6634
       212.0004        214.0004
 -13233954.19048 -10291972.92146  22151281.649    22151282.2514   22151286.7114
       186.0004        186.0004
    822953.71947    667520.45645  24575710.584    24575711.2134   24575717.8474
       137.0004        141.0004
 21  2  4  0 45 30.0000000  0 11G14G28G30G21G01G08G19G09G07G17G04
  -3635397.24848  -2823780.34246  22985542.157    22985543.4594   22985548.4404
       167.0004        169.0004
  -1680279.60747  -1184764.00045  23452808.083    23452808.5694   23452815.8374
       150.0004        152.0004
 -14761099.21249 -11478869.57347  21619605.965    21619606.5004   21619613.9784
       196.0004        196.0004
 -13349800.45448 -10387372.85046  22262058.216    22262057.0424   22262063.6534
       178.0004        178.0004
 -20403225.86849 -15884885.18047  20813742.715    20813743.2284   20813750.4884
       198.0004        198.0004
  -5222525.22748  -4053497.34346  23687152.377    23687151.2144   23687158.4704
       180.0004        182.0004
  -2940343.46447  -2265480.42745  24296267.279    24296266.4934   24296270.4684
       151.0004        153.0004
  -8850969.15348  -6868964.59146  22608522.933    22608522.9024   22608529.9724
       182.0004        182.0004
 -22659300.73749 -17635622.22048  20261169.529    20261169.9924   20261174.1004
       213.0004        214.0004
 -13282583.58748 -10329865.92146  22142027.484    22142027.7184   22142032.9014
       185.0004        186.0004
    917211.95647    740968.40645  24593647.944    24593647.5914   24593654.3224
       137.0004        140.0004
 21  2  4  0 46  0.0000000  0 11G14G28G30G21G01G08G19G09G07G17G04
  -3664137.32948  -2846175.18046  22980073.231    22980073.3004   22980078.9244
       169.0004        171.0004
  -1698148.12047  -1198687.47645  23449411.225    23449411.2964   23449414.1364
       149.0004        152.0004
 -14837221.86149 -11538185.90547  21605120.729    21605120.7954   21605128.5834
       196.0004        197.0004
 -13297775.94648 -10346834.24346  22271958.606    22271958.1104   22271963.5014
       178.0004        179.0004
 -20422844.43249 -15900172.32847  20810009.157    20810009.7554   20810017.0934
       199.0004        199.0004
  -5128410.78448  -3980161.44246  23705059.866    23705059.7854   23705067.5444
       179.0004        179.0004
  -3024719.82847  -2331228.21245  24280210.960    24280209.8494   24280214.7334
       152.0004        154.0004
  -8772630.92948  -6807921.81646  22623430.302    22623429.9714   22623436.9714
       181.0004        182.0004
 -22691720.20149 -17660884.12348  20255000.045    20255000.4824   20255004.5884
       213.0004        214.0004
 -13330796.34748 -10367434.26847  22132853.791    22132854.2184   22132858.2544
       187.0004        188.0004
   1011327.54147    814305.18345  24611558.366    24611559.5244   24611564.2664
       137.0004        142.0004
 21  2  4  0 46 30.0000000  0 11G14G28G30G21G01G08G19G09G07G17G04
  -3692941.26948  -2868619.80146  22974593.245    22974593.4864   22974597.2984
       170.0004        171.0004
  -1716101.38647  -1212677.03045  23445995.852    23445996.0854   23445998.3924
       150.0004        154.0004
 -14913094.02249 -11597307.06747  21590683.314    21590682.8854   21590690.4114
       197.0004        197.0004
 -13245293.79448 -10305939.05546  22281946.369    22281945.5094   22281951.6994
       178.0004        179.0004
 -20441897.69549 -15915019.02247  20806382.764    20806383.6214   20806391.5774
       199.0004        199.0004
  -5034339.84848  -3906859.43346  23722958.421    23722959.4334   23722968.8724
       178.0004        178.0004
  -3108842.65847  -2396778.43145  24264202.109    24264201.6124   24264206.7864
       151.0004        153.0004
  -8694188.23048  -6746797.63346  22638356.475    22638357.3134   22638365.2064
       182.0004        183.0004
 -22723666.98249 -17685777.73048  20248921.183    20248921.4044   20248925.7784
       213.0004        214.0004
 -13378591.67548 -10404677.37847  22123758.418    22123759.2174   22123763.3254
       188.0004        189.0004
   1105298.82447    887529.52345  24629438.739    24629439.9194   24629446.0804
       136.0004        142.0004
 21  2  4  0 47  0.0000000  0 11G14G28G30G21G01G08G19G09G07G17G04
  -3721809.24348  -2891114.30146  22969099.479    22969099.6224   22969104.3954
       170.0004        170.0004
  -1734140.01447  -1226733.07545  23442561.866    23442562.1244   23442566.3904
       153.0004        156.0004
 -14988712.50749 -11656230.56247  21576293.271    21576293.3034   21576300.8384
       197.0004        197.0004
 -13192355.19548 -10264688.19846  22292019.614    22292019.1134   22292024.9394
       178.0004        178.0004
 -20460383.57249 -15929423.58847  20802864.818    20802865.8024   20802873.8414
       199.0004        199.0004
  -4940313.63048  -3833592.25746  23740849.823    23740850.7374   23740861.6574
       176.0004        176.0004
  -3192710.15947  -2462129.69145  24248242.507    24248242.3514   24248246.6684
       147.0004        148.0004
  -8615643.52148  -6685593.97346  22653303.428    22653303.7574   22653311.4964
       182.0004        182.0004
 -22755138.69949 -17710301.15748  20242931.966    20242932.5334   20242936.7964
       213.0004        214.0004
 -13425969.04248 -10441594.80447  22114742.859    22114743.0414   22114748.8104
       189.0004        190.0004
   1199123.95947    960639.99445  24647292.190    24647295.0574   24647302.0274
       138.0004        142.0004
 21  2  4  0 47 30.0000000  0 11G14G28G30G21G01G08G19G09G07G17G04
  -3750740.79048  -2913658.35146  22963594.359    22963595.1684   22963598.4854
       170.0004        171.0004
  -1752264.18347  -1240855.78145  23439113.821    23439113.7364   23439118.7984
       155.0004        158.0004
 -15064073.75049 -11714953.60047  21561951.337    21561952.1284   21561959.4274
       196.0004        197.0004
 -13138960.61048 -10223082.01546  22302180.359    22302179.2444   22302185.2834
       177.0004        177.0004
 -20478299.55749 -15943384.07847  20799456.614    20799456.8004   20799464.5464
       199.0004        199.0004
  -4846333.30548  -3760360.84346  23758736.028    23758735.5574   23758745.2794
       176.0004        177.0004
  -3276320.01247  -2527280.15245  24232333.533    24232331.9604   24232337.2634
       147.0004        151.0004
  -8536998.85248  -6624312.42246  22668269.654    22668269.7184   22668276.7404
       181.0004        182.0004
 -22786132.30149 -17734451.99348  20237034.030    20237034.7154   20237038.6294
       213.0004        214.0004
 -13472927.37348 -10478185.70847  22105806.866    22105806.9864   22105812.3284
       189.0004        189.0004
   1292801.78047   1033635.63745  24665118.844    24665119.5434   24665127.1964
       139.0004        144.0004
 21  2  4  0 48  0.0000000  0 11G14G28G30G21G01G08G19G09G07G17G04
  -3779738.71548  -2936254.13946  22958074.990    22958075.5684   22958079.9104
       169.0004        169.0004
  -1770477.09947  -1255047.62545  23435648.278    23435648.4504   23435651.3204
       155.0004        157.0004
 -15139177.26349 -11773475.82247  21547660.294    21547660.4244   21547668.3914
       197.0004        198.0004
 -13085113.42348 -10181123.15846  22312427.263    22312426.2934   22312432.2874
       177.0004        177.0004
 -20495646.34049 -15956901.03047  20796154.180    20796154.7754   20796163.2874
       198.0004        198.0004
  -4752403.76848  -3687169.04046  23776609.879    23776610.4494   23776619.4554
       177.0004        177.0004
  -3359673.40447  -2592230.78445  24216471.238    24216469.8774   24216475.7434
       147.0004        150.0004
  -8458259.49448  -6562957.06746  22683253.786    22683253.3044   22683260.6114
       182.0004        182.0004
 -22816648.06349 -17758230.50948  20231227.003    20231227.5454   20231231.8214
       213.0004        214.0004
 -13519469.16248 -10514452.01047  22096949.562    22096950.8214   22096954.8744
       188.0004        188.0004
   1386327.78947   1106512.98845  24682916.799    24682918.4144   24682924.4854
       139.0004        143.0004
 21  2  4  0 48 30.0000000  0 11G14G28G30G21G01G08G19G09G07G17G04
  -3808802.72748  -2958901.42146  22952544.901    22952544.6684   22952550.1434
       169.0004        170.0004
  -1788778.90947  -1269308.76545  23432166.025    23432165.5034   23432168.2704
       155.0004        157.0004
 -15214019.59649 -11831794.52547  21533418.689    21533418.4274   21533425.6464
       197.0004        198.0004
 -13030814.53348 -10138812.33246  22322760.184    22322758.8454   22322765.3184
       177.0004        177.0004
 -20512421.51149 -15969972.58847  20792962.425    20792963.2764   20792971.0534
       198.0004        199.0004
  -4658525.66048  -3614017.26046  23794475.304    23794476.0804   23794483.9504
       177.0004        178.0004
  -3442767.86847  -2656979.69545  24200659.031    24200658.6304   24200661.5404
       148.0004        153.0004
  -8379427.56448  -6501529.61546  22698253.642    22698254.1994   22698261.5354
       181.0004        181.0004
 -22846682.81849 -17781634.23148  20225511.522    20225512.1114   20225516.4574
       213.0004        214.0004
 -13565593.24648 -10550392.85247  22088173.221    22088173.3394   22088178.1144
       189.0004        189.0004
   1479700.63447   1179270.96045  24700684.922    24700685.9404   24700691.8434
       139.0004        144.0004
 21  2  4  0 49  0.0000000  0 11G14G28G30G21G01G08G19G09G07G17G04
  -3837932.93248  -2981600.26446  22947000.848    22947002.1614   22947006.4724
       170.0004        172.0004
  -1807170.11647  -1283639.56445  23428665.458    23428665.6144   23428670.7794
       155.0004        158.0004
 -15288597.60749 -11889907.24847  21519226.124    21519226.8954   21519234.1074
       198.0004        198.0004
 -12976064.94248 -10096150.30846  22333177.879    22333178.0024   22333183.3204
       176.0004        177.0004
 -20528623.21049 -15982597.26547  20789879.892    20789880.4094   20789887.7724
       199.0004        199.0004
  -4564700.45648  -3540906.73446  23812330.575    23812330.7424   23812337.7384
       176.0004        177.0004
  -3525602.02047  -2721525.75945  24184897.056    24184895.3634   24184899.6714
       151.0004        154.0004
  -8300505.58748  -6440031.96746  22713271.770    22713272.4584   22713280.5674
       180.0004        181.0004
 -22876233.90249 -17804661.05148  20219888.420    20219888.9434   20219892.8434
       213.0004        214.0004
 -13611299.15148 -10586007.81947  22079475.405    22079476.2634   22079480.4224
       189.0004        189.0004
   1572918.58447   1251908.26745  24718423.365    24718424.9014   24718432.0444
       138.0004        142.0004
 21  2  4  0 49 30.0000000  0 11G14G28G30G21G01G08G19G09G07G17G04
  -3867130.42948  -3004351.53546  22941446.478    22941446.4344   22941451.0244
       172.0004        173.0004
  -1825652.36547  -1298041.29945  23425148.229    23425148.2244   23425152.3304
       156.0004        158.0004
 -15362909.20049 -11947812.38247  21505086.476    21505086.2284   21505093.3164
       198.0004        199.0004
 -12920866.25248 -10053138.33146  22343682.347    22343681.3794   22343686.5724
       176.0004        176.0004
 -20544250.49249 -15994774.34347  20786906.105    20786906.7454   20786914.4044
       199.0004        199.0004
  -4470931.17848  -3467839.77146  23830174.672    23830173.8864   23830181.6604
       176.0004        177.0004
  -3608174.91347  -2785868.22845  24169181.838    24169181.5314   24169186.3734
       152.0004        155.0004
  -8221497.13848  -6378466.94446  22728307.152    22728307.5764   22728315.2014
       179.0004        179.0004
 -22905300.08049 -17827310.02548  20214357.483    20214357.9824   20214362.0774
       213.0004        215.0004
 -13656587.59048 -10621297.49147  22070858.047    22070858.1794   22070862.5384
       189.0004        190.0004
   1665978.81247   1324422.62045  24736134.670    24736133.9534   24736142.6914
       138.0004        143.0004
 21  2  4  0 50  0.0000000  0 10G14G28G30G21G01G08G19G09G07G17
  -3896392.43948  -3027153.10246  22935876.032    22935876.9714   22935882.1964
       171.0004        170.0004
  -1844223.48747  -1312512.31145  23421614.775    23421614.7714   23421617.7654
       156.0004        158.0004
 -15436948.46549 -12005505.30447  21490997.297    21490997.1014   21491004.2404
       199.0004        200.0004
 -12865216.84448 -10009775.14146  22354271.764    22354271.1594   22354276.7304
       175.0004        176.0004
 -20559298.66949 -16006500.18147  20784042.236    20784042.9814   20784050.5494
       199.0004        200.0004
  -4377215.93548  -3394814.93746  23848006.736    23848006.5174   23848014.5014
       173.0004        173.0004
  -3690482.21647  -2850003.72845  24153521.044    24153519.9164   24153524.5704
       155.0004        158.0004
  -8142401.91948  -6316834.31546  22743360.211    22743360.1314   22743365.7404
       180.0004        181.0004
 -22933876.01149 -17849576.98348  20208919.016    20208919.6294   20208924.5564
       213.0004        215.0004
 -13701455.14548 -10656259.20947  22062319.292    22062319.7374   22062324.9504
       190.0004        191.0004
 21  2  4  0 50 30.0000000  0 10G14G28G30G21G01G08G19G09G07G17
  -3925723.29048  -3050008.31346  22930295.546    22930295.5904   22930299.4764
       170.0004        171.0004
  -1862888.27747  -1327056.26645  23418062.910    23418062.1204   23418067.5784
       155.0004        157.0004
 -15510716.55649 -12062986.92547  21476959.021    21476958.7954   21476966.2054
       199.0004        200.0004
 -12809122.14548  -9966064.98346  22364947.333    22364946.9124   22364950.7364
       175.0004        176.0004
 -20573770.16549 -16017776.65947  20781288.057    20781288.8894   20781297.2864
       200.0004        200.0004
  -4283561.00448  -3321837.09146  23865829.210    23865829.1374   23865837.2524
       173.0004        174.0004
  -3772526.49847  -2913934.27745  24137907.145    24137906.2824   24137911.5004
       155.0004        157.0004
  -8063226.75248  -6255139.39346  22758424.869    22758425.4914   22758432.7064
       179.0004        180.0004
 -22961963.81749 -17871463.59848  20203575.023    20203575.4724   20203579.2974
       214.0004        215.0004
 -13745905.59848 -10690895.91847  22053860.444    22053861.4784   22053866.2594
       190.0004        191.0004
 21  2  4  0 51  0.0000000  0 10G14G28G30G21G01G08G19G09G07G17
  -3955122.06648  -3072916.44946  22924701.992    22924701.7074   22924706.1294
       171.0004        172.0004
  -1881646.38847  -1341672.93645  23414492.304    23414492.9144   23414497.7234
       156.0004        159.0004
 -15584209.36049 -12120254.04147  21462973.550    21462973.9044   21462980.7864
       199.0004        199.0004
 -12752582.26348  -9922007.92646  22375704.908    22375705.2424   22375709.3544
       176.0004        176.0004
 -20587662.12149 -16028601.54347  20778644.840    20778645.3394   20778653.3124
       199.0004        199.0004
  -4189966.77748  -3248906.55746  23883639.886    23883639.7944   23883647.6614
       173.0004        175.0004
  -3854305.33147  -2977658.00845  24122344.681    24122344.7144   24122350.1874
       155.0004        157.0004
  -7983973.10948  -6193383.32346  22773505.088    22773506.7744   22773514.4554
       179.0004        179.0004
 -22989559.42949 -17892966.67648  20198323.347    20198323.7664   20198327.9994
       214.0004        215.0004
 -13789937.64948 -10725206.57947  22045481.694    22045482.2804   22045486.9564
       190.0004        191.0004
 21  2  4  0 51 30.0000000  0 10G14G28G30G21G01G08G19G09G07G17
  -3984589.32548  -3095877.93646  22919092.804    22919093.9584   22919097.8794
       170.0004        170.0004
  -1900498.77347  -1356363.09345  23410905.438    23410905.1304   23410909.0824
       157.0004        160.0004
 -15657424.25249 -12177304.61747  21449041.698    21449041.8044   21449048.6244
       200.0004        200.0004
 -12695598.53648  -9877605.01746  22386548.852    22386549.1364   22386553.1004
       175.0004        175.0004
 -20600973.25249 -16038973.84847  20776111.603    20776112.3134   20776120.2954
       199.0004        200.0004
  -4096435.64748  -3176025.17746  23901438.861    23901439.2964   23901445.4054
       176.0004        178.0004
  -3935817.17447  -3041173.66545  24106833.231    24106832.8474   24106839.0294
       154.0004        156.0004
  -7904644.05448  -6131568.47846  22788601.810    22788601.8864   22788610.6294
       177.0004        177.0004
 -23016661.21549 -17914084.96148  20193165.810    20193166.4724   20193170.6764
       214.0004        215.0004
 -13833551.45348 -10759191.35247  22037182.239    22037182.7884   22037187.8064
       191.0004        192.0004
 21  2  4  0 52  0.0000000  0 10G14G28G30G21G01G08G19G09G07G17
  -4014125.49948  -3118893.11946  22913472.496    22913472.9134   22913478.7484
       170.0004        171.0004
  -1919446.24147  -1371127.33445  23407300.977    23407299.7954   23407304.5564
       157.0004        160.0004
 -15730358.64049 -12234136.59647  21435162.788    21435162.8274   21435170.0794
       200.0004        201.0004
 -12638172.77748  -9832857.65446  22397477.584    22397476.5574   22397481.6434
       175.0004        175.0004
 -20613702.29149 -16048892.54747  20773690.035    20773690.1354   20773698.1374
       199.0004        200.0004
  -4002969.15448  -3103194.16946  23919223.904    23919224.1334   23919233.1144
       177.0004        177.0004
  -4017061.15947  -3104480.66045  24091374.114    24091374.0194   24091378.7454
       155.0004        158.0004
  -7825242.51648  -6069697.14446  22803712.100    22803711.6764   22803720.4934
       176.0004        178.0004
 -23043267.30949 -17934816.98048  20188103.164    20188103.7134   20188107.7414
       214.0004        215.0004
 -13876747.20048 -10792850.34447  22028961.985    22028963.0624   22028967.6834
       191.0004        191.0004
 21  2  4  0 52 30.0000000  0 10G14G28G30G21G01G08G19G09G07G17
  -4043731.61848  -3141962.82346  22907839.037    22907838.8674   22907844.5094
       170.0004        170.0004
  -1938490.61547  -1385967.07245  23403675.030    23403674.5724   23403679.9174
       156.0004        156.0004
 -15803010.39049 -12290748.35147  21421338.043    21421337.4414   21421344.6394
       200.0004        201.0004
 -12580306.96648  -9787767.39946  22408489.409    22408488.9724   22408492.5484
       174.0004        175.0004
 -20625848.41149 -16058357.04547  20771378.044    20771378.8454   20771386.7144
       199.0004        200.0004
  -3909569.77048  -3030415.41846  23936998.014    23936997.5514   23937004.5144
       175.0004        175.0004
  -4098036.49347  -3167578.30045  24075964.665    24075964.5904   24075969.0914
       156.0004        158.0004
  -7745772.01748  -6007772.10946  22818835.347    22818835.0094   22818842.9684
       177.0004        178.0004
 -23069376.10449 -17955161.50948  20183134.712    20183135.1144   20183139.7454
       214.0004        215.0004
 -13919525.35448 -10826183.97747  22020822.581    22020822.9754   22020827.1584
       191.0004        192.0004
 21  2  4  0 53  0.0000000  0 10G14G28G30G21G01G08G19G09G07G17
  -4073408.10248  -3165087.34146  22902191.155    22902192.7314   22902197.9724
       169.0004        170.0004
  -1957632.75047  -1400883.00445  23400033.449    23400033.8444   23400037.8704
       156.0004        159.0004
 -15875376.69649 -12347137.67247  21407566.538    21407566.8314   21407573.8074
       201.0004        201.0004
 -12522002.64448  -9742335.44646  22419582.979    22419583.0444   22419587.1834
       174.0004        173.0004
 -20637410.26649 -16067366.26547  20769178.477    20769178.8444   20769186.5004
       200.0004        200.0004
  -3816239.44648  -2957690.49546  23954758.525    23954758.4494   23954765.5474
       175.0004        176.0004
  -4178741.90147  -3230465.56245  24060607.507    24060606.5234   24060611.7874
       156.0004        159.0004
  -7666235.41348  -5945795.51946  22833970.270    22833970.7204   22833977.7504
       177.0004        177.0004
 -23094985.73249 -17975117.06348  20178261.299    20178262.0994   20178266.0614
       214.0004        216.0004
 -13961885.92448 -10859192.19047  22012761.367    22012761.0094   22012766.8494
       191.0004        191.0004
 21  2  4  0 53 30.0000000  0 10G14G28G30G21G01G08G19G09G07G17
  -4103154.08548  -3188266.03446  22896531.324    22896531.8144   22896536.0294
       169.0004        170.0004
  -1976872.43747  -1415874.95245  23396371.626    23396371.3064   23396376.0914
       155.0004        158.0004
 -15947453.73249 -12403301.58047  21393851.289    21393850.7584   21393857.8884
       201.0004        201.0004
 -12463260.41148  -9696562.24646  22430763.027    22430762.1574   22430765.5304
       174.0004        174.0004
 -20648385.41349 -16075918.29747  20767088.994    20767090.1974   20767098.3914
       200.0004        200.0004
  -3722979.06248  -2885020.08046  23972503.491    23972504.9684   23972511.7694
       175.0004        175.0004
  -4259175.08147  -3293140.71745  24045301.436    24045300.6624   24045305.6234
       157.0004        160.0004
  -7586634.40548  -5883768.74946  22849117.390    22849117.6504   22849125.2814
       176.0004        177.0004
 -23120092.82649 -17994681.03148  20173483.852    20173484.1054   20173488.3604
       214.0004        216.0004
 -14003828.13448 -10891874.42347  22004779.579    22004780.1414   22004784.6654
       190.0004        191.0004
 21  2  4  0 54  0.0000000  0 10G14G28G30G21G01G08G19G09G07G17
  -4132970.46848  -3211499.56746  22890857.844    22890857.6544   22890863.1344
       170.0004        171.0004
  -1996210.88147  -1430943.84045  23392692.245    23392691.9794   23392697.0434
       156.0004        160.0004
 -16019239.23349 -12459238.34947  21380190.792    21380191.2434   21380197.6194
       201.0004        202.0004
 -12404081.84748  -9650449.08446  22442024.080    22442023.3744   22442027.1164
       174.0004        173.0004
 -20658773.02149 -16084012.53447  20765113.426    20765114.0354   20765121.4764
       200.0004        201.0004
  -3629790.30348  -2812405.46846  23990238.741    23990237.9984   23990245.3264
       172.0004        171.0004
  -4339335.22147  -3355603.11445  24030046.830    24030046.6094   24030051.9214
       157.0004        158.0004
  -7506972.33848  -5821694.42346  22864277.686    22864277.9024   22864284.6204
       177.0004        177.0004
 -23144696.37249 -18013852.63748  20168801.444    20168802.1784   20168806.6824
       214.0004        216.0004
 -14045352.46748 -10924231.03247  21996877.946    21996878.5034   21996882.9144
       190.0004        190.0004
 21  2  4  0 54 30.0000000  0 10G14G28G30G21G01G08G19G09G07G17
  -4162858.26048  -3234788.73646  22885168.925    22885169.2794   22885175.0174
       170.0004        169.0004
  -2015649.40847  -1446090.73045  23388993.349    23388992.5744   23388997.1154
       157.0004        159.0004
 -16090731.11949 -12514946.30647  21366586.770    21366586.3294   21366592.7534
       201.0004        201.0004
 -12344469.17948  -9603997.64546  22453366.656    22453366.7534   22453370.5174
       173.0004        173.0004
 -20668572.50249 -16091648.45547  20763248.719    20763248.8704   20763256.7004
       200.0004        200.0004
  -3536676.48548  -2739849.27146  24007958.868    24007958.4374   24007964.5434
       173.0004        174.0004
  -4419221.90547  -3417852.45945  24014845.466    24014844.7244   24014849.0274
       156.0004        159.0004
  -7427252.75548  -5759575.25346  22879447.166    22879447.3204   22879455.1824
       177.0004        179.0004
 -23168794.80949 -18032630.64448  20164216.197    20164216.6734   20164220.8744
       215.0004        216.0004
 -14086459.20448 -10956262.23347  21989054.661    21989055.7514   21989060.1294
       189.0004        189.0004
 21  2  4  0 55  0.0000000  0 10G14G28G30G21G01G08G19G09G07G17
  -4192817.21148  -3258133.37946  22879468.509    22879469.4854   22879473.7804
       169.0004        170.0004
  -2035188.35047  -1461315.85245  23385274.308    23385272.8374   23385278.9274
       155.0004        155.0004
 -16161926.08349 -12570422.89347  21353037.638    21353037.7684   21353045.5544
       201.0004        201.0004
 -12284423.45648  -9557208.77146  22464793.521    22464793.4094   22464797.3524
       173.0004        174.0004
 -20677782.05049 -16098824.71747  20761495.238    20761496.4224   20761504.0174
       200.0004        200.0004
  -3443638.19548  -2667351.88946  24025660.801    24025660.6324   24025668.6654
       171.0004        170.0004
  -4498833.51647  -3479887.45445  23999695.806    23999695.5694   23999699.3534
       157.0004        159.0004
  -7347477.90248  -5697413.04646  22894628.510    22894628.5514   22894636.0944
       178.0004        178.0004
 -23192385.41949 -18051012.94548  20159726.734    20159727.1844   20159731.3344
       214.0004        215.0004
 -14127148.40048 -10987968.08647  21981312.655    21981312.6444   21981317.0494
       189.0004        189.0004
 21  2  4  0 55 30.0000000  0 10G14G28G30G21G01G08G19G09G07G17
  -4222847.79148  -3281533.81646  22873754.584    22873755.6294   22873759.0144
       170.0004        171.0004
  -2054829.04347  -1476620.27645  23381537.766    23381537.1864   23381541.6394
       154.0004        158.0004
 -16232821.61049 -12625666.15047  21339547.019    21339547.2224   21339554.3254
       201.0004        202.0004
 -12223946.56548  -9510083.88946  22476302.449    22476302.3484   22476305.6914
       173.0004        174.0004
 -20686400.61949 -16105540.46547  20759855.729    20759856.6264   20759863.6514
       200.0004        201.0004
  -3350677.65148  -2594915.10446  24043348.281    24043349.9534   24043359.9114
       172.0004        175.0004
  -4578168.61047  -3541706.95645  23984599.405    23984597.9784   23984601.2854
       155.0004        157.0004
  -7267650.81748  -5635210.13046  22909818.249    22909818.2754   22909825.9204
       176.0004        176.0004
 -23215466.55549 -18068998.25148  20155334.780    20155335.1224   20155339.0874
       214.0004        216.0004
 -14167420.52648 -11019348.94147  21973649.288    21973649.2634   21973654.4644
       190.0004        191.0004
 21  2  4  0 56  0.0000000  0 10G14G28G30G21G01G08G19G09G07G17
  -4252949.28548  -3304989.51546  22868026.530    22868026.9274   22868031.0294
       170.0004        170.0004
  -2074571.04947  -1492003.66845  23377780.816    23377779.9284   23377785.0924
       157.0004        160.0004
 -16303413.84549 -12680673.08547  21326113.401    21326113.9254   21326121.2504
       201.0004        202.0004
 -12163039.10248  -9462623.52746  22487892.674    22487891.8484   22487895.6664
       173.0004        174.0004
 -20694425.98149 -16111793.97747  20758328.520    20758328.7894   20758336.8444
       200.0004        200.0004
  -3257795.52648  -2522539.42946  24061023.044    24061023.6574   24061034.7984
       173.0004        173.0004
  -4657225.39947  -3603309.62845  23969553.915    23969552.8964   23969556.1934
       153.0004        155.0004
  -7187773.22648  -5572967.85146  22925017.615    22925018.6574   22925025.5634
       175.0004        174.0004
 -23238035.46049 -18086584.41948  20151040.006    20151040.4244   20151044.6854
       215.0004        216.0004
 -14207274.46648 -11050403.94647  21966065.300    21966065.7314   21966069.9634
       191.0004        191.0004
 21  2  4  0 56 30.0000000  0 10G14G28G30G21G01G08G19G09G07G17
  -4283122.60148  -3328501.17446  22862283.226    22862284.5984   22862289.5914
       168.0004        169.0004
  -2094415.75647  -1507467.04145  23374002.957    23374002.7334   23374006.7974
       156.0004        158.0004
 -16373700.63449 -12735442.00147  21312739.026    21312738.6264   21312746.0884
       201.0004        202.0004
 -12101703.18048  -9414829.29346  22499563.278    22499563.5314   22499567.8054
       173.0004        174.0004
 -20701857.48349 -16117584.73347  20756914.569    20756914.9124   20756922.0524
       200.0004        200.0004
  -3164994.30048  -2450226.82246  24078683.651    24078684.4684   24078693.7034
       171.0004        172.0004
  -4736002.78247  -3664694.55645  23954564.600    23954563.7404   23954566.9374
       157.0004        161.0004
  -7107848.55148  -5510688.88746  22940228.055    22940228.2634   22940235.9704
       174.0004        175.0004
 -23260090.87849 -18103770.46448  20146842.790    20146843.4264   20146847.6184
       215.0004        216.0004
 -14246710.94648 -11081133.66247  21958560.897    21958561.2394   21958565.7274
       192.0004        192.0004
 21  2  4  0 57  0.0000000  0 10G14G28G30G21G01G08G19G09G07G17
  -4313367.90548  -3352068.91846  22856528.612    22856528.8924   22856535.4654
       171.0004        173.0004
  -2114363.93547  -1523011.05245  23370208.408    23370207.9184   23370212.1614
       156.0004        158.0004
 -16443679.21049 -12789970.74147  21299421.962    21299422.1464   21299429.2564
       201.0004        201.0004
 -12039940.33048  -9366702.37546  22511316.043    22511315.6784   22511320.7134
       172.0004        174.0004
 -20708694.02749 -16122911.88847  20755613.663    20755613.8704   20755621.2354
       200.0004        200.0004
  -3072275.73648  -2377978.56246  24096328.411    24096328.9664   24096336.9324
       172.0004        174.0004
  -4814499.75847  -3725860.95545  23939625.198    23939624.7024   23939629.6964
       157.0004        158.0004
  -7027879.53548  -5448375.36646  22955445.555    22955446.0554   22955452.8824
       175.0004        176.0004
 -23281630.52949 -18120554.60148  20142744.062    20142744.4244   20142749.0564
       215.0004        216.0004
 -14285730.12848 -11111538.18147  21951135.226    21951135.6234   21951140.7664
       191.0004        191.0004
 21  2  4  0 57 30.0000000  0 10G14G28G30G21G01G08G19G09G07G17
  -4343686.75848  -3375693.98946  22850759.737    22850760.2714   22850765.1374
       172.0004        172.0004
  -2134417.51347  -1538637.20645  23366392.306    23366392.4214   23366396.2434
       156.0004        159.0004
 -16513348.07249 -12844258.17647  21286164.642    21286164.5744   21286171.8854
       202.0004        202.0004
 -11977753.51948  -9318245.11446  22523151.594    22523150.4784   22523155.1014
       173.0004        174.0004
 -20714935.74349 -16127775.55347  20754425.170    20754425.8854   20754433.7314
       200.0004        199.0004
  -2979642.45648  -2305796.80946  24113956.681    24113956.4834   24113965.1054
       172.0004        173.0004
  -4892716.57947  -3786809.11945  23924741.345    23924741.8584   23924745.5654
       158.0004        161.0004
  -6947870.21848  -5386030.45146  22970669.137    22970670.0704   22970678.4664
       173.0004        173.0004
 -23302653.96849 -18136936.51348  20138743.203    20138743.7864   20138748.2694
       215.0004        216.0004
 -14324333.28048 -11141618.56447  21943788.845    21943789.3134   21943794.5034
       190.0004        189.0004
 21  2  4  0 58  0.0000000  0 10G14G28G30G21G01G08G19G09G07G17
  -4374078.48648  -3399375.83646  22844976.256    22844977.0234   22844980.7284
       171.0004        171.0004
  -2154576.39747  -1554345.39245  23362556.023    23362556.8324   23362560.6944
       157.0004        159.0004
 -16582703.60049 -12898301.43647  21272966.317    21272966.6914   21272973.7434
       202.0004        202.0004
 -11915143.64348  -9269458.19446  22535065.062    22535064.7334   22535069.3564
       173.0004        175.0004
 -20720580.58449 -16132174.11447  20753351.445    20753352.1024   20753359.3684
       199.0004        200.0004
  -2887095.55348  -2233682.34146  24131569.470    24131569.0534   24131576.4294
       175.0004        178.0004
  -4970651.16647  -3847537.32645  23909911.212    23909910.2274   23909914.7404
       158.0004        159.0004
  -6867822.50948  -5323655.60746  22985902.412    22985902.7494   22985910.9844
       172.0004        175.0004
 -23323158.53049 -18152914.10148  20134841.148    20134842.0124   20134846.2094
       215.0004        216.0004
 -14362519.76548 -11171374.24247  21936522.315    21936523.1184   21936527.4184
       190.0004        190.0004
 21  2  4  0 58 30.0000000  0 10G14G28G30G21G01G08G19G09G07G17
  -4404544.15148  -3423115.30146  22839177.259    22839177.7994   22839183.3664
       169.0004        169.0004
  -2174842.36947  -1570137.04745  23358699.437    23358698.5374   23358702.3854
       155.0004        156.0004
 -16651743.80049 -12952098.98647  21259828.891    21259828.8104   21259836.0714
       202.0004        203.0004
 -11852112.99348  -9220343.38646  22547058.415    22547058.7834   22547064.0164
       174.0004        175.0004
 -20725628.31849 -16136107.39947  20752390.731    20752391.2434   20752398.9684
       200.0004        200.0004
  -2794637.15348  -2161636.87146  24149160.109    24149161.7784   24149170.4474
       174.0004        174.0004
  -5048303.26747  -3908045.41845  23895135.600    23895134.2124   23895138.9924
       159.0004        162.0004
  -6787739.97248  -5261253.63846  23001142.322    23001142.9144   23001149.2584
       173.0004        174.0004
 -23343143.12949 -18168486.51348  20131038.965    20131039.0764   20131043.4084
       215.0004        216.0004
 -14400290.83848 -11200806.21847  21929335.650    21929335.3074   21929339.9944
       190.0004        190.0004
 21  2  4  0 59  0.0000000  0 10G14G28G30G21G01G08G19G09G07G17
  -4435082.69548  -3446911.55846  22833367.669    22833368.8794   22833372.2344
       169.0004        171.0004
  -2195214.74147  -1586011.60845  23354822.440    23354822.9074   23354826.2474
       155.0004        158.0004
 -16720464.66949 -13005647.71047  21246751.182    21246751.4734   21246759.0004
       202.0004        203.0004
 -11788661.77648  -9170900.87846  22559133.447    22559133.7844   22559138.6254
       174.0004        175.0004
 -20730076.65949 -16139573.62847  20751544.784    20751544.7344   20751552.1684
       200.0004        200.0004
  -2702267.81648  -2089660.77646  24166737.838    24166738.8234   24166748.2264
       174.0004        176.0004
  -5125670.28747  -3968331.36645  23880412.579    23880412.5014   23880415.6114
       160.0004        162.0004
  -6707624.04748  -5198825.66046  23016389.179    23016388.6894   23016394.5324
       172.0004        172.0004
 -23362604.66449 -18183651.34648  20127334.994    20127335.8704   20127340.1134
       215.0004        217.0004
 -14437645.27648 -11229913.53947  21922227.197    21922227.6914   21922231.1904
       190.0004        191.0004
 21  2  4  0 59 30.0000000  0 10G14G28G30G21G01G08G19G09G07G17
  -4465695.16348  -3470765.43346  22827542.881    22827543.2144   22827546.9144
       171.0004        171.0004
  -2215695.00147  -1601970.24445  23350924.743    23350925.2774   23350929.1704
       153.0004        156.0004
 -16788864.38049 -13058946.18547  21233736.127    21233735.6494   21233742.8114
       203.0004        203.0004
 -11724792.40048  -9121132.54846  22571287.195    22571287.1754   22571292.2084
       174.0004        175.0004
 -20733925.42449 -16142572.65947  20750811.745    20750812.5944   20750819.9074
       200.0004        200.0004
  -2609990.12748  -2017756.11446  24184299.898    24184299.4654   24184308.0074
       173.0004        174.0004
  -5202751.79947  -4028394.86845  23865744.168    23865744.1354   23865748.4894
       160.0004        161.0004
  -6627478.47048  -5136374.54446  23031638.684    23031639.3594   23031646.2794
       171.0004        171.0004
 -23381542.16849 -18198407.86348  20123731.526    20123731.9994   20123735.9244
       215.0004        216.0004
 -14474584.28948 -11258697.16847  21915197.423    21915198.0784   21915202.4204
       190.0004        191.0004
 21  2  4  1  0  0.0000000  0 10G14G28G30G21G01G08G19G09G07G17
  -4496382.69148  -3494677.76446  22821700.780    22821701.8594   22821707.1374
       169.0004        168.0004
  -2236284.73247  -1618014.18145  23347007.639    23347007.8304   23347011.6644
       154.0004        157.0004
 -16856941.02849 -13111992.92547  21220781.064    21220781.0324   21220788.3634
       203.0004        203.0004
 -11660507.72648  -9071040.57546  22583521.359    22583520.4474   22583525.3044
       175.0004        176.0004
 -20737174.54049 -16145104.42547  20750192.982    20750194.1074   20750201.8174
       200.0004        200.0004
  -2517806.62548  -1945924.79846  24201842.966    24201842.0194   24201849.8974
       172.0004        172.0004
  -5279547.79547  -4088235.84846  23851131.361    23851130.5754   23851134.4784
       160.0004        163.0004
  -6547306.78948  -5073903.09846  23046896.095    23046896.0374   23046902.3224
       172.0004        174.0004
 -23399954.96749 -18212755.50248  20120227.611    20120228.0044   20120232.4024
       215.0004        216.0004
 -14511108.94748 -11287157.92047  21908247.149    21908247.1444   21908251.8544
       191.0004        191.0004
 21  2  4  1  0 30.0000000  0 10G14G28G30G21G01G08G19G09G07G17
  -4527144.69948  -3518648.13346  22815847.933    22815849.0924   22815853.6664
       169.0004        170.0004
  -2256983.87547  -1634143.34945  23343068.286    23343067.5164   23343072.0984
       155.0004        158.0004
 -16924691.16149 -13164785.21247  21207888.898    21207888.6604   21207896.0624
       203.0004        204.0004
 -11595808.65248  -9020625.69446  22595832.040    22595831.4744   22595837.2284
       175.0004        176.0004
 -20739822.24449 -16147167.54147  20749689.446    20749690.3484   20749698.1344
       200.0004        200.0004
  -2425718.37848  -1874167.72946  24219364.696    24219366.1234   24219373.8294
       173.0004        175.0004
  -5356056.51847  -4147852.96345  23836570.416    23836570.0524   23836576.0834
       160.0004        161.0004
  -6467110.97648  -5011412.85346  23062155.340    23062156.9574   23062164.6304
       173.0004        175.0004
 -23417840.29449 -18226692.10848  20116824.268    20116824.7994   20116829.1854
       215.0004        217.0004
 -14547219.07848 -11315295.66147  21901376.153    21901376.5294   21901380.6964
       191.0004        192.0004
 21  2  4  1  1  0.0000000  0 11G14G28G30G21G01G08G19G09G07G17G03
  -4557980.85648  -3542676.30946  22809981.449    22809981.9214   22809986.8274
       170.0004        172.0004
  -2277792.89047  -1650358.14745  23339107.660    23339107.6404   23339112.7924
       155.0004        158.0004
 -16992111.54649 -13217320.58547  21195058.924    21195059.1614   21195065.9834
       203.0004        204.0004
 -11530696.35348  -8969888.84546  22608223.640    22608222.9474   22608228.6814
       175.0004        176.0004
 -20741867.22949 -16148761.03747  20749300.501    20749301.4324   20749308.5194
       200.0004        200.0004
  -2333726.22348  -1802485.56246  24236868.766    24236870.3504   24236879.9454
       174.0004        174.0004
  -5432276.21147  -4207244.89345  23822066.355    23822066.0794   23822070.6704
       158.0004        160.0004
  -6386893.33948  -4948905.62546  23077421.192    23077421.2154   23077428.7594
       173.0004        173.0004
 -23435196.11549 -18240216.14548  20113521.740    20113521.8584   20113526.3074
       215.0004        216.0004
 -14582914.28848 -11343110.08747  21894582.785    21894583.5364   21894588.3204
       191.0004        192.0004
   1670627.69454   1328045.12145                                  24737027.1504
        74.0004        161.0004
 21  2  4  1  1 30.0000000  0 10G14G28G30G21G01G08G19G09G07G17
  -4588891.01748  -3566762.11246  22804099.024    22804099.0384   22804104.6104
       171.0004        172.0004
  -2298711.74847  -1666658.53245  23335127.656    23335127.8244   23335132.8024
       155.0004        157.0004
 -17059199.05149 -13269596.56647  21182292.795    21182292.9664   21182299.9584
       204.0004        204.0004
 -11465172.52048  -8918831.31246  22620690.496    22620690.8894   22620696.6574
       175.0004        176.0004
 -20743308.15249 -16149883.81547  20749026.125    20749027.1654   20749034.3734
       200.0004        200.0004
  -2241831.50648  -1730879.32046  24254359.031    24254358.1774   24254365.6254
       172.0004        173.0004
  -5508205.64647  -4266410.63846  23807619.077    23807618.2384   23807622.8524
       160.0004        163.0004
  -6306656.15548  -4886383.14846  23092689.833    23092689.5064   23092697.2404
       171.0004        171.0004
 -23452020.31049 -18253325.91548  20110319.400    20110320.1544   20110324.8714
       215.0004        217.0004
 -14618194.60748 -11370601.23047  21887869.163    21887869.5004   21887873.6544
       191.0004        190.0004
 21  2  4  1  2  0.0000000  0 10G14G28G30G21G01G08G19G09G07G17
  -4619876.88048  -3590906.91446  22798202.529    22798202.9464   22798207.8504
       171.0004        171.0004
  -2319743.11747  -1683046.59445  23331124.583    23331125.0334   23331128.8964
       154.0004        156.0004
 -17125952.63049 -13321612.33347  21169589.922    21169590.1704   21169597.2564
       204.0004        205.0004
 -11399240.15248  -8867455.43546  22633237.661    22633236.8544   22633243.0824
       175.0004        176.0004
 -20744145.82849 -16150536.53747  20748866.775    20748867.4424   20748874.9524
       200.0004        200.0004
  -2150037.13348  -1659351.24646  24271825.119    24271825.8004   24271833.8124
       173.0004        173.0004
  -5583845.31847  -4325350.59646  23793225.499    23793224.4904   23793227.7164
       160.0004        163.0004
  -6226403.84948  -4823848.88546  23107961.598    23107961.1544   23107969.2454
       171.0004        172.0004
 -23468312.87549 -18266021.42548  20107219.997    20107220.4314   20107224.6544
       216.0004        217.0004
 -14653061.98748 -11397770.59547  21881233.801    21881234.1104   21881239.2514
       190.0004        191.0004
 21  2  4  1  2 30.0000000  0 10G14G28G30G21G01G08G19G09G07G17
  -4650937.74048  -3615110.18446  22792290.937    22792291.7404   22792296.3884
       169.0004        170.0004
  -2340886.59547  -1699522.03545  23327101.275    23327100.7614   23327105.8054
       153.0004        155.0004
 -17192368.60549 -13373365.03247  21156951.924    21156951.7964   21156958.6044
       205.0004        205.0004
 -11332900.33748  -8815762.06046  22645862.212    22645861.6174   22645867.3514
       175.0004        176.0004
 -20744378.46749 -16150717.79947  20748823.291    20748823.6734   20748831.0324
       200.0004        201.0004
  -2058344.50748  -1587902.49346  24289273.228    24289274.0554   24289282.9614
       171.0004        172.0004
  -5659193.08847  -4384063.10945  23778885.130    23778885.0144   23778889.5334
       160.0004        161.0004
  -6146138.18948  -4761304.24146  23123235.692    23123236.0734   23123242.3544
       170.0004        171.0004
 -23484071.15349 -18278300.60648  20104220.865    20104221.4504   20104225.6854
       216.0004        217.0004
 -14687516.19648 -11424618.01647  21874677.714    21874678.7334   21874682.6714
       191.0004        192.0004
 21  2  4  1  3  0.0000000  0 10G14G28G30G21G01G08G19G09G07G17
  -4682073.35648  -3639371.69346  22786366.130    22786366.4944   22786371.5224
       169.0004        169.0004
  -2362142.59047  -1716085.11445  23323057.687    23323057.2944   23323061.3484
       154.0004        158.0004
 -17258443.90249 -13424852.27847  21144378.166    21144378.0504   21144384.6864
       205.0004        205.0004
 -11266154.13648  -8763752.03546  22658564.197    22658562.8474   22658568.5824
       176.0004        176.0004
 -20744004.96449 -16150426.73847  20748894.034    20748894.5954   20748902.2104
       200.0004        200.0004
  -1966754.46748  -1516533.64146  24306703.394    24306702.9924   24306711.8774
       171.0004        172.0004
  -5734247.71247  -4442547.20645  23764603.128    23764602.8034   23764606.2374
       160.0004        162.0004
  -6065861.51148  -4698750.97846  23138510.724    23138511.1154   23138517.5584
       169.0004        169.0004
 -23499293.24849 -18290161.98548  20101324.033    20101324.7874   20101329.2494
       216.0004        217.0004
 -14721556.72848 -11451143.08947  21868199.621    21868200.1024   21868205.5094
       191.0004        191.0004
 21  2  4  1  3 30.0000000  0 10G14G28G30G21G01G08G19G09G07G17
  -4713285.10948  -3663692.52346  22780427.720    22780427.5964   22780432.3424
       169.0004        170.0004
  -2383512.75947  -1732737.18145  23318989.712    23318989.5624   23318994.7034
       154.0004        155.0004
 -17324177.06749 -13476072.92447  21131869.021    21131869.0834   21131876.1874
       205.0004        206.0004
 -11199004.80648  -8711427.88946  22671340.840    22671340.8984   22671347.3154
       175.0004        175.0004
 -20743025.74449 -16149663.70247  20749079.545    20749080.7564   20749088.3034
       200.0004        201.0004
  -1875269.77548  -1445246.88446  24324112.568    24324112.0434   24324119.9474
       169.0004        168.0004
  -5809009.51247  -4500803.11646  23750377.835    23750375.7574   23750380.2644
       163.0004        166.0004
  -5985577.78048  -4636192.23146  23153788.630    23153789.3794   23153795.9984
       168.0004        170.0004
 -23513978.87649 -18301605.34248  20098529.948    20098530.4284   20098534.4304
       216.0004        217.0004
 -14755185.75748 -11477347.52647  21861800.845    21861801.0964   21861804.9644
       191.0004        191.0004
 21  2  4  1  4  0.0000000  0 10G14G28G30G21G01G08G19G09G07G17
  -4744572.23948  -3688072.08846  22774473.516    22774473.9904   22774478.4724
       169.0004        169.0004
  -2404996.94447  -1749478.10345  23314902.705    23314902.0734   23314906.3124
       153.0004        156.0004
 -17389564.55449 -13527024.20447  21119426.412    21119426.4044   21119433.5144
       205.0004        206.0004
 -11131453.52948  -8658790.52646  22684196.338    22684195.3764   22684202.3084
       175.0004        177.0004
 -20741439.21649 -16148427.42747  20749382.098    20749382.4104   20749390.2734
       200.0004        200.0004
  -1783891.04948  -1374042.71846  24341502.325    24341501.4774   24341508.6894
       167.0004        168.0004
  -5883476.44547  -4558829.25546  23736206.551    23736205.6164   23736209.6334
       164.0004        166.0004
  -5905288.79948  -4573629.40746  23169065.926    23169066.2584   23169075.8514
       169.0004        171.0004
 -23528125.42249 -18312628.63148  20095837.577    20095838.0664   20095842.3794
       216.0004        217.0004
 -14788402.58348 -11503230.75047  21855479.606    21855479.8534   21855484.6774
       191.0004        192.0004
 21  2  4  1  4 30.0000000  0 10G14G28G30G21G01G08G19G09G07G17
  -4775935.34948  -3712510.85846  22768504.163    22768504.9594   22768510.2344
       168.0004        168.0004
  -2426596.39547  -1766308.82845  23310790.882    23310791.1684   23310795.9554
       154.0004        157.0004
 -17454604.11249 -13577704.36947  21107050.284    21107050.0704   21107056.7994
       206.0004        207.0004
 -11063502.17848  -8605841.41946  22697126.987    22697126.2714   22697132.5804
       175.0004        176.0004
 -20739245.18049 -16146717.76647  20749799.306    20749799.8504   20749807.3594
       200.0004        200.0004
  -1692620.46148  -1302922.83046  24358868.125    24358869.1564   24358877.8904
       168.0004        170.0004
  -5957648.15347  -4616625.37146  23722091.039    23722090.4454   23722094.7714
       163.0004        164.0004
  -5824997.77148  -4511064.97146  23184346.345    23184346.5394   23184353.8214
       171.0004        172.0004
 -23541731.69849 -18323230.92748  20093248.175    20093248.8954   20093253.3154
       216.0004        217.0004
 -14821208.09148 -11528793.45747  21849237.213    21849237.7464   21849242.1354
       191.0004        192.0004
 21  2  4  1  5  0.0000000  0 10G14G28G30G21G01G08G19G09G07G17
  -4807374.32148  -3737008.74746  22762522.145    22762522.6914   22762527.4824
       168.0004        169.0004
  -2448311.41847  -1783229.59445  23306658.562    23306659.7744   23306664.0974
       155.0004        158.0004
 -17519292.85549 -13628111.18147  21094739.760    21094739.9724   21094746.6634
       206.0004        206.0004
 -10995152.71548  -8552582.08646  22710133.603    22710133.3094   22710139.2614
       174.0004        175.0004
 -20736442.70949 -16144534.00747  20750332.867    20750333.2884   20750340.7854
       200.0004        200.0004
  -1601458.82448  -1231887.82446  24376216.198    24376217.2224   24376223.8654
       168.0004        170.0004
  -6031523.28347  -4674190.37546  23708033.402    23708033.1404   23708036.8354
       164.0004        166.0004
  -5744707.12648  -4448500.84946  23199624.824    23199625.7764   23199631.6774
       169.0004        169.0004
 -23554795.93749 -18333410.85948  20090762.582    20090762.7304   20090767.3894
       216.0004        217.0004
 -14853602.63948 -11554035.93547  21843072.330    21843072.9324   21843077.8954
       192.0004        192.0004
 21  2  4  1  5 30.0000000  0 10G14G28G30G21G01G08G19G09G07G17
  -4838888.71648  -3761565.41246  22756525.533    22756525.4254   22756531.3484
       169.0004        170.0004
  -2470142.07547  -1800240.50845  23302506.547    23302506.4264   23302510.5854
       157.0004        161.0004
 -17583627.62849 -13678242.17347  21082497.504    21082497.5344   21082504.4654
       206.0004        207.0004
 -10926406.52648  -8499013.63746  22723214.625    22723215.1014   22723220.6464
       173.0004        173.0004
 -20733030.67849 -16141875.27147  20750982.065    20750982.5954   20750990.1354
       200.0004        200.0004
  -1510407.92948  -1160939.07346  24393540.473    24393541.8754   24393551.1014
       166.0004        167.0004
  -6105100.49047  -4731523.22146  23694032.588    23694031.7434   23694036.1494
       164.0004        165.0004
  -5664419.05448  -4385938.74746  23214904.682    23214904.2224   23214910.3984
       168.0004        168.0004
 -23567316.19849 -18343166.92648  20088380.022    20088380.3514   20088384.7094
       216.0004        217.0004
 -14885586.29948 -11578958.24747  21836986.394    21836986.4144   21836991.6544
       192.0004        194.0004
 21  2  4  1  6  0.0000000  0 10G14G28G30G21G01G08G19G09G07G17
  -4870480.19648  -3786182.10446  22750512.729    22750513.9404   22750519.7854
       169.0004        170.0004
  -2492090.61647  -1817343.22945  23298327.070    23298327.9324   23298333.6694
       156.0004        158.0004
 -17647607.27449 -13728096.43147  21070322.485    21070322.6024   21070329.4794
       207.0004        207.0004
 -10857266.36048  -8445138.16146  22736373.296    22736372.0734   22736376.9104
       173.0004        174.0004
 -20729010.01549 -16138742.26547  20751746.861    20751747.6464   20751754.9714
       200.0004        200.0004
  -1419470.55848  -1090078.82646  24410849.086    24410848.4904   24410855.8114
       168.0004        170.0004
  -6178380.42448  -4788624.45646  23680088.131    23680088.0764   23680090.8794
       165.0004        166.0004
  -5584137.77948  -4323381.90946  23230180.206    23230180.9024   23230187.6834
       167.0004        168.0004
 -23579292.70049 -18352499.26048  20086100.987    20086101.1914   20086105.9204
       216.0004        217.0004
 -14917160.74748 -11603561.68147  21830977.167    21830977.6064   21830982.6884
       193.0004        193.0004
 21  2  4  1  6 30.0000000  0 10G14G28G30G21G01G08G19G09G07G17
  -4902148.12748  -3810858.42246  22744487.346    22744488.5894   22744493.1624
       170.0004        171.0004
  -2514156.68147  -1834537.55045  23294128.248    23294129.0094   23294133.5864
       155.0004        158.0004
 -17711228.41749 -13777671.35847  21058216.174    21058215.7064   21058222.8534
       207.0004        208.0004
 -10787734.08948  -8390957.17746  22749603.721    22749603.6194   22749608.5784
       172.0004        172.0004
 -20724379.47149 -16135134.04447  20752627.947    20752628.9464   20752636.3184
       200.0004        200.0004
  -1328647.31048  -1019307.44446  24428132.492    24428131.8184   24428140.4974
       170.0004        171.0004
  -6251361.12747  -4845492.51546  23666200.226    23666199.5394   23666202.9484
       162.0004        163.0004
  -5503865.28248  -4260831.95646  23245455.841    23245455.6754   23245464.7444
       167.0004        169.0004
 -23590723.23449 -18361406.18548  20083925.359    20083926.2504   20083930.5494
       216.0004        217.0004
 -14948326.39148 -11627846.58647  21825047.490    21825047.8954   21825052.0854
       193.0004        193.0004
 21  2  4  1  7  0.0000000  0 10G14G28G30G21G01G08G19G09G07G17
  -4933892.70248  -3835594.45146  22738446.271    22738447.6534   22738451.6754
       170.0004        172.0004
  -2536341.31447  -1851824.28545  23289907.353    23289906.7354   23289912.4744
       156.0004        159.0004
 -17774488.52549 -13826964.95047  21046177.193    21046177.5404   21046185.0574
       207.0004        208.0004
 -10717811.68148  -8336472.19146  22762908.309    22762908.3784   22762914.3324
       170.0004        171.0004
 -20719138.57849 -16131050.22047  20753625.804    20753626.3954   20753633.5164
       200.0004        200.0004
  -1237939.85748   -948626.33146  24445392.518    24445392.6094   24445401.6114
       170.0004        171.0004
  -6324042.05547  -4902126.98646  23652368.970    23652368.7004   23652372.4354
       162.0004        164.0004
  -5423604.32548  -4198290.96246  23260727.411    23260728.1824   23260737.4584
       167.0004        168.0004
 -23601606.41449 -18369886.59048  20081854.923    20081855.0774   20081859.3954
       216.0004        217.0004
 -14979083.80648 -11651813.38447  21819194.329    21819194.6054   21819198.7964
       192.0004        192.0004
 21  2  4  1  7 30.0000000  0 10G14G28G30G21G01G08G19G09G07G17
  -4965713.07948  -3860389.55146  22732391.309    22732391.3644   22732397.2604
       171.0004        172.0004
  -2558644.21147  -1869203.14845  23285664.630    23285664.3284   23285668.2824
       155.0004        157.0004
 -17837384.06549 -13875974.47047  21034209.042    21034208.9394   21034216.1984
       207.0004        207.0004
 -10647499.78648  -8281683.69646  22776288.476    22776288.4014   22776294.0094
       169.0004        170.0004
 -20713285.95349 -16126489.72647  20754739.859    20754740.2344   20754747.3614
       200.0004        200.0004
  -1147349.09748   -878036.13946  24462632.325    24462631.5894   24462641.1134
       170.0004        171.0004
  -6396421.69347  -4958526.67946  23638596.845    23638596.6864   23638600.3664
       164.0004        165.0004
  -5343356.64948  -4135760.34046  23275999.453    23275999.5344   23276008.1804
       167.0004        168.0004
 -23611939.86149 -18377938.65448  20079888.191    20079888.7784   20079892.9384
       215.0004        217.0004
 -15009432.43348 -11675461.65847  21813419.036    21813419.3884   21813423.8414
       192.0004        192.0004
 21  2  4  1  8  0.0000000  0 10G14G28G30G21G01G08G19G09G07G17
  -4997610.85848  -3885244.94146  22726321.189    22726321.9444   22726326.7514
       170.0004        171.0004
  -2581067.25947  -1886675.62245  23281396.443    23281396.4304   23281401.0984
       155.0004        156.0004
 -17899913.97249 -13924699.07147  21022309.579    21022309.9564   21022316.8434
       207.0004        207.0004
 -10576802.42948  -8226594.84446  22789742.467    22789742.7564   22789746.9634
       169.0004        170.0004
 -20706822.66149 -16121453.38147  20755969.311    20755969.9644   20755977.5104
       200.0004        201.0004
  -1056877.55048   -807538.85446  24479845.900    24479846.8414   24479856.9264
       170.0004        171.0004
  -6468500.25747  -5014691.77846  23624880.474    23624879.0884   23624883.6754
       163.0004        165.0004
  -5263126.47348  -4073243.32246  23291267.208    23291267.6554   23291274.4604
       167.0004        168.0004
 -23621723.98149 -18385562.63848  20078026.353    20078026.9244   20078031.1604
       216.0004        217.0004
 -15039374.42148 -11698793.04647  21807721.399    21807721.7534   21807726.3504
       192.0004        193.0004
 21  2  4  1  8 30.0000000  0 10G14G28G30G21G01G08G19G09G07G17
  -5029584.72848  -3910159.63746  22720237.334    22720237.3174   22720242.0754
       170.0004        169.0004
  -2603609.72647  -1904241.14345  23277107.115    23277107.3394   23277112.6764
       155.0004        158.0004
 -17962074.26449 -13973135.65447  21010482.097    21010481.5654   21010488.4404
       208.0004        208.0004
 -10505719.88148  -8171205.81946  22803269.393    22803268.5624   22803272.8474
       169.0004        170.0004
 -20699746.94449 -16115939.80747  20757315.963    20757316.4924   20757323.6364
       200.0004        200.0004
   -966525.50648   -737134.67346  24497040.069    24497040.5384   24497048.6024
       165.0004        165.0004
  -6540275.99247  -5070620.92546  23611220.241    23611219.8844   23611226.2584
       163.0004        165.0004
  -5182915.10348  -4010740.95746  23306529.378    23306529.5074   23306537.2874
       165.0004        166.0004
 -23630955.89949 -18392756.32848  20076269.646    20076270.2234   20076274.6334
       216.0004        217.0004
 -15068909.32748 -11721807.23647  21802100.958    21802101.3224   21802106.1544
       193.0004        194.0004
 21  2  4  1  9  0.0000000  0 10G14G28G30G21G01G08G19G09G07G17
  -5061635.18148  -3935133.98146  22714136.849    22714137.3324   22714143.0454
       168.0004        168.0004
  -2626272.50847  -1921900.43645  23272794.191    23272794.5734   23272798.4014
       156.0004        159.0004
 -18023862.72349 -14021282.50447  20998722.858    20998723.3614   20998730.2004
       208.0004        208.0004
 -10434254.50848  -8115518.50746  22816867.757    22816867.4684   22816871.9114
       168.0004        168.0004
 -20692058.77449 -16109949.00947  20758778.858    20758779.3614   20758787.0214
       200.0004        201.0004
   -876295.18948   -666825.34346  24514211.999    24514211.9784   24514218.6694
       165.0004        166.0004
  -6611748.15247  -5126313.49946  23597620.808    23597621.0094   23597622.9604
       163.0004        163.0004
  -5102725.60448  -3948255.65146  23321790.197    23321789.7444   23321798.1684
       165.0004        167.0004
 -23639634.51249 -18399518.88348  20074618.146    20074618.7144   20074623.0864
       216.0004        217.0004
 -15098038.28548 -11744505.10747  21796557.509    21796558.2214   21796562.8144
       194.0004        194.0004
 21  2  4  1  9 30.0000000  0 10G14G28G30G21G01G08G19G09G07G17
  -5093762.45848  -3960168.23646  22708024.844    22708024.8524   22708029.7494
       168.0004        171.0004
  -2649056.46547  -1939654.18845  23268459.375    23268459.1964   23268462.9424
       156.0004        158.0004
 -18085277.05449 -14069137.83047  20987036.747    20987037.0374   20987043.5284
       208.0004        208.0004
 -10362408.79748  -8059534.84346  22830539.842    22830539.2304   22830544.8104
       166.0004        167.0004
 -20683758.10849 -16103480.93847  20760358.839    20760359.0894   20760366.5954
       200.0004        200.0004
   -786188.12447   -596612.10545  24531354.834    24531356.1434   24531364.6254
       162.0004        162.0004
  -6682916.13947  -5181769.05846  23584077.456    23584076.9024   23584081.6914
       162.0004        165.0004
  -5022560.89248  -3885789.68146  23337044.169    23337044.6404   23337052.6304
       165.0004        167.0004
 -23647758.85849 -18405849.54148  20073072.203    20073072.7984   20073077.0054
       216.0004        217.0004
 -15126761.85248 -11766887.07547  21791092.242    21791091.8824   21791096.8814
       193.0004        193.0004
 21  2  4  1 10  0.0000000  0 10G14G28G30G21G01G08G19G09G07G17
  -5125965.84148  -3985261.76246  22701896.846    22701897.3414   22701902.0074
       170.0004        171.0004
  -2671961.86147  -1957502.50545  23264099.346    23264100.1214   23264104.1834
       156.0004        158.0004
 -18146313.85049 -14116698.96547  20975422.043    20975421.9324   20975429.0824
       208.0004        209.0004
 -10290183.55248  -8003255.41746  22844285.898    22844284.1674   22844288.2704
       166.0004        168.0004
 -20674843.75749 -16096534.66547  20762054.213    20762054.8954   20762062.8804
       200.0004        200.0004
   -696204.74247   -526495.22846  24548483.831    24548482.0064   24548489.2574
       163.0004        165.0004
  -6753778.37347  -5236986.34746  23570592.397    23570592.3554   23570597.3524
       163.0004        165.0004
  -4942422.78148  -3823344.40746  23352294.372    23352295.7674   23352302.8094
       166.0004        167.0004
 -23655327.39949 -18411747.08348  20071632.055    20071632.4594   20071637.0244
       216.0004        217.0004
 -15155080.21548 -11788953.30947  21785703.245    21785703.3454   21785708.3374
       193.0004        194.0004
 21  2  4  1 10 30.0000000  0 10G14G28G30G21G01G08G19G09G07G17
  -5158247.38248  -4010416.19946  22695753.276    22695754.1334   22695759.3374
       171.0004        171.0004
  -2694990.83747  -1975447.16945  23259717.841    23259717.7434   23259722.1744
       157.0004        160.0004
 -18206972.58549 -14163965.52447  20963878.742    20963878.7864   20963885.6554
       209.0004        209.0004
 -10217583.00048  -7946683.56746  22858100.566    22858100.0404   22858103.6144
       166.0004        167.0004
 -20665317.49649 -16089111.60647  20763867.336    20763868.0164   20763875.5734
       200.0004        200.0004
   -606348.76147   -456477.66846  24565582.207    24565580.6594   24565589.4284
       163.0004        165.0004
  -6824336.18947  -5291966.46746  23557166.135    23557165.6944   23557169.6334
       163.0004        164.0004
  -4862315.99048  -3760923.54946  23367539.080    23367539.2684   23367546.3934
       165.0004        167.0004
 -23662340.60149 -18417211.93348  20070297.359    20070297.8844   20070302.2944
       216.0004        217.0004
 -15182995.76848 -11810705.68247  21780391.369    21780391.5924   21780396.2584
       194.0004        194.0004
 21  2  4  1 11  0.0000000  0 10G14G28G30G21G01G08G19G09G07G17
  -5190605.85948  -4035630.58846  22689595.427    22689596.7424   22689600.5774
       170.0004        170.0004
  -2718142.76747  -1993487.60145  23255312.605    23255312.6164   23255317.2024
       159.0004        162.0004
 -18267249.48449 -14210934.53447  20952408.573    20952408.5504   20952415.0444
       208.0004        208.0004
 -10144607.89248  -7889819.83946  22871985.778    22871986.1644   22871988.9924
       165.0004        166.0004
 -20655177.88149 -16081210.58847  20765796.131    20765797.5044   20765804.8104
       200.0004        200.0004
   -516620.20647   -386559.35346  24582655.859    24582656.4474   24582663.5434
       164.0004        164.0004
  -6894587.72947  -5346707.89746  23543798.659    23543798.1614   23543801.9014
       163.0004        164.0004
  -4782241.91648  -3698528.17646  23382776.929    23382777.1534   23382783.0224
       166.0004        167.0004
 -23668795.97849 -18422242.08748  20069068.876    20069069.3904   20069073.7754
       216.0004        217.0004
 -15210508.40948 -11832144.08447  21775155.487    21775155.7304   21775160.2624
       194.0004        194.0004
 21  2  4  1 11 30.0000000  0 10G14G28G30G21G01G08G19G09G07G17
  -5223041.13148  -4060904.82746  22683423.479    22683423.7234   22683428.5204
       169.0004        169.0004
  -2741417.96747  -2011624.11745  23250882.990    23250883.5434   23250887.2034
       159.0004        160.0004
 -18327141.82949 -14257603.89247  20941011.152    20941011.1334   20941018.2854
       208.0004        208.0004
 -10071259.94448  -7832665.57146  22885943.836    22885943.1614   22885948.1914
       165.0004        166.0004
 -20644424.44749 -16072831.27247  20767843.267    20767843.8194   20767851.0624
       200.0004        200.0004
   -427020.53947   -316741.46546  24599706.066    24599706.3194   24599713.8884
       163.0004        165.0004
  -6964531.86647  -5401209.79946  23530488.122    23530487.5674   23530491.7014
       162.0004        165.0004
  -4702203.02548  -3636160.22446  23398005.740    23398006.7644   23398013.7644
       166.0004        167.0004
 -23674692.16249 -18426836.51648  20067946.968    20067947.5834   20067951.8594
       216.0004        218.0004
 -15237618.64148 -11853268.92547  21769996.826    21769997.3184   21770001.6414
       194.0004        194.0004
 21  2  4  1 12  0.0000000  0 10G14G28G30G21G01G08G19G09G07G17
  -5255552.46248  -4086238.30046  22677235.382    22677236.5054   22677241.9764
       169.0004        170.0004
  -2764816.36647  -2029856.60445  23246429.955    23246430.4884   23246434.3644
       158.0004        160.0004
 -18386646.30249 -14303971.01847  20929688.254    20929688.1104   20929694.7984
       208.0004        209.0004
  -9997540.85948  -7775222.12446  22899970.819    22899971.6094   22899977.1744
       165.0004        166.0004
 -20633056.28349 -16063972.94747  20770005.602    20770006.4734   20770014.3134
       199.0004        199.0004
   -337550.28747   -247024.40946  24616728.237    24616730.1774   24616739.2224
       162.0004        163.0004
  -7034167.42147  -5455471.24246  23517236.930    23517236.8154   23517239.5814
       162.0004        163.0004
  -4622201.18848  -3573821.11446  23413230.668    23413231.3214   23413237.7274
       165.0004        165.0004
 -23680027.32849 -18430993.79048  20066931.979    20066932.1904   20066936.9564
       216.0004        217.0004
 -15264326.47648 -11874080.20747  21764914.298    21764914.5614   21764918.9974
       194.0004        194.0004
 21  2  4  1 12 30.0000000  0 10G14G28G30G21G01G08G19G09G07G17
  -5288139.16348  -4111630.51646  22671034.546    22671035.8104   22671040.8204
       169.0004        170.0004
  -2788337.71247  -2048184.92045  23241954.903    23241955.1084   23241958.4124
       159.0004        162.0004
 -18445759.74449 -14350033.44547  20918439.164    20918439.2104   20918445.8754
       208.0004        209.0004
  -9923452.07748  -7717490.61646  22914070.744    22914069.7304   22914075.1534
       165.0004        167.0004
 -20621072.59249 -16054634.99147  20772286.027    20772286.9644   20772294.5474
       199.0004        199.0004
   -248210.15757   -177408.80946  24633727.664    24633729.7745   24633740.7224
       161.0004        163.0004
  -7103492.47247  -5509490.73845  23504044.931    23504043.6524   23504047.9684
       160.0004        161.0004
  -4542238.35148  -3511512.42846  23428447.655    23428447.5344   23428454.7644
       177.0004        181.0004
 -23684799.62549 -18434712.46448  20066023.523    20066024.1004   20066028.4014
       216.0004        218.0004
 -15290631.61648 -11894577.70447  21759908.595    21759909.1284   21759913.4004
       194.0004        194.0004
 21  2  4  1 13  0.0000000  0 10G14G28G30G21G01G08G19G09G07G17
  -5320802.96548  -4137082.84446  22664820.856    22664821.1534   22664826.0474
       171.0004        173.0004
  -2811984.18047  -2066610.73545  23237455.303    23237454.6414   23237459.3504
       160.0004        162.0004
 -18504481.38749 -14395790.56347  20907264.676    20907264.6414   20907271.7384
       208.0004        209.0004
  -9848997.35948  -7659473.94646  22928239.804    22928239.0544   22928243.8334
       166.0004        168.0004
 -20608474.95949 -16044818.64447  20774683.964    20774684.7784   20774691.9794
       199.0004        200.0004
   -159003.54847   -107897.17846  24650704.369    24650706.0404   24650716.3964
       163.0004        165.0004
  -7172508.32647  -5563269.28946  23490911.666    23490910.7754   23490915.3854
       162.0004        165.0004
  -4462318.88648  -3449237.54846  23443654.656    23443655.2644   23443663.4704
       181.0004        183.0004
 -23689009.82449 -18437993.13748  20065222.405    20065223.0324   20065227.0794
       216.0004        217.0004
 -15316537.43048 -11914764.02847  21754979.190    21754979.5264   21754983.4694
       194.0004        195.0004
 21  2  4  1 13 30.0000000  0 10G14G28G30G21G01G08G19G09G07G17
  -5353543.67748  -4162595.06146  22658590.249    22658591.2934   22658595.0514
       175.0004        178.0004
  -2835756.37147  -2085134.49245  23232930.349    23232930.7874   23232935.5674
       159.0004        161.0004
 -18562808.56549 -14441240.30547  20896165.073    20896165.2634   20896172.2484
       209.0004        208.0004
  -9774178.35448  -7601173.41646  22942476.847    22942476.5864   22942481.2874
       165.0004        167.0004
 -20595263.16049 -16034523.72647  20777199.122    20777199.1904   20777206.3774
       200.0004        200.0004
    -69931.56247    -38490.53746  24667658.949    24667658.6614   24667664.5974
       163.0004        165.0004
  -7241214.36947  -5616806.43446  23477837.064    23477835.6634   23477840.0044
       163.0004        163.0004
  -4382445.24548  -3386998.35247  23458854.862    23458855.3104   23458863.1794
       192.0004        198.0004
 -23692656.47249 -18440834.68248  20064528.764    20064529.3414   20064533.3264
       216.0004        217.0004
 -15342044.52449 -11934639.65847  21750124.730    21750125.1204   21750129.7684
       195.0004        195.0004
 21  2  4  1 14  0.0000000  0 10G14G28G30G21G01G08G19G09G07G17
  -5386362.09048  -4188167.83946  22652345.707    22652345.6814   22652349.2084
       176.0004        177.0004
  -2859655.35347  -2103757.06445  23228384.649    23228383.4674   23228387.2484
       159.0004        162.0004
 -18620739.60349 -14486381.37847  20885141.012    20885141.4374   20885148.1184
       208.0004        208.0004
  -9698998.15648  -7542591.44146  22956783.271    22956783.1424   22956787.9484
       166.0004        168.0004
 -20581437.92749 -16023750.79947  20779828.949    20779829.4144   20779836.9194
       199.0004        199.0004
     19003.38548     30809.39746  24684582.140    24684582.3934   24684588.8364
       166.0004        168.0004
  -7309610.65247  -5670102.20746  23464820.892    23464820.6334   23464825.2394
       163.0004        165.0004
  -4302620.81349  -3324797.49947  23474045.142    23474045.1404   23474052.9604
       197.0004        198.0004
 -23695739.61149 -18443237.12848  20063941.220    20063941.9664   20063946.5764
       216.0004        217.0004
 -15367154.14749 -11954205.58447  21745346.876    21745346.7514   21745351.3114
       195.0004        195.0004
 21  2  4  1 14 30.0000000  0 10G14G28G30G21G01G08G19G09G07G17
  -5419257.64248  -4213800.71146  22646084.272    22646085.0104   22646089.8954
       176.0004        176.0004
  -2883681.23547  -2122478.50945  23223810.778    23223810.6834   23223815.1524
       160.0004        162.0004
 -18678271.46149 -14531211.39247  20874194.218    20874193.8814   20874200.4644
       209.0004        209.0004
  -9623458.83748  -7483729.61846  22971157.481    22971158.1064   22971163.7714
       167.0004        168.0004
 -20566998.72449 -16012499.44747  20782576.178    20782576.9164   20782584.7284
       199.0004        200.0004
    107800.98247    100002.31046  24701478.439    24701478.7904   24701486.6154
       164.0004        165.0004
  -7377696.03947  -5723155.70746  23451865.663    23451863.9114   23451868.0244
       163.0004        164.0004
  -4222847.68849  -3262636.61847  23489225.105    23489225.3974   23489233.0474
       196.0004        196.0004
 -23698257.67149 -18445199.24848  20063462.690    20063463.2794   20063466.9734
       215.0004        217.0004
 -15391866.77749 -11973462.14847  21740643.588    21740643.7374   21740649.0474
       195.0004        195.0004
 21  2  4  1 15  0.0000000  0 10G14G28G30G21G01G08G19G09G07G17
  -5452228.31148  -4239492.13846  22639811.266    22639811.4124   22639815.6064
       175.0004        176.0004
  -2907832.49547  -2141297.67046  23219216.010    23219215.4524   23219219.6244
       160.0004        163.0004
 -18735399.74549 -14575726.95247  20863322.544    20863322.5504   20863329.5274
       209.0004        209.0004
  -9547559.91348  -7424587.60446  22985600.288    22985600.3934   22985606.7904
       168.0004        169.0004
 -20551943.57649 -16000768.16447  20785440.374    20785441.8204   20785449.6644
       199.0004        199.0004
    196461.44757    169088.35045  24718346.427    24718349.1855   24718357.3014
       162.0004        162.0004
  -7445467.69047  -5775964.77846  23438968.256    23438968.0394   23438971.8304
       163.0004        165.0004
  -4143126.45448  -3200516.18447  23504395.206    23504396.1254   23504402.9214
       194.0004        193.0004
 -23700207.61649 -18446718.70448  20063092.036    20063092.2934   20063096.1594
       216.0004        217.0004
 -15416181.62649 -11992408.78647  21736017.316    21736017.7604   21736021.9544
       195.0004        195.0004
 21  2  4  1 15 30.0000000  0 10G14G28G30G21G01G08G19G09G07G17
  -5485275.08348  -4265242.84746  22633521.812    22633522.7934   22633527.0944
       175.0004        174.0004
  -2932110.64547  -2160215.69545  23214594.864    23214595.1434   23214598.9054
       160.0004        162.0004
 -18792123.02549 -14619926.89547  20852527.926    20852528.2574   20852535.2744
       209.0004        209.0004
  -9471304.74648  -7365167.98746  23000112.109    23000111.1074   23000117.2354
       168.0004        169.0004
 -20536273.59049 -15988557.75847  20788423.075    20788424.0674   20788431.8444
       199.0004        200.0004
    284982.97357    238066.15045  24735193.722    24735193.8105   24735202.4824
       158.0004        160.0004
  -7512926.30247  -5828529.88946  23426131.344    23426130.9704   23426135.2064
       164.0004        165.0004
  -4063460.75148  -3138439.02247  23519557.012    23519556.8474   23519563.3574
       194.0004        194.0004
 -23701589.49449 -18447795.48648  20062828.399    20062829.0474   20062833.5704
       216.0004        217.0004
 -15440100.44949 -12011046.79747  21731465.630    21731466.2224   21731470.1034
       195.0004        194.0004
 21  2  4  1 16  0.0000000  0  9G14G28G30G21G01G19G09G07G17
  -5518398.24348  -4291053.09846  22627219.075    22627219.6054   22627224.0674
       174.0004        175.0004
  -2956516.51447  -2179233.25845  23209951.840    23209950.8064   23209954.0224
       160.0004        162.0004
 -18848439.18249 -14663809.62347  20841811.667    20841811.5784   20841818.4194
       209.0004        209.0004
  -9394696.03048  -7305472.89746  23014689.768    23014688.9934   23014694.7344
       168.0004        168.0004
 -20519989.17549 -15975868.59447  20791522.505    20791522.8474   20791530.4314
       199.0004        200.0004
  -7580071.54747  -5880850.83746  23413354.807    23413354.5164   23413358.2914
       163.0004        164.0004
  -3983853.51448  -3076407.41947  23534703.013    23534704.4424   23534712.4374
       194.0004        194.0004
 -23702402.71249 -18448429.16048  20062673.876    20062674.0974   20062678.9054
       215.0004        217.0004
 -15463624.66648 -12029377.32947  21726988.539    21726989.0874   21726993.4254
       194.0004        194.0004
 21  2  4  1 16 30.0000000  0  9G14G28G30G21G01G19G09G07G17
  -5551596.58048  -4316921.94746  22620902.516    22620902.0774   22620906.7024
       176.0004        176.0004
  -2981049.70147  -2198350.02745  23205282.024    23205281.7494   23205285.9924
       159.0004        160.0004
 -18904344.72949 -14707372.39247  20831172.660    20831172.8974   20831180.0884
       208.0004        208.0004
  -9317735.00748  -7245503.27346  23029334.157    23029333.9484   23029339.9664
       167.0004        167.0004
 -20503089.33049 -15962699.88447  20794738.345    20794738.6844   20794746.2834
       199.0004        199.0004
  -7646901.66447  -5932926.25946  23400637.120    23400636.1554   23400640.4504
       163.0004        163.0004
  -3904306.21448  -3014422.52747  23549841.732    23549842.0734   23549849.5144
       194.0004        194.0004
 -23702645.35749 -18448618.25648  20062627.389    20062628.0784   20062632.6074
       216.0004        217.0004
 -15486754.00148 -12047400.16847  21722587.428    21722587.9434   21722592.2564
       194.0004        195.0004
 21  2  4  1 17  0.0000000  0  9G14G28G30G21G01G19G09G07G17
  -5584870.94348  -4342850.01546  22614569.517    22614570.4404   22614575.3074
       177.0004        178.0004
  -3005711.17147  -2217566.74345  23200589.729    23200589.4444   23200593.0204
       159.0004        160.0004
 -18959838.10649 -14750613.99247  20820613.408    20820613.3474   20820620.0854
       208.0004        209.0004
  -9240424.80048  -7185261.56046  23044046.930    23044046.8264   23044051.6794
       167.0004        168.0004
 -20485575.10349 -15949052.43147  20798070.585    20798071.5284   20798079.1154
       199.0004        199.0004
  -7713417.19447  -5984756.54545  23387978.969    23387977.8504   23387982.8404
       160.0004        161.0004
  -3824822.27248  -2952487.01047  23564967.862    23564967.9424   23564974.2854
       192.0004        192.0004
 -23702317.37549 -18448362.69848  20062689.621    20062690.3184   20062694.6644
       215.0004        216.0004
 -15509489.76049 -12065116.33747  21718261.111    21718261.4884   21718266.3484
       195.0004        196.0004
 21  2  4  1 17 30.0000000  0  9G14G28G30G21G01G19G09G07G17
  -5618221.79548  -4368837.69546  22608222.909    22608223.4424   22608229.3564
       178.0004        177.0004
  -3030501.95847  -2236884.24045  23195871.431    23195871.5914   23195875.3294
       159.0004        160.0004
 -19014917.49649 -14793533.00947  20810132.273    20810132.2364   20810138.8534
       209.0004        209.0004
  -9162767.55448  -7124749.41946  23058825.693    23058825.0374   23058828.6754
       166.0004        167.0004
 -20467447.26649 -15934926.83747  20801520.492    20801521.5774   20801529.2164
       199.0004        200.0004
  -7779617.98047  -6036341.56746  23375383.779    23375382.3804   23375386.2454
       163.0004        165.0004
  -3745404.71948  -2890603.22147  23580079.652    23580079.7174   23580086.7334
       191.0004        191.0004
 -23701418.63649 -18447662.39148  20062860.962    20062861.5314   20062865.6894
       215.0004        216.0004
 -15531834.56149 -12082527.87047  21714009.349    21714009.3824   21714014.0324
       196.0004        196.0004
 21  2  4  1 18  0.0000000  0  9G14G28G30G21G01G19G09G07G17
  -5651649.56948  -4394885.28446  22601861.856    22601862.0964   22601867.1794
       176.0004        176.0004
  -3055423.08447  -2256303.30345  23191130.254    23191129.6554   23191133.6724
       158.0004        160.0004
 -19069581.04349 -14836127.97647  20799729.626    20799729.7264   20799736.5534
       209.0004        209.0004
  -9084766.38348  -7063969.28246  23073668.597    23073667.7704   23073672.1874
       166.0004        167.0004
 -20448706.53149 -15920323.64547  20805086.103    20805087.1904   20805094.8684
       199.0004        199.0004
  -7845503.87847  -6087681.21646  23362844.493    23362844.1324   23362848.8794
       162.0004        164.0004
  -3666056.89848  -2828773.75047  23595179.463    23595179.5744   23595186.9104
       192.0004        193.0004
 -23699948.91949 -18446517.14648  20063140.935    20063141.1784   20063145.9674
       215.0004        217.0004
 -15553789.63849 -12099635.69847  21709830.649    21709830.8834   21709835.9984
       195.0004        195.0004
 21  2  4  1 18 30.0000000  0  9G14G28G30G21G01G19G09G07G17
  -5685152.45448  -4420991.41746  22595487.210    22595487.5974   22595490.9104
       175.0004        174.0004
  -3080473.34947  -2275822.96946  23186362.841    23186363.5824   23186367.3814
       160.0004        163.0004
 -19123824.63449 -14878395.70247  20789407.482    20789407.6534   20789414.1894
       208.0004        209.0004
  -9006421.95247  -7002921.67946  23088576.431    23088575.9134   23088581.8394
       164.0004        165.0004
 -20429351.41249 -15905241.72847  20808769.366    20808770.4014   20808777.8754
       199.0004        199.0004
  -7911072.82547  -6138773.88145  23350365.748    23350365.9994   23350370.3514
       160.0004        161.0004
  -3586779.50448  -2766999.12847  23610264.934    23610265.5674   23610273.6044
       193.0004        193.0004
 -23697905.67949 -18444925.03448  20063529.743    20063530.3614   20063534.3804
       216.0004        217.0004
 -15575354.35348 -12116439.35247  21705727.037    21705727.4554   21705731.9934
       194.0004        194.0004
 21  2  4  1 19  0.0000000  0  9G14G28G30G21G01G19G09G07G17
  -5718730.84748  -4447156.40046  22589097.769    22589098.0044   22589101.1924
       175.0004        176.0004
  -3105653.65447  -2295443.98846  23181571.120    23181571.1674   23181575.1544
       161.0004        163.0004
 -19177646.42449 -14920334.76247  20779165.291    20779165.5254   20779172.4274
       208.0004        209.0004
  -8927736.89048  -6941608.66046  23103550.214    23103549.8274   23103553.0164
       165.0004        166.0004
 -20409382.73949 -15889681.71047  20812570.085    20812570.4954   20812578.3734
       199.0004        199.0004
  -7976324.80947  -6189619.59345  23337950.803    23337949.4054   23337954.0634
       160.0004        161.0004
  -3507575.48448  -2705281.74947  23625338.849    23625338.1664   23625345.4014
       192.0004        192.0004
 -23695288.54149 -18442885.69048  20064027.526    20064028.0654   20064032.3554
       215.0004        216.0004
 -15596530.38549 -12132940.13047  21701697.556    21701698.2734   21701702.3884
       195.0004        196.0004
 21  2  4  1 19 30.0000000  0  9G14G28G30G21G01G19G09G07G17
  -5752384.34848  -4473379.92246  22582693.019    22582693.6344   22582696.9704
       175.0004        176.0004
  -3130964.08747  -2315166.37845  23176754.163    23176754.1984   23176758.4374
       160.0004        161.0004
 -19231043.85149 -14961943.14447  20769004.387    20769004.2754   20769011.2824
       209.0004        209.0004
  -8848712.86148  -6880031.46446  23118587.028    23118588.3834   23118590.1624
       165.0004        166.0004
 -20388800.53349 -15873643.61647  20816486.416    20816487.2144   20816494.9094
       199.0004        199.0004
  -8041259.19147  -6240217.80246  23325592.721    23325592.7764   23325596.7544
       161.0004        164.0004
  -3428447.21948  -2643623.38347  23640393.756    23640394.5164   23640402.3334
       190.0004        189.0004
 -23692096.74449 -18440398.57948  20064635.031    20064635.3844   20064639.8454
       215.0004        216.0004
 -15617318.11549 -12149138.35147  21697742.731    21697742.7814   21697747.5734
       197.0004        198.0004
 21  2  4  1 20  0.0000000  0  9G14G28G30G21G01G19G09G07G17
  -5786112.46848  -4499661.58046  22576274.042    22576274.8694   22576280.2054
       176.0004        177.0004
  -3156404.68047  -2334990.20945  23171912.524    23171913.2284   23171918.9254
       159.0004        161.0004
 -19284014.14049 -15003218.69947  20758924.036    20758924.1114   20758931.6174
       209.0004        210.0004
  -8769352.28747  -6818192.06746  23133689.387    23133688.7484   23133692.5364
       163.0004        163.0004
 -20367604.79349 -15857127.45947  20820520.410    20820520.9344   20820527.8214
       198.0004        199.0004
  -8105874.96547  -6290567.72546  23313297.248    23313296.5694   23313301.2354
       161.0004        164.0004
  -3349396.93448  -2582025.75847  23655436.380    23655437.0054   23655445.3024
       188.0004        188.0004
 -23688329.13749 -18437462.79148  20065351.421    20065352.5044   20065356.6024
       215.0004        217.0004
 -15637718.56449 -12165034.80147  21693859.604    21693860.2364   21693864.9404
       197.0004        197.0004
 21  2  4  1 20 30.0000000  0  9G14G28G30G21G01G19G09G07G17
  -5819914.75048  -4526001.00346  22569841.454    22569842.6534   22569847.8734
       176.0004        176.0004
  -3181975.52747  -2354915.55745  23167048.061    23167047.0924   23167051.3934
       159.0004        161.0004
 -19336554.70249 -15044159.41047  20748925.755    20748926.2004   20748933.7464
       209.0004        210.0004
  -8689657.51547  -6756092.23246  23148854.690    23148853.9474   23148857.6644
       162.0004        163.0004
 -20345795.56649 -15840133.24847  20824669.954    20824670.8864   20824678.0434
       198.0004        198.0004
  -8170171.63947  -6340669.01346  23301062.839    23301061.9364   23301065.3654
       163.0004        165.0004
  -3270426.69348  -2520490.51247  23670465.989    23670466.2714   23670472.6164
       189.0004        190.0004
 -23683984.66649 -18434077.49448  20066178.977    20066179.3394   20066183.3334
       215.0004        217.0004
 -15657732.43549 -12180630.02547  21690051.446    21690051.9044   21690056.1244
       196.0004        196.0004
 21  2  4  1 21  0.0000000  0  9G14G28G30G21G01G19G09G07G17
  -5853792.01448  -4552398.88146  22563395.827    22563396.5694   22563400.8534
       176.0004        176.0004
  -3207678.20047  -2374943.58445  23162155.548    23162156.1034   23162160.7254
       159.0004        161.0004
 -19388664.25449 -15084764.25847  20739010.158    20739010.0704   20739017.6374
       209.0004        210.0004
  -8609631.23547  -6693734.08946  23164082.773    23164082.6234   23164086.5894
       162.0004        164.0004
 -20323374.27649 -15822662.10447  20828937.452    20828937.9044   20828945.1594
       198.0004        199.0004
  -8234149.70547  -6390522.05946  23288886.650    23288886.0274   23288891.3914
       163.0004        164.0004
  -3191540.06948  -2459020.44147  23685478.089    23685477.2104   23685484.4984
       189.0004        190.0004
 -23679063.75149 -18430243.02148  20067115.391    20067115.6774   20067120.0154
       215.0004        217.0004
 -15677361.87749 -12195925.69547  21686316.216    21686316.2574   21686320.8984
       195.0004        196.0004
 21  2  4  1 21 30.0000000  0  9G14G28G30G21G01G19G09G07G17
  -5887743.46348  -4578854.53346  22556933.972    22556934.6764   22556940.1954
       176.0004        177.0004
  -3233512.27047  -2395074.02445  23157240.817    23157241.1074   23157244.5564
       159.0004        162.0004
 -19440339.76349 -15125030.87947  20729176.857    20729176.8994   20729184.0054
       210.0004        211.0004
  -8529274.75547  -6631118.61346  23179374.470    23179374.7394   23179377.9884
       162.0004        165.0004
 -20300340.67049 -15804713.81847  20833320.079    20833320.5434   20833328.4914
       199.0004        199.0004
  -8297807.88547  -6440125.84046  23276773.295    23276773.2004   23276777.7954
       163.0004        166.0004
  -3112738.85348  -2397616.91346  23700471.752    23700471.6324   23700480.0724
       187.0004        186.0004
 -23673565.10949 -18425958.37248  20068160.843    20068161.7294   20068166.4094
       215.0004        217.0004
 -15696607.18749 -12210922.01647  21682653.865    21682654.1634   21682658.6054
       195.0004        195.0004
 21  2  4  1 22  0.0000000  0  9G14G28G30G21G01G19G09G07G17
  -5921769.08148  -4605368.01346  22550460.358    22550460.9624   22550465.1614
       178.0004        179.0004
  -3259478.37047  -2415307.36345  23152299.057    23152299.6524   23152302.8364
       160.0004        161.0004
 -19491579.21849 -15164957.74247  20719426.400    20719426.2594   20719433.1874
       210.0004        211.0004
  -8448591.02047  -6568248.19946  23194728.636    23194727.9384   23194733.0414
       164.0004        166.0004
 -20276695.44049 -15786288.96947  20837819.729    20837820.2104   20837827.3764
       198.0004        198.0004
  -8361146.31647  -6489480.44546  23264721.262    23264720.7514   23264724.4894
       164.0004        166.0004
  -3034025.84348  -2336282.11246  23715449.463    23715450.0354   23715458.8204
       186.0004        187.0004
 -23667488.39349 -18421223.26448  20069317.738    20069318.1134   20069322.7194
       215.0004        216.0004
 -15715470.29849 -12225620.54647  21679064.501    21679064.5614   21679068.6954
       196.0004        196.0004
 21  2  4  1 22 30.0000000  0 10G14G28G30G21G01G19G22G09G07G17
  -5955869.51948  -4631939.78946  22543971.340    22543971.1284   22543976.2804
       179.0004        180.0004
  -3285577.46947  -2435644.33145  23147332.735    23147332.9944   23147337.5434
       159.0004        161.0004
 -19542381.12849 -15204543.64647  20709758.235    20709758.6054   20709766.0684
       210.0004        210.0004
  -8367582.96847  -6505125.03746  23210143.457    23210142.9244   23210147.3064
       164.0004        164.0004
 -20252439.86849 -15767388.51447  20842435.121    20842436.2484   20842442.7654
       198.0004        198.0004
  -8424165.19247  -6538586.05946  23252729.288    23252727.6344   23252732.2294
       164.0004        164.0004
  -5018047.07856  -3896315.18845  24783533.579    24783534.2775   24783538.7684
       132.0004        139.0004
  -2955404.23148  -2275018.54447  23730411.766    23730412.1564   23730419.5084
       188.0004        188.0004
 -23660833.98249 -18416038.01548  20070584.167    20070584.7214   20070589.0074
       215.0004        216.0004
 -15733952.81849 -12240022.48547  21675546.331    21675547.0784   21675551.6994
       195.0004        196.0004
 21  2  4  1 23  0.0000000  0 10G14G28G30G21G01G19G22G09G07G17
  -5990043.57948  -4658568.89746  22537467.841    22537468.4234   22537473.2284
       179.0004        178.0004
  -3311809.01647  -2456084.50045  23142340.913    23142341.7544   23142345.0904
       160.0004        161.0004
 -19592742.17549 -15243786.03147  20700175.999    20700175.9254   20700182.5574
       210.0004        211.0004
  -8286251.97647  -6441750.23346  23225620.972    23225620.0074   23225625.3314
       163.0004        165.0004
 -20227573.47349 -15748012.09147  20847166.963    20847167.6114   20847175.1414
       198.0004        198.0004
  -8486863.14947  -6587441.60246  23240797.835    23240797.1104   23240801.5054
       164.0004        166.0004
  -5040396.32746  -3913730.12445  24779280.640    24779281.1034   24779285.9474
       134.0004        141.0004
  -2876875.43448  -2213827.30747  23745354.886    23745355.6514   23745363.4464
       188.0004        188.0004
 -23653599.96349 -18410401.12948  20071961.501    20071961.6914   20071965.6654
       216.0004        217.0004
 -15752055.04749 -12254128.11147  21672102.253    21672102.7114   21672106.7814
       196.0004        197.0004
 21  2  4  1 23 30.0000000  0 10G14G28G30G21G01G19G22G09G07G17
  -6024289.58548  -4685254.10946  22530951.365    22530951.9364   22530955.2684
       178.0004        178.0004
  -3338171.95247  -2476627.04145  23137324.561    23137324.0064   23137328.3904
       160.0004        160.0004
 -19642658.74449 -15282682.05947  20690677.050    20690676.9804   20690683.5974
       211.0004        212.0004
  -8204598.89447  -6378124.46546  23241158.578    23241157.9284   23241162.7034
       163.0004        165.0004
 -20202095.42449 -15728159.05147  20852015.078    20852015.9084   20852023.7544
       198.0004        198.0004
  -8549238.49448  -6636045.77646  23228928.142    23228927.6764   23228931.2844
       165.0004        168.0004
  -5062646.09747  -3931067.59545  24775048.046    24775048.7024   24775051.0644
       135.0004        141.0004
  -2798440.59148  -2152709.25846  23760282.790    23760282.2884   23760288.3424
       187.0004        187.0004
 -23645784.80949 -18404311.38448  20073447.658    20073448.2194   20073452.6474
       215.0004        216.0004
 -15769776.67049 -12267937.15047  21668729.520    21668730.0084   21668734.8654
       196.0004        196.0004
 21  2  4  1 24  0.0000000  0 10G14G28G30G21G01G19G22G09G07G17
  -6058608.65048  -4711996.24746  22524420.077    22524420.8104   22524425.3334
       178.0004        178.0004
  -3364667.79347  -2497273.12745  23132281.789    23132281.5844   23132286.1954
       159.0004        161.0004
 -19692129.92049 -15321231.03047  20681262.139    20681262.6324   20681269.7134
       211.0004        211.0004
  -8122627.82547  -6314250.90846  23256757.668    23256756.9284   23256761.8844
       164.0004        166.0004
 -20176007.59949 -15707830.86647  20856979.869    20856980.8284   20856987.2374
       198.0004        198.0004
  -8611292.20748  -6684399.30746  23217119.908    23217118.9844   23217123.2394
       167.0004        168.0004
  -5084795.42147  -3948326.76545  24770832.807    24770834.0304   24770836.8824
       135.0004        141.0004
  -2720103.42648  -2091667.29846  23775186.527    23775187.2904   23775195.9834
       186.0004        186.0004
 -23637389.26249 -18397769.40348  20075045.547    20075046.0804   20075050.2334
       215.0004        216.0004
 -15787120.47549 -12281451.78847  21665429.996    21665430.2084   21665434.6454
       197.0004        197.0004
 21  2  4  1 24 30.0000000  0 10G14G28G30G21G01G19G22G09G07G17
  -6093000.10648  -4738794.76146  22517875.583    22517876.5414   22517881.3494
       178.0004        179.0004
  -3391296.28847  -2518022.60045  23127215.708    23127214.9964   23127219.4864
       159.0004        162.0004
 -19741153.02349 -15359430.85947  20671934.110    20671933.8784   20671940.8594
       211.0004        211.0004
  -8040340.53147  -6250130.94846  23272414.744    23272414.9454   23272419.7874
       163.0004        164.0004
 -20149310.16449 -15687027.66647  20862060.633    20862061.1154   20862067.8024
       198.0004        198.0004
  -8673023.46848  -6732501.54946  23205371.905    23205371.1944   23205375.4504
       165.0004        166.0004
  -5106841.79846  -3965505.75445  24766637.833    24766636.9634   24766640.4054
       134.0004        140.0004
  -2641865.88348  -2030703.01647  23790076.581    23790076.7364   23790083.7154
       187.0004        189.0004
 -23628412.33049 -18390774.40448  20076754.110    20076754.4824   20076758.6544
       215.0004        217.0004
 -15804087.08949 -12294672.51747  21662201.211    21662201.5024   21662205.5264
       197.0004        197.0004
 21  2  4  1 25  0.0000000  0 10G14G28G30G21G01G19G22G09G07G17
  -6127463.25248  -4765649.15046  22511317.437    22511318.3244   22511323.2644
       179.0004        179.0004
  -3418057.46047  -2538875.44946  23122123.117    23122123.2284   23122126.6844
       160.0004        163.0004
 -19789725.38549 -15397279.45347  20662690.479    20662690.6054   20662697.8124
       211.0004        211.0004
  -7957738.59847  -6185765.79945  23288133.412    23288132.6534   23288139.0294
       162.0004        162.0004
 -20122003.35149 -15665749.60647  20867256.883    20867257.1834   20867264.4534
       198.0004        198.0004
  -8734431.28648  -6780351.77946  23193687.130    23193686.6134   23193690.7674
       165.0004        167.0004
  -5128782.37747  -3982602.28745  24762464.626    24762461.5634   24762464.8234
       136.0004        142.0004
  -2563730.00348  -1969817.93947  23804945.925    23804946.2534   23804952.8554
       190.0004        191.0004
 -23618853.28049 -18383325.79848  20078573.028    20078573.5564   20078577.5714
       215.0004        216.0004
 -15820677.17749 -12307599.84447  21659044.360    21659044.2144   21659048.6964
       197.0004        197.0004
 21  2  4  1 25 30.0000000  0 10G14G28G30G21G01G19G22G09G07G17
  -6161999.45148  -4792560.47746  22504745.450    22504746.1594   22504750.7834
       179.0004        179.0004
  -3444953.16247  -2559833.15246  23117005.077    23117004.5814   23117008.8924
       161.0004        163.0004
 -19837846.48549 -15434776.42647  20653533.819    20653533.8834   20653540.8414
       212.0004        212.0004
  -7874825.98247  -6121158.57346  23303911.587    23303910.4484   23303916.6724
       162.0004        163.0004
 -20094089.42649 -15643998.49647  20872567.793    20872568.6804   20872576.3364
       197.0004        197.0004
  -8795517.24148  -6827951.19146  23182062.921    23182061.7404   23182066.2104
       166.0004        168.0004
  -5150616.57947  -3999615.94345  24758308.584    24758307.8024   24758310.9254
       136.0004        142.0004
  -2485699.82948  -1909015.21047  23819792.492    23819793.0434   23819802.3154
       190.0004        190.0004
 -23608713.35249 -18375424.57048  20080502.670    20080502.9874   20080507.5194
       215.0004        216.0004
 -15836893.85249 -12320236.20447  21655958.312    21655958.5444   21655962.7304
       197.0004        197.0004
 21  2  4  1 26  0.0000000  0 11G14G28G30G21G01G19G22G09G07G17G03
  -6196605.79548  -4819526.44946  22498160.621    22498161.1054   22498165.6134
       179.0004        179.0004
  -3471980.99547  -2580893.79445  23111861.962    23111862.3694   23111865.2344
       161.0004        162.0004
 -19885511.47549 -15471917.97847  20644463.127    20644463.1564   20644470.3794
       212.0004        212.0004
  -7791602.76347  -6056309.31646  23319748.133    23319748.4664   23319753.7274
       161.0004        163.0004
 -20065566.48649 -15621772.80947  20877995.810    20877996.6564   20878004.1864
       198.0004        198.0004
  -8856278.38448  -6875297.51046  23170500.893    23170499.7154   23170503.6604
       167.0004        168.0004
  -5172339.40647  -4016542.79245  24754174.344    24754174.5974   24754175.8794
       138.0004        144.0004
  -2407775.12248  -1848294.66147  23834621.714    23834622.2864   23834630.4474
       190.0004        191.0004
 -23597989.37949 -18367068.23048  20082543.280    20082543.6884   20082547.8284
       215.0004        216.0004
 -15852735.89949 -12332580.63147  21652943.466    21652943.4874   21652947.9794
       196.0004        196.0004
  -4588063.37158  -3565978.30846  24699072.019    24699073.3605   24699081.7704
       169.0004        171.0004
 21  2  4  1 26 30.0000000  0 11G14G28G30G21G01G19G22G09G07G17G03
  -6231283.58148  -4846548.11746  22491560.818    22491561.3804   22491566.5734
       178.0004        178.0004
  -3499143.07547  -2602059.06345  23106691.541    23106691.5584   23106695.9254
       158.0004        159.0004
 -19932719.75149 -15508703.65848  20635479.528    20635479.9954   20635487.3384
       212.0004        213.0004
  -7708072.82747  -5991221.06045  23335643.555    23335643.1614   23335648.5884
       159.0004        160.0004
 -20036436.81149 -15599074.36947  20883539.539    20883540.2134   20883547.2684
       198.0004        198.0004
  -8916715.94648  -6922391.66946  23158999.651    23158998.8714   23159002.6074
       167.0004        169.0004
  -5193950.00347  -4033382.24745  24750061.762    24750061.3194   24750066.0914
       139.0004        144.0004
  -2329959.81048  -1787659.38347  23849429.805    23849430.5344   23849437.3954
       190.0004        191.0004
 -23586682.83849 -18358257.95048  20084695.086    20084695.3744   20084699.4914
       215.0004        216.0004
 -15868206.10249 -12344635.31847  21649999.294    21649999.4034   21650004.4174
       196.0004        197.0004
  -4626133.87548  -3595643.61046  24691828.007    24691829.4164   24691837.1664
       173.0004        176.0004
 21  2  4  1 27  0.0000000  0 11G14G28G30G21G01G19G22G09G07G17G03
  -6266032.76048  -4873625.38746  22484948.860    22484950.0124   22484953.7804
       177.0004        177.0004
  -3526439.61747  -2623329.08245  23101498.281    23101498.1914   23101502.2734
       159.0004        162.0004
 -19979469.40949 -15545131.96148  20626584.319    20626584.1564   20626591.0914
       213.0004        213.0004
  -7624238.29447  -5925895.44245  23351596.625    23351596.6594   23351600.9734
       159.0004        161.0004
 -20006701.43649 -15575903.91847  20889197.928    20889197.7514   20889205.4764
       198.0004        197.0004
  -8976829.95748  -6969233.70946  23147560.456    23147559.3624   23147563.7864
       168.0004        169.0004
  -5215446.69947  -4050132.89145  24745970.210    24745969.0504   24745974.3174
       137.0004        141.0004
  -2252256.56448  -1727111.42547  23864215.572    23864216.4864   23864223.9034
       190.0004        189.0004
 -23574793.77849 -18348993.76248  20086957.455    20086957.9734   20086961.8104
       215.0004        216.0004
 -15883306.04149 -12356401.49747  21647126.629    21647126.8214   21647131.0664
       197.0004        197.0004
  -4664296.00548  -3625380.31846  24684565.590    24684566.6914   24684574.6724
       174.0004        175.0004
 21  2  4  1 27 30.0000000  0 11G14G28G30G21G01G19G22G09G07G17G03
  -6300852.04848  -4900757.29346  22478321.200    22478322.2424   22478327.7494
       176.0004        176.0004
  -3553870.01847  -2644703.40745  23096278.537    23096277.2204   23096283.1124
       160.0004        162.0004
 -20025757.30649 -15581200.46048  20617775.564    20617775.6754   20617782.8814
       213.0004        214.0004
  -7540100.89147  -5860333.82845  23367607.356    23367606.9884   23367611.6444
       158.0004        161.0004
 -19976360.11849 -15552261.32747  20894971.554    20894971.9204   20894979.7884
       197.0004        198.0004
  -9036619.34348  -7015822.80346  23136181.903    23136181.9514   23136185.5634
       169.0004        170.0004
  -5236826.22347  -4066792.22945  24741902.383    24741901.8744   24741906.5674
       137.0004        142.0004
  -2174666.78148  -1666651.87647  23878982.132    23878981.7724   23878989.3414
       188.0004        188.0004
 -23562320.72849 -18339274.51148  20089330.960    20089331.3784   20089335.3374
       215.0004        215.0004
 -15898035.98049 -12367879.36247  21644323.365    21644323.2794   21644327.9504
       196.0004        196.0004
  -4702546.36948  -3655185.82046  24677288.139    24677289.0944   24677295.5184
       175.0004        177.0004
 21  2  4  1 28  0.0000000  0 11G14G28G30G21G01G19G22G09G07G17G03
  -6335742.09848  -4927944.34046  22471684.541    22471684.9644   22471688.8314
       178.0004        179.0004
  -3581435.46047  -2666182.95345  23091033.178    23091032.9944   23091036.9384
       160.0004        162.0004
 -20071582.40549 -15616908.32248  20609055.257    20609055.4274   20609062.5974
       213.0004        214.0004
  -7455664.30947  -5794539.10945  23383674.849    23383674.7614   23383679.4284
       157.0004        159.0004
 -19945414.78749 -15528148.06147  20900859.840    20900860.4764   20900868.4184
       198.0004        198.0004
  -9096084.72148  -7062159.43746  23124867.522    23124866.8604   23124869.8614
       171.0004        174.0004
  -5258087.14247  -4083359.15245  24737856.199    24737856.0154   24737859.7994
       138.0004        143.0004
  -2097193.85848  -1606283.37946  23893724.379    23893724.3664   23893731.1874
       187.0004        187.0004
 -23549264.26649 -18329100.62448  20091815.301    20091816.0004   20091819.8534
       215.0004        216.0004
 -15912398.26749 -12379070.73247  21641589.387    21641589.7864   21641594.5284
       195.0004        194.0004
  -4740883.80648  -3685059.17646  24669995.141    24669994.7124   24670000.4074
       176.0004        178.0004
 21  2  4  1 28 30.0000000  0 11G14G28G30G21G01G19G22G09G07G17G03
  -6370702.21148  -4955185.99146  22465030.052    22465030.6334   22465036.3694
       178.0004        179.0004
  -3609135.58747  -2687767.47445  23085761.990    23085761.4934   23085765.6954
       161.0004        162.0004
 -20116942.12049 -15652253.57848  20600424.156    20600424.0124   20600431.1344
       214.0004        214.0004
  -7370930.50947  -5728512.76645  23399799.437    23399798.6624   23399802.9544
       156.0004        157.0004
 -19913865.78749 -15503564.42847  20906863.294    20906863.7584   20906872.0484
       198.0004        198.0004
  -9155225.50748  -7108243.12646  23113612.604    23113611.4124   23113615.6594
       172.0004        173.0004
  -5279226.62347  -4099831.42945  24733834.718    24733833.5104   24733837.5004
       140.0004        145.0004
  -2019839.69248  -1546007.43647  23908445.451    23908444.8264   23908451.9994
       188.0004        189.0004
 -23535624.13749 -18318471.96848  20094410.882    20094411.2874   20094415.8004
       214.0004        215.0004
 -15926393.64248 -12389976.22347  21638926.528    21638926.6144   21638931.3714
       194.0004        194.0004
  -4779305.58248  -3714998.21346  24662680.955    24662681.3604   24662689.1434
       173.0004        172.0004
 21  2  4  1 29  0.0000000  0 11G14G28G30G21G01G19G22G09G07G17G03
  -6405731.90448  -4982481.86846  22458365.845    22458366.3064   22458370.1044
       179.0004        179.0004
  -3636970.45447  -2709456.98146  23080465.763    23080465.0414   23080469.7574
       162.0004        163.0004
 -20161834.27349 -15687234.48148  20591880.950    20591881.1204   20591888.4454
       214.0004        214.0004
  -7285901.90547  -5662256.70245  23415980.250    23415979.0454   23415984.3014
       156.0004        158.0004
 -19881713.96449 -15478511.05147  20912982.002    20912982.4954   20912989.6074
       197.0004        197.0004
  -9214041.35448  -7154073.64646  23102419.849    23102418.9984   23102423.5754
       172.0004        173.0004
  -5300242.66847  -4116207.53645  24729838.952    24729835.9944   24729838.4784
       142.0004        147.0004
  -1942606.55948  -1485825.78847  23923140.331    23923141.0334   23923148.6254
       188.0004        188.0004
 -23521399.86349 -18307388.12748  20097117.989    20097118.2644   20097122.4184
       214.0004        215.0004
 -15940024.00048 -12400597.27347  21636333.018    21636333.2194   21636337.9074
       194.0004        195.0004
  -4817809.40048  -3745001.10346  24655349.754    24655352.0934   24655362.8334
       170.0004        170.0004
 21  2  4  1 29 30.0000000  0 11G14G28G30G21G01G19G22G09G07G17G03
  -6440830.13448  -5009831.11646  22451685.110    22451686.1674   22451691.1044
       179.0004        179.0004
  -3664939.71647  -2731251.18545  23075141.405    23075142.1664   23075147.7494
       160.0004        161.0004
 -20206256.04949 -15721848.86248  20583428.367    20583428.5384   20583435.0574
       214.0004        214.0004
  -7200579.77747  -5595771.91345  23432216.000    23432215.1204   23432220.6204
       157.0004        159.0004
 -19848959.43149 -15452988.03447  20919214.395    20919215.0674   20919222.4974
       196.0004        196.0004
  -9272531.46148  -7199650.34946  23091290.020    23091289.3344   23091292.5154
       171.0004        171.0004
  -5321132.28647  -4132485.13245  24725860.031    24725858.5164   24725863.2684
       143.0004        146.0004
  -1865496.02348  -1425739.68846  23937815.004    23937815.4524   23937822.4014
       187.0004        186.0004
 -23506590.62649 -18295848.46748  20099935.623    20099936.3814   20099940.4134
       214.0004        215.0004
 -15953289.24449 -12410933.80447  21633808.437    21633809.3744   21633813.1284
       195.0004        196.0004
  -4856392.08048  -3775065.47446  24648011.781    24648012.2874   24648020.8424
       171.0004        173.0004
 21  2  4  1 30  0.0000000  0 11G14G28G30G21G01G19G22G09G07G17G03
  -6475996.57648  -5037233.53746  22444994.031    22444994.4844   22444998.9874
       178.0004        178.0004
  -3693043.70547  -2753150.38645  23069795.579    23069794.8144   23069798.9664
       160.0004        162.0004
 -20250205.45449 -15756095.14848  20575065.331    20575064.7624   20575071.6504
       214.0004        214.0004
  -7114966.27847  -5529060.10145  23448507.375    23448507.5964   23448513.0594
       158.0004        160.0004
 -19815603.24749 -15426996.18847  20925561.840    20925562.7774   20925570.3964
       196.0004        197.0004
  -9330695.78748  -7244973.16746  23080221.418    23080221.3134   23080225.0794
       171.0004        173.0004
  -5341893.29047  -4148662.51145  24721907.679    24721906.6474   24721912.1894
       142.0004        145.0004
  -1788510.49548  -1365750.98446  23952463.271    23952464.3744   23952471.7704
       185.0004        183.0004
 -23491196.26449 -18283852.86348  20102865.485    20102865.7264   20102870.1714
       214.0004        215.0004
 -15966191.67949 -12420987.62947  21631353.227    21631353.4604   21631358.1474
       196.0004        197.0004
  -4895051.46148  -3805189.61246  24640656.978    24640656.8014   24640662.6934
       174.0004        176.0004
 21  2  4  1 30 30.0000000  0 11G14G28G30G21G01G19G22G09G07G17G03
  -6511231.31548  -5064689.19046  22438289.027    22438289.7784   22438293.9314
       177.0004        176.0004
  -3721282.78547  -2775154.87645  23064421.142    23064421.1044   23064425.8074
       160.0004        161.0004
 -20293680.92549 -15789972.14348  20566791.908    20566791.6854   20566798.2874
       214.0004        214.0004
  -7029064.71347  -5462123.83145  23464854.383    23464853.0374   23464859.8244
       158.0004        161.0004
 -19781646.82649 -15400536.63547  20932023.718    20932025.1644   20932031.7564
       197.0004        197.0004
  -9388534.52048  -7290042.32446  23069215.624    23069213.9904   23069219.5764
       172.0004        172.0004
  -5362523.91347  -4164738.29045  24717981.012    24717982.2044   24717986.8284
       139.0004        143.0004
  -1711652.73448  -1305861.84846  23967090.478    23967090.4234   23967096.7454
       183.0004        183.0004
 -23475217.04649 -18271401.54048  20105905.707    20105906.3984   20105910.6734
       214.0004        215.0004
 -15978732.92049 -12430760.01147  21628966.373    21628966.7404   21628972.1054
       197.0004        197.0004
  -4933785.73448  -3835372.09146  24633284.973    24633285.9204   24633291.9474
       176.0004        177.0004
 21  2  4  1 31  0.0000000  0 11G14G28G30G21G01G19G22G09G07G17G03
  -6546533.25948  -5092197.16946  22431569.720    22431571.6024   22431576.5024
       176.0004        176.0004
  -3749656.52447  -2797264.26645  23059020.376    23059020.9104   23059025.4494
       158.0004        160.0004
 -20336679.65249 -15823477.65648  20558609.012    20558609.2754   20558615.8844
       214.0004        214.0004
  -6942877.09047  -5394964.66745  23481255.799    23481255.0254   23481261.7184
       159.0004        161.0004
 -19747090.43949 -15373609.57347  20938599.335    20938600.4684   20938607.4224
       196.0004        196.0004
  -9446046.69148  -7334856.99046  23058270.980    23058270.7004   23058274.0164
       170.0004        169.0004
  -5383021.02247  -4180710.04445  24714083.202    24714081.9754   24714086.0584
       139.0004        144.0004
  -1634924.34748  -1246073.52546  23981692.534    23981692.1314   23981698.5324
       185.0004        186.0004
 -23458652.24649 -18258493.90848  20109058.381    20109058.7974   20109062.9164
       214.0004        215.0004
 -15990913.30449 -12440251.20847  21626648.710    21626649.6334   21626653.3784
       196.0004        197.0004
  -4972591.81948  -3865610.53346  24625899.916    24625900.0654   24625906.9704
       172.0004        171.0004
 21  2  4  1 31 30.0000000  0 11G14G28G30G21G01G19G22G09G07G17G03
  -6581902.66648  -5119757.75546  22424841.378    22424841.7534   22424845.9324
       177.0004        177.0004
  -3778165.85047  -2819479.33745  23053596.853    23053596.7934   23053599.4644
       159.0004        161.0004
 -20379200.35449 -15856610.67048  20550517.684    20550517.6964   20550524.4914
       214.0004        214.0004
  -6856406.42147  -5327584.90645  23497711.138    23497710.4494   23497715.7564
       160.0004        162.0004
 -19711935.79749 -15346216.34247  20945289.177    20945289.8074   20945297.3604
       196.0004        196.0004
  -9503233.15448  -7379417.87246  23047388.161    23047388.7434   23047391.4354
       168.0004        170.0004
  -5403383.29747  -4196576.76045  24710208.560    24710208.1624   24710211.0004
       139.0004        144.0004
  -1558328.31348  -1186388.31447  23996268.325    23996268.2444   23996275.4494
       188.0004        189.0004
 -23441502.70949 -18245130.63948  20112321.059    20112321.8604   20112326.5264
       214.0004        214.0004
 -16002735.12149 -12449462.99147  21624399.781    21624400.0344   21624403.9994
       197.0004        197.0004
  -5011468.13148  -3895903.71946  24618499.169    24618500.1244   24618509.7834
       165.0004        165.0004
 21  2  4  1 32  0.0000000  0 11G14G28G30G21G01G19G22G09G07G17G03
  -6617338.75348  -5147370.26746  22418096.815    22418097.9264   22418102.4824
       176.0004        175.0004
  -3806810.01847  -2841799.44445  23048145.304    23048145.4074   23048149.3914
       160.0004        161.0004
 -20421240.61249 -15889369.30348  20542517.565    20542517.7244   20542524.7174
       214.0004        214.0004
  -6769654.13447  -5259985.73745  23514218.435    23514217.2834   23514224.2434
       160.0004        162.0004
 -19676183.54049 -15318357.42047  20952093.227    20952093.1274   20952100.6654
       196.0004        196.0004
  -9560093.06548  -7423724.28046  23036569.011    23036567.9004   23036571.9264
       171.0004        172.0004
  -5423607.94347  -4212336.19945  24706359.945    24706358.4984   24706364.2854
       140.0004        144.0004
  -1481866.41148  -1126807.64846  24010817.404    24010817.3104   24010825.9674
       187.0004        186.0004
 -23423767.88049 -18231311.28748  20115695.749    20115696.6694   20115701.5164
       213.0004        215.0004
 -16014199.77749 -12458396.46347  21622217.780    21622218.4664   21622222.8294
       196.0004        196.0004
  -5050411.91247  -3926249.47046  24611089.716    24611090.1094   24611099.1564
       162.0004        163.0004
 21  2  4  1 32 30.0000000  0 11G14G28G30G21G01G19G22G09G07G17G03
  -6652841.04048  -5175034.40646  22411341.882    22411341.9964   22411346.2814
       175.0004        175.0004
  -3835589.69147  -2864225.16745  23042668.569    23042668.1144   23042673.1754
       159.0004        160.0004
 -20462798.43149 -15921752.03548  20534609.413    20534609.4894   20534616.5384
       214.0004        214.0004
  -6682623.05847  -5192169.35045  23530779.331    23530779.2264   23530786.8294
       159.0004        161.0004
 -19639834.70149 -15290033.64947  20959011.087    20959011.1534   20959018.0964
       196.0004        197.0004
  -9616626.44048  -7467776.24146  23025811.309    23025810.1974   23025814.3734
       172.0004        174.0004
  -5443692.77047  -4227986.70145  24702536.822    24702536.1244   24702541.0574
       138.0004        142.0004
  -1405540.98948  -1067333.32046  24025339.891    24025341.0824   24025349.8644
       185.0004        184.0004
 -23405447.56549 -18217035.74248  20119183.018    20119183.2964   20119187.5574
       214.0004        215.0004
 -16025308.38349 -12467052.52047  21620103.341    21620103.5054   21620108.8924
       195.0004        196.0004
  -5089420.72247  -3956645.95046  24603669.809    24603668.5324   24603676.4424
       163.0004        165.0004
 21  2  4  1 33  0.0000000  0 11G14G28G30G21G01G19G22G09G07G17G03
  -6688408.58848  -5202749.35446  22404573.031    22404573.1144   22404577.6874
       175.0004        176.0004
  -3864504.40347  -2886756.08945  23037166.947    23037166.5404   23037170.9704
       158.0004        161.0004
 -20503871.27249 -15953756.84148  20526793.638    20526793.7324   20526800.5604
       214.0004        214.0004
  -6595315.20247  -5124137.23545  23547394.244    23547394.1954   23547399.5144
       159.0004        161.0004
 -19602889.88949 -15261245.46747  20966040.195    20966040.6834   20966048.8064
       197.0004        196.0004
  -9672832.86448  -7511573.42746  23015114.489    23015114.5744   23015118.1034
       172.0004        172.0004
  -5463634.97547  -4243526.06045  24698741.565    24698741.1434   24698746.3924
       135.0004        141.0004
  -1329353.75248  -1007966.65346  24039839.399    24039839.6854   24039847.4954
       183.0004        183.0004
 -23386541.45749 -18202303.69948  20122779.924    20122780.4644   20122785.3334
       213.0004        214.0004
 -16036061.98049 -12475431.91247  21618056.680    21618057.4164   21618062.1864
       196.0004        196.0004
  -5128491.65847  -3987090.74746  24596231.784    24596232.6634   24596240.7334
       163.0004        165.0004
 21  2  4  1 33 30.0000000  0 11G14G28G30G21G01G19G22G09G07G17G03
  -6724041.21248  -5230515.05046  22397794.409    22397793.8584   22397797.3504
       176.0004        177.0004
  -3893554.23847  -2909392.31945  23031637.690    23031637.6054   23031642.5654
       159.0004        160.0004
 -20544457.53749 -15985382.51248  20519070.123    20519070.1294   20519077.2314
       214.0004        215.0004
  -6507733.37647  -5055891.64645  23564059.990    23564059.4554   23564065.4614
       159.0004        160.0004
 -19565350.55449 -15231994.03647  20973182.895    20973183.8234   20973191.8534
       196.0004        196.0004
  -9728712.16048  -7555115.73446  23004481.972    23004480.7174   23004484.9304
       172.0004        173.0004
  -5483432.68147  -4258952.82745  24694974.747    24694973.7504   24694978.5864
       137.0004        142.0004
  -1253307.28448   -948709.68846  24054309.131    24054310.2564   24054318.5904
       182.0004        182.0004
 -23367049.77049 -18187115.38548  20126489.365    20126489.8124   20126494.2564
       213.0004        214.0004
 -16046462.16249 -12483535.93947  21616078.848    21616078.8034   21616083.2094
       196.0004        197.0004
  -5167622.82748  -4017582.52946  24588786.317    24588787.7784   24588793.7794
       166.0004        169.0004
 21  2  4  1 34  0.0000000  0 11G14G28G30G21G01G19G22G09G07G17G03
  -6759738.75548  -5258331.30446  22390999.111    22390999.7274   22391004.0444
       176.0004        176.0004
  -3922739.55447  -2932134.11645  23026083.538    23026085.1624   23026088.4894
       158.0004        161.0004
 -20584555.50949 -16016627.68248  20511439.929    20511439.9794   20511446.8624
       214.0004        215.0004
  -6419880.14047  -4987434.59545  23580778.122    23580777.8674   23580783.3034
       158.0004        160.0004
 -19527218.07149 -15202280.40447  20980440.020    20980440.8374   20980448.1474
       196.0004        196.0004
  -9784264.75848  -7598403.44746  22993909.801    22993909.8864   22993913.1914
       173.0004        174.0004
  -5503083.79247  -4274265.37545  24691237.052    24691236.0404   24691239.3474
       139.0004        144.0004
  -1177403.96148   -889564.28646  24068754.652    24068754.6014   24068763.1294
       182.0004        183.0004
 -23346973.04949 -18171471.19748  20130310.277    20130310.4584   20130314.5014
       213.0004        214.0004
 -16056511.04949 -12491366.22647  21614165.704    21614166.5094   21614170.9214
       196.0004        196.0004
  -5206812.00548  -4048119.54846  24581327.549    24581328.5644   24581337.3624
       169.0004        171.0004
 21  2  4  1 34 30.0000000  0 11G14G28G30G21G01G19G22G09G07G17G03
  -6795500.07648  -5286197.24746  22384193.954    22384194.2894   22384199.8704
       177.0004        176.0004
  -3952060.05647  -2954981.26645  23020504.634    23020505.3924   23020509.8654
       159.0004        162.0004
 -20624162.65249 -16047490.39348  20503902.840    20503902.5834   20503909.5594
       214.0004        214.0004
  -6331757.19047  -4918767.37545  23597548.761    23597548.1374   23597552.1064
       159.0004        161.0004
 -19488493.01649 -15172105.02347  20987809.440    20987809.8054   20987817.4374
       196.0004        196.0004
  -9839490.10348  -7641436.17146  22983401.401    22983400.7204   22983404.6694
       174.0004        176.0004
  -5522585.54847  -4289461.55245  24687523.850    24687521.8094   24687528.1284
       138.0004        142.0004
  -1101645.49148   -830531.74546  24083171.651    24083172.0384   24083178.9854
       184.0004        184.0004
 -23326310.67149 -18155370.64848  20134240.833    20134241.9884   20134247.0314
       213.0004        214.0004
 -16066209.57949 -12498923.51047  21612320.623    21612320.5214   21612324.9064
       196.0004        196.0004
  -5246056.17148  -4078699.42946  24573861.205    24573862.2764   24573870.0164
       171.0004        172.0004
 21  2  4  1 35  0.0000000  0 11G14G28G30G21G01G19G22G09G07G17G03
  -6831325.63348  -5314113.27046  22377376.852    22377377.3364   22377382.2614
       177.0004        177.0004
  -3981516.42947  -2977934.27545  23014898.879    23014899.3534   23014904.8114
       159.0004        162.0004
 -20663277.99449 -16077969.89148  20496458.965    20496459.2354   20496466.2424
       214.0004        214.0004
  -6243368.12047  -4849892.76645  23614367.431    23614367.4384   23614371.7414
       158.0004        159.0004
 -19449177.53749 -15141469.58747  20995290.770    20995291.3704   20995298.7394
       196.0004        196.0004
  -9894388.80748  -7684214.38146  22972954.443    22972953.4114   22972958.2934
       174.0004        174.0004
  -5541936.77647  -4304540.41045  24683842.129    24683841.7264   24683841.7884
       136.0004        141.0004
  -1026034.97548   -771614.47446  24097559.651    24097559.4254   24097566.1984
       181.0004        179.0004
 -23305063.57949 -18138814.48648  20138285.505    20138285.7404   20138290.0384
       213.0004        214.0004
 -16075560.17949 -12506209.68547  21610541.100    21610541.6124   21610545.9844
       197.0004        197.0004
  -5285353.91348  -4109321.03646  24566381.989    24566383.0444   24566391.0104
       169.0004        169.0004
 21  2  4  1 35 30.0000000  0 12G14G28G30G21G01G06G19G22G09G07G17G03
  -6867213.74648  -5342078.03546  22370548.110    22370548.2904   22370552.4184
       177.0004        177.0004
  -4011107.72847  -3000992.41145  23009268.097    23009268.4794   23009272.6464
       160.0004        162.0004
 -20701898.49849 -16108063.78348  20489110.384    20489110.2294   20489117.1034
       214.0004        215.0004
  -6154714.36147  -4780811.91245  23631238.189    23631237.0134   23631241.2894
       156.0004        157.0004
 -19409271.74049 -15110374.14847  21002884.920    21002885.1544   21002892.3134
       195.0004        195.0004
   -657344.87156   -482206.18845  24208725.304                    24208732.9954
       133.0004        150.0004
  -9948960.17548  -7726737.51646  22962570.166    22962569.1624   22962572.9764
       174.0004        176.0004
  -5561134.12447  -4319499.40845  24680190.931    24680189.2124   24680191.5474
       137.0004        142.0004
   -950573.43548   -712813.31946  24111918.231    24111918.5914   24111926.3404
       177.0004        176.0004
 -23283231.03249 -18121802.10248  20142439.127    20142439.9364   20142444.5564
       213.0004        213.0004
 -16084563.05849 -12513224.89147  21608828.326    21608828.3074   21608832.3354
       197.0004        197.0004
  -5324701.68048  -4139981.62146  24558895.206    24558895.5114   24558903.4734
       166.0004        166.0004
 21  2  4  1 36  0.0000000  0 12G14G28G30G21G01G06G19G22G09G07G17G03
  -6903164.02648  -5370091.23646  22363706.036    22363706.9014   22363711.4024
       177.0004        177.0004
  -4040833.87447  -3024155.64146  23003611.409    23003611.5794   23003616.7814
       160.0004        163.0004
 -20740022.37049 -16137770.71048  20481855.875    20481855.6954   20481862.1854
       215.0004        215.0004
  -6065798.35847  -4711526.70245  23648157.982    23648157.4594   23648162.4584
       155.0004        159.0004
 -19368776.94149 -15078819.76247  21010590.090    21010590.8314   21010598.2614
       195.0004        195.0004
   -765849.39147   -566755.04145  24188078.288    24188079.0264   24188087.7524
       145.0004        151.0004
 -10003203.94248  -7769005.36846  22952247.053    22952246.4524   22952250.9744
       174.0004        175.0004
  -5580175.23647  -4334336.65145  24676565.294    24676564.3794   24676569.3244
       137.0004        142.0004
   -875263.17748   -654130.05046  24126249.300    24126249.8174   24126258.2384
       176.0004        177.0004
 -23260813.09149 -18104333.59448  20146705.857    20146706.2394   20146710.3404
       213.0004        214.0004
 -16093219.96949 -12519970.54347  21607180.244    21607180.5814   21607184.6184
       196.0004        195.0004
  -5364097.14348  -4170679.35146  24551397.571    24551398.3404   24551406.9604
       165.0004        167.0004
 21  2  4  1 36 30.0000000  0 12G14G28G30G21G01G06G19G22G09G07G17G03
  -6939176.18948  -5398152.67146  22356853.155    22356853.5404   22356859.2374
       177.0004        176.0004
  -4070695.35847  -3047424.33446  22997929.241    22997929.7834   22997933.7994
       161.0004        164.0004
 -20777648.04349 -16167089.42248  20474695.671    20474695.6824   20474702.6544
       215.0004        215.0004
  -5976622.63347  -4642039.13645  23665127.922    23665126.9064   23665130.7644
       155.0004        156.0004
 -19327694.70349 -15046807.63647  21018408.374    21018408.9154   21018416.0574
       208.0004        211.0004
   -874323.51547   -651280.29145  24167436.986    24167437.0414   24167445.8384
       146.0004        150.0004
 -10057120.45748  -7811018.21646  22941987.936    22941986.5334   22941990.4904
       173.0004        174.0004
  -5599058.29547  -4349050.73245  24672971.902    24672970.3524   24672975.2544
       138.0004        143.0004
   -800106.61648   -595566.52846  24140551.621    24140552.5464   24140560.3184
       178.0004        180.0004
 -23237810.43749 -18086409.46448  20151083.029    20151083.3294   20151087.7944
       213.0004        213.0004
 -16101532.55949 -12526447.88147  21605599.040    21605598.8364   21605603.4884
       195.0004        196.0004
  -5403538.23648  -4201412.64946  24543891.554    24543892.8384   24543900.8454
       166.0004        167.0004
 21  2  4  1 37  0.0000000  0 12G14G28G30G21G01G06G19G22G09G07G17G03
  -6975249.30348  -5426261.57946  22349989.578    22349989.7224   22349994.6564
       176.0004        175.0004
  -4100691.78647  -3070798.14945  22992221.808    22992221.4164   22992225.3634
       161.0004        162.0004
 -20814773.25249 -16196018.15248  20467630.865    20467630.9314   20467637.8774
       215.0004        215.0004
  -5887189.36947  -4572350.86545  23682145.929    23682145.4494   23682151.6014
       155.0004        156.0004
 -19286025.97649 -15014338.47847  21026336.706    21026337.6314   21026345.2904
       212.0004        211.0004
   -982764.14047   -735779.41745  24146800.974    24146801.9674   24146809.1124
       146.0004        150.0004
 -10110709.56448  -7852775.93246  22931789.897    22931789.7304   22931793.0074
       173.0004        174.0004
  -5617780.70447  -4363639.64545  24669405.847    24669406.5004   24669413.7034
       137.0004        142.0004
   -725105.53848   -537124.15946  24154823.783    24154824.1244   24154831.3804
       179.0004        180.0004
 -23214223.12449 -18068029.73648  20155571.533    20155572.1404   20155576.5794
       213.0004        213.0004
 -16109502.24149 -12532657.99547  21604082.276    21604082.9494   21604086.6214
       196.0004        197.0004
  -5443022.04248  -4232179.20946  24536379.916    24536380.5684   24536388.5014
       168.0004        170.0004
 21  2  4  1 37 30.0000000  0 12G14G28G30G21G01G06G19G22G09G07G17G03
  -7011383.37848  -5454418.01946  22343112.806    22343113.1744   22343117.7944
       175.0004        176.0004
  -4130823.88247  -3094277.72746  22986487.781    22986487.5544   22986490.7424
       161.0004        163.0004
 -20851396.74349 -16224555.95648  20460661.621    20460661.8114   20460668.5294
       215.0004        215.0004
  -5797501.40647  -4502464.15945  23699212.985    23699212.9674   23699218.8674
       155.0004        157.0004
 -19243772.62049 -14981413.79748  21034378.165    21034378.3234   21034385.8054
       222.0004        226.0004
  -1091169.13247   -820250.81045  24126171.645    24126172.3634   24126180.5674
       145.0004        148.0004
 -10163971.73548  -7894278.90646  22921654.166    22921654.4054   22921657.5044
       172.0004        173.0004
  -5636340.85147  -4378102.09345  24665873.146    24665875.0804   24665881.6004
       138.0004        142.0004
   -650262.61948   -478805.03746  24169066.674    24169066.4154   24169074.1144
       179.0004        179.0004
 -23190051.46649 -18049194.69448  20160171.003    20160171.5114   20160176.3164
       213.0004        213.0004
 -16117131.24649 -12538602.67747  21602630.242    21602630.9094   21602635.1354
       197.0004        197.0004
  -5482546.77248  -4262977.67646  24528858.953    24528858.2804   24528866.5974
       168.0004        169.0004
 21  2  4  1 38  0.0000000  0 12G14G28G30G21G01G06G19G22G09G07G17G03
  -7047577.26548  -5482621.05446  22336226.631    22336226.9264   22336230.3384
       176.0004        177.0004
  -4161090.62447  -3117862.20046  22980728.641    22980727.5754   22980732.5964
       161.0004        163.0004
 -20887516.18149 -16252700.97348  20453788.324    20453788.6254   20453795.4084
       215.0004        215.0004
  -5707561.15947  -4432380.85545  23716327.660    23716328.2694   23716334.8314
       155.0004        158.0004
 -19200935.46549 -14948034.18348  21042528.802    21042529.7924   21042537.7234
       225.0004        225.0004
  -1199535.33047   -904691.96045  24105550.946    24105550.7254   24105559.4494
       145.0004        150.0004
 -10216906.16648  -7935526.48646  22911580.398    22911579.8034   22911584.2334
       171.0004        171.0004
  -5654735.95647  -4392435.92345  24662376.482    24662377.1044   24662380.1224
       138.0004        143.0004
   -575579.42048   -420610.35246  24183277.636    24183278.0974   24183285.8634
       179.0004        180.0004
 -23165295.51249 -18029904.33648  20164881.635    20164882.6554   20164886.8754
       212.0004        213.0004
 -16124420.26149 -12544282.40147  21601243.177    21601243.7934   21601248.2864
       197.0004        198.0004
  -5522109.39948  -4293805.67146  24521330.800    24521330.5764   24521337.9864
       167.0004        168.0004
 21  2  4  1 38 30.0000000  0 12G14G28G30G21G01G06G19G22G09G07G17G03
  -7083830.88248  -5510870.61546  22329325.802    22329326.8024   22329331.1944
       176.0004        176.0004
  -4191492.59447  -3141552.04046  22974942.604    22974943.0044   22974947.3904
       162.0004        164.0004
 -20923130.19349 -16280452.16148  20447011.517    20447011.4194   20447018.0204
       215.0004        215.0004
  -5617371.38747  -4362103.12645  23733490.678    23733491.4274   23733496.6144
       158.0004        160.0004
 -19157516.34249 -14914201.10448  21050791.729    21050792.1254   21050799.8344
       225.0004        225.0004
  -1307860.46247   -989101.12045  24084937.241    24084937.5834   24084946.1554
       148.0004        152.0004
 -10269513.56248  -7976519.25046  22901569.751    22901568.6824   22901573.2844
       171.0004        173.0004
  -5672964.24647  -4406639.80445  24658908.565    24658907.3464   24658911.3874
       138.0004        143.0004
   -501058.56048   -362542.17146  24197459.517    24197459.3084   24197466.9164
       179.0004        179.0004
 -23139956.07649 -18010159.34048  20169705.423    20169705.2084   20169708.9724
       213.0004        214.0004
 -16131371.56449 -12549698.98747  21599920.569    21599920.9334   21599925.4044
       197.0004        198.0004
  -5561707.95248  -4324661.65246  24513793.182    24513794.3174   24513801.1394
       165.0004        166.0004
 21  2  4  1 39  0.0000000  0 12G14G28G30G21G01G06G19G22G09G07G17G03
  -7120142.46148  -5539165.33846  22322417.106    22322417.5444   22322422.0914
       177.0004        178.0004
  -4222028.78047  -3165346.47246  22969131.641    22969131.3244   22969136.3534
       163.0004        166.0004
 -20958235.95549 -16307807.29748  20440330.504    20440330.6824   20440337.5814
       215.0004        215.0004
  -5526933.60747  -4291632.13445  23750700.572    23750700.9164   23750706.0334
       158.0004        159.0004
 -19113515.58749 -14879914.79448  21059164.300    21059165.6664   21059172.6724
       225.0004        225.0004
  -1416140.80047  -1073475.36545  24064331.315    24064332.2104   24064340.4444
       149.0004        152.0004
 -10321792.80948  -8017256.31146  22891621.902    22891621.4184   22891625.2034
       173.0004        175.0004
  -5691022.32447  -4420711.01945  24655474.054    24655471.5704   24655474.1544
       137.0004        142.0004
   -426701.01348   -304601.22946  24211609.084    24211609.1564   24211617.6164
       179.0004        180.0004
 -23114032.33849 -17989959.01448  20174636.425    20174637.3814   20174642.6424
       213.0004        214.0004
 -16137985.94749 -12554853.03347  21598661.720    21598662.0484   21598666.7354
       198.0004        198.0004
  -5601338.82648  -4355542.80646  24506251.455    24506253.0104   24506261.0474
       166.0004        168.0004
 21  2  4  1 39 30.0000000  0 12G14G28G30G21G01G06G19G22G09G07G17G03
  -7156512.55848  -5567505.66746  22315495.782    22315496.4754   22315501.1134
       177.0004        177.0004
  -4252699.97147  -3189246.06846  22963294.946    22963294.6914   22963299.7644
       163.0004        164.0004
 -20992832.74349 -16334765.83348  20433747.126    20433747.4404   20433754.3144
       215.0004        215.0004
  -5436250.99547  -4220970.34745  23767956.792    23767957.0364   23767964.1734
       157.0004        159.0004
 -19068935.72749 -14845177.22248  21067648.876    21067648.9264   21067656.3984
       225.0004        226.0004
  -1524374.73047  -1157813.43745  24043734.674    24043735.2694   24043744.3554
       148.0004        152.0004
 -10373745.35148  -8057738.78446  22881736.170    22881735.8694   22881738.9964
       175.0004        177.0004
  -5708909.40647  -4434649.00945  24652069.664    24652069.3964   24652069.4404
       137.0004        142.0004
   -352509.94748   -246790.02646  24225727.554    24225728.0714   24225734.7674
       180.0004        181.0004
 -23087525.55749 -17969304.38848  20179682.030    20179682.5194   20179686.4374
       213.0004        214.0004
 -16144265.45449 -12559746.14747  21597466.014    21597466.7994   21597472.0724
       197.0004        197.0004
  -5641000.65448  -4386448.05246  24498705.206    24498705.9844   24498714.3704
       168.0004        170.0004
 21  2  4  1 40  0.0000000  0 12G14G28G30G21G01G06G19G22G09G07G17G03
  -7192939.97848  -5595890.66746  22308564.494    22308564.5874   22308568.9634
       176.0004        177.0004
  -4283505.66247  -3213250.53046  22957432.742    22957433.2574   22957437.0154
       163.0004        165.0004
 -21026918.31749 -16361326.02548  20427260.965    20427261.0404   20427268.0334
       215.0004        215.0004
  -5345325.82847  -4150119.59845  23785259.146    23785258.9024   23785265.7784
       156.0004        157.0004
 -19023777.66849 -14809989.12548  21076241.357    21076242.1764   21076250.0444
       225.0004        226.0004
  -1632559.00247  -1242112.81045  24023147.406    24023149.2914   24023157.6814
       150.0004        154.0004
 -10425370.64348  -8097966.25646  22871911.550    22871910.7744   22871915.2464
       176.0004        176.0004
  -5726622.56147  -4448451.44145  24648697.447    24648696.1704   24648699.0124
       138.0004        142.0004
   -278486.94848   -189109.81346  24239813.583    24239813.6494   24239821.6644
       181.0004        182.0004
 -23060435.65049 -17948195.38048  20184835.886    20184836.4114   20184841.3874
       213.0004        213.0004
 -16150211.83449 -12564379.68447  21596335.135    21596335.2804   21596340.2014
       196.0004        196.0004
  -5680690.56948  -4417375.24846  24491152.166    24491153.4184   24491160.6794
       167.0004        168.0004
 21  2  4  1 40 30.0000000  0 12G14G28G30G21G01G06G19G22G09G07G17G03
  -7229423.55948  -5624319.44546  22301621.816    22301621.9694   22301626.6774
       177.0004        178.0004
  -4314445.34047  -3237359.35546  22951545.304    22951545.2744   22951550.1544
       163.0004        166.0004
 -21060490.43849 -16387486.12248  20420872.055    20420872.2494   20420879.5484
       215.0004        215.0004
  -5254159.70247  -4079081.05145  23802608.405    23802606.3984   23802612.7834
       153.0004        155.0004
 -18978042.41449 -14774351.25648  21084945.413    21084945.1714   21084952.8434
       225.0004        225.0004
  -1740690.48847  -1326371.06445  24002570.849    24002572.4844   24002580.9844
       152.0004        156.0004
 -10476668.19048  -8137938.36646  22862149.656    22862149.1424   22862153.0404
       175.0004        175.0004
  -5744159.00347  -4462116.16045  24645360.279    24645358.9004   24645364.5674
       138.0004        144.0004
   -204633.61148   -131561.77146  24253865.662    24253866.1104   24253874.7174
       180.0004        181.0004
 -23032762.88249 -17926632.20248  20190102.318    20190103.4754   20190107.5554
       212.0004        213.0004
 -16155826.09149 -12568754.41447  21595266.629    21595267.0294   21595271.8454
       196.0004        197.0004
  -5720405.50547  -4448321.94646  24483595.130    24483596.1214   24483601.3104
       164.0004        164.0004
 21  2  4  1 41  0.0000000  0 12G14G28G30G21G01G06G19G22G09G07G17G03
  -7265963.62748  -5652792.23846  22294668.486    22294668.6894   22294672.5464
       177.0004        178.0004
  -4345519.76547  -3261573.19046  22945632.705    22945632.7474   22945636.8684
       164.0004        166.0004
 -21093548.38149 -16413245.57448  20414581.902    20414581.7294   20414588.4484
       215.0004        215.0004
  -5162756.23147  -4007857.57145  23820001.142    23820001.3244   23820004.9754
       152.0004        153.0004
 -18931732.40249 -14738265.54648  21093757.475    21093758.0894   21093765.3554
       225.0004        225.0004
  -1848767.33947  -1410586.74845  23982004.957    23982006.4184   23982014.5054
       153.0004        155.0004
 -10527638.96248  -8177655.83446  22852450.878    22852449.7404   22852454.1894
       175.0004        176.0004
  -5761517.57147  -4475642.32645  24642057.697    24642056.0084   24642060.6174
       139.0004        144.0004
   -130952.82548    -74148.17746  24267887.333    24267888.0224   24267895.5134
       180.0004        181.0004
 -23004508.60449 -17904615.90748  20195480.104    20195479.4774   20195483.9944
       213.0004        213.0004
 -16161110.66649 -12572872.26947  21594261.014    21594261.4754   21594265.6314
       196.0004        197.0004
  -5760143.87647  -4479286.91546  24476031.521    24476032.6544   24476041.2354
       163.0004        164.0004
 21  2  4  1 41 30.0000000  0 12G14G28G30G21G01G06G19G22G09G07G17G03
  -7302558.84648  -5681308.00246  22287704.447    22287704.7604   22287709.1954
       178.0004        179.0004
  -4376728.06847  -3285891.33146  22939692.496    22939692.7184   22939697.8744
       163.0004        164.0004
 -21126089.77649 -16438602.50448  20408389.102    20408389.4254   20408396.0414
       215.0004        215.0004
  -5071117.26347  -3936450.57645  23837439.746    23837440.0524   23837442.9634
       150.0004        151.0004
 -18884848.52449 -14701732.63848  21102678.269    21102679.2444   21102687.0424
       225.0004        225.0004
  -1956786.23747  -1494757.25845  23961449.686    23961451.2084   23961459.3814
       153.0004        156.0004
 -10578282.64848  -8217118.41446  22842813.816    22842813.0714   22842816.1424
       175.0004        175.0004
  -5778695.26947  -4489027.52445  24638787.938    24638787.0334   24638791.2044
       137.0004        141.0004
    -57446.06548    -16870.19946  24281875.998    24281876.3384   24281882.7694
       181.0004        181.0004
 -22975672.62949 -17882146.29748  20200965.931    20200967.4674   20200970.9824
       212.0004        213.0004
 -16166066.64449 -12576734.05847  21593318.951    21593318.6224   21593323.1074
       198.0004        198.0004
  -5799902.60047  -4510267.68946  24468465.799    24468467.1814   24468474.4084
       163.0004        164.0004
 21  2  4  1 42  0.0000000  0 12G14G28G30G21G01G06G19G22G09G07G17G03
  -7339208.23248  -5709865.95346  22280729.454    22280730.3514   22280735.1774
       178.0004        179.0004
  -4408069.84848  -3310313.51146  22933730.150    22933730.2384   22933733.4904
       165.0004        169.0004
 -21158112.65449 -16463555.38948  20402295.910    20402295.6334   20402302.4324
       215.0004        216.0004
  -4979245.08547  -3864861.87445  23854922.867    23854921.2924   23854926.1134
       148.0004        149.0004
 -18837392.01749 -14664753.53248  21111709.423    21111710.1754   21111717.4024
       224.0004        224.0004
  -2064744.13047  -1578880.25045  23940906.725    23940907.1724   23940916.0494
       153.0004        156.0004
 -10628599.14548  -8256326.03946  22833238.249    22833237.8724   22833241.2984
       174.0004        175.0004
  -5795689.57547  -4502269.81145  24635555.676    24635554.5864   24635556.9914
       138.0004        144.0004
     15884.97448     40270.86646  24295829.814    24295829.9794   24295837.0844
       180.0004        181.0004
 -22946254.76349 -17859223.28247  20206563.815    20206564.2224   20206568.7594
       213.0004        212.0004
 -16170695.65849 -12580341.04947  21592437.007    21592437.5904   21592442.5124
       197.0004        198.0004
  -5839678.87848  -4541262.19546  24460899.370    24460899.4574   24460905.4714
       166.0004        168.0004
 21  2  4  1 42 30.0000000  0 12G14G28G30G21G01G06G19G22G09G07G17G03
  -7375911.87848  -5738466.21146  22273745.892    22273746.7624   22273750.7284
       179.0004        179.0004
  -4439545.80548  -3334840.24546  22927739.991    22927739.7064   22927743.7714
       167.0004        168.0004
 -21189616.18949 -16488103.62248  20396300.576    20396300.6934   20396307.2624
       215.0004        215.0004
  -4887142.90947  -3793093.95145  23872450.731    23872449.2764   23872452.5934
       147.0004        151.0004
 -18789365.30749 -14627330.13548  21120848.264    21120849.0834   21120856.6554
       224.0004        224.0004
  -2172639.14947  -1662954.25245  23920374.684    23920374.9704   23920383.8004
       152.0004        154.0004
 -10678589.48348  -8295279.54746  22823725.608    22823724.2784   22823729.1514
       175.0004        176.0004
  -5812499.49947  -4515368.48645  24632356.863    24632356.2084   24632358.5874
       139.0004        143.0004
     89037.46448     97272.79846  24309750.470    24309751.1304   24309758.4984
       180.0004        181.0004
 -22916256.60049 -17835848.11147  20212273.158    20212273.6564   20212277.3194
       212.0004        212.0004
 -16175000.08749 -12583695.16047  21591618.199    21591618.6544   21591622.9864
       197.0004        198.0004
  -5879471.00448  -4572269.05246  24453325.503    24453326.4924   24453333.4184
       168.0004        170.0004
 21  2  4  1 43  0.0000000  0 12G14G28G30G21G01G06G19G22G09G07G17G03
  -7412668.62848  -5767107.83046  22266751.262    22266751.5624   22266756.8164
       179.0004        179.0004
  -4471155.28248  -3359470.95946  22921724.350    22921724.5704   22921730.0004
       167.0004        169.0004
 -21220598.26249 -16512245.48948  20390404.636    20390405.0064   20390411.4624
       215.0004        216.0004
  -4794812.68547  -3721148.31445  23890019.589    23890018.2364   23890022.1324
       148.0004        150.0004
 -18740769.47849 -14589463.23948  21130096.702    21130096.9774   21130104.5384
       224.0004        225.0004
  -2280468.09447  -1746976.72445  23899855.350    23899856.3974   23899864.4794
       152.0004        155.0004
 -10728253.35048  -8333978.63546  22814275.516    22814274.9554   22814278.7404
       176.0004        177.0004
  -5829122.30747  -4528321.29445  24629193.987    24629193.0724   24629195.7524
       140.0004        144.0004
    162009.85448    154134.38746  24323637.900    24323638.2374   24323643.8764
       182.0004        183.0004
 -22885678.29949 -17812020.86047  20218091.776    20218092.1894   20218096.3944
       212.0004        212.0004
 -16178980.90649 -12586797.07047  21590860.570    21590860.7224   21590865.3064
       197.0004        197.0004
  -5919276.01648  -4603285.91346  24445750.310    24445750.9544   24445759.4614
       167.0004        167.0004
 21  2  4  1 43 30.0000000  0 12G14G28G30G21G01G06G19G22G09G07G17G03
  -7449477.79248  -5795790.27746  22259746.859    22259747.2634   22259752.2054
       179.0004        179.0004
  -4502898.11748  -3384205.64746  22915684.619    22915684.5634   22915688.0754
       166.0004        167.0004
 -21251057.25149 -16535979.77048  20384609.098    20384609.0454   20384615.8414
       215.0004        216.0004
  -4702256.83147  -3649026.86445  23907631.490    23907630.1384   23907634.7554
       147.0004        150.0004
 -18691606.16049 -14551154.15148  21139451.847    21139452.1654   21139460.0884
       224.0004        224.0004
  -2388228.16547  -1830945.57045  23879349.398    23879350.0884   23879358.4994
       150.0004        153.0004
 -10777590.56748  -8372423.20546  22804886.578    22804885.9764   22804889.2774
       175.0004        176.0004
  -5845555.85147  -4541126.65545  24626066.154    24626063.5224   24626067.6764
       140.0004        145.0004
    234800.24848    210854.13846  24337489.207    24337489.1874   24337496.2064
       183.0004        184.0004
 -22854520.55149 -17787742.08947  20224019.770    20224020.7044   20224025.7264
       211.0004        212.0004
 -16182639.97449 -12589648.26747  21590164.423    21590164.8494   21590168.6204
       197.0004        196.0004
  -5959091.36248  -4634310.84646  24438174.300    24438175.1274   24438182.6134
       166.0004        168.0004
 21  2  4  1 44  0.0000000  0 12G14G28G30G21G01G06G19G22G09G07G17G03
  -7486338.53748  -5824512.95046  22252732.563    22252733.4264   22252737.7564
       180.0004        181.0004
  -4534773.98047  -3409043.97746  22909618.668    22909618.3024   22909622.1134
       164.0004        165.0004
 -21280991.56149 -16559305.21848  20378912.756    20378912.5984   20378919.6354
       216.0004        216.0004
  -4609477.97847  -3576731.67645  23925288.083    23925285.4004   23925289.7164
       146.0004        149.0004
 -18641876.96949 -14512404.14048  21148914.119    21148915.2234   21148923.2804
       224.0004        225.0004
  -2495916.65347  -1914858.62645  23858856.108    23858857.3154   23858865.0064
       149.0004        152.0004
 -10826601.68048  -8410613.66046  22795559.500    22795559.5364   22795563.5964
       175.0004        176.0004
  -5861797.80247  -4553782.69045  24622974.128    24622971.9744   24622976.2894
       139.0004        142.0004
    307406.61848    267430.53546  24351303.255    24351303.8374   24351313.5314
       182.0004        182.0004
 -22822783.52949 -17763011.96247  20230061.119    20230060.9464   20230065.0394
       211.0004        212.0004
 -16185978.85749 -12592249.99347  21589529.011    21589529.4054   21589533.3624
       196.0004        196.0004
  -5998914.41248  -4665341.78246  24430595.323    24430596.4214   24430604.5224
       166.0004        167.0004
 21  2  4  1 44 30.0000000  0 12G14G28G30G21G01G06G19G22G09G07G17G03
  -7523248.86648  -5853274.23846  22245708.123    22245709.1694   22245713.5074
       180.0004        180.0004
  -4566781.55448  -3433984.94246  22903528.188    22903527.5704   22903531.0284
       165.0004        168.0004
 -21310398.25749 -16582219.52448  20373317.073    20373316.6434   20373323.6474
       216.0004        216.0004
  -4516477.29847  -3504263.62445  23942986.051    23942984.4934   23942988.6034
       147.0004        149.0004
 -18591582.26249 -14473213.45448  21158485.809    21158486.4574   21158493.7314
       224.0004        224.0004
  -2603529.48147  -1998712.72345  23838377.214    23838378.6734   23838387.1734
       149.0004        151.0004
 -10875285.44848  -8448549.04846  22786295.367    22786294.7824   22786297.9654
       174.0004        173.0004
  -5877844.62047  -4566286.71645  24619920.702    24619920.1414   24619923.9574
       139.0004        144.0004
    379828.35448    323863.04146  24365084.389    24365086.1654   24365095.1814
       182.0004        182.0004
 -22790466.83749 -17737830.12947  20236209.332    20236209.9134   20236214.5244
       211.0004        212.0004
 -16188998.12749 -12594602.65947  21588954.679    21588954.8544   21588958.7894
       196.0004        197.0004
  -6038741.43848  -4696375.83646  24423015.683    24423017.2634   24423026.3364
       165.0004        166.0004
 21  2  4  1 45  0.0000000  0 12G14G28G30G21G01G06G19G22G09G07G17G03
  -7560209.37948  -5882074.65146  22238676.333    22238676.3774   22238679.4934
       181.0004        180.0004
  -4598921.92048  -3459029.39346  22897412.241    22897411.6274   22897415.3584
       166.0004        168.0004
 -21339277.26149 -16604722.65448  20367820.865    20367821.1604   20367828.2214
       216.0004        216.0004
  -4423258.44947  -3431625.56045  23960723.084    23960721.9004   23960728.1864
       147.0004        150.0004
 -18540725.23249 -14433584.59248  21168163.328    21168163.8144   21168171.6234
       224.0004        224.0004
  -2711065.35147  -2082506.83445  23817915.099    23817915.1764   23817923.4094
       150.0004        153.0004
 -10923643.34648  -8486230.50546  22777093.829    22777092.4914   22777096.7374
       173.0004        173.0004
  -5893695.71447  -4578638.24245  24616901.483    24616903.1464   24616908.7834
       138.0004        143.0004
    452062.09648    380149.05546  24378831.417    24378832.1684   24378840.0224
       182.0004        182.0004
 -22757572.79949 -17712198.41747  20242469.249    20242469.5364   20242474.0594
       211.0004        211.0004
 -16191700.97849 -12596708.77947  21588440.448    21588440.5274   21588444.7084
       197.0004        197.0004
  -6078571.29047  -4727412.12846  24415437.117    24415437.6834   24415446.8824
       164.0004        165.0004
 21  2  4  1 45 30.0000000  0 12G14G28G30G21G01G06G19G22G09G07G17G03
  -7597218.86948  -5910913.20646  22231631.530    22231632.4314   22231637.7034
       179.0004        179.0004
  -4631194.31848  -3484176.70846  22891269.356    22891270.2754   22891274.1714
       166.0004        168.0004
 -21367626.51849 -16626812.98048  20362426.368    20362426.4764   20362433.6074
       216.0004        216.0004
  -4329823.58947  -3358819.19545  23978504.223    23978502.9354   23978507.6704
       149.0004        152.0004
 -18489306.98749 -14393518.40848  21177946.954    21177947.9354   21177956.1214
       223.0004        223.0004
  -2818520.92447  -2166238.40945  23797466.419    23797467.6964   23797475.2924
       152.0004        155.0004
 -10971675.23848  -8523657.93546  22767952.768    22767952.7574   22767956.2124
       173.0004        176.0004
  -5909348.34147  -4590835.09645  24613925.676    24613925.8294   24613928.6984
       139.0004        144.0004
    524106.40648    436287.46646  24392542.431    24392542.0444   24392549.9894
       181.0004        182.0004
 -22724101.19049 -17686116.63847  20248838.176    20248838.7954   20248843.7444
       211.0004        212.0004
 -16194088.37449 -12598569.04947  21587986.043    21587986.0524   21587990.5434
       197.0004        198.0004
  -6118400.91148  -4758448.19446  24407858.863    24407859.2384   24407867.5224
       165.0004        168.0004
 21  2  4  1 46  0.0000000  0 12G14G28G30G21G01G06G19G22G09G07G17G03
  -7634277.44948  -5939790.04446  22224580.542    22224581.4904   22224585.8474
       181.0004        182.0004
  -4663599.65748  -3509427.64446  22885104.021    22885104.0744   22885107.8204
       168.0004        169.0004
 -21395445.45949 -16648490.10048  20357132.650    20357132.6924   20357139.5914
       216.0004        216.0004
  -4236176.29347  -3285847.29245  23996322.668    23996323.3004   23996329.3394
       149.0004        153.0004
 -18437330.25849 -14353017.08748  21187838.115    21187839.4894   21187846.8064
       223.0004        224.0004
  -2925894.50647  -2249906.13045  23777033.834    23777034.4564   23777042.7614
       152.0004        155.0004
 -11019382.69648  -8560832.58846  22758875.719    22758874.6544   22758877.9804
       175.0004        177.0004
  -5924801.42547  -4602876.44645  24610986.209    24610984.7384   24610988.6594
       139.0004        144.0004
    595958.36248    492275.95846  24406213.671    24406214.9564   24406222.5194
       180.0004        180.0004
 -22690053.71049 -17659586.15747  20255317.757    20255318.4714   20255322.2874
       211.0004        212.0004
 -16196163.24949 -12600185.83647  21587591.050    21587591.4764   21587595.5624
       197.0004        198.0004
  -6158228.65548  -4789482.81646  24400279.305    24400279.7694   24400287.4754
       168.0004        170.0004
 21  2  4  1 46 30.0000000  0 12G14G28G30G21G01G06G19G22G09G07G17G03
  -7671382.66948  -5968703.18946  22217519.260    22217520.0614   22217524.4574
       182.0004        181.0004
  -4696135.66648  -3534780.38246  22878912.892    22878912.4964   22878916.3644
       169.0004        171.0004
 -21422730.96749 -16669751.53048  20351940.663    20351940.5654   20351947.4664
       216.0004        216.0004
  -4142317.41447  -3212710.51645  24014184.493    24014184.3124   24014189.5294
       149.0004        153.0004
 -18384795.21949 -14312080.68048  21197836.954    21197836.8524   21197843.6214
       223.0004        223.0004
  -3033181.84147  -2333506.57445  23756617.972    23756619.5364   23756627.4314
       153.0004        156.0004
 -11066763.74348  -8597752.86646  22749858.503    22749857.6514   22749862.2364
       176.0004        177.0004
  -5940050.98247  -4614759.20845  24608082.503    24608082.3624   24608085.4164
       138.0004        143.0004
    667617.73848    548114.43546  24419850.860    24419851.3644   24419858.8254
       179.0004        179.0004
 -22655429.59449 -17632606.32547  20261906.949    20261907.7574   20261911.3214
       211.0004        211.0004
 -16197925.77649 -12601559.21447  21587255.221    21587255.8084   21587259.9484
       198.0004        199.0004
  -6198050.35248  -4820512.71946  24392701.482    24392702.0534   24392709.7754
       169.0004        171.0004
 21  2  4  1 47  0.0000000  0 12G14G28G30G21G01G06G19G22G09G07G17G03
  -7708534.95548  -5997653.03246  22210449.123    22210450.1054   22210454.3804
       181.0004        182.0004
  -4728803.32548  -3560235.70046  22872695.758    22872695.8084   22872700.0404
       170.0004        171.0004
 -21449482.70049 -16690597.04948  20346850.037    20346849.9924   20346856.5624
       216.0004        216.0004
  -4048250.20547  -3139411.42345  24032084.073    24032083.7154   24032089.0364
       147.0004        148.0004
 -18331704.76049 -14270711.49348  21207937.934    21207938.8584   21207946.1744
       222.0004        222.0004
  -3140380.93347  -2417038.30245  23736219.815    23736220.0694   23736227.6364
       154.0004        156.0004
 -11113820.20048  -8634420.22946  22740903.555    22740902.8834   22740906.9284
       176.0004        177.0004
  -5955096.16747  -4626482.72045  24605217.161    24605217.8054   24605223.2674
       136.0004        139.0004
    739081.49548    603800.44046  24433449.647    24433450.2244   24433458.4154
       179.0004        179.0004
 -22620230.89849 -17605178.78447  20268604.558    20268604.8254   20268609.9384
       211.0004        211.0004
 -16199378.68049 -12602691.35547  21586979.351    21586979.7144   21586983.9774
       199.0004        200.0004
  -6237864.60148  -4851536.81646  24385123.152    24385125.7594   24385134.0054
       170.0004        172.0004
 21  2  4  1 47 30.0000000  0 12G14G28G30G21G01G06G19G22G09G07G17G03
  -7745732.88848  -6026638.42346  22203371.654    22203372.2064   22203376.7014
       182.0004        182.0004
  -4761601.95448  -3585793.06146  22866453.685    22866454.3604   22866458.5144
       169.0004        169.0004
 -21475698.70049 -16711025.09948  20341860.872    20341860.9924   20341867.8304
       216.0004        216.0004
  -3953976.91447  -3065951.68945  24050024.372    24050024.3734   24050028.1274
       147.0004        151.0004
 -18278060.15149 -14228910.49748  21218146.175    21218147.4424   21218154.7584
       223.0004        223.0004
  -3247488.67647  -2500498.83345  23715837.995    23715838.4264   23715846.6564
       155.0004        158.0004
 -11160551.72148  -8670834.39546  22732012.024    22732011.1654   22732014.4994
       176.0004        177.0004
  -5969934.28547  -4638044.90645  24602396.081    24602395.3954   24602401.3674
       135.0004        140.0004
    810348.30848    659333.01446  24447011.652    24447010.9704   24447019.7244
       178.0004        178.0004
 -22584457.75849 -17577303.60847  20275412.163    20275412.5834   20275416.3214
       210.0004        211.0004
 -16200523.27549 -12603583.21347  21586761.107    21586761.6584   21586766.2524
       199.0004        200.0004
  -6277668.19748  -4882552.59846  24377550.513    24377551.9814   24377559.3424
       171.0004        172.0004
 21  2  4  1 48  0.0000000  0 12G14G28G30G21G01G06G19G22G09G07G17G03
  -7782976.09148  -6055659.12246  22196284.417    22196284.5104   22196287.9694
       180.0004        179.0004
  -4794531.61848  -3611452.56246  22860189.817    22860189.3444   22860192.3654
       168.0004        170.0004
 -21501377.96749 -16731034.93248  20336974.551    20336974.5134   20336981.3704
       216.0004        217.0004
  -3859500.34747  -2992333.59545  24068003.181    24068002.6514   24068006.4164
       148.0004        151.0004
 -18223863.71349 -14186679.50048  21228459.584    21228460.3544   21228468.0854
       223.0004        222.0004
  -3354502.74647  -2583886.43145  23695473.026    23695474.3254   23695481.6884
       155.0004        158.0004
 -11206959.15848  -8706996.01746  22723180.451    22723179.8444   22723183.5574
       176.0004        178.0004
  -5984563.63047  -4649444.37645  24599611.562    24599610.3034   24599616.5764
       137.0004        142.0004
    881415.77548    714710.23446  24460534.533    24460535.0254   24460542.6684
       178.0004        178.0004
 -22548111.54249 -17548981.89947  20282328.364    20282329.0794   20282333.1804
       210.0004        211.0004
 -16201362.00749 -12604236.76147  21586601.244    21586602.1554   21586606.2444
       199.0004        199.0004
  -6317459.26548  -4913558.61246  24369978.479    24369979.8394   24369988.2554
       172.0004        173.0004
 21  2  4  1 48 30.0000000  0 12G14G28G30G21G01G06G19G22G09G07G17G03
  -7820264.14248  -6084714.73546  22189188.063    22189188.6214   22189193.2044
       179.0004        180.0004
  -4827592.42148  -3637214.21146  22853896.611    22853896.2324   22853901.9164
       168.0004        169.0004
 -21526519.50249 -16750625.74048  20332189.752    20332190.1424   20332197.2624
       216.0004        217.0004
  -3764823.76447  -2918559.66045  24086020.011    24086019.3874   24086022.7294
       148.0004        150.0004
 -18169117.64849 -14144020.23648  21238877.232    21238878.1884   21238885.4764
       222.0004        221.0004
  -3461420.79547  -2667199.20145  23675127.751    23675128.8354   23675135.2724
       155.0004        157.0004
 -11253043.12248  -8742905.58146  22714411.607    22714410.3774   22714413.8854
       176.0004        176.0004
  -5998982.53147  -4660679.85245  24596867.946    24596868.3354   24596873.9644
       137.0004        143.0004
    952281.71848    769930.44546  24474021.650    24474021.5204   24474028.7804
       177.0004        178.0004
 -22511193.58049 -17520214.66547  20289353.340    20289354.2824   20289358.7064
       210.0004        211.0004
 -16201896.60249 -12604653.31747  21586499.868    21586500.0174   21586504.7534
       198.0004        198.0004
  -6357235.35848  -4944552.95746  24362410.655    24362411.5864   24362419.2764
       171.0004        172.0004
 21  2  4  1 49  0.0000000  0 12G14G28G30G21G01G06G19G22G09G07G17G03
  -7857595.84348  -6113804.37246  22182084.734    22182084.7354   22182089.5214
       180.0004        180.0004
  -4860783.93748  -3663077.71446  22847580.589    22847580.8734   22847585.4914
       168.0004        170.0004
 -21551121.64649 -16769796.24748  20327508.474    20327508.6294   20327515.6514
       216.0004        216.0004
  -3669948.80947  -2844631.11545  24104075.129    24104072.5814   24104078.5374
       147.0004        150.0004
 -18113823.58449 -14100933.94648  21249399.140    21249400.0764   21249407.7114
       222.0004        221.0004
  -3568239.67247  -2750434.67745  23654800.267    23654801.2524   23654809.2664
       157.0004        160.0004
 -11298803.61748  -8778563.09446  22705701.557    22705701.3534   22705706.3814
       175.0004        175.0004
  -6013188.60647  -4671749.51645  24594166.416    24594164.6234   24594168.5194
       138.0004        142.0004
   1022944.55748    824992.40346  24487469.912    24487468.8094   24487475.0654
       176.0004        176.0004
 -22473704.25849 -17491002.21147  20296487.534    20296487.7614   20296492.3744
       210.0004        210.0004
 -16202128.67349 -12604834.13647  21586455.533    21586455.7594   21586460.4394
       198.0004        198.0004
  -6396993.70748  -4975533.49446  24354845.302    24354845.4404   24354853.0974
       172.0004        173.0004
 21  2  4  1 49 30.0000000  0 12G14G28G30G21G01G06G19G22G09G07G17G03
  -7894970.24148  -6142927.28746  22174972.836    22174972.6124   22174978.1344
       182.0004        182.0004
  -4894105.50148  -3689042.59246  22841240.159    22841239.4474   22841243.4044
       168.0004        170.0004
 -21575182.91349 -16788545.29748  20322929.641    20322929.6084   20322936.8894
       216.0004        216.0004
  -3574878.33047  -2770550.24145  24122163.871    24122163.5574   24122168.8774
       146.0004        149.0004
 -18057983.29149 -14057422.03148  21260025.152    21260026.3944   21260033.2254
       221.0004        220.0004
  -3674956.55947  -2833590.65745  23634493.238    23634493.3414   23634501.2514
       158.0004        161.0004
 -11344240.94348  -8813968.80446  22697056.543    22697055.8524   22697059.0624
       176.0004        178.0004
  -6027179.53547  -4682651.52745  24591503.015    24591503.3544   24591507.3224
       138.0004        143.0004
   1093402.55948    879894.73146  24500876.730    24500876.2804   24500883.5644
       175.0004        175.0004
 -22435644.18049 -17461345.01847  20303730.251    20303730.7094   20303735.0704
       210.0004        210.0004
 -16202060.03849 -12604780.64947  21586467.495    21586468.4784   21586473.8504
       198.0004        199.0004
  -6436731.61848  -5006498.09746  24347281.549    24347282.4734   24347290.6954
       172.0004        173.0004
 21  2  4  1 50  0.0000000  0 12G14G28G30G21G01G06G19G22G09G07G17G03
  -7932385.22048  -6172081.81146  22167852.435    22167853.1654   22167858.6144
       182.0004        182.0004
  -4927555.58148  -3715107.58946  22834874.974    22834874.8274   22834879.2884
       169.0004        170.0004
 -21598700.71849 -16806870.87248  20318454.728    20318454.7854   20318461.6714
       216.0004        216.0004
  -3479613.04447  -2696317.58545  24140292.678    24140292.4564   24140297.7234
       145.0004        149.0004
 -18001597.47849 -14013485.02948  21270755.867    21270756.3564   21270763.4694
       221.0004        221.0004
  -3781567.37347  -2916664.02645  23614203.903    23614205.9754   23614213.2584
       157.0004        158.0004
 -11389354.31148  -8849122.05246  22688471.619    22688470.6004   22688474.9144
       177.0004        180.0004
  -6040952.00347  -4693383.31945  24588881.879    24588880.8814   24588886.6904
       139.0004        143.0004
   1163655.12848    934636.96346  24514244.690    24514245.0184   24514252.0034
       174.0004        174.0004
 -22397013.26049 -17431243.02047  20311081.631    20311081.8354   20311086.5134
       209.0004        210.0004
 -16201691.51849 -12604493.48547  21586538.759    21586539.4434   21586543.7254
       199.0004        199.0004
  -6476445.22148  -5037443.75846  24339725.428    24339726.0544   24339732.0924
       173.0004        174.0004
 21  2  4  1 50 30.0000000  0 12G14G28G30G21G01G06G19G22G09G07G17G03
  -7969840.40448  -6201267.68146  22160724.726    22160725.2314   22160729.2884
       182.0004        182.0004
  -4961134.25448  -3741272.80746  22828485.315    22828484.6934   22828489.6604
       169.0004        168.0004
 -21621674.28749 -16824772.37148  20314082.667    20314082.8704   20314089.7804
       216.0004        216.0004
  -3384156.27847  -2621935.70245  24158459.198    24158458.0614   24158462.0124
       147.0004        152.0004
 -17944668.60249 -13969124.86648  21281588.610    21281589.5074   21281596.9544
       221.0004        221.0004
  -3888069.93747  -2999653.02145  23593937.023    23593938.0604   23593947.0164
       155.0004        157.0004
 -11434144.47748  -8884023.45946  22679947.664    22679947.5474   22679951.2814
       178.0004        179.0004
  -6054504.66347  -4703943.82245  24586300.933    24586301.5214   24586305.7964
       137.0004        141.0004
   1233699.91248    989217.31846  24527572.975    24527572.7594   24527581.2854
       172.0004        173.0004
 -22357812.94549 -17400697.32547  20318541.104    20318541.4894   20318545.9364
       209.0004        210.0004
 -16201025.16149 -12603974.25047  21586666.416    21586666.5744   21586670.2454
       199.0004        200.0004
  -6516132.47048  -5068368.90046  24332171.279    24332173.2264   24332180.9474
       173.0004        174.0004
 21  2  4  1 51  0.0000000  0 12G14G28G30G21G01G06G19G22G09G07G17G03
  -8007334.86648  -6230484.13246  22153590.301    22153590.2514   22153594.8114
       182.0004        182.0004
  -4994841.13448  -3767537.88146  22822069.843    22822070.2864   22822074.9984
       168.0004        169.0004
 -21644102.29949 -16842248.74548  20309814.833    20309814.7824   20309821.9414
       216.0004        216.0004
  -3288510.59947  -2547406.62645  24176658.168    24176658.7504   24176664.2674
       148.0004        151.0004
 -17887198.57949 -13924343.01848  21292524.707    21292525.5194   21292533.0724
       221.0004        220.0004
  -3994461.38547  -3082555.42245  23573692.272    23573693.5034   23573701.3834
       156.0004        159.0004
 -11478612.20548  -8918673.60646  22671486.456    22671485.7284   22671488.9504
       177.0004        178.0004
  -6067835.22247  -4714331.27245  24583767.048    24583766.3604   24583769.0734
       137.0004        142.0004
   1303535.16048   1043634.42646  24540859.602    24540861.9974   24540869.8454
       172.0004        173.0004
 -22318044.19549 -17369708.71247  20326108.729    20326109.1384   20326113.3534
       209.0004        209.0004
 -16200062.98349 -12603224.47947  21586849.068    21586849.2794   21586853.4764
       200.0004        200.0004
  -6555790.80048  -5099271.47346  24324625.349    24324626.7284   24324634.6024
       172.0004        172.0004
 21  2  4  1 51 30.0000000  0 12G14G28G30G21G01G06G19G22G09G07G17G03
  -8044867.90948  -6259730.66646  22146447.125    22146447.4984   22146452.8024
       182.0004        182.0004
  -5028676.28048  -3793902.92646  22815632.569    22815632.1204   22815636.3684
       169.0004        171.0004
 -21665983.65449 -16859299.16548  20305650.771    20305650.7504   20305658.1964
       216.0004        216.0004
  -3192678.54847  -2472732.28245  24194894.607    24194894.9184   24194898.9344
       147.0004        151.0004
 -17829189.62449 -13879141.23648  21303563.840    21303564.8104   21303571.7564
       221.0004        221.0004
  -4100739.16147  -3165369.22745  23553468.209    23553468.7864   23553477.3744
       157.0004        160.0004
 -11522757.51448  -8953072.52946  22663085.087    22663084.7684   22663089.4954
       177.0004        178.0004
  -6080941.76147  -4724544.13145  24581272.396    24581272.5654   24581275.4174
       138.0004        144.0004
   1373158.88948   1097886.69746  24554112.251    24554111.3054   24554117.9834
       172.0004        173.0004
 -22277708.38049 -17338278.19147  20333784.560    20333784.9454   20333789.4524
       209.0004        210.0004
 -16198807.10649 -12602245.86147  21587087.906    21587088.4224   21587092.7214
       200.0004        200.0004
  -6595417.74948  -5130149.57746  24317085.386    24317086.1804   24317094.2134
       171.0004        171.0004
 21  2  4  1 52  0.0000000  0 12G14G28G30G21G01G06G19G22G09G07G17G03
  -8082439.42348  -6289007.17746  22139298.327    22139298.9834   22139303.7454
       183.0004        183.0004
  -5062639.80448  -3820368.00646  22809168.899    22809168.2794   22809173.7194
       168.0004        168.0004
 -21687317.97349 -16875923.31448  20301591.132    20301591.1154   20301598.2524
       216.0004        216.0004
  -3096663.56047  -2397915.43545  24213165.993    24213165.7164   24213170.2114
       148.0004        150.0004
 -17770644.59549 -13833521.73248  21314704.953    21314705.8064   21314712.6834
       221.0004        221.0004
  -4206901.24047  -3248092.91545  23533267.712    23533268.1484   23533275.1734
       159.0004        161.0004
 -11566581.89348  -8987221.37346  22654746.682    22654745.7434   22654749.4154
       178.0004        179.0004
  -6093823.33647  -4734581.65945  24578821.216    24578819.0814   24578824.8294
       139.0004        143.0004
   1442568.44348   1151972.05846  24567319.548    24567320.1304   24567326.6894
       172.0004        174.0004
 -22236807.21049 -17306407.16347  20341567.985    20341568.4004   20341572.7824
       209.0004        210.0004
 -16197260.10049 -12601040.38747  21587382.148    21587382.3454   21587386.6774
       200.0004        200.0004
  -6635011.56648  -5161001.88546  24309551.096    24309552.0054   24309558.8804
       169.0004        169.0004
 21  2  4  1 52 30.0000000  0 12G14G28G30G21G01G06G19G22G09G07G17G03
  -8120047.64048  -6318312.25646  22132141.904    22132142.0994   22132146.4654
       184.0004        183.0004
  -5096730.61648  -3846932.25346  22802680.624    22802681.6124   22802686.0754
       167.0004        169.0004
 -21708103.14049 -16892119.55348  20297635.528    20297635.8844   20297642.6774
       216.0004        216.0004
  -3000467.34747  -2322957.36345  24231470.851    24231471.1504   24231475.1454
       146.0004        149.0004
 -17711564.64649 -13787485.40248  21325947.189    21325948.2294   21325955.4704
       221.0004        221.0004
  -4312944.04847  -3330723.67745  23513088.866    23513088.3174   23513095.9764
       158.0004        160.0004
 -11610084.84648  -9021119.74746  22646467.145    22646467.2684   22646471.2864
       180.0004        181.0004
  -6106476.77647  -4744441.47345  24576413.869    24576413.1014   24576416.9804
       139.0004        144.0004
   1511762.96348   1205889.84746  24580486.171    24580487.2754   24580494.7214
       174.0004        175.0004
 -22195340.89249 -17274095.74947  20349458.166    20349458.8314   20349463.5214
       209.0004        209.0004
 -16195423.04349 -12599608.90247  21587731.268    21587732.1314   21587736.0834
       199.0004        198.0004
  -6674568.79248  -5191825.64346  24302022.229    24302022.5684   24302031.2094
       167.0004        167.0004
 21  2  4  1 53  0.0000000  0 12G14G28G30G21G01G06G19G22G09G07G17G03
  -8157691.81148  -6347645.38946  22124978.178    22124979.1534   22124983.9344
       184.0004        183.0004
  -5130948.37148  -3873595.45746  22796170.591    22796170.1564   22796174.8564
       168.0004        169.0004
 -21728338.23649 -16907887.17248  20293785.173    20293785.1274   20293792.1954
       216.0004        216.0004
  -2904092.58447  -2247860.15345  24249810.926    24249810.2614   24249814.4104
       145.0004        148.0004
 -17651952.07249 -13741034.04448  21337291.334    21337291.6694   21337299.5724
       221.0004        221.0004
  -4418864.99147  -3413259.41745  23492931.564    23492932.1184   23492939.6164
       157.0004        159.0004
 -11653267.27348  -9054768.39046  22638250.633    22638249.4724   22638253.2624
       180.0004        179.0004
  -6118900.27147  -4754122.10845  24574050.182    24574049.6784   24574052.0564
       141.0004        145.0004
   1580740.42748   1259638.53546  24593612.538    24593612.7404   24593621.0884
       173.0004        173.0004
 -22153311.01449 -17241345.22047  20357457.043    20357457.3814   20357461.0874
       208.0004        209.0004
 -16193297.79849 -12597952.86247  21588135.867    21588136.4834   21588140.9214
       198.0004        198.0004
  -6714086.98248  -5222618.99046  24294503.200    24294504.0964   24294511.4454
       165.0004        166.0004
 21  2  4  1 53 30.0000000  0 12G14G28G30G21G01G06G19G22G09G07G17G03
  -8195370.48748  -6377005.38546  22117808.070    22117808.5024   22117812.8234
       183.0004        182.0004
  -5165292.53348  -3900357.13446  22789633.366    22789634.8074   22789639.1044
       167.0004        168.0004
 -21748021.57349 -16923224.83248  20290039.561    20290039.5334   20290046.9194
       216.0004        217.0004
  -2807541.07247  -2172625.18545  24268183.870    24268184.1234   24268187.8164
       145.0004        149.0004
 -17591808.47449 -13694168.89848  21348735.513    21348736.7624   21348744.6084
       221.0004        220.0004
  -4524660.82347  -3495697.68345  23472799.048    23472799.8464   23472807.4974
       156.0004        158.0004
 -11696129.07348  -9088167.18346  22630094.709    22630093.5354   22630097.0994
       178.0004        178.0004
  -6131091.42847  -4763621.69745  24571728.633    24571727.9254   24571732.1194
       139.0004        142.0004
   1649499.57348   1313217.11146  24606694.801    24606696.2504   24606704.3634
       170.0004        169.0004
 -22110717.81949 -17208155.72447  20365562.186    20365562.2614   20365566.4674
       208.0004        209.0004
 -16190885.76049 -12596073.33947  21588595.557    21588595.8314   21588599.3064
       199.0004        199.0004
  -6753563.09447  -5253379.60446  24286989.491    24286991.7114   24286998.1034
       163.0004        165.0004
 21  2  4  1 54  0.0000000  0 12G14G28G30G21G01G06G19G22G09G07G17G03
  -8233082.35548  -6406391.24946  22110631.181    22110631.8994   22110636.3604
       182.0004        182.0004
  -5199761.98148  -3927216.46246  22783076.051    22783076.7224   22783079.4354
       168.0004        170.0004
 -21767151.62349 -16938131.37048  20286399.377    20286399.3524   20286406.2484
       216.0004        217.0004
  -2710814.94147  -2097254.18345  24286589.790    24286590.0064   24286595.2744
       146.0004        149.0004
 -17531135.55649 -13646891.30048  21360282.037    21360282.4754   21360290.3494
       220.0004        220.0004
  -4630328.31547  -3578036.01745  23452690.463    23452692.0684   23452700.2484
       158.0004        161.0004
 -11738670.35748  -9121316.21446  22621998.338    22621997.9714   22622001.4704
       176.0004        176.0004
  -6143047.79147  -4772938.34545  24569451.208    24569453.0154   24569457.1924
       135.0004        140.0004
   1718039.07248   1366624.51846  24619740.335    24619739.6024   24619746.3284
       168.0004        170.0004
 -22067562.19349 -17174527.96947  20373774.164    20373774.7124   20373779.0564
       209.0004        209.0004
 -16188188.56749 -12593971.62547  21589108.801    21589108.7384   21589112.9104
       199.0004        199.0004
  -6792994.16347  -5284105.13046  24279487.993    24279488.6174   24279495.7884
       163.0004        165.0004
 21  2  4  1 54 30.0000000  0 12G14G28G30G21G01G06G19G22G09G07G17G03
  -8270827.02748  -6435802.69646  22103449.503    22103449.5154   22103454.3514
       183.0004        183.0004
  -5234356.95148  -3954173.57846  22776492.824    22776492.6404   22776496.7464
       168.0004        168.0004
 -21785727.90749 -16952606.41148  20282864.764    20282864.8254   20282871.3574
       216.0004        217.0004
  -2613917.72047  -2021749.87245  24305029.750    24305029.9314   24305034.1794
       144.0004        147.0004
 -17469936.07249 -13599203.39648  21371927.076    21371927.9824   21371936.1164
       220.0004        219.0004
  -4735865.36547  -3660272.64445  23432606.922    23432608.5564   23432616.7984
       157.0004        158.0004
 -11780892.12748  -9154216.27446  22613964.825    22613963.5044   22613967.5414
       176.0004        177.0004
  -6154767.82946  -4782070.84845  24567225.266    24567223.2764   24567226.2044
       134.0004        140.0004
   1786356.57548   1419858.93946  24632741.063    24632740.8784   24632748.1504
       171.0004        173.0004
 -22023846.01549 -17140463.42547  20382093.233    20382093.6884   20382098.0144
       209.0004        209.0004
 -16185208.77049 -12591649.70147  21589675.224    21589675.7854   21589680.0304
       199.0004        198.0004
  -6832378.08447  -5314793.90946  24271992.040    24271993.5684   24272001.9354
       164.0004        166.0004
 21  2  4  1 55  0.0000000  0 12G14G28G30G21G01G06G19G22G09G07G17G03
  -8308604.04348  -6465239.33546  22096260.620    22096261.4524   22096265.8224
       184.0004        184.0004
  -5269077.69048  -3981228.69846  22769886.013    22769885.1034   22769889.3214
       168.0004        169.0004
 -21803749.82649 -16966649.47248  20279435.174    20279435.2874   20279442.1114
       217.0004        217.0004
  -2516851.96247  -1946114.23745  24323501.670    24323500.8724   24323504.9404
       143.0004        147.0004
 -17408212.65949 -13551107.22448  21383672.990    21383673.8844   21383681.3364
       220.0004        219.0004
  -4841269.64347  -3742405.82445  23412551.044    23412551.2754   23412558.6444
       158.0004        160.0004
 -11822795.45748  -9186868.20146  22605990.182    22605989.4394   22605992.7434
       176.0004        176.0004
  -6166250.33646  -4791018.27445  24565040.424    24565037.3084   24565041.5824
       134.0004        140.0004
   1854449.81448   1472918.65746  24645696.848    24645697.6164   24645705.6894
       171.0004        173.0004
 -21979571.24649 -17105963.61147  20390518.095    20390518.4914   20390522.7874
       208.0004        209.0004
 -16181948.72549 -12589109.40647  21590295.510    21590295.9284   21590300.2254
       199.0004        199.0004
  -6871712.80548  -5345444.35746  24264508.287    24264508.7294   24264517.6414
       165.0004        167.0004
 21  2  4  1 55 30.0000000  0 12G14G28G30G21G01G06G19G22G09G07G17G03
  -8346412.15848  -6494700.21546  22089065.371    22089066.2654   22089070.9224
       184.0004        183.0004
  -5303923.09548  -4008380.96346  22763254.433    22763254.4904   22763258.6484
       169.0004        170.0004
 -21821216.05249 -16980259.53648  20276111.291    20276111.2354   20276118.3024
       217.0004        217.0004
  -2419619.82547  -1870348.92745  24342003.513    24342002.3804   24342007.3814
       141.0004        145.0004
 -17345967.27049 -13502604.32848  21395518.445    21395518.9894   21395526.3664
       220.0004        220.0004
  -4946538.10747  -3824433.16745  23392519.842    23392520.1494   23392526.4064
       159.0004        161.0004
 -11864380.71248  -9219272.29046  22598077.190    22598076.3854   22598080.6044
       177.0004        179.0004
  -6177493.12947  -4799778.85745  24562899.767    24562899.6274   24562903.3274
       135.0004        142.0004
   1922317.39448   1525802.49646  24658612.873    24658613.0334   24658621.0344
       172.0004        173.0004
 -21934738.43949 -17071028.98347  20399049.803    20399050.2724   20399054.2524
       208.0004        209.0004
 -16178410.32449 -12586352.22247  21590968.838    21590969.4514   21590973.8274
       199.0004        200.0004
  -6910995.53348  -5376054.25246  24257032.963    24257033.8874   24257041.1724
       167.0004        170.0004
 21  2  4  1 56  0.0000000  0 12G14G28G30G21G01G06G19G22G09G07G17G03
  -8384249.97348  -6524184.24046  22081864.877    22081865.9464   22081870.3034
       183.0004        183.0004
  -5338892.41248  -4035629.79146  22756599.333    22756600.0884   22756603.4564
       168.0004        169.0004
 -21838125.16149 -16993435.47448  20272893.621    20272893.6344   20272900.5614
       217.0004        217.0004
  -2322223.75147  -1794455.90645  24360537.766    24360537.5714   24360540.7554
       141.0004        144.0004
 -17283201.68349 -13453696.08448  21407461.955    21407462.8284   21407470.0474
       219.0004        219.0004
  -5051667.62147  -3906352.28246  23372514.477    23372514.6584   23372521.5944
       161.0004        164.0004
 -11905647.99948  -9251428.61046  22590224.026    22590223.3724   22590226.8594
       178.0004        179.0004
  -6188493.06447  -4808350.23245  24560807.806    24560805.8164   24560809.2754
       136.0004        142.0004
   1989957.98248   1578509.42946  24671484.707    24671484.7104   24671491.7814
       173.0004        174.0004
 -21889348.63349 -17035660.32047  20407687.746    20407687.8404   20407691.6294
       208.0004        208.0004
 -16174594.90649 -12583379.16947  21591695.606    21591695.9304   21591699.9604
       200.0004        200.0004
  -6950223.13148  -5406621.18946  24249568.048    24249569.0474   24249576.1384
       169.0004        171.0004
 21  2  4  1 56 30.0000000  0 12G14G28G30G21G01G06G19G22G09G07G17G03
  -8422116.81848  -6553690.87746  22074660.358    22074660.5134   22074664.7214
       183.0004        183.0004
  -5373985.73448  -4062975.24646  22749922.106    22749921.4244   22749925.5764
       167.0004        169.0004
 -21854476.47249 -17006176.76648  20269782.109    20269782.1394   20269789.2054
       217.0004        217.0004
  -2224666.32047  -1718437.13345  24379102.424    24379101.3364   24379104.6814
       140.0004        144.0004
 -17219918.44749 -13404384.47748  21419504.717    21419504.9944   21419512.2534
       219.0004        218.0004
  -5156655.68447  -3988161.10646  23352534.700    23352535.1934   23352543.1424
       162.0004        164.0004
 -11946598.02848  -9283337.71146  22582431.413    22582430.5374   22582434.8714
       180.0004        180.0004
  -6199248.98147  -4816731.45145  24558759.302    24558758.1254   24558762.5444
       136.0004        143.0004
   2057369.61048   1631037.96546  24684311.485    24684312.1064   24684319.1614
       173.0004        174.0004
 -21843403.51749 -16999858.94047  20416430.127    20416430.7674   20416435.0004
       208.0004        208.0004
 -16170504.69449 -12580191.97647  21592474.279    21592474.1314   21592478.4824
       200.0004        200.0004
  -6989393.31448  -5437143.38346  24242113.328    24242114.9584   24242122.8144
       171.0004        173.0004
 21  2  4  1 57  0.0000000  0 12G14G28G30G21G01G06G19G22G09G07G17G03
  -8460010.85948  -6583218.69246  22067448.905    22067449.4074   22067453.5214
       183.0004        183.0004
  -5409201.52648  -4090416.11746  22743220.501    22743221.1254   22743224.4554
       168.0004        170.0004
 -21870268.19749 -17018482.01348  20266777.059    20266777.0984   20266784.1634
       217.0004        217.0004
  -2126949.63147  -1642294.24045  24397697.253    24397695.6714   24397700.3074
       140.0004        145.0004
 -17156118.98349 -13354670.60148  21431644.793    21431645.4824   21431652.7334
       218.0004        217.0004
  -5261498.69447  -4069856.93046  23332584.610    23332585.0894   23332592.3544
       163.0004        165.0004
 -11987230.73648  -9314999.54246  22574699.572    22574698.8664   22574702.0844
       180.0004        181.0004
  -6209758.40747  -4824920.62445  24556759.330    24556758.6204   24556764.1884
       138.0004        145.0004
   2124551.31448   1683387.36246  24697094.425    24697095.6994   24697104.3424
       173.0004        174.0004
 -21796903.58949 -16963625.23047  20425278.864    20425279.4744   20425283.2774
       208.0004        209.0004
 -16166140.60949 -12576791.36947  21593303.903    21593304.0274   21593308.5744
       199.0004        199.0004
  -7028502.74548  -5467618.21546  24234670.817    24234671.9664   24234679.9594
       172.0004        174.0004
 21  2  4  1 57 30.0000000  0 12G14G28G30G21G01G06G19G22G09G07G17G03
  -8497930.95048  -6612766.82746  22060231.868    22060232.8544   22060237.8714
       183.0004        182.0004
  -5444539.27548  -4117952.02746  22736496.617    22736495.8884   22736499.5304
       168.0004        169.0004
 -21885499.25549 -17030350.37548  20263878.808    20263878.7304   20263885.8204
       217.0004        218.0004
  -2029075.86247  -1566029.00945  24416319.936    24416321.1154   24416326.9124
       140.0004        144.0004
 -17091805.43549 -13304556.14748  21443883.438    21443884.1934   21443891.8074
       218.0004        218.0004
  -5366193.80647  -4151437.52246  23312661.378    23312662.4494   23312669.2194
       163.0004        165.0004
 -12027546.59348  -9346414.47746  22567027.182    22567027.1914   22567030.7544
       180.0004        181.0004
  -6220019.04447  -4832915.89845  24554807.541    24554805.9924   24554811.0584
       139.0004        144.0004
   2191501.54148   1735556.37046  24709836.082    24709837.2114   24709845.4124
       175.0004        177.0004
 -21749850.19749 -16926960.25447  20434232.594    20434233.2754   20434237.9794
       208.0004        208.0004
 -16161505.02749 -12573179.22347  21594185.623    21594186.3854   21594190.8934
       199.0004        199.0004
  -7067548.55848  -5498043.48946  24227241.460    24227242.5894   24227250.6554
       174.0004        175.0004
 21  2  4  1 58  0.0000000  0 12G14G28G30G21G01G06G19G22G09G07G17G03
  -8535876.73048  -6642334.95746  22053011.113    22053012.1944   22053017.3154
       183.0004        184.0004
  -5479999.12848  -4145583.07846  22729746.498    22729747.2224   22729751.9724
       167.0004        168.0004
 -21900169.37149 -17041781.63748  20261086.579    20261086.9614   20261094.1854
       217.0004        217.0004
  -1931048.17147  -1489643.77745  24434973.327    24434974.7804   24434979.5944
       141.0004        146.0004
 -17026980.77049 -13254043.41448  21456219.113    21456219.7814   21456227.3714
       218.0004        218.0004
  -5470738.84547  -4232901.15746  23292766.441    23292766.8064   23292775.8074
       163.0004        164.0004
 -12067547.06348  -9377583.66846  22559415.896    22559415.0674   22559418.9504
       180.0004        181.0004
  -6230029.60347  -4840716.34145  24552901.899    24552902.4614   24552905.8644
       140.0004        146.0004
   2258218.05348   1787543.28146  24722533.118    24722532.7384   24722539.1274
       174.0004        175.0004
 -21702245.13949 -16889865.40947  20443291.563    20443292.2494   20443296.8594
       208.0004        208.0004
 -16156600.41749 -12569357.45247  21595119.609    21595119.8794   21595124.2094
       199.0004        200.0004
  -7106528.91148  -5528417.77046  24219824.661    24219825.1174   24219832.5154
       175.0004        175.0004
 21  2  4  1 58 30.0000000  0 12G14G28G30G21G01G06G19G22G09G07G17G03
  -8573846.09248  -6671921.48246  22045787.627    22045787.0504   22045791.0394
       184.0004        183.0004
  -5515579.44348  -4173308.00046  22722976.661    22722977.6604   22722982.0664
       167.0004        168.0004
 -21914276.62949 -17052774.32048  20258402.730    20258402.5334   20258409.7794
       217.0004        218.0004
  -1832868.05347  -1413139.80545  24453657.714    24453658.2434   24453663.4284
       143.0004        147.0004
 -16961646.26549 -13203133.42148  21468652.104    21468652.7544   21468659.8664
       217.0004        217.0004
  -5575130.07447  -4314244.94246  23272900.489    23272901.1364   23272910.8434
       162.0004        164.0004
 -12107231.55148  -9408506.64046  22551863.628    22551863.3384   22551866.5734
       180.0004        180.0004
  -6239787.19447  -4848319.66545  24551043.400    24551043.8644   24551049.7804
       140.0004        145.0004
   2324700.18148   1839347.59746  24735184.278    24735184.4684   24735190.0454
       173.0004        174.0004
 -21654088.64049 -16852340.87347  20452455.779    20452456.0974   20452460.6584
       208.0004        208.0004
 -16151427.65849 -12565326.72947  21596103.760    21596104.3294   21596108.2524
       199.0004        199.0004
  -7145440.18748  -5558738.19646  24212417.734    24212418.7794   24212427.9524
       171.0004        171.0004
 21  2  4  1 59  0.0000000  0 12G14G28G30G21G01G06G19G22G09G07G17G03
  -8611838.49248  -6701525.93546  22038555.772    22038557.9854   22038561.6454
       182.0004        182.0004
  -5551280.12348  -4201126.71546  22716184.138    22716184.3914   22716187.0834
       167.0004        169.0004
 -21927820.61349 -17063328.07948  20255825.286    20255825.0644   20255832.7274
       217.0004        218.0004
  -1734538.45747  -1336519.35745  24472369.276    24472368.6554   24472373.7904
       141.0004        144.0004
 -16895804.67749 -13151828.28048  21481182.197    21481181.8864   21481188.9234
       216.0004        216.0004
  -5679365.18847  -4395467.07046  23253064.757    23253065.7444   23253075.3264
       163.0004        164.0004
 -12146600.85348  -9439184.01946  22544372.381    22544371.7024   22544374.5154
       179.0004        179.0004
  -6249290.57947  -4855724.89845  24549237.799    24549237.0254   24549239.1454
       139.0004        144.0004
   2390945.82348   1890967.62046  24747790.549    24747790.5444   24747796.9884
       173.0004        174.0004
 -21605382.89549 -16814388.36047  20461724.454    20461724.6604   20461728.7074
       208.0004        208.0004
 -16145989.01049 -12561088.81247  21597138.696    21597138.9834   21597142.9604
       199.0004        199.0004
  -7184280.08248  -5589003.01046  24205027.737    24205029.1394   24205037.2494
       170.0004        172.0004
 21  2  4  1 59 30.0000000  0 12G14G28G30G21G01G06G19G22G09G07G17G03
  -8649853.44648  -6731147.98446  22031322.745    22031322.4394   22031327.8434
       182.0004        181.0004
  -5587101.28648  -4229039.33146  22709366.982    22709367.0134   22709370.0734
       167.0004        167.0004
 -21940801.06849 -17073442.72348  20253354.613    20253354.7734   20253362.3714
       217.0004        218.0004
  -1636062.30847  -1259784.69945  24491109.352    24491109.5384   24491114.6024
       140.0004        144.0004
 -16829458.94549 -13100130.31448  21493806.277    21493807.0124   21493813.9474
       216.0004        215.0004
  -5783441.96948  -4476565.81846  23233261.214    23233261.6964   23233270.3954
       165.0004        167.0004
 -12185656.78448  -9469617.19146  22536939.974    22536938.9934   22536943.0044
       179.0004        180.0004
  -6258538.09847  -4862930.74845  24547478.756    24547478.6304   24547479.2874
       138.0004        143.0004
   2456952.71248   1942401.54446  24760350.167    24760349.9764   24760358.2454
       173.0004        173.0004
 -21556130.06549 -16776009.52947  20471096.020    20471096.5494   20471101.1664
       207.0004        207.0004
 -16140287.22149 -12556645.85147  21598224.240    21598224.4374   21598228.1594
       199.0004        199.0004
  -7223046.74448  -5619210.77546  24197652.107    24197652.6374   24197659.2694
       170.0004        170.0004
