     2.11           OBSERVATION DATA    G (GPS)             RINEX VERSION / TYPE
teqc  2018Jun8                          20210202 03:10:42UTCPGM / RUN BY / DATE
Linux2.6.32-573.12.1.el6.x86_64|x86_64|gcc|Win64-MinGW64|=+ COMMENT
BIT 2 OF LLI FLAGS DATA COLLECTED UNDER A/S CONDITION       COMMENT
-Unknown-                                                   MARKER NAME
CRNO                                                        MARKER NUMBER
-Unknown-           -Unknown-                               OBSERVER / AGENCY
-Unknown-           ASHTECH             -Unknown-           REC # / TYPE / VERS
-Unknown-           -Unknown-                               ANT # / TYPE
   408076.9984 -6158368.2815  1605160.3984                  APPROX POSITION XYZ
        0.0000        0.0000        0.0000                  ANTENNA: DELTA H/E/N
     1     1                                                WAVELENGTH FACT L1/2
     7    L1    L2    C1    P1    P2    S1    S2            # / TYPES OF OBSERV
    30.0000                                                 INTERVAL
Forced Modulo Decimation to 30 seconds                      COMMENT
 SNR is mapped to RINEX snr flag value [1-9]                COMMENT
  L1: 1 -> 1;  90 -> 5; 210 -> 9                            COMMENT
  L2: 1 -> 1; 150 -> 5; 250 -> 9                            COMMENT
pseudorange smoothing corrections not applied               COMMENT
  2021     2     5     0     0   30.0000000     GPS         TIME OF FIRST OBS
                                                            END OF HEADER
 21  2  5  0  0 30.0000000  0  7G01G04G27G07G08G09G21
 -10132014.52347  -7881153.97646  22997908.369    22997910.2254   22997917.9014
       162.0004        163.0004
   4692118.85549   3664320.99247  21153513.218    21153513.3924   21153519.6094
       198.0004        197.0004
  10480088.17048   8163885.97047  23164929.616    23164930.4424   23164938.7994
       192.0004        192.0004
  -9333708.77048  -7254579.65546  22740465.233    22740464.6304   22740468.7784
       179.0004        180.0004
   2037443.17149   1599164.04247  20644321.080    20644321.2354   20644328.2134
       208.0004        208.0004
  -4570771.82249  -3542607.77748  20772874.772    20772875.1074   20772882.0134
       215.0004        216.0004
  -6478268.98848  -5028437.27546  22074349.198    22074348.3224   22074353.2944
       172.0004        173.0004
 21  2  5  0  1  0.0000000  0  7G01G04G27G07G08G09G21
 -10209704.97247  -7941691.94746  22983125.684    22983126.2834   22983133.9644
       162.0004        164.0004
   4762069.58049   3718828.04947  21166824.458    21166824.3724   21166830.2794
       198.0004        196.0004
  10582256.50348   8243497.66147  23184371.757    23184372.5934   23184380.2804
       191.0004        191.0004
  -9408943.15548  -7313203.83546  22726147.077    22726147.7754   22726152.2174
       178.0004        179.0004
   2091412.07649   1641217.75247  20654591.190    20654591.1594   20654598.1234
       208.0004        208.0004
  -4566822.63749  -3539530.49248  20773626.344    20773626.5774   20773633.2984
       215.0004        215.0004
  -6513276.66148  -5055715.96346  22067685.921    22067684.6304   22067691.7744
       171.0004        172.0004
 21  2  5  0  1 30.0000000  0  7G01G04G27G07G08G09G21
 -10287402.30047  -8002235.30446  22968340.656    22968340.7564   22968348.6564
       162.0004        164.0004
   4832421.96449   3773648.09047  21180211.798    21180212.0794   21180217.5784
       198.0004        197.0004
  10684615.45648   8323257.87947  23203850.570    23203850.6204   23203859.3124
       191.0004        191.0004
  -9484200.93448  -7371846.24746  22711826.721    22711826.8834   22711831.3854
       179.0004        181.0004
   2145855.54349   1683641.24547  20664950.258    20664950.7054   20664958.0194
       207.0004        207.0004
  -4562309.60649  -3536013.84048  20774484.914    20774485.1594   20774491.9614
       215.0004        215.0004
  -6547978.20948  -5082756.11846  22061082.605    22061082.3494   22061088.9964
       172.0004        173.0004
 21  2  5  0  2  0.0000000  0  7G01G04G27G07G08G09G21
 -10365105.03947  -8062782.87746  22953554.225    22953554.3684   22953562.3954
       163.0004        164.0004
   4903171.86549   3828777.87947  21193674.415    21193674.9714   21193681.0934
       198.0004        196.0004
  10787160.51248   8403163.10647  23223363.795    23223365.1374   23223372.9074
       190.0004        190.0004
  -9559481.64848  -7430506.52746  22697501.112    22697502.0014   22697506.2834
       180.0004        181.0004
   2200769.84649   1726431.61547  20675399.781    20675400.1824   20675408.0744
       206.0004        206.0004
  -4557234.87649  -3532059.50148  20775451.063    20775451.0454   20775457.4314
       215.0004        215.0004
  -6582372.70848  -5109557.01046  22054538.348    22054537.3284   22054542.5074
       172.0004        173.0004
 21  2  5  0  2 30.0000000  0  7G01G04G27G07G08G09G21
 -10442810.27247  -8123332.37946  22938766.111    22938767.2454   22938775.9344
       162.0004        164.0004
   4974316.72849   3884215.43947  21207213.523    21207213.6264   21207219.6884
       197.0004        197.0004
  10889888.74648   8483211.07847  23242914.342    23242913.8064   23242921.1074
       190.0004        190.0004
  -9634783.38548  -7489183.19246  22683172.062    22683172.2684   22683176.1294
       180.0004        180.0004
   2256152.35649   1769586.82247  20685939.693    20685939.6434   20685946.7834
       206.0004        207.0004
  -4551598.98249  -3527667.89648  20776523.661    20776523.6584   20776529.9544
       215.0004        215.0004
  -6616458.06148  -5136117.01846  22048051.836    22048051.5594   22048056.7084
       173.0004        173.0004
 21  2  5  0  3  0.0000000  0  7G01G04G27G07G08G09G21
 -10520513.30847  -8183880.17546  22923978.048    22923981.0764   22923989.0014
       162.0004        164.0004
   5045855.57849   3939959.98547  21220826.763    21220826.8744   21220833.5994
       198.0004        196.0004
  10992798.81948   8563400.75047  23262496.606    23262496.6454   23262504.2204
       190.0004        190.0004
  -9710102.57648  -7547873.45546  22668839.213    22668838.9084   22668843.8044
       180.0004        180.0004
   2312002.24249   1813106.22247  20696567.471    20696567.5964   20696574.9624
       206.0004        207.0004
  -4545400.99949  -3522838.29448  20777702.494    20777702.8564   20777709.8744
       215.0004        215.0004
  -6650230.08148  -5162432.85246  22041624.640    22041624.8724   22041630.0244
       173.0004        174.0004
 21  2  5  0  7  0.0000000  0  7G27G01G04G21G07G08G09
    130320.53344     88153.03547  23598886.887
        74.0004        192.0004
   -209171.00547   -149294.48046  22984320.216                    22984328.8604
       136.0004        166.0004
     99380.01449     72209.57447  21510918.752    21510918.9104   21510924.6674
       195.0004        195.0004
   -171929.51248   -120815.63446  22170963.573    22170962.1914   22170967.1674
       174.0004        175.0004
   -253343.53448   -181396.59946  22732649.175    22732648.9904   22732653.7434
       184.0004        185.0004
     62174.97249     43145.29847  20963282.028    20963282.3624   20963288.9994
       206.0004        207.0004
    -68605.86244    -46514.60945  20969519.323
        74.0004        150.0004
 21  2  5  0  7 30.0000000  0  7G27G01G04G21G07G08G09
    198033.66448    140916.55047  23611773.124                    23611780.0934
       183.0004        193.0004
   -323420.12347   -238319.73846  22962577.713    22962578.9514   22962587.5354
       160.0004        166.0004
    137644.40649    102025.99447  21518201.017    21518200.7874   21518206.1844
       195.0004        194.0004
   -239471.42148   -173445.67046  22158110.071    22158109.8254   22158113.6814
       174.0004        174.0004
   -365432.28348   -268738.46546  22711319.636    22711319.4604   22711323.0694
       185.0004        185.0004
     85417.24149     61256.17847  20967704.177    20967704.6924   20967711.9534
       206.0004        206.0004
    -94082.71247     -4124.76248  20964671.172                    20964678.9224
       159.0004        215.0004
 21  2  5  0  8  0.0000000  0  7G27G01G04G21G07G08G09
   -598996.36348   -480145.79947  23460101.795    23460102.3494   23460109.2794
       190.0004        192.0004
  -1302535.71847  -1001266.93646  22776260.665    22776260.2554   22776268.1464
       164.0004        167.0004
   -688620.00149   -541816.41947  21360968.018    21360968.1084   21360973.9024
       195.0004        194.0004
  -1171573.79448   -899759.20746  21980737.065    21980736.1644   21980741.7134
       173.0004        175.0004
  -1342417.60648  -1030025.72546  22525405.057    22525405.0614   22525408.9314
       185.0004        186.0004
   -755794.74249   -594233.68547  20807627.037    20807627.2794   20807634.6054
       205.0004        205.0004
   -983902.53849   -697490.88248  20795344.454    20795344.6884   20795351.4534
       209.0004        214.0004
 21  2  5  0  8 30.0000000  0  7G27G01G04G21G07G08G09
   -494280.47448   -398549.00347  23480029.753    23480029.3554   23480035.8504
       191.0004        191.0004
  -1380015.95648  -1061641.13346  22761516.133    22761515.8304   22761524.0554
       166.0004        169.0004
   -612922.96349   -482831.70147  21375371.766    21375372.1874   21375378.2484
       195.0004        194.0004
  -1201737.22248   -923263.13246  21974995.299    21974995.4604   21975002.6014
       174.0004        175.0004
  -1417798.25748  -1088763.86447  22511060.884    22511061.1864   22511065.1154
       187.0004        188.0004
   -694970.38649   -546838.05647  20819202.137    20819201.9964   20819209.0694
       205.0004        205.0004
   -971570.86149   -687881.76148  20797690.229    20797690.8774   20797697.6164
       213.0004        214.0004
 21  2  5  0  9  0.0000000  0  7G27G01G04G21G07G08G09
   -389419.59048   -316839.19947  23499983.955    23499984.1894   23499990.3984
       192.0004        192.0004
  -1457459.27248  -1121986.53246  22746778.157    22746778.6464   22746787.1274
       168.0004        170.0004
   -536865.75748   -423566.33547  21389844.708    21389845.4244   21389851.3324
       194.0004        192.0004
  -1231559.90548   -946501.55246  21969322.055    21969321.7824   21969326.1534
       174.0004        175.0004
  -1493174.03148  -1147498.21746  22496716.826    22496717.3044   22496720.6644
       186.0004        186.0004
   -633710.80049   -499103.30647  20830858.434    20830859.2834   20830866.2004
       205.0004        205.0004
   -958688.37349   -677843.45248  20800142.214    20800142.5494   20800149.2314
       214.0004        215.0004
 21  2  5  0  9 30.0000000  0  7G27G01G04G21G07G08G09
   -284415.04448   -235017.48647  23519965.758    23519965.7094   23519971.5544
       190.0004        190.0004
  -1534861.03348  -1182299.57246  22732049.985    22732049.7694   22732058.0974
       169.0004        170.0004
   -460449.65448   -364021.31947  21404387.067    21404387.3884   21404393.1694
       194.0004        193.0004
  -1261037.95648   -969471.42546  21963710.960    21963711.3534   21963716.4424
       174.0004        174.0004
  -1568540.98048  -1206225.69246  22482375.150    22482375.6214   22482379.6654
       186.0004        187.0004
   -572017.26149   -451030.39247  20842598.591    20842599.1304   20842605.6854
       205.0004        205.0004
   -945254.59549   -667375.56248  20802698.271    20802698.9124   20802705.6874
       214.0004        215.0004
 21  2  5  0 10  0.0000000  0  7G27G01G04G21G07G08G09
   -179271.45448   -153087.42147  23539973.979    23539973.0174   23539979.6574
       188.0004        188.0004
  -1612219.84348  -1242579.16346  22717329.617    22717329.3454   22717336.0684
       169.0004        170.0004
   -383679.03549   -304200.06047  21418995.990    21418996.4794   21419002.2094
       195.0004        194.0004
  -1290170.69148   -992172.23246  21958167.754    21958166.8344   21958172.4594
       173.0004        174.0004
  -1643899.31648  -1264946.45846  22468035.209    22468035.1264   22468038.6584
       186.0004        187.0004
   -509894.53449   -402623.06147  20854421.104    20854421.2534   20854427.4674
       205.0004        205.0004
   -931272.15649   -656480.15448  20805359.697    20805359.9764   20805366.1904
       214.0004        215.0004
 21  2  5  0 10 30.0000000  0  8G03G27G01G04G21G07G08G09
 -10594325.77654  -8241396.35943                                  22909942.9014
        74.0004         74.0004
    -73991.01748    -71050.72147  23560007.500    23560007.9054   23560014.1494
       190.0004        190.0004
  -1689531.88148  -1302822.28346  22702616.703    22702616.5694   22702625.2444
       169.0004        171.0004
   -306556.00149   -244104.18947  21433672.056    21433672.1154   21433678.4584
       195.0004        194.0004
  -1318955.17048  -1014601.68946  21952690.302    21952690.4674   21952695.9354
       173.0004        174.0004
  -1719245.83948  -1323658.03347  22453697.548    22453697.3814   22453700.6904
       187.0004        188.0004
   -447344.02049   -353882.38447  20866323.898    20866323.8184   20866330.8724
       205.0004        205.0004
   -916741.43449   -645157.50848  20808124.424    20808124.7834   20808131.3664
       215.0004        215.0004
 21  2  5  0 11  0.0000000  0  8G03G27G01G04G21G07G08G09
 -10594325.77644  -8241396.359 5                                  22909942.901
        74.0004        132.000
     31424.05748     11090.89647  23580067.177    23580067.7454   23580074.6354
       190.0004        191.0004
  -1766793.36548  -1363026.01546  22687913.641    22687914.4774   22687923.1184
       170.0004        172.0004
   -229082.61048   -183735.31447  21448414.388    21448414.4844   21448420.4714
       194.0004        193.0004
  -1347388.46248  -1036757.47046  21947279.859    21947279.2604   21947285.6944
       174.0004        175.0004
  -1794577.53348  -1382358.05447  22439361.015    22439361.9604   22439365.8394
       187.0004        188.0004
   -384367.55049   -304809.81147  20878307.285    20878307.4274   20878314.7034
       204.0004        204.0004
   -901662.74749   -633407.88048  20810993.711    20810994.1524   20811000.7874
       215.0004        215.0004
 21  2  5  0 11 30.0000000  0  8G03G27G01G04G21G07G08G09
 -10594325.77645  -8241396.359 5                                  22909942.901
        96.0004        132.000
    136971.45448     93335.61047  23600151.107    23600152.3004   23600158.9734
       189.0004        188.0004
  -1844000.59048  -1423187.46246  22673221.302    22673222.1554   22673229.1094
       171.0004        172.0004
   -151261.11248   -123095.18147  21463223.579    21463223.9174   21463229.5544
       194.0004        193.0004
  -1375467.36948  -1058637.11146  21941936.585    21941936.3424   21941942.4854
       175.0004        176.0004
  -1869891.78848  -1441044.44947  22425030.384    22425030.4204   22425034.4664
       188.0004        189.0004
   -320967.88949   -255407.46247  20890371.468    20890371.9764   20890379.5264
       204.0004        204.0004
   -886036.61949   -621231.66348  20813967.915    20813968.0894   20813974.4354
       215.0004        215.0004
 21  2  5  0 12  0.0000000  0  7G27G01G04G21G07G08G09
    242647.76048    175680.80946  23620260.995    23620261.7424   23620269.1384
       187.0004        187.0004
  -1921151.03748  -1483304.66446  22658539.989    22658540.6084   22658549.0714
       171.0004        172.0004
    -73094.87848    -62186.41447  21478097.877    21478097.9734   21478104.2184
       193.0004        192.0004
  -1403190.76348  -1080239.73746  21936661.310    21936661.0474   21936666.3594
       175.0004        176.0004
  -1945187.23448  -1499716.19347  22410701.202    22410702.0154   22410706.0804
       188.0004        188.0004
   -257147.56549   -205677.32147  20902516.241    20902516.5494   20902524.1554
       204.0004        204.0004
   -869864.74949   -608630.19048  20817044.967    20817045.1844   20817051.7124
       215.0004        215.0004
 21  2  5  0 12 30.0000000  0  8G03G27G01G04G21G07G08G09
 -10594325.77654  -8241396.359 3                                  22909942.901
        74.0004         74.000
    348449.80948    258123.93346  23640396.129    23640395.9504   23640401.5304
       186.0004        185.0004
  -1998241.90948  -1543375.46446  22643868.133    22643870.1504   22643878.5444
       171.0004        171.0004
      5413.05348     -1011.42347  21493036.847    21493037.6774   21493044.0044
       193.0004        192.0004
  -1430556.25348  -1101563.47546  21931453.466    21931454.0764   21931459.0074
       176.0004        176.0004
  -2020461.70148  -1558371.61346  22396376.694    22396377.2414   22396381.2824
       187.0004        187.0004
   -192910.04149   -155622.10647  20914741.239    20914741.1104   20914747.7954
       204.0004        204.0004
   -853148.56049   -595604.59048  20820225.564    20820226.0394   20820232.8034
       214.0004        214.0004
 21  2  5  0 13  0.0000000  0  9G03G27G01G04G21G30G07G08G09
 -10594325.77644  -8241396.359 3                                  22909942.901
        74.0004         74.000
    454375.41648    340663.38746  23660552.908    23660552.9774   23660558.7794
       184.0004        184.0004
  -2075269.30748  -1603396.78146  22629212.527    22629213.0854   22629222.4304
       171.0004        173.0004
     84260.47048     60428.13347  21508041.287    21508042.0184   21508048.0664
       194.0004        193.0004
  -1457560.82248  -1122605.97546  21926315.347    21926313.7984   21926319.8994
       176.0004        178.0004
   -827195.02454   -617664.656 5                                  24352154.207
        74.0004        144.000
  -2095712.92148  -1617008.91347  22382057.009    22382057.6474   22382061.5984
       187.0004        188.0004
   -128257.31049   -105243.33047  20927043.415    20927043.9104   20927050.7784
       203.0004        203.0004
   -835888.50249   -582155.18348  20823509.952    20823510.7034   20823517.1244
       214.0004        215.0004
 21  2  5  0 13 30.0000000  0  9G03G27G01G04G21G30G07G08G09
 -10594325.77645  -8241396.359 3                                  22909942.901
        97.0004         74.000
    560420.86648    423296.18046  23680733.289    23680733.1204   23680738.0884
       185.0004        186.0004
  -2152231.02748  -1663366.94746  22614567.893    22614568.2324   22614576.2844
       171.0004        172.0004
    163443.76748    122129.38847  21523109.181    21523110.2174   21523116.0654
       193.0004        191.0004
  -1484203.42048  -1143366.42746  21921244.956    21921244.5344   21921249.9194
       177.0004        177.0004
   -913733.43747   -685097.11845  24335678.299    24335677.8764   24335686.6024
       138.0004        149.0004
  -2170939.39448  -1675626.94447  22367742.979    22367743.1434   22367746.5704
       187.0004        188.0004
    -63192.68949    -54543.62947  20939424.264    20939424.5734   20939432.2714
       202.0004        203.0004
   -818086.67449   -568283.63548  20826898.267    20826898.7144   20826905.1044
       215.0004        215.0004
 21  2  5  0 14  0.0000000  0  8G27G01G04G21G30G07G08G09
    666578.25348    506016.25146  23700933.999    23700934.2374   23700940.7664
       185.0004        187.0004
  -2229128.97148  -1723287.40246  22599934.685    22599934.7584   22599943.7484
       171.0004        172.0004
    242954.96848    184086.18647  21538240.553    21538240.4914   21538246.6944
       193.0004        192.0004
  -1510487.02948  -1163847.13446  21916243.871    21916242.8164   21916247.6354
       177.0004        177.0004
   -997599.49547   -750447.26445  24319719.508    24319719.5524   24319726.3144
       144.0004        150.0004
  -2246143.72248  -1734227.69346  22353431.539    22353431.8224   22353435.9734
       188.0004        187.0004
      2275.85149     -3529.16247  20951882.396    20951883.0074   20951890.3974
       202.0004        202.0004
   -799749.32449   -553994.77348  20830387.299    20830387.5394   20830394.2564
       214.0004        215.0004
 21  2  5  0 14 30.0000000  0  8G27G01G04G21G30G07G08G09
    772849.42448    588824.96946  23721159.269    23721157.7994   23721162.3864
       187.0004        187.0004
  -2305955.26348  -1783151.99946  22585314.270    22585314.6184   22585324.3814
       171.0004        171.0004
    322796.01048    246299.99147  21553433.851    21553433.7684   21553439.3144
       193.0004        192.0004
  -1536404.38748  -1184042.44746  21911310.899    21911310.8684   21911315.5254
       177.0004        178.0004
  -1081576.84047   -815884.12945  24303740.239    24303738.4894   24303746.7734
       146.0004        150.0004
  -2321319.09648  -1792805.89846  22339125.802    22339125.7124   22339129.6674
       187.0004        187.0004
     68149.99749     47801.35647  20964418.190    20964418.6504   20964425.9374
       202.0004        203.0004
   -780872.97049   -539285.90248  20833979.415    20833979.6384   20833986.4274
       214.0004        215.0004
 21  2  5  0 15  0.0000000  0  8G27G01G04G21G30G07G08G09
    879232.14148    671720.57946  23741403.359    23741401.2564   23741406.6534
       186.0004        186.0004
  -2382706.12248  -1842957.84546  22570708.658    22570709.8894   22570718.2424
       171.0004        172.0004
    402964.64348    308769.05747  21568688.443    21568689.3164   21568695.4154
       193.0004        192.0004
  -1561952.66548  -1203950.18546  21906449.188    21906448.8704   21906454.4414
       178.0004        178.0004
  -1165663.59047   -881406.23345  24287738.537    24287737.4274   24287745.0914
       147.0004        152.0004
  -2396462.94048  -1851359.52546  22324826.100    22324826.4634   22324831.5304
       186.0004        187.0004
    134427.91449     99446.49947  20977030.650    20977030.7634   20977038.1764
       202.0004        202.0004
   -761458.24249   -524157.53948  20837673.919    20837674.4134   20837681.4384
       215.0004        216.0004
 21  2  5  0 15 30.0000000  0  8G27G01G04G21G30G07G08G09
    985725.32048    754702.28546  23761666.390    23761665.3094   23761671.9254
       186.0004        185.0004
  -2459376.69948  -1902701.13146  22556119.244    22556119.6234   22556127.1384
       170.0004        171.0004
    483459.70148    371492.47847  21584007.108    21584007.2064   21584013.5994
       193.0004        191.0004
  -1587128.20348  -1223567.46146  21901658.541    21901658.4614   21901664.7254
       178.0004        179.0004
  -1249856.77147   -947011.26945  24271717.985    24271717.2374   24271724.5614
       151.0004        156.0004
  -2471571.06048  -1909885.30147  22310533.919    22310534.6344   22310538.2574
       187.0004        189.0004
    201108.37649    151405.31847  20989719.701    20989719.8074   20989727.2094
       202.0004        202.0004
   -741504.73049   -508609.33648  20841471.658    20841471.6174   20841477.9784
       215.0004        215.0004
 21  2  5  0 16  0.0000000  0  8G27G01G04G21G30G07G08G09
   1092325.97148    837767.72546  23781949.260    23781950.3854   23781956.7804
       184.0004        185.0004
  -2535963.98048  -1962379.51146  22541546.028    22541546.5524   22541554.4484
       170.0004        172.0004
    564278.15548    434467.90047  21599385.427    21599386.2994   21599392.7934
       192.0004        191.0004
  -1611928.80048  -1242892.58546  21896940.397    21896939.3254   21896945.1494
       179.0004        180.0004
  -1334155.25447  -1012698.35745  24255675.182    24255675.7224   24255682.8654
       153.0004        156.0004
  -2546641.39048  -1968381.65847  22296249.022    22296248.9924   22296252.0554
       188.0004        188.0004
    268188.76649    203675.75947  21002484.378    21002484.8474   21002491.9464
       201.0004        202.0004
   -721013.91149   -492642.46448  20845370.030    20845370.5104   20845377.1434
       215.0004        215.0004
 21  2  5  0 16 30.0000000  0  8G27G01G04G21G30G07G08G09
   1199030.97748    920914.45946  23802255.225    23802255.4754   23802262.2794
       183.0004        183.0004
  -2612465.08648  -2021990.75746  22526987.992    22526988.1244   22526996.3964
       170.0004        170.0004
    645416.87048    497692.87647  21614826.176    21614826.5294   21614832.8274
       192.0004        191.0004
  -1636352.66748  -1261924.13746  21892292.253    21892291.7574   21892297.3264
       180.0004        180.0004
  -1418558.02047  -1078466.72345  24239614.642    24239613.4944   24239619.9824
       153.0004        156.0004
  -2621672.11848  -2026847.15347  22281969.907    22281970.4594   22281975.0184
       187.0004        188.0004
    335665.72549    256255.21647  21015324.760    21015324.8584   21015332.4784
       201.0004        201.0004
   -699987.39649   -476258.16248  20849371.859    20849371.9504   20849378.2604
       214.0004        214.0004
 21  2  5  0 17  0.0000000  0  8G27G01G04G21G30G07G08G09
   1305836.84248   1004139.83346  23822579.314    23822580.1334   23822586.0234
       181.0004        181.0004
  -2688877.47248  -2081532.84646  22512447.077    22512447.4424   22512455.7464
       170.0004        172.0004
    726872.31148    561164.65047  21630326.939    21630326.9254   21630332.6924
       191.0004        190.0004
  -1660398.26548  -1280660.94446  21887716.052    21887716.1934   21887720.7374
       180.0004        181.0004
  -1503064.40347  -1144315.81845  24223532.673    24223532.0894   24223539.1654
       153.0004        156.0004
  -2696661.68148  -2085280.56247  22267700.990    22267701.1924   22267704.4574
       188.0004        188.0004
    403535.71049    309140.93847  21028239.083    21028239.7454   21028247.2134
       200.0004        200.0004
   -678427.20449   -459457.99948  20853474.020    20853474.6474   20853481.2644
       214.0004        214.0004
 21  2  5  0 17 30.0000000  0  8G27G01G04G21G30G07G08G09
   1412740.71648   1087441.51946  23842923.782    23842923.4654   23842930.0354
       181.0004        181.0004
  -2765198.09048  -2141003.43346  22497923.799    22497923.5974   22497932.6754
       170.0004        172.0004
    808641.45948    624880.87447  21645886.648    21645887.1774   21645893.1814
       191.0004        190.0004
  -1684063.72948  -1299101.53546  21883213.295    21883212.2714   21883217.2404
       179.0004        179.0004
  -1587673.13647  -1210244.66845  24207432.491    24207431.8404   24207438.6964
       154.0004        157.0004
  -2771607.85748  -2143680.18047  22253439.528    22253439.1804   22253443.2614
       188.0004        188.0004
    471796.40349    362331.08947  21041229.464    21041229.5854   21041237.0544
       200.0004        200.0004
   -656334.88149   -442243.19448  20857678.629    20857678.8094   20857685.0724
       214.0004        214.0004
 21  2  5  0 18  0.0000000  0  8G27G01G04G21G30G07G08G09
   1519739.56148   1170817.29746  23863285.219    23863285.1044   23863290.9274
       181.0004        181.0004
  -2841423.93448  -2200400.16146  22483418.072    22483418.0564   22483427.2934
       170.0004        172.0004
    890721.32948    688839.21747  21661506.290    21661506.9164   21661512.6214
       191.0004        192.0004
  -1707346.78648  -1317244.16246  21878781.807    21878781.4494   21878786.3544
       179.0004        179.0004
  -1672383.08247  -1276252.38845  24191311.023    24191311.9424   24191319.5404
       156.0004        158.0004
  -2846508.45848  -2202044.27046  22239184.878    22239185.8904   22239189.1314
       187.0004        187.0004
    540444.46449    415823.09147  21054292.826    21054293.0914   21054300.3594
       200.0004        201.0004
   -633711.90349   -424614.89948  20861983.223    20861983.6044   20861990.1444
       214.0004        214.0004
 21  2  5  0 18 30.0000000  0  8G27G01G04G21G30G07G08G09
   1626831.09448   1254265.20446  23883663.931    23883664.0964   23883670.1634
       182.0004        183.0004
  -2917551.31848  -2259720.19446  22468930.939    22468931.9974   22468940.6644
       171.0004        173.0004
    973109.40248    753037.71647  21677183.550    21677184.0854   21677190.9734
       192.0004        191.0004
  -1730245.24048  -1335087.06746  21874424.195    21874423.7454   21874429.6244
       179.0004        180.0004
  -1757192.41247  -1342337.55745  24175173.464    24175173.8484   24175181.1774
       157.0004        159.0004
  -2921360.83548  -2260370.76747  22224941.047    22224941.4024   22224945.8204
       187.0004        188.0004
    609476.93649    469614.64947  21067429.187    21067429.5544   21067436.5534
       200.0004        200.0004
   -610559.35749   -406573.94348  20866388.956    20866389.1714   20866396.0614
       214.0004        214.0004
 21  2  5  0 19  0.0000000  0  8G27G01G04G21G30G07G08G09
   1734012.15748   1337782.91246  23904058.525    23904058.5024   23904067.1664
       182.0004        181.0004
  -2993577.38248  -2318961.26646  22454465.437    22454465.2464   22454472.0814
       172.0004        173.0004
   1055802.44948    817473.85847  21692919.475    21692919.7934   21692925.9464
       192.0004        191.0004
  -1752757.57948  -1352629.14746  21870140.662    21870139.5544   21870146.0544
       179.0004        180.0004
  -1842100.11347  -1408499.36945  24159015.530    24159016.0584   24159023.4304
       157.0004        159.0004
  -2996163.38148  -2318658.46247  22210706.661    22210707.4004   22210711.1734
       188.0004        189.0004
    678891.26049    523703.74047  21080637.885    21080638.2524   21080646.2114
       199.0004        199.0004
   -586878.96849   -388121.69448  20870894.844    20870895.5214   20870902.3694
       213.0004        214.0004
 21  2  5  0 19 30.0000000  0  8G27G01G04G21G30G07G08G09
   1841279.14048   1421367.56446  23924470.678    23924470.8854   23924478.5894
       180.0004        179.0004
  -3069499.87148  -2378121.62146  22440015.695    22440016.5194   22440024.7594
       170.0004        171.0004
   1138796.67648    882144.68947  21708713.612    21708713.7584   21708719.2854
       191.0004        189.0004
  -1774882.38048  -1369869.23546  21865930.121    21865929.6374   21865935.2464
       179.0004        181.0004
  -1927105.70347  -1474737.46945  24142840.413    24142840.5304   24142847.4724
       157.0004        160.0004
  -3070914.44048  -2376906.03047  22196482.637    22196482.8324   22196486.7244
       189.0004        190.0004
    748683.70149    578087.45947  21093919.131    21093919.3784   21093927.0744
       199.0004        199.0004
   -562673.11849   -369259.98248  20875501.796    20875501.8034   20875508.5884
       214.0004        214.0004
 21  2  5  0 20  0.0000000  0  8G27G01G04G21G30G07G08G09
   1948630.31448   1505017.81146  23944898.140    23944898.7224   23944906.3094
       178.0004        177.0004
  -3145314.45448  -2437197.89946  22425589.546    22425590.4564   22425597.8384
       170.0004        172.0004
   1222090.23248    947048.75647  21724564.328    21724564.5634   21724570.0684
       191.0004        189.0004
  -1796616.79948  -1386805.11546  21861795.948    21861795.1364   21861799.6664
       180.0004        180.0004
  -2012206.72947  -1541049.94145  24126645.785    24126645.8424   24126652.9174
       157.0004        159.0004
  -3145610.56148  -2435110.79347  22182268.262    22182268.6974   22182272.5904
       189.0004        190.0004
    818852.62149    632764.55747  21107271.861    21107272.1854   21107279.9324
       198.0004        198.0004
   -537942.24249   -349989.16948  20880207.435    20880207.8594   20880214.7114
       214.0004        214.0004
 21  2  5  0 20 30.0000000  0  8G27G01G04G21G30G07G08G09
   2056061.61848   1588730.53046  23965343.753    23965343.4534   23965350.6814
       179.0004        181.0004
  -3221019.16348  -2496188.54646  22411183.398    22411184.1744   22411192.2574
       171.0004        173.0004
   1305678.93948   1012182.81047  21740470.540    21740470.7644   21740476.1694
       191.0004        189.0004
  -1817959.83048  -1403436.03546  21857733.139    21857732.7384   21857737.5574
       179.0004        179.0004
  -2097403.02247  -1607436.64745  24110432.799    24110433.5384   24110440.4764
       156.0004        158.0004
  -3220251.01648  -2493272.19047  22168065.267    22168065.6234   22168069.2184
       189.0004        190.0004
    889393.99949    687731.86647  21120695.268    21120695.5714   21120703.6444
       198.0004        199.0004
   -512689.11549   -330311.41148  20885013.528    20885013.8874   20885020.1164
       214.0004        214.0004
 21  2  5  0 21  0.0000000  0  8G27G01G04G21G30G07G08G09
   2163571.45448   1672504.39346  23985800.544    23985801.0564   23985808.0144
       176.0004        175.0004
  -3296609.71848  -2555090.25446  22396798.672    22396799.4674   22396807.6334
       172.0004        173.0004
   1389560.96448   1077545.42247  21756432.214    21756432.7414   21756437.7914
       190.0004        189.0004
  -1838908.22648  -1419759.43046  21853745.058    21853745.6044   21853751.1304
       178.0004        179.0004
  -2182692.10647  -1673895.64245  24094204.781    24094204.3274   24094209.7444
       157.0004        160.0004
  -3294832.33848  -2551387.49047  22153872.426    22153872.0954   22153876.4484
       189.0004        188.0004
    960305.43349    742987.54047  21134189.174    21134190.2394   21134197.6744
       199.0004        199.0004
   -486914.24949   -310227.09348  20889917.730    20889918.1244   20889925.0504
       213.0004        214.0004
 21  2  5  0 21 30.0000000  0  8G27G01G04G21G30G07G08G09
   2271156.52548   1756336.88646  24006273.066    24006273.9444   24006279.8004
       175.0004        175.0004
  -3372083.38948  -2613900.87546  22382436.363    22382436.9774   22382444.7154
       172.0004        173.0004
   1473732.89548   1143133.93647  21772449.304    21772449.9794   21772455.8074
       190.0004        188.0004
  -1859460.49948  -1435774.18346  21849835.122    21849834.9414   21849840.5874
       178.0004        179.0004
  -2268072.98947  -1740426.18245  24077956.418    24077956.2094   24077962.8094
       157.0004        159.0004
  -3369352.08748  -2609454.81647  22139691.205    22139691.6684   22139696.2154
       190.0004        191.0004
   1031583.89049    798529.19047  21147754.183    21147753.6824   21147761.2684
       198.0004        198.0004
   -460619.66649   -289737.80948  20894921.823    20894922.0884   20894928.5244
       213.0004        214.0004
 21  2  5  0 22  0.0000000  0  8G27G01G04G21G30G07G08G09
   2378814.86548   1840226.48846  24026758.821    24026760.0984   24026767.8114
       172.0004        173.0004
  -3447436.25048  -2672617.36046  22368096.368    22368097.6434   22368106.4234
       173.0004        174.0004
   1558192.50148   1208946.62347  21788521.695    21788521.7284   21788527.6204
       189.0004        188.0004
  -1879613.84948  -1451478.06646  21846001.034    21846000.6394   21846005.9974
       179.0004        180.0004
  -2353543.50947  -1807026.54045  24061692.819    24061691.9014   24061698.7394
       158.0004        161.0004
  -3443807.28348  -2667471.83647  22125522.394    22125523.6064   22125528.0854
       191.0004        192.0004
   1103227.48349    854355.37247  21161386.326    21161386.9174   21161394.4044
       197.0004        198.0004
   -433806.25649   -268844.23348  20900023.937    20900024.3634   20900031.2184
       213.0004        213.0004
 21  2  5  0 22 30.0000000  0  8G27G01G04G21G30G07G08G09
   2486543.46048   1924170.83446  24047259.975    24047260.3424   24047267.0054
       174.0004        174.0004
  -3522665.27348  -2731237.36246  22353782.111    22353782.7504   22353790.3324
       173.0004        175.0004
   1642936.60748   1274980.99846  21804647.320    21804647.9714   21804654.3144
       188.0004        187.0004
  -1899366.79348  -1466869.94346  21842241.494    21842241.6254   21842246.3714
       180.0004        180.0004
  -2439102.51047  -1873695.84645  24045409.389    24045410.3004   24045417.5294
       159.0004        161.0004
  -3518196.69248  -2725437.60947  22111368.182    22111367.9574   22111372.0054
       193.0004        192.0004
   1175233.14649    910463.68047  21175088.701    21175088.8984   21175096.7724
       197.0004        198.0004
   -406475.84249   -247547.81348  20905224.510    20905224.9614   20905231.9654
       213.0004        213.0004
 21  2  5  0 23  0.0000000  0  8G27G01G04G21G30G07G08G09
   2594339.56548   2008167.76246  24067773.669    24067772.8834   24067780.9124
       172.0004        173.0004
  -3597767.29448  -2789758.38846  22339491.460    22339491.8304   22339499.0674
       174.0004        176.0004
   1727962.18148   1341234.68447  21820827.737    21820828.2094   21820834.1134
       189.0004        188.0004
  -1918717.57948  -1481948.45946  21838559.492    21838559.1704   21838564.3284
       180.0004        180.0004
  -2524748.53847  -1940432.99546  24029111.851    24029112.7154   24029119.7824
       161.0004        164.0004
  -3592517.63848  -2783350.02747  22097225.300    22097225.2514   22097229.2484
       192.0004        192.0004
   1247597.14349    966851.22047  21188859.039    21188859.3784   21188867.1514
       198.0004        198.0004
   -378630.14449   -225849.86248  20910523.933    20910523.9254   20910530.6224
       213.0004        213.0004
 21  2  5  0 23 30.0000000  0  8G27G01G04G21G30G07G08G09
   2702199.25348   2092214.25346  24088297.957    24088298.5794   24088304.9184
       174.0004        175.0004
  -3672740.22148  -2848178.83046  22325224.480    22325224.4324   22325232.2004
       175.0004        176.0004
   1813265.16548   1407704.53646  21837060.191    21837060.6654   21837066.1444
       188.0004        187.0004
  -1937665.28248  -1496712.88146  21834953.128    21834953.2664   21834958.1824
       180.0004        181.0004
  -2610481.34347  -2007237.74346  24012798.823    24012798.6844   24012804.8824
       161.0004        163.0004
  -3666768.69548  -2841207.98647  22083095.121    22083095.7984   22083099.7204
       191.0004        191.0004
   1320316.07149   1023515.34047  21202697.918    21202697.8384   21202704.7264
       198.0004        198.0004
   -350271.99549   -203752.60648  20915919.638    20915920.1674   20915927.1574
       212.0004        213.0004
 21  2  5  0 24  0.0000000  0  8G27G01G04G21G30G07G08G09
   2810120.83548   2176309.00146  24108833.953    24108835.0554   24108843.3214
       174.0004        175.0004
  -3747579.85748  -2906495.40046  22310981.788    22310981.9784   22310990.7354
       175.0004        175.0004
   1898843.52648   1474388.96146  21853344.946    21853345.6714   21853351.6534
       187.0004        186.0004
  -1956206.77048  -1511160.78346  21831424.950    21831424.9544   21831430.3724
       180.0004        181.0004
  -2696298.48747  -2074108.22345  23996467.297    23996467.2514   23996474.1214
       158.0004        158.0004
  -3740946.47048  -2899008.85347  22068980.055    22068980.2724   22068983.7164
       192.0004        192.0004
   1393388.08349   1080454.56047  21216602.796    21216602.9214   21216610.0664
       197.0004        196.0004
   -321402.12749   -181256.60748  20921413.663    20921414.0824   20921420.8194
       213.0004        213.0004
 21  2  5  0 24 30.0000000  0  8G27G01G04G21G30G07G08G09
   2918102.11048   2260450.23646  24129383.502    24129384.3064   24129389.9354
       173.0004        174.0004
  -3822282.42948  -2964705.17146  22296765.491    22296766.4954   22296775.7154
       175.0004        176.0004
   1984694.81748   1541286.08046  21869682.504    21869682.7334   21869688.0364
       187.0004        186.0004
  -1974340.15948  -1525290.68646  21827975.262    21827974.5134   21827979.8764
       180.0004        181.0004
  -2782197.94047  -2141042.84345  23980122.624    23980122.3404   23980127.3054
       156.0004        158.0004
  -3815048.43748  -2956750.63047  22054878.373    22054879.3414   22054883.1324
       193.0004        193.0004
   1466810.71349   1137666.99547  21230573.968    21230574.5544   21230582.0784
       196.0004        196.0004
   -292021.73549   -158362.78448  20927004.643    20927005.2124   20927011.5954
       212.0004        213.0004
 21  2  5  0 25  0.0000000  0  8G27G01G04G21G30G07G08G09
   3026139.57348   2344635.25746  24149942.480    24149943.2364   24149950.2414
       175.0004        177.0004
  -3896845.54248  -3022806.27846  22282578.215    22282578.4714   22282585.6804
       175.0004        176.0004
   2070815.23448   1608392.89246  21886069.394    21886070.0884   21886077.4014
       186.0004        186.0004
  -1992064.22548  -1539101.62346  21824601.740    21824601.6594   21824606.6014
       181.0004        181.0004
  -2868179.03147  -2208041.08345  23963760.425    23963760.4034   23963766.9944
       156.0004        159.0004
  -3889072.86948  -3014432.00147  22040792.149    22040792.4524   22040795.6904
       193.0004        192.0004
   1540580.03549   1195149.59247  21244612.300    21244612.6544   21244619.2814
       196.0004        196.0004
   -262133.34649   -135073.13148  20932692.226    20932692.6594   20932698.9334
       212.0004        213.0004
 21  2  5  0 25 30.0000000  0  8G27G01G04G21G30G07G08G09
   3134230.41748   2428861.86046  24170511.523    24170512.0144   24170517.8554
       175.0004        176.0004
  -3971265.98348  -3080796.20546  22268416.173    22268416.3734   22268424.7474
       175.0004        175.0004
   2157201.75548   1675707.05046  21902509.083    21902510.0704   21902515.9024
       186.0004        186.0004
  -2009376.98348  -1552592.07946  21821307.379    21821306.9104   21821311.7574
       180.0004        181.0004
  -2954240.28447  -2275101.78045  23947382.055    23947382.8624   23947390.0424
       158.0004        160.0004
  -3963017.30948  -3072051.04647  22026720.233    22026720.5404   22026725.3544
       192.0004        192.0004
   1614693.31149   1252900.20247  21258715.822    21258715.6174   21258723.0564
       196.0004        197.0004
   -231738.83149   -111389.09947  20938475.995    20938476.6874   20938483.4714
       212.0004        212.0004
 21  2  5  0 26  0.0000000  0  8G27G01G04G21G30G07G08G09
   3242373.24748   2513128.97446  24191090.168    24191090.7684   24191097.6314
       175.0004        177.0004
  -4045539.38548  -3138671.55946  22254281.863    22254282.4774   22254290.9034
       175.0004        177.0004
   2243852.55148   1743227.15846  21918998.753    21918998.3254   21919004.6574
       186.0004        185.0004
  -2026275.46548  -1565759.69846  21818090.790    21818090.8484   21818096.4044
       180.0004        180.0004
  -3040379.12747  -2342222.89945  23930990.565    23930989.8264   23930997.7644
       156.0004        157.0004
  -4036878.54848  -3129605.24547  22012665.552    22012666.1134   22012670.1934
       192.0004        193.0004
   1689148.63749   1310917.34647  21272883.813    21272884.2664   21272891.4734
       196.0004        197.0004
   -200838.80749    -87311.14747  20944355.509    20944356.2034   20944363.3044
       212.0004        212.0004
 21  2  5  0 26 30.0000000  0  8G27G01G04G21G30G07G08G09
   3350564.80248   2597434.03246  24211678.985    24211679.5224   24211684.8014
       176.0004        177.0004
  -4119662.91048  -3196430.14046  22240176.252    22240177.3324   22240185.7954
       176.0004        177.0004
   2330764.17648   1810950.48446  21935537.370    21935537.6904   21935543.8084
       186.0004        186.0004
  -2042758.91448  -1578603.93846  21814955.125    21814954.6694   21814958.9884
       181.0004        181.0004
  -3126594.35047  -2409403.57145  23914583.901    23914584.1954   23914591.4574
       157.0004        160.0004
  -4110654.33648  -3187092.87047  21998626.458    21998626.9874   21998631.0064
       193.0004        194.0004
   1763942.76949   1369198.48947  21287116.171    21287116.6054   21287124.6734
       196.0004        197.0004
   -169435.53149    -62841.06548  20950332.024    20950332.7514   20950338.8364
       212.0004        213.0004
 21  2  5  0 27  0.0000000  0  8G27G01G04G21G30G07G08G09
   3458802.25848   2681774.90146  24232274.346    24232275.8964   24232282.4824
       177.0004        178.0004
  -4193633.56648  -3254069.59546  22226101.694    22226101.9564   22226109.2534
       177.0004        178.0004
   2417933.41048   1878874.55746  21952124.868    21952125.4404   21952131.0484
       186.0004        186.0004
  -2058825.50048  -1591123.34946  21811898.828    21811897.9504   21811901.7054
       181.0004        182.0004
  -3212884.72647  -2476642.80845  23898164.930    23898165.0484   23898171.3184
       158.0004        161.0004
  -4184342.70648  -3244512.37447  21984604.621    21984605.3214   21984608.4194
       194.0004        194.0004
   1839072.26949   1427740.96247  21301412.697    21301413.0274   21301421.1644
       196.0004        196.0004
   -137531.04849    -37980.43147  20956403.797    20956403.5294   20956410.4104
       212.0004        212.0004
 21  2  5  0 27 30.0000000  0  9G27G01G04G21G30G07G08G09G17
   3567082.15948   2766148.84946  24252880.323    24252880.9594   24252887.3214
       178.0004        179.0004
  -4267448.83348  -3311587.94446  22212054.539    22212054.8304   22212062.8954
       177.0004        178.0004
   2505356.57048   1946996.49146  21968761.202    21968761.4124   21968767.4194
       185.0004        184.0004
  -2074473.61748  -1603316.66346  21808919.158    21808919.2754   21808924.0974
       181.0004        182.0004
  -3299249.32647  -2543939.87945  23881730.667    23881729.9614   23881736.7714
       159.0004        161.0004
  -4257941.44848  -3301862.02647  21970598.143    21970598.8784   21970603.1094
       194.0004        194.0004
   1914533.81249   1486542.15447  21315773.824    21315773.7174   21315780.8434
       196.0004        196.0004
   -105127.94749    -12731.26148  20962569.635    20962569.9434   20962576.5724
       212.0004        213.0004
  -1304075.72154  -1000206.59245  24270469.590
        74.0004        142.0004
 21  2  5  0 28  0.0000000  0  9G27G01G04G21G30G07G08G09G17
   3675402.95548   2850554.62746  24273492.864    24273493.6504   24273501.2774
       180.0004        181.0004
  -4341104.39148  -3368981.86246  22198037.450    22198037.9484   22198047.1914
       177.0004        177.0004
   2593031.67948   2015314.74946  21985444.825    21985445.3324   21985451.0664
       184.0004        183.0004
  -2089700.68348  -1615181.90746  21806021.847    21806022.4964   21806027.3894
       181.0004        181.0004
  -3385685.69147  -2611292.86545  23865281.576    23865281.5604   23865287.2324
       158.0004        159.0004
  -4331447.68148  -3359139.61647  21956611.450    21956611.4914   21956614.8114
       193.0004        193.0004
   1990325.22349   1545600.39647  21330197.262    21330197.1024   21330203.8584
       196.0004        198.0004
    -72227.04249     12905.80248  20968830.827    20968830.8884   20968837.5534
       212.0004        213.0004
  -1401780.56246  -1076340.13545  24251875.284                    24251882.4334
       123.0004        140.0004
 21  2  5  0 28 30.0000000  0  9G27G01G04G21G30G07G08G09G17
   3783761.04448   2934989.48146  24294112.946    24294113.0794   24294119.8464
       178.0004        177.0004
  -4414597.91348  -3426249.54246  22184051.308    22184052.8044   22184061.4654
       177.0004        178.0004
   2680954.71048   2083826.20846  22002176.090    22002176.1644   22002182.6014
       185.0004        185.0004
  -2104506.09648  -1626718.59046  21803205.175    21803205.1954   21803210.3534
       182.0004        183.0004
  -3472193.18047  -2678701.28145  23848819.191    23848818.8594   23848826.5994
       155.0004        157.0004
  -4404859.21148  -3416343.39347  21942641.264    21942642.0644   21942645.6634
       193.0004        194.0004
   2066442.97849   1604912.93447  21344681.163    21344681.8064   21344688.6454
       197.0004        198.0004
    -38831.22949     38928.51847  20975185.284    20975185.5884   20975192.0264
       212.0004        212.0004
  -1499270.06946  -1152305.93745  24233324.450    24233323.5594   24233329.7884
       128.0004        136.0004
 21  2  5  0 29  0.0000000  0  9G27G01G04G21G30G07G08G09G17
   3892153.06748   3019450.79446  24314740.706    24314740.1034   24314745.7474
       175.0004        175.0004
  -4487926.84448  -3483388.93646  22170098.406    22170098.7444   22170106.6464
       178.0004        177.0004
   2769122.03848   2152528.01346  22018954.334    22018954.3934   22018960.3584
       185.0004        185.0004
  -2118888.81148  -1637925.87546  21800468.195    21800467.5524   21800472.9714
       182.0004        183.0004
  -3558770.81847  -2746164.34445  23832343.986    23832343.9244   23832350.9144
       153.0004        155.0004
  -4478175.29848  -3473472.80547  21928689.709    21928690.5164   21928694.4194
       194.0004        195.0004
   2142883.02449   1664476.61647  21359226.730    21359227.1534   21359234.1924
       196.0004        196.0004
     -4943.06049     65334.88848  20981633.731    20981634.5754   20981640.7494
       212.0004        213.0004
  -1596542.45946  -1228102.58045  24214813.100    24214813.6944   24214817.8934
       131.0004        139.0004
 21  2  5  0 29 30.0000000  0  9G27G01G04G21G30G07G08G09G17
   4000576.82648   3103936.83146  24335372.415    24335372.4724   24335378.9574
       173.0004        173.0004
  -4561087.55748  -3540397.27246  22156175.997    22156176.8594   22156184.8334
       178.0004        179.0004
   2857531.03848   2221418.12846  22035778.040    22035778.2934   22035784.1824
       184.0004        183.0004
  -2132846.49348  -1648801.97946  21797811.494    21797810.7804   21797816.7814
       182.0004        182.0004
  -3645416.71847  -2813680.61445  23815854.879    23815855.5634   23815862.7384
       153.0004        156.0004
  -4551392.60849  -3530525.25547  21914757.556    21914757.8154   21914761.0444
       195.0004        195.0004
   2219642.65149   1724289.30747  21373833.821    21373834.1864   21373841.1424
       195.0004        196.0004
     29435.87649     92123.66548  20988176.795    20988176.8714   20988182.8594
       212.0004        213.0004
  -1693595.36647  -1303728.14545  24196346.201    24196347.0454   24196351.5674
       138.0004        144.0004
 21  2  5  0 30  0.0000000  0  9G27G01G04G21G30G07G08G09G17
   4109031.55648   3188446.99346  24356010.943    24356011.0854   24356015.6564
       171.0004        171.0004
  -4634074.99548  -3597270.58146  22142286.359    22142287.8184   22142296.1684
       178.0004        178.0004
   2946180.44348   2290495.59046  22052647.447    22052647.4644   22052653.4304
       184.0004        184.0004
  -2146375.99848  -1659344.43146  21795236.291    21795236.5584   21795241.9854
       181.0004        182.0004
  -3732127.50447  -2881247.42145  23799354.380    23799355.4054   23799362.6324
       154.0004        158.0004
  -4624506.76349  -3587497.31347  21900842.436    21900843.2194   21900848.2774
       195.0004        194.0004
   2296721.37449   1784350.65747  21388501.331    21388501.7384   21388509.2614
       195.0004        196.0004
     64305.42649    119294.72847  20994811.845    20994811.9604   20994818.4224
       212.0004        212.0004
  -1790425.07547  -1379179.79045  24177921.330    24177920.4084   24177925.9484
       143.0004        148.0004
 21  2  5  0 30 30.0000000  0  9G27G01G04G21G30G07G08G09G17
   4217514.75848   3272979.38846  24376655.751    24376654.8974   24376660.2754
       172.0004        173.0004
  -4706885.71448  -3654006.17546  22128431.425    22128432.4224   22128441.5044
       177.0004        179.0004
   3035067.48848   2359758.23446  22069560.998    22069561.7284   22069568.3084
       184.0004        184.0004
  -2159475.30448  -1669551.66946  21792743.502    21792743.7114   21792749.8204
       181.0004        181.0004
  -3818901.27647  -2948863.33345  23782844.038    23782843.5714   23782849.9624
       158.0004        161.0004
  -4697515.24548  -3644387.02147  21886949.676    21886950.6014   21886955.0374
       194.0004        194.0004
   2374116.49849   1844658.55647  21403229.286    21403229.4734   21403236.4234
       195.0004        196.0004
     99663.77349    146846.70347  21001539.299    21001539.4714   21001547.5044
       211.0004        211.0004
  -1887028.98747  -1454455.49445  24159535.555    24159536.3024   24159541.7984
       144.0004        148.0004
 21  2  5  0 31  0.0000000  0  9G27G01G04G21G30G07G08G09G17
   4326023.47848   3357531.60246  24397303.436    24397302.9764   24397309.6044
       172.0004        173.0004
  -4779516.80948  -3710601.81346  22114610.982    22114611.1244   22114619.6694
       178.0004        179.0004
   3124188.72448   2429203.33846  22086519.843    22086520.7834   22086527.2104
       184.0004        183.0004
  -2172143.24548  -1679422.78446  21790333.916    21790333.7964   21790338.4214
       181.0004        182.0004
  -3905736.83247  -3016527.41345  23766319.640    23766318.8794   23766325.7284
       159.0004        162.0004
  -4770415.83748  -3701192.67247  21873077.949    21873078.0154   21873082.2384
       194.0004        194.0004
   2451823.61749   1905209.56347  21418016.562    21418017.1934   21418023.9844
       195.0004        196.0004
    135508.57149    174777.71147  21008361.197    21008361.5624   21008367.9254
       211.0004        211.0004
  -1983405.39447  -1529553.92745  24141196.751    24141197.2884   24141202.1554
       147.0004        151.0004
 21  2  5  0 31 30.0000000  0  9G27G01G04G21G30G07G08G09G17
   4434555.15948   3442101.68846  24417955.581    24417956.2504   24417961.7254
       172.0004        172.0004
  -4851964.96248  -3767054.91446  22100824.711    22100824.6554   22100832.4994
       178.0004        179.0004
   3213541.18548   2498828.61946  22103523.862    22103524.1934   22103530.7604
       184.0004        183.0004
  -2184378.10348  -1688956.43646  21788006.746    21788005.8904   21788010.8634
       182.0004        182.0004
  -3992632.57047  -3084238.34546  23749782.859    23749783.0564   23749792.1074
       160.0004        163.0004
  -4843206.15449  -3757912.39647  21859226.273    21859226.6834   21859230.6064
       195.0004        195.0004
   2529840.84549   1966002.20047  21432863.004    21432863.2734   21432870.1494
       195.0004        195.0004
    171837.83349    203086.21847  21015274.124    21015274.4344   21015281.3274
       211.0004        212.0004
  -2079552.05247  -1604473.31845  24122900.242    24122900.7164   24122906.4934
       148.0004        152.0004
 21  2  5  0 32  0.0000000  0  9G27G01G04G21G30G07G08G09G17
   4543107.45348   3526687.89346  24438613.117    24438613.4274   24438618.7514
       171.0004        172.0004
  -4924226.67648  -3823362.71446  22087072.885    22087073.6594   22087081.8374
       179.0004        180.0004
   3303122.10048   2568631.92946  22120570.758    22120571.2594   22120577.1764
       184.0004        184.0004
  -2196177.99448  -1698151.14346  21785760.596    21785760.7984   21785765.2774
       183.0004        183.0004
  -4079586.65847  -3151994.73845  23733236.259    23733235.7464   23733244.1264
       160.0004        162.0004
  -4915883.30249  -3814543.93847  21845397.352    21845397.2474   21845401.0874
       196.0004        197.0004
   2608165.06149   2027034.06947  21447766.706    21447767.3034   21447775.0464
       195.0004        195.0004
    208649.75349    231770.83747  21022279.006    21022279.4774   21022286.2204
       211.0004        211.0004
  -2175466.51147  -1679211.77145  24104647.344    24104648.2824   24104654.4934
       149.0004        152.0004
 21  2  5  0 32 30.0000000  0  9G27G01G04G21G30G07G08G09G17
   4651677.70148   3611288.02346  24459274.011    24459273.6354   24459279.1504
       169.0004        170.0004
  -4996298.83448  -3879522.82346  22073359.140    22073359.4514   22073368.1634
       179.0004        180.0004
   3392928.29848   2638610.77946  22137661.060    22137660.9494   22137666.9744
       185.0004        185.0004
  -2207541.76948  -1707006.02046  21783598.353    21783597.7014   21783603.0584
       183.0004        183.0004
  -4166597.36547  -3219795.28245  23716678.401    23716677.8314   23716685.4824
       159.0004        160.0004
  -4988445.09649  -3871085.59147  21831588.357    21831588.9714   21831592.9304
       196.0004        196.0004
   2686793.23048   2088302.75947  21462729.829    21462730.5994   21462737.3704
       194.0004        195.0004
    245942.11549    260829.82247  21029376.061    21029375.8684   21029382.8874
       211.0004        211.0004
  -2271146.77547  -1753767.71845  24086440.793    24086441.3574   24086446.8504
       151.0004        155.0004
 21  2  5  0 33  0.0000000  0  9G27G01G04G21G30G07G08G09G17
   4760262.78848   3695899.78546  24479936.058    24479936.4414   24479942.0504
       170.0004        172.0004
  -5068178.58548  -3935533.00846  22059679.633    22059680.4124   22059689.4244
       179.0004        180.0004
   3482956.32148   2708762.49046  22154791.933    22154792.2654   22154799.2324
       185.0004        183.0004
  -2218468.04848  -1715519.97846  21781519.126    21781518.2984   21781524.2874
       183.0004        183.0004
  -4253663.52847  -3287639.03345  23700110.189    23700110.2724   23700118.0894
       157.0004        159.0004
  -5060889.62549  -3927535.86747  21817803.059    21817803.0964   21817807.8914
       195.0004        195.0004
   2765721.88948   2149805.61347  21477750.449    21477750.3404   21477756.5204
       194.0004        195.0004
    283712.45049    290261.24647  21036562.671    21036563.1854   21036570.3954
       210.0004        211.0004
  -2366590.81847  -1828139.63145  24068279.021    24068279.7184   24068284.3474
       153.0004        157.0004
 21  2  5  0 33 30.0000000  0  9G27G01G04G21G30G07G08G09G17
   4868860.23748   3780521.12946  24500600.814    24500601.0834   24500607.6044
       169.0004        170.0004
  -5139862.65348  -3991390.71546  22046038.933    22046039.8964   22046047.6924
       179.0004        180.0004
   3573203.13948   2779084.69446  22171965.298    22171965.7084   22171971.7224
       183.0004        182.0004
  -2228955.21848  -1723691.78446  21779522.230    21779522.5144   21779528.5954
       183.0004        182.0004
  -4340783.53847  -3355524.72045  23683532.385    23683531.9314   23683538.6174
       157.0004        160.0004
  -5133214.14449  -3983892.61847  21804040.134    21804040.9184   21804044.2424
       195.0004        196.0004
   2844948.17948   2211540.40447  21492825.940    21492826.4884   21492833.1144
       194.0004        194.0004
    321958.59249    320063.44847  21043841.406    21043841.4874   21043848.2604
       210.0004        211.0004
  -2461796.81547  -1902326.06345  24050161.516    24050162.4234   24050165.9924
       154.0004        157.0004
 21  2  5  0 34  0.0000000  0  9G27G01G04G21G30G07G08G09G17
   4977467.71648   3865150.29146  24521268.154    24521268.6654   24521275.2074
       169.0004        170.0004
  -5211347.63848  -4047093.29246  22032435.285    22032435.6254   22032443.8734
       179.0004        180.0004
   3663665.82548   2849575.09946  22189179.903    22189180.4504   22189186.4154
       183.0004        183.0004
  -2239001.73048  -1731520.22946  21777611.561    21777611.1924   21777615.4934
       182.0004        182.0004
  -4427955.50647  -3423450.94645  23666943.776    23666943.7154   23666950.3034
       158.0004        161.0004
  -5205416.02149  -4040153.82947  21790300.753    21790301.1554   21790304.5704
       196.0004        196.0004
   2924469.04248   2273504.70947  21507957.160    21507957.8004   21507964.6064
       193.0004        192.0004
    360678.59749    350234.86847  21051209.374    21051209.8254   21051216.5274
       210.0004        211.0004
  -2556762.67847  -1976325.36445  24032091.666    24032091.6274   24032094.8624
       152.0004        153.0004
 21  2  5  0 34 30.0000000  0  9G27G01G04G21G30G07G08G09G17
   5086082.70048   3949785.37246  24541935.369    24541936.9734   24541944.4824
       170.0004        171.0004
  -5282630.12748  -4102638.08346  22018870.990    22018871.5204   22018880.0794
       179.0004        180.0004
   3754341.53548   2920231.49846  22206434.894    22206435.7794   22206440.5934
       182.0004        181.0004
  -2248605.89048  -1739003.97646  21775784.000    21775782.7944   21775787.5044
       181.0004        182.0004
  -4515177.62347  -3491416.22745  23650346.105    23650346.2464   23650352.5174
       159.0004        162.0004
  -5277492.46349  -4096317.28747  21776584.206    21776584.8544   21776589.0074
       196.0004        196.0004
   3004282.02648   2335696.64447  21523145.937    21523146.4294   21523153.3384
       192.0004        193.0004
    399870.46849    380773.98647  21058667.850    21058667.7714   21058674.3984
       211.0004        211.0004
  -2651485.85047  -2050135.60645  24014065.850    24014065.9234   24014068.9664
       150.0004        152.0004
 21  2  5  0 35  0.0000000  0  9G27G01G04G21G30G07G08G09G17
   5194703.11948   4034424.60546  24562603.815    24562605.8514   24562614.3394
       167.0004        168.0004
  -5353706.45448  -4158022.21546  22005344.802    22005346.4314   22005354.9224
       179.0004        180.0004
   3845227.60448   2991051.82146  22223730.217    22223729.9614   22223735.8514
       181.0004        181.0004
  -2257765.98848  -1746141.69146  21774041.141    21774040.6354   21774044.8154
       182.0004        183.0004
  -4602447.78947  -3559418.95146  23633738.943    23633738.5774   23633745.7654
       161.0004        163.0004
  -5349440.73449  -4152380.86047  21762893.280    21762893.7364   21762897.9694
       196.0004        196.0004
   3084384.19248   2398113.92147  21538389.101    21538389.2404   21538396.2454
       193.0004        194.0004
    439532.40449    411679.39447  21066214.287    21066215.1594   21066221.8444
       210.0004        210.0004
  -2745963.88947  -2123754.84845  23996086.526    23996086.9724   23996091.4624
       150.0004        153.0004
 21  2  5  0 35 30.0000000  0  8G01G04G21G30G07G08G09G17
  -5424573.53448  -4213243.30746  21991860.370    21991860.9434   21991869.0024
       180.0004        181.0004
   3936320.81548   3062033.54546  22241063.826    22241064.0244   22241070.4594
       181.0004        181.0004
  -2266480.66548  -1752932.33046  21772382.340    21772382.1054   21772385.0934
       183.0004        183.0004
  -4689764.52547  -3627457.93545  23617123.124    23617122.6964   23617129.6854
       160.0004        161.0004
  -5421258.86249  -4208343.03747  21749226.863    21749227.2644   21749231.3084
       196.0004        196.0004
   3164772.37548   2460754.06847  21553686.194    21553687.2314   21553693.3844
       194.0004        194.0004
    479662.09549    442949.28647  21073851.267    21073851.6624   21073858.5614
       210.0004        211.0004
  -2840194.50747  -2197181.26045  23978154.458    23978155.5754   23978159.2184
       152.0004        156.0004
 21  2  5  0 36  0.0000000  0  9G01G04G21G30G07G08G09G17G14
  -5495227.57748  -4268298.39646  21978415.788    21978416.1854   21978423.5974
       180.0004        180.0004
   4027618.67348   3133174.72546  22258437.496    22258438.3864   22258444.8684
       181.0004        182.0004
  -2274747.93348  -1759374.34146  21770808.665    21770808.4594   21770813.1984
       183.0004        184.0004
  -4777125.52847  -3695531.41046  23600499.110    23600498.9844   23600506.2094
       160.0004        163.0004
  -5492943.17949  -4264200.94647  21735585.889    21735586.1674   21735590.5434
       197.0004        197.0004
   3245444.57948   2523615.52647  21569038.383    21569038.2104   21569044.1024
       193.0004        193.0004
    520257.82249    474582.31747  21081576.342    21081576.4224   21081583.4854
       210.0004        210.0004
  -2934175.53347  -2270413.23845  23960270.379    23960270.8004   23960275.9474
       154.0004        157.0004
   -421853.68754   -317277.18543  23602743.024
        74.0004         74.0004
 21  2  5  0 36 30.0000000  0  9G01G04G21G30G07G08G09G17G14
  -5565666.62448  -4323185.94946  21965011.490    21965012.1544   21965019.5174
       180.0004        181.0004
   4119116.78148   3204471.94246  22275849.267    22275849.6144   22275855.9014
       181.0004        179.0004
  -2282567.31148  -1765467.35346  21769319.670    21769320.2524   21769325.5804
       183.0004        183.0004
  -4864530.36747  -3763639.06846  23583867.766    23583867.3954   23583873.5514
       163.0004        165.0004
  -5564492.54449  -4319953.68847  21721970.174    21721970.6024   21721974.7214
       197.0004        197.0004
   3326396.08949   2586694.63047  21584442.495    21584442.3904   21584448.8084
       207.0004        209.0004
    561316.07449    506575.76847  21089389.735    21089389.8074   21089396.4484
       210.0004        210.0004
  -3027906.27047  -2343450.12845  23942433.537    23942434.0934   23942440.2744
       156.0004        159.0004
   -449057.76744   -338475.59645  23597566.360
        74.0004        141.0004
 21  2  5  0 37  0.0000000  0  9G01G04G21G30G07G08G09G17G14
  -5635887.13648  -4377903.22046  21951648.419    21951649.0934   21951657.5664
       180.0004        180.0004
   4210812.44148   3275923.11546  22293298.489    22293298.9304   22293304.1564
       179.0004        177.0004
  -2289937.56948  -1771210.40146  21767917.978    21767917.8924   21767923.3524
       183.0004        183.0004
  -4951977.01247  -3831779.30546  23567226.176    23567225.8114   23567232.4714
       163.0004        164.0004
  -5635904.19949  -4375599.12147  21708381.070    21708381.6174   21708385.7604
       197.0004        197.0004
   3407624.38649   2649989.41147  21599899.100    21599899.6974   21599906.0194
       210.0004        209.0004
    602834.89049    538928.09047  21097289.802    21097290.4254   21097297.4114
       210.0004        210.0004
  -3121383.96847  -2416289.84145  23924646.261    23924646.4234   23924652.3294
       157.0004        159.0004
   -476203.54046   -359628.06045  23592401.183    23592401.9924   23592401.7604
       132.0004        144.0004
 21  2  5  0 37 30.0000000  0  9G01G04G21G30G07G08G09G17G14
  -5705885.90848  -4432447.70646  21938328.906    21938329.1294   21938337.2024
       180.0004        181.0004
   4302702.50748   3347525.75546  22310785.334    22310785.0324   22310790.3134
       177.0004        177.0004
  -2296857.51048  -1776602.54146  21766602.220    21766601.3824   21766606.5354
       183.0004        184.0004
  -5039463.82447  -3899950.83346  23550577.938    23550578.1014   23550585.0874
       164.0004        166.0004
  -5707175.43249  -4431135.14147  21694818.659    21694819.3954   21694822.8094
       197.0004        196.0004
   3489126.20849   2713497.33848  21615409.367    21615409.3454   21615415.5504
       220.0004        224.0004
    644811.93949    571637.47947  21105278.634    21105278.8374   21105285.4544
       210.0004        211.0004
  -3214606.58247  -2488930.73845  23906906.526    23906907.1464   23906912.0124
       156.0004        158.0004
   -503292.60747   -380736.36945  23587248.653    23587246.6714   23587250.7534
       138.0004        144.0004
 21  2  5  0 38  0.0000000  0  9G01G04G21G30G07G08G09G17G14
  -5775660.35648  -4486817.39046  21925050.794    21925051.3344   21925058.8244
       180.0004        181.0004
   4394783.22148   3419276.96246  22328307.726    22328308.0774   22328313.8334
       178.0004        179.0004
  -2303326.27748  -1781643.12746  21765371.684    21765370.2374   21765376.1054
       184.0004        185.0004
  -5126989.64248  -3968152.77146  23533920.829    23533921.6424   23533929.3674
       165.0004        167.0004
  -5778304.69149  -4486560.53647  21681282.799    21681283.7614   21681287.8304
       197.0004        197.0004
   3570898.14949   2777215.73948  21630969.943    21630969.9374   21630976.5764
       224.0004        224.0004
    687244.28249    604701.64447  21113352.556    21113352.8644   21113360.1534
       210.0004        210.0004
  -3307573.12147  -2561372.17945  23889216.072    23889216.1144   23889220.8454
       156.0004        158.0004
   -530326.95247   -401802.04145  23582101.514    23582101.3034   23582108.3364
       141.0004        147.0004
 21  2  5  0 38 30.0000000  0  9G01G04G21G30G07G08G09G17G14
  -5845205.79448  -4541008.64146  21911816.587    21911816.7824   21911825.4704
       180.0004        182.0004
   4487052.94648   3491175.43346  22345865.644    22345866.2894   22345871.9894
       179.0004        178.0004
  -2309341.14648  -1786330.02546  21764225.232    21764225.2224   21764231.6174
       184.0004        185.0004
  -5214551.37548  -4036382.66546  23517258.496    23517258.7164   23517267.4784
       165.0004        166.0004
  -5849288.17649  -4541872.34147  21667775.124    21667775.7714   21667779.5614
       197.0004        197.0004
   3652938.32549   2841143.14948  21646580.544    21646581.0524   21646588.4914
       225.0004        224.0004
    730130.99649    638119.86247  21121513.786    21121514.1384   21121521.1274
       210.0004        210.0004
  -3400280.01247  -2633611.25745  23871573.850    23871574.2214   23871579.9614
       157.0004        159.0004
   -557306.42547   -422825.00245  23576966.533    23576967.7514   23576976.5714
       148.0004        154.0004
 21  2  5  0 39  0.0000000  0  9G01G04G21G30G07G08G09G17G14
  -5914518.61048  -4595018.61546  21898627.284    21898627.9914   21898635.6774
       181.0004        183.0004
   4579509.06948   3563219.16046  22363457.155    22363458.1144   22363465.7574
       178.0004        177.0004
  -2314900.23248  -1790661.78546  21763167.647    21763167.5304   21763173.2934
       184.0004        184.0004
  -5302146.79348  -4104638.80246  23500591.010    23500590.9374   23500597.5034
       165.0004        168.0004
  -5920122.53449  -4597067.94147  21654296.388    21654296.5534   21654300.2164
       197.0004        197.0004
   3735244.37449   2905277.73048  21662243.079    21662243.1424   21662250.6644
       224.0004        222.0004
    773470.20549    671890.67747  21129761.866    21129761.7704   21129767.6524
       209.0004        209.0004
  -3492724.60247  -2705645.97945  23853981.329    23853982.3134   23853987.9054
       157.0004        159.0004
   -584231.94647   -443805.92645  23571843.132    23571844.2124   23571851.9784
       153.0004        158.0004
 21  2  5  0 39 30.0000000  0  9G01G04G21G30G07G08G09G17G14
  -5983595.37448  -4648844.64946  21885482.325    21885482.7094   21885491.5224
       182.0004        183.0004
   4672148.68948   3635405.87846  22381087.149    22381087.5674   22381094.1654
       176.0004        175.0004
  -2320002.33948  -1794637.44646  21762196.611    21762197.1244   21762201.7494
       184.0004        184.0004
  -5389773.94148  -4172919.68446  23483916.321    23483915.9034   23483922.4544
       166.0004        167.0004
  -5990805.12149  -4652145.27047  21640844.982    21640845.2584   21640849.8244
       197.0004        198.0004
   3817813.39349   2969617.23648  21677955.104    21677956.0854   21677963.3354
       223.0004        223.0004
    817259.69849    706012.37047  21138093.963    21138094.2584   21138100.8894
       209.0004        209.0004
  -3584904.76547  -2777474.63445  23836440.401    23836440.4904   23836446.3254
       158.0004        161.0004
   -611104.67047   -464745.69445  23566730.510    23566731.4684   23566736.6594
       156.0004        158.0004
 21  2  5  0 40  0.0000000  0  9G01G04G21G30G07G08G09G17G14
  -6052433.60048  -4702484.81046  21872381.586    21872382.7324   21872390.7554
       182.0004        183.0004
   4764967.99648   3707732.58946  22398751.639    22398751.2854   22398757.5064
       176.0004        177.0004
  -2324647.06448  -1798256.70946  21761314.061    21761312.8794   21761317.0214
       184.0004        184.0004
  -5477431.78248  -4241224.50946  23467235.175    23467235.2034   23467242.1084
       166.0004        167.0004
  -6061334.26849  -4707103.04247  21627424.352    21627424.7034   21627429.0284
       197.0004        198.0004
   3900641.61049   3034158.69748  21693718.182    21693718.0184   21693724.7744
       224.0004        224.0004
    861496.36849    740482.49247  21146511.732    21146512.4434   21146518.9214
       209.0004        210.0004
  -3676819.41347  -2849096.43345  23818950.659    23818950.3534   23818955.4974
       159.0004        160.0004
   -637926.71147   -485645.98545  23561626.537    23561626.5324   23561630.6814
       155.0004        156.0004
 21  2  5  0 40 30.0000000  0  9G01G04G21G30G07G08G09G17G14
  -6121030.36148  -4755936.82546  21859328.878    21859329.3254   21859337.7064
       182.0004        183.0004
   4857963.59948   3780196.69346  22416447.177    22416447.4064   22416453.8534
       177.0004        178.0004
  -2328833.12248  -1801518.57246  21760517.254    21760516.8204   21760521.4914
       184.0004        184.0004
  -5565118.86948  -4309552.10546  23450548.930    23450548.5474   23450555.4104
       166.0004        166.0004
  -6131707.45949  -4761939.28747  21614032.390    21614033.0994   21614037.4744
       197.0004        198.0004
   3983725.79349   3098899.60648  21709529.074    21709528.9854   21709535.0864
       225.0004        224.0004
    906177.53049    775298.98147  21155014.818    21155014.8114   21155021.8004
       210.0004        210.0004
  -3768466.96147  -2920510.08645  23801508.633    23801510.1374   23801514.8154
       156.0004        157.0004
   -664699.73447   -506508.04845  23556530.725    23556531.6114   23556535.8514
       153.0004        154.0004
 21  2  5  0 41  0.0000000  0  9G01G04G21G30G07G08G09G17G14
  -6189380.78348  -4809196.88746  21846322.323    21846323.2514   21846330.3294
       182.0004        183.0004
   4951134.07948   3852797.06546  22434177.215    22434177.0304   22434184.0184
       177.0004        177.0004
  -2332558.20948  -1804421.22946  21759807.466    21759807.2474   21759812.1604
       184.0004        184.0004
  -5652831.75247  -4377899.80246  23433856.377    23433856.3994   23433863.5524
       164.0004        164.0004
  -6201920.33449  -4816650.62247  21600671.980    21600672.4304   21600676.1274
       198.0004        198.0004
   4067064.04749   3163838.51548  21725387.101    21725387.0754   21725393.4984
       224.0004        222.0004
    951302.38549    810461.21647  21163600.526    21163601.0354   21163608.5024
       210.0004        210.0004
  -3859843.73347  -2991712.69645  23784120.059    23784120.4634   23784126.8744
       151.0004        152.0004
   -691423.34447   -527331.61945  23551445.632    23551445.8514   23551451.5774
       155.0004        159.0004
 21  2  5  0 41 30.0000000  0  9G01G04G21G30G07G08G09G17G14
  -6257482.46448  -4862263.10546  21833362.927    21833363.1104   21833372.0504
       182.0004        183.0004
   5044475.51948   3925530.65446  22451938.873    22451940.0664   22451945.2774
       177.0004        177.0004
  -2335821.56148  -1806964.10246  21759187.070    21759185.9274   21759191.3484
       184.0004        185.0004
  -5740569.39247  -4446266.79346  23417159.493    23417160.6524   23417167.9534
       163.0004        165.0004
  -6271971.68549  -4871236.08247  21587341.993    21587342.4714   21587346.1134
       199.0004        200.0004
   4150653.59949   3228973.24548  21741293.224    21741293.0314   21741300.0674
       223.0004        221.0004
    996867.76949    845966.69747  21172272.516    21172272.9834   21172279.2264
       210.0004        210.0004
  -3950948.33647  -3062703.23445  23766786.229    23766786.0824   23766789.9144
       152.0004        157.0004
   -718099.70547   -548118.36545  23546368.988    23546369.5494   23546374.6794
       157.0004        160.0004
 21  2  5  0 42  0.0000000  0  9G01G04G21G30G07G08G09G17G14
  -6325332.42348  -4915133.19946  21820451.670    21820452.2364   21820460.2734
       183.0004        185.0004
   5137984.65348   3998394.91746  22469733.874    22469733.9404   22469739.1444
       177.0004        177.0004
  -2338622.15048  -1809146.38346  21758653.530    21758653.5864   21758658.1994
       184.0004        185.0004
  -5828330.24747  -4514651.87346  23400460.993    23400461.1204   23400468.2684
       164.0004        166.0004
  -6341858.97949  -4925693.71147  21574041.996    21574042.6964   21574047.0264
       199.0004        199.0004
   4234490.49249   3294300.67848  21757246.908    21757246.9084   21757253.8604
       222.0004        221.0004
   1042870.93849    881813.32047  21181026.771    21181026.8904   21181033.7074
       210.0004        210.0004
  -4041779.12847  -3133480.42945  23749501.602    23749501.2234   23749505.2284
       156.0004        159.0004
   -744730.36547   -568869.50045  23541302.523    23541302.6524   23541306.6434
       157.0004        158.0004
 21  2  5  0 42 30.0000000  0  9G01G04G21G30G07G08G09G17G14
  -6392927.41348  -4967804.61746  21807589.136    21807589.3954   21807597.7074
       184.0004        185.0004
   5231658.44248   4071387.47346  22487559.253    22487559.8234   22487565.8314
       177.0004        177.0004
  -2340958.66548  -1810967.02846  21758209.999    21758209.3224   21758215.0054
       186.0004        187.0004
  -5916112.43048  -4583053.55646  23383756.119    23383756.6824   23383763.5994
       166.0004        167.0004
  -6411579.52549  -4980021.39747  21560775.404    21560775.5974   21560779.4324
       199.0004        199.0004
   4318571.61949   3359818.43848  21773247.090    21773247.4134   21773254.1654
       223.0004        223.0004
   1089309.47549    917999.20547  21189863.018    21189863.4844   21189870.7034
       210.0004        209.0004
  -4132334.13247  -3204042.70245  23732267.431    23732267.3244   23732272.5744
       155.0004        157.0004
   -771316.68947   -589586.10545  23536243.198    23536243.0204   23536247.8834
       156.0004        157.0004
 21  2  5  0 43  0.0000000  0  9G01G04G21G30G07G08G09G17G14
  -6460263.76648  -5020274.48846  21794774.469    21794774.8864   21794784.1084
       184.0004        185.0004
   5325494.24848   4144506.27446  22505415.578    22505415.6874   22505421.9924
       177.0004        177.0004
  -2342830.13048  -1812425.30147  21757853.570    21757852.7554   21757859.5874
       188.0004        188.0004
  -6003913.66647  -4651470.12946  23367047.288    23367047.8784   23367055.5844
       164.0004        164.0004
  -6481130.18149  -5034216.72847  21547539.701    21547540.3154   21547544.0384
       199.0004        199.0004
   4402894.70749   3425524.73448  21789293.717    21789294.0664   21789300.0284
       223.0004        222.0004
   1136181.36249    954522.74347  21198783.113    21198783.5844   21198789.7674
       209.0004        210.0004
  -4222610.95247  -3274388.22845  23715089.071    23715089.3574   23715096.2484
       157.0004        161.0004
   -797859.49147   -610268.79345  23531190.761    23531191.8314   23531197.5714
       158.0004        161.0004
 21  2  5  0 43 30.0000000  0  9G01G04G21G30G07G08G09G17G14
  -6527337.84248  -5072539.97846  21782010.848    21782011.8114   21782020.1324
       185.0004        186.0004
   5419489.42248   4217749.26246  22523301.942    22523302.5614   22523308.7524
       177.0004        178.0004
  -2344234.94948  -1813519.92547  21757586.662    21757585.2104   21757591.9984
       188.0004        188.0004
  -6091731.69547  -4719899.75346  23350336.973    23350337.4934   23350345.1404
       163.0004        164.0004
  -6550507.94949  -5088277.31447  21534337.683    21534337.8714   21534342.1094
       199.0004        199.0004
   4487457.23649   3491417.62748  21805385.619    21805385.4414   21805391.8534
       222.0004        221.0004
   1183484.52149    991382.34947  21207784.675    21207784.6074   21207791.1664
       209.0004        209.0004
  -4312607.19347  -3344515.11445  23697964.805    23697964.9094   23697968.7564
       160.0004        162.0004
   -824359.66147   -630918.25146  23526148.804    23526149.4984   23526154.4624
       162.0004        165.0004
 21  2  5  0 44  0.0000000  0  9G01G04G21G30G07G08G09G17G14
  -6594147.47048  -5124599.43046  21769297.753    21769298.2324   21769306.4574
       184.0004        184.0004
   5513639.88748   4291113.26046  22541218.084    22541219.0264   22541224.6554
       177.0004        176.0004
  -2345172.77548  -1814250.68547  21757407.026    21757407.3574   21757413.6144
       188.0004        189.0004
  -6179565.70048  -4788341.81246  23333623.732    23333624.5294   23333630.6404
       165.0004        169.0004
  -6619711.41249  -5142202.08247  21521168.539    21521169.2354   21521173.6484
       199.0004        200.0004
   4572254.86849   3557493.70348  21821521.118    21821521.5444   21821528.3474
       221.0004        221.0004
   1231215.45349   1028575.28947  21216867.198    21216867.7594   21216874.3164
       209.0004        209.0004
  -4402322.44447  -3414423.05345  23680892.270    23680891.8824   23680895.7684
       158.0004        158.0004
   -850819.55548   -651536.34346  23521113.763    23521114.5284   23521119.3364
       165.0004        168.0004
 21  2  5  0 44 30.0000000  0  9G01G04G21G30G07G08G09G17G14
  -6660688.93948  -5176449.91546  21756634.810    21756635.8744   21756644.2024
       184.0004        185.0004
   5607942.95248   4364596.17746  22559163.747    22559164.4044   22559169.8784
       177.0004        177.0004
  -2345641.94548  -1814616.24047  21757318.391    21757317.7584   21757324.9734
       188.0004        189.0004
  -6267413.36548  -4856794.54446  23316906.043    23316906.0984   23316913.1644
       166.0004        167.0004
  -6688737.28849  -5195988.49247  21508034.800    21508034.2294   21508037.9264
       200.0004        200.0004
   4657285.66449   3623751.45348  21837702.297    21837702.3624   21837709.3124
       221.0004        220.0004
   1279372.02749   1066099.88447  21226032.050    21226031.6894   21226037.9334
       209.0004        209.0004
  -4491753.97347  -3484109.91145  23663872.620    23663873.2924   23663877.9814
       157.0004        159.0004
   -877240.08948   -672123.76346  23516086.406    23516086.8944   23516092.3584
       166.0004        167.0004
 21  2  5  0 45  0.0000000  0  9G01G04G21G30G07G08G09G17G14
  -6726957.72348  -5228087.93146  21744026.028    21744026.6994   21744033.4124
       186.0004        187.0004
   5702397.07448   4438196.78746  22577137.708    22577138.3794   22577144.9594
       177.0004        178.0004
  -2345640.62448  -1814615.19047  21757317.851    21757318.0154   21757325.4524
       189.0004        189.0004
  -6355271.35348  -4925255.28946  23300186.535    23300186.9444   23300195.0144
       165.0004        167.0004
  -6757581.86049  -5249633.60947  21494932.849    21494933.2334   21494937.3194
       199.0004        199.0004
   4742547.48549   3690189.23448  21853926.991    21853927.5314   21853933.7734
       221.0004        220.0004
   1327953.16749   1103955.30347  21235275.313    21235275.9014   21235282.6864
       208.0004        208.0004
  -4580898.32647  -3553572.99245  23646907.820    23646908.5684   23646913.7794
       156.0004        158.0004
   -903621.14248   -692680.41646  23511066.266    23511066.9814   23511071.6734
       165.0004        166.0004
 21  2  5  0 45 30.0000000  0  9G01G04G21G30G07G08G09G17G14
  -6792951.66648  -5279511.78046  21731466.380    21731467.2104   21731474.1464
       185.0004        185.0004
   5796998.03248   4511911.80546  22595138.921    22595140.2564   22595145.8674
       177.0004        177.0004
  -2345168.72548  -1814247.45147  21757408.172    21757408.0184   21757414.8144
       189.0004        189.0004
  -6443138.86348  -4993723.45646  23283466.442    23283465.9454   23283473.8594
       166.0004        167.0004
  -6826243.36749  -5303136.06847  21481867.263    21481867.6724   21481871.0204
       200.0004        200.0004
   4828036.48149   3756804.04248  21870195.927    21870195.5884   21870201.9274
       221.0004        220.0004
   1376955.21549   1142138.73547  21244600.712    21244600.7994   21244607.6704
       208.0004        209.0004
  -4669754.96547  -3622811.87145  23629999.760    23630000.0414   23630004.2554
       156.0004        158.0004
   -929965.07347   -713208.14346  23506052.944    23506053.2154   23506058.7804
       164.0004        165.0004
 21  2  5  0 46  0.0000000  0  9G01G04G21G30G07G08G09G17G14
  -6858667.49048  -5330718.89746  21718960.082    21718961.0954   21718969.8764
       185.0004        185.0004
   5891742.90848   4585738.98546  22613169.068    22613169.1504   22613175.6904
       177.0004        177.0004
  -2344224.91748  -1813512.00046  21757587.549    21757587.2204   21757593.5924
       188.0004        187.0004
  -6531013.90448  -5062197.48546  23266744.785    23266744.4154   23266751.7664
       166.0004        168.0004
  -6894719.24249  -5356493.89647  21468836.288    21468836.7154   21468840.5424
       200.0004        200.0004
   4913749.82249   3823593.66048  21886506.207    21886506.4564   21886512.6594
       221.0004        220.0004
   1426375.75349   1180648.23647  21254004.787    21254005.3624   21254012.2574
       208.0004        208.0004
  -4758321.82347  -3691824.95245  23613146.260    23613147.0724   23613150.5084
       156.0004        157.0004
   -956273.16647   -733707.92146  23501047.495    23501047.6244   23501052.8084
       164.0004        165.0004
 21  2  5  0 46 30.0000000  0  9G01G04G21G30G07G08G09G17G14
  -6924102.13748  -5381706.94746  21706509.552    21706509.9184   21706517.5944
       185.0004        186.0004
   5986628.41148   4659675.73446  22631225.567    22631224.9904   22631231.0644
       176.0004        175.0004
  -2342808.54648  -1812408.33646  21757857.733    21757857.2414   21757862.7644
       187.0004        186.0004
  -6618894.72448  -5130676.05146  23250020.753    23250021.7394   23250028.8804
       168.0004        171.0004
  -6963006.84549  -5409705.02447  21455841.535    21455842.2064   21455845.7024
       199.0004        199.0004
   4999684.11849   3890555.43948  21902859.218    21902859.2784   21902865.1794
       220.0004        219.0004
   1476211.96349   1219481.63347  21263488.133    21263488.7404   21263495.4804
       208.0004        208.0004
  -4846597.49547  -3760611.14945  23596347.185    23596347.7564   23596353.1574
       154.0004        155.0004
   -982546.88047   -754180.91546  23496047.430    23496047.1604   23496052.8894
       164.0004        166.0004
 21  2  5  0 47  0.0000000  0  9G01G04G21G30G07G08G09G17G14
  -6989252.47948  -5432473.42746  21694112.327    21694112.4274   21694120.8944
       186.0004        187.0004
   6081651.47548   4733719.66946  22649306.762    22649306.9774   22649313.9994
       174.0004        173.0004
  -2340918.81648  -1810935.80246  21758217.146    21758216.5104   21758221.9894
       186.0004        186.0004
  -6706779.44548  -5199157.62746  23233296.238    23233297.1464   23233305.0594
       170.0004        170.0004
  -7031103.74949  -5462767.53447  21442882.952    21442883.2444   21442887.8664
       199.0004        199.0004
   5085836.53149   3957687.19248  21919252.367    21919253.0904   21919259.0054
       219.0004        218.0004
   1526461.23149   1258636.91947  21273050.544    21273050.6724   21273058.1154
       208.0004        209.0004
  -4934579.89647  -3829168.82945  23579606.527    23579607.2084   23579610.3264
       156.0004        160.0004
  -1008787.53247   -774628.16646  23491053.699    23491054.1164   23491058.6194
       164.0004        165.0004
 21  2  5  0 47 30.0000000  0  9G01G04G21G30G07G08G09G17G14
  -7054114.58948  -5483015.30846  21681769.003    21681769.4274   21681777.2444
       186.0004        187.0004
   6176809.84648   4807869.05846  22667415.038    22667415.3974   22667422.2054
       174.0004        175.0004
  -2338553.93748  -1809093.02146  21758666.874    21758666.4274   21758671.6374
       185.0004        185.0004
  -6794665.41348  -5267640.19246  23216573.069    23216572.9614   23216580.0804
       168.0004        168.0004
  -7099006.50249  -5515678.76547  21429961.531    21429962.3584   21429966.6464
       200.0004        201.0004
   5172204.61349   4024986.99248  21935688.455    21935688.4354   21935694.4204
       219.0004        219.0004
   1577121.72649   1298112.63047  21282690.774    21282691.1894   21282698.2874
       208.0004        208.0004
  -5022266.30647  -3897495.85145  23562919.517    23562920.0774   23562923.4534
       159.0004        162.0004
  -1034995.68747   -795050.08046  23486065.707    23486066.5804   23486072.2524
       164.0004        166.0004
 21  2  5  0 48  0.0000000  0  9G01G04G21G30G07G08G09G17G14
  -7118685.22148  -5533330.07446  21669480.989    21669481.7414   21669489.8324
       186.0004        187.0004
   6272100.48248   4882121.48746  22685548.517    22685548.9684   22685555.2344
       174.0004        174.0004
  -2335713.07348  -1806879.35146  21759206.573    21759206.7384   21759211.4004
       184.0004        184.0004
  -6882550.55148  -5336122.11146  23199849.880    23199849.4494   23199857.0584
       169.0004        171.0004
  -7166712.38149  -5568436.59347  21417078.001    21417078.5204   21417082.3934
       200.0004        200.0004
   5258785.61849   4092452.71248  21952164.133    21952164.4204   21952170.7584
       219.0004        219.0004
   1628190.84849   1337906.75447  21292409.491    21292409.6664   21292416.2004
       208.0004        208.0004
  -5109655.13647  -3965590.98746  23546290.516    23546290.7914   23546295.2094
       161.0004        164.0004
  -1061172.58948   -815447.62446  23481085.958    23481086.1854   23481090.2304
       165.0004        167.0004
 21  2  5  0 48 30.0000000  0  9G01G04G21G30G07G08G09G17G14
  -7182961.24248  -5583415.26746  21657250.476    21657251.1514   21657258.8004
       187.0004        187.0004
   6367520.31148   4956474.60346  22703706.515    22703706.8924   22703712.5384
       173.0004        173.0004
  -2332395.19348  -1804293.98946  21759838.530    21759838.1174   21759842.2454
       184.0004        184.0004
  -6970433.01348  -5404601.92946  23183126.304    23183126.1444   23183133.2724
       171.0004        173.0004
  -7234218.90849  -5621039.07447  21404231.666    21404232.2414   21404236.1324
       200.0004        201.0004
   5345576.66649   4160082.11448  21968679.362    21968679.7654   21968686.6424
       219.0004        218.0004
   1679665.77949   1378017.08947  21302203.879    21302204.6114   21302211.1824
       207.0004        206.0004
  -5196744.47447  -4033452.76045  23529718.431    23529718.2124   23529721.8644
       161.0004        162.0004
  -1087319.59248   -835821.87546  23476108.661    23476109.5984   23476114.8094
       166.0004        166.0004
 21  2  5  0 49  0.0000000  0  9G01G04G21G30G07G08G09G17G14
  -7246940.03948  -5633268.86747  21645074.947    21645076.3064   21645084.4554
       187.0004        188.0004
   6463065.66948   5030925.52046  22721887.997    22721888.6134   22721894.5854
       172.0004        172.0004
  -2328600.16548  -1801336.82046  21760560.789    21760560.9314   21760564.4384
       183.0004        183.0004
  -7058311.38348  -5473078.60546  23166404.531    23166403.7414   23166409.3864
       171.0004        172.0004
  -7301523.60049  -5673484.29347  21391424.165    21391424.6144   21391428.7884
       201.0004        201.0004
   5432573.47249   4227871.82248  21985235.322    21985234.6894   21985242.2124
       218.0004        218.0004
   1731543.62149   1418441.37747  21312075.290    21312076.4424   21312083.6124
       206.0004        206.0004
  -5283533.00947  -4101080.16145  23513201.472    23513202.1874   23513207.5794
       158.0004        159.0004
  -1113438.55647   -856174.29446  23471138.247    23471139.0014   23471144.7404
       164.0004        164.0004
 21  2  5  0 49 30.0000000  0  9G01G04G21G30G07G08G09G17G14
  -7310617.45848  -5682887.62946  21632956.953    21632957.7344   21632965.8144
       187.0004        187.0004
   6558734.62348   5105472.74746  22740093.923    22740094.2684   22740099.5194
       171.0004        171.0004
  -2324326.24348  -1798006.47946  21761374.785    21761374.3164   21761378.1094
       183.0004        183.0004
  -7146182.63648  -5541549.69946  23149681.840    23149682.6564   23149689.1184
       172.0004        174.0004
  -7368623.36849  -5725769.81747  21378655.615    21378656.1764   21378660.1164
       201.0004        201.0004
   5519774.82049   4295820.91048  22001828.842    22001828.8824   22001835.5644
       219.0004        218.0004
   1783822.56349   1459178.20647  21322024.644    21322025.1244   21322032.2244
       206.0004        207.0004
  -5370018.17247  -4168471.14345  23496742.426    23496744.0194   23496750.0444
       157.0004        160.0004
  -1139529.71447   -876505.07746  23466174.539    23466174.0494   23466179.2184
       164.0004        165.0004
 21  2  5  0 50  0.0000000  0  9G01G04G21G30G07G08G09G17G14
  -7373990.17748  -5732268.95146  21620898.025    21620898.9544   21620906.6364
       187.0004        187.0004
   6654524.18948   5180113.95646  22758321.615    22758321.6114   22758327.8244
       171.0004        171.0004
  -2319572.38748  -1794302.15546  21762279.524    21762278.8224   21762283.4084
       183.0004        183.0004
  -7234044.75648  -5610013.66846  23132961.319    23132962.1534   23132969.8414
       172.0004        173.0004
  -7435515.37549  -5777893.45147  21365926.144    21365926.7344   21365930.9794
       201.0004        201.0004
   5607177.80149   4363927.13148  22018461.078    22018461.2294   22018467.6964
       218.0004        218.0004
   1836500.06649   1500225.61047  21332048.301    21332049.1204   21332055.7374
       206.0004        206.0004
  -5456197.91847  -4235624.14445  23480345.281    23480344.1744   23480349.3384
       158.0004        160.0004
  -1165594.25847   -896815.08946  23461214.405    23461214.5824   23461219.3904
       163.0004        164.0004
 21  2  5  0 50 30.0000000  0  9G01G04G21G30G07G08G09G17G14
  -7437055.20248  -5781410.51447  21608898.140    21608898.1344   21608906.3844
       187.0004        188.0004
   6750431.15948   5254846.65546  22776572.545    22776572.8434   22776578.5904
       171.0004        172.0004
  -2314337.85648  -1790223.29546  21763274.737    21763274.4124   21763278.2184
       183.0004        182.0004
  -7321895.84748  -5678469.05646  23116244.620    23116245.1494   23116252.0634
       172.0004        174.0004
  -7502196.64649  -5829852.88747  21353238.029    21353238.3094   21353242.0664
       202.0004        202.0004
   5694778.98349   4432187.79848  22035131.324    22035131.1314   22035137.6434
       218.0004        218.0004
   1889573.26049   1541581.34947  21342148.471    21342148.9324   21342155.8604
       206.0004        207.0004
  -5542070.77947  -4302538.00645  23464004.052    23464003.3374   23464007.7714
       156.0004        157.0004
  -1191633.67147   -917105.49646  23456258.978    23456259.1134   23456264.4564
       163.0004        165.0004
 21  2  5  0 51  0.0000000  0  9G01G04G21G30G07G08G09G17G14
  -7499809.36848  -5830309.85447  21596956.550    21596957.0334   21596965.3834
       188.0004        189.0004
   6846452.56848   5329668.52546  22794843.650    22794844.8724   22794850.2064
       171.0004        171.0004
  -2308622.04148  -1785769.42046  21764361.738    21764362.2634   21764365.7464
       182.0004        182.0004
  -7409733.87248  -5746914.25646  23099530.418    23099530.1954   23099536.6064
       173.0004        173.0004
  -7568664.82249  -5881646.26647  21340588.636    21340589.2334   21340593.5694
       202.0004        202.0004
   5782575.53649   4500600.68948  22051837.284    22051838.0234   22051844.7914
       218.0004        217.0004
   1943039.49849   1583243.34347  21352322.792    21352323.5454   21352330.1304
       206.0004        207.0004
  -5627634.84347  -4369211.25745  23447720.849    23447720.9814   23447725.7234
       157.0004        160.0004
  -1217649.08847   -937377.23946  23451308.065    23451308.4394   23451313.4274
       164.0004        165.0004
 21  2  5  0 51 30.0000000  0  9G01G04G21G30G07G08G09G17G14
  -7562249.05748  -5878964.13847  21585074.836    21585075.7824   21585083.0754
       189.0004        190.0004
   6942585.88148   5404577.57946  22813136.408    22813137.1964   22813144.5594
       169.0004        168.0004
  -2302423.68648  -1780939.51046  21765542.637    21765541.4084   21765545.9104
       183.0004        183.0004
  -7497556.33148  -5815347.35146  23082817.047    23082817.5834   23082823.9004
       170.0004        170.0004
  -7634916.62249  -5933271.05047  21327982.112    21327982.5184   21327986.1244
       203.0004        203.0004
   5870565.00549   4569163.91048  22068580.864    22068581.4364   22068588.5384
       217.0004        215.0004
   1996896.51449   1625209.86747  21362571.454    21362571.4324   21362578.3344
       206.0004        206.0004
  -5712888.07247  -4435642.30045  23431497.212    23431498.1424   23431501.7744
       159.0004        161.0004
  -1243641.40347   -957631.00445  23446362.308    23446362.9054   23446367.9174
       162.0004        162.0004
 21  2  5  0 52  0.0000000  0  9G01G04G21G30G07G08G09G17G14
  -7624370.75248  -5927370.62947  21573253.398    21573253.9264   21573260.6834
       190.0004        190.0004
   7038828.43148   5479571.76146  22831451.264    22831451.7404   22831458.8504
       168.0004        169.0004
  -2295741.82648  -1775732.84646  21766813.062    21766812.6194   21766818.0244
       183.0004        184.0004
  -7585360.89148  -5883766.49646  23066108.802    23066109.0184   23066116.6704
       171.0004        172.0004
  -7700949.15549  -5984724.96547  21315416.658    21315416.6754   21315420.3444
       202.0004        202.0004
   5958745.16749   4637875.73448  22085361.342    22085361.8664   22085368.9384
       216.0004        216.0004
   2051142.00249   1667479.07547  21372893.537    21372894.1134   21372900.7594
       205.0004        206.0004
  -5797828.05847  -4501829.25045  23415335.250    23415334.6574   23415338.8234
       160.0004        162.0004
  -1269611.53747   -977867.44745  23441420.070    23441420.5014   23441426.7084
       161.0004        162.0004
 21  2  5  0 52 30.0000000  0  9G01G04G21G30G07G08G09G17G14
  -7686172.08648  -5975527.51547  21561491.300    21561492.6424   21561500.3474
       188.0004        188.0004
   7135176.40848   5554648.10646  22849787.306    22849786.5704   22849793.7264
       169.0004        170.0004
  -2288576.44348  -1770149.42746  21768176.120    21768176.1584   21768181.6624
       183.0004        183.0004
  -7673146.22648  -5952170.63546  23049403.793    23049403.9164   23049412.4394
       172.0004        175.0004
  -7766760.48749  -6036006.53147  21302891.602    21302892.5344   21302897.4574
       202.0004        202.0004
   6047111.89449   4706732.91248  22102177.619    22102178.0524   22102184.6734
       217.0004        217.0004
   2105772.40849   1710048.22347  21383290.151    21383290.0204   21383297.2074
       205.0004        206.0004
  -5882454.05947  -4567771.57046  23399229.519    23399230.6824   23399235.8144
       161.0004        164.0004
  -1295561.50947   -998088.15045  23436481.528    23436481.7244   23436487.3454
       159.0004        161.0004
 21  2  5  0 53  0.0000000  0  9G01G04G21G30G07G08G09G17G14
  -7747649.97348  -6023432.33546  21549792.952    21549794.0934   21549801.8634
       187.0004        187.0004
   7231626.76948   5629804.23546  22868141.019    22868140.9904   22868148.0564
       168.0004        169.0004
  -2280926.95348  -1764188.77646  21769632.665    21769632.7054   21769636.8974
       184.0004        184.0004
  -7760910.37548  -6020558.25846  23032702.844    23032702.8394   23032710.6874
       172.0004        173.0004
  -7832347.97149  -6087113.65447  21290411.250    21290412.1824   21290416.6294
       203.0004        203.0004
   6135662.05049   4775733.03448  22119027.996    22119028.5074   22119035.0864
       217.0004        216.0004
   2160785.00849   1752915.18647  21393758.958    21393759.2814   21393765.3704
       205.0004        205.0004
  -5966764.49448  -4633467.96146  23383187.447    23383187.8664   23383192.4214
       165.0004        168.0004
  -1321492.56747  -1018294.16145  23431547.205    23431547.5904   23431552.1364
       160.0004        162.0004
 21  2  5  0 53 30.0000000  0  9G01G04G21G30G07G08G09G17G14
  -7808801.09948  -6071082.55147  21538157.893    21538157.4394   21538164.7374
       187.0004        188.0004
   7328176.68948   5705037.92346  22886513.601    22886514.6344   22886520.3294
       169.0004        171.0004
  -2272792.50848  -1757850.22846  21771181.039    21771180.4354   21771184.9294
       184.0004        184.0004
  -7848651.00148  -6088927.59146  23016007.439    23016007.2554   23016014.0504
       173.0004        174.0004
  -7897708.51749  -6138043.94547  21277974.064    21277974.0404   21277978.2394
       202.0004        202.0004
   6224393.38049   4844874.33048  22135913.497    22135913.0644   22135919.9384
       216.0004        214.0004
   2216177.20749   1796077.93947  21404299.891    21404299.4934   21404306.1144
       205.0004        205.0004
  -6050757.28348  -4698916.85446  23367203.667    23367203.8924   23367208.2334
       165.0004        167.0004
  -1347405.81047  -1038486.27245  23426614.946    23426616.4004   23426621.6534
       159.0004        161.0004
 21  2  5  0 54  0.0000000  0  9G01G04G21G30G07G08G09G17G14
  -7869621.98248  -6118475.44347  21526583.454    21526584.0904   21526591.4464
       188.0004        188.0004
   7424823.49348   5780347.11246  22904905.669    22904905.0124   22904911.9154
       170.0004        170.0004
  -2264172.12048  -1751133.02946  21772820.494    21772820.7934   21772825.8884
       184.0004        185.0004
  -7936365.77148  -6157276.76846  22999315.865    22999316.4384   22999322.0644
       174.0004        174.0004
  -7962839.33049  -6188795.22947  21265580.208    21265580.2824   21265583.9974
       202.0004        202.0004
   6313302.90049   4914154.46448  22152831.444    22152831.5274   22152838.6684
       214.0004        213.0004
   2271946.55249   1839534.56947  21414911.505    21414911.9024   21414918.5094
       204.0004        204.0004
  -6134430.63748  -4764116.81946  23351280.514    23351281.7304   23351286.1884
       165.0004        167.0004
  -1373302.18347  -1058665.23145  23421688.029    23421688.9804   23421693.4614
       159.0004        161.0004
 21  2  5  0 54 30.0000000  0  9G01G04G21G30G07G08G09G17G14
  -7930110.04448  -6165608.97947  21515072.275    21515072.8684   21515080.9674
       188.0004        188.0004
   7521563.69248   5855729.09746  22923312.560    22923313.6534   22923320.1054
       168.0004        169.0004
  -2255065.70448  -1744037.10746  21774553.562    21774553.4334   21774559.0704
       185.0004        185.0004
  -8024053.09048  -6225604.55546  22982629.223    22982628.7544   22982635.3514
       173.0004        173.0004
  -8027738.19749  -6239365.78247  21253230.547    21253230.6454   21253234.7624
       203.0004        203.0004
   6402387.31849   4983570.88448  22169783.489    22169783.3294   22169790.5784
       213.0004        213.0004
   2328089.78649   1883282.54147  21425595.435    21425595.7844   21425602.5234
       204.0004        204.0004
  -6217783.12548  -4829066.75346  23335418.740    23335419.7624   23335424.9544
       165.0004        166.0004
  -1399183.42347  -1078832.40646  23416762.281    23416763.4544   23416768.4374
       160.0004        163.0004
 21  2  5  0 55  0.0000000  0  9G01G04G21G30G07G08G09G17G14
  -7990260.63248  -6212479.53147  21503625.146    21503626.2734   21503634.8674
       188.0004        189.0004
   7618395.90648   5931182.76346  22941741.145    22941741.0064   22941747.5954
       169.0004        170.0004
  -2245471.08348  -1736560.75546  21776379.383    21776378.6114   21776384.6324
       185.0004        185.0004
  -8111709.32848  -6293908.09046  22965948.988    22965948.7924   22965955.8374
       174.0004        176.0004
  -8092400.77149  -6289752.20247  21240925.147    21240925.8504   21240929.6764
       203.0004        203.0004
   6491645.09449   5053122.40048  22186768.079    22186768.5784   22186776.0044
       213.0004        213.0004
   2384605.68549   1927320.90247  21436349.695    21436350.6194   21436356.9434
       204.0004        204.0004
  -6300811.59248  -4893764.21546  23319619.696    23319620.2904   23319625.3324
       166.0004        168.0004
  -1425049.18947  -1098987.50546  23411840.688    23411841.2014   23411846.9034
       161.0004        163.0004
 21  2  5  0 55 30.0000000  0  9G01G04G21G30G07G08G09G17G14
  -8050071.93348  -6259085.72847  21492244.936    21492245.2524   21492253.5644
       190.0004        192.0004
   7715315.73248   6006704.70446  22960183.079    22960184.0944   22960189.8934
       170.0004        170.0004
  -2235389.11848  -1728704.67146  21778297.583    21778297.6954   21778303.3364
       185.0004        186.0004
  -8199333.66948  -6362186.79846  22949274.153    22949273.7884   22949280.5954
       173.0004        171.0004
  -8156825.75849  -6339953.48847  21228666.474    21228666.2734   21228669.8024
       203.0004        203.0004
   6581072.58749   5122806.15348  22203785.281    22203786.3024   22203793.6894
       213.0004        213.0004
   2441490.13749   1971646.44147  21447175.059    21447175.3044   21447182.2014
       204.0004        204.0004
  -6383515.78648  -4958208.99546  23303881.622    23303882.5404   23303888.2244
       168.0004        170.0004
  -1450902.03447  -1119132.57345  23406922.371    23406922.6264   23406927.4354
       161.0004        162.0004
 21  2  5  0 56  0.0000000  0  9G01G04G21G30G07G08G09G17G14
  -8109540.09848  -6305424.56047  21480930.890    21480930.6694   21480936.9204
       193.0004        195.0004
   7812320.94248   6082293.18046  22978643.257    22978643.0504   22978648.9064
       169.0004        169.0004
  -2224818.31148  -1720467.66546  21780309.673    21780309.5794   21780314.6874
       186.0004        187.0004
  -8286923.33548  -6430438.47346  22932605.534    22932605.6854   22932613.5894
       170.0004        171.0004
  -8221009.87949  -6389967.09447  21216451.640    21216452.5344   21216456.4604
       203.0004        203.0004
   6670667.17649   5192620.11048  22220836.373    22220836.5104   22220843.1834
       213.0004        213.0004
   2498741.02249   2016257.52247  21458069.440    21458069.7574   21458076.7744
       204.0004        204.0004
  -6465893.46548  -5022399.37546  23288205.142    23288205.6834   23288212.5414
       169.0004        169.0004
  -1476742.52647  -1139268.00745  23402004.771    23402005.1594   23402009.8474
       159.0004        160.0004
 21  2  5  0 56 30.0000000  0  9G01G04G21G30G07G08G09G17G14
  -8168663.01848  -6351494.37247  21469678.336    21469678.9154   21469685.6754
       194.0004        193.0004
   7909407.64348   6157945.15246  22997118.362    22997117.6184   22997124.1564
       168.0004        169.0004
  -2213758.98648  -1711849.99946  21782414.028    21782414.1664   21782419.2744
       186.0004        186.0004
  -8374477.05748  -6498662.13046  22915944.219    22915944.6694   22915952.3864
       170.0004        172.0004
  -8284951.36349  -6439791.62147  21204283.889    21204284.2734   21204288.5004
       203.0004        203.0004
   6760425.15149   5262561.38647  22237916.739    22237916.7894   22237923.5374
       213.0004        212.0004
   2556354.61249   2061151.23247  21469031.161    21469032.2584   21469039.8804
       203.0004        202.0004
  -6547943.71848  -5086334.61446  23272592.021    23272592.0864   23272597.5174
       167.0004        167.0004
  -1502572.75847  -1159395.44145  23397088.413    23397088.8104   23397093.5324
       157.0004        158.0004
 21  2  5  0 57  0.0000000  0  9G01G04G21G30G07G08G09G17G14
  -8227437.16248  -6397292.40747  21458492.140    21458492.4484   21458501.1354
       191.0004        189.0004
   8006573.29848   6233658.63546  23015607.480    23015608.7764   23015614.3434
       168.0004        169.0004
  -2202210.43948  -1702851.12646  21784611.978    21784612.2194   21784616.9504
       187.0004        187.0004
  -8461992.24648  -6566855.80346  22899291.279    22899291.3724   22899298.4224
       170.0004        172.0004
  -8348646.79449  -6489424.43147  21192163.663    21192163.9514   21192167.3604
       203.0004        203.0004
   6850344.07949   5332628.06447  22255026.466    22255026.8904   22255034.0614
       212.0004        211.0004
   2614328.59449   2106325.75247  21480064.669    21480064.6804   21480072.0414
       202.0004        202.0004
  -6629664.53848  -5150013.13646  23257040.575    23257041.8994   23257045.3994
       165.0004        167.0004
  -1528393.50747  -1179515.50445  23392175.230    23392175.6534   23392180.9974
       156.0004        157.0004
 21  2  5  0 57 30.0000000  0  9G01G04G21G30G07G08G09G17G14
  -8285858.25548  -6442815.30447  21447373.491    21447374.6884   21447384.0004
       188.0004        188.0004
   8103816.17948   6309432.30946  23034112.720    23034112.8214   23034118.9164
       168.0004        168.0004
  -2190171.30348  -1693469.95547  21786904.134    21786902.8944   21786907.5074
       187.0004        188.0004
  -8549465.58548  -6635016.82846  22882644.199    22882645.3404   22882654.0684
       171.0004        173.0004
  -8412092.31449  -6538862.49647  21180090.534    21180090.8584   21180094.4154
       204.0004        204.0004
   6940422.43749   5402818.99847  22272168.442    22272168.4824   22272175.9804
       212.0004        212.0004
   2672661.29049   2151779.80247  21491165.253    21491165.3774   21491171.9574
       202.0004        203.0004
  -6711053.31248  -5213432.93946  23241553.898    23241554.4704   23241557.7024
       165.0004        166.0004
  -1554204.80847  -1199628.22045  23387263.998    23387264.6044   23387269.8724
       156.0004        158.0004
 21  2  5  0 58  0.0000000  0  9G01G04G21G30G07G08G09G17G14
  -8343923.64948  -6488061.03347  21436325.118    21436326.1764   21436334.3124
       188.0004        189.0004
   8201132.91448   6385263.53746  23052630.935    23052631.8054   23052637.6894
       168.0004        169.0004
  -2177641.14348  -1683706.17246  21789287.664    21789286.8864   21789292.6104
       187.0004        187.0004
  -8636895.36448  -6703143.90246  22866008.686    22866008.4984   22866015.6174
       172.0004        174.0004
  -8475285.86949  -6588104.22547  21168064.290    21168065.0424   21168069.2154
       204.0004        204.0004
   7030656.70049   5473131.40747  22289340.076    22289339.8094   22289346.9034
       212.0004        211.0004
   2731349.44249   2197510.83247  21502332.564    21502333.1414   21502340.3954
       202.0004        203.0004
  -6792108.89748  -5276593.08746  23226129.994    23226129.7214   23226132.7204
       165.0004        166.0004
  -1580008.29147  -1219734.81445  23382353.834    23382354.2704   23382358.2334
       156.0004        157.0004
 21  2  5  0 58 30.0000000  0  9G01G04G21G30G07G08G09G17G14
  -8401631.30248  -6533028.03447  21425345.163    21425345.7914   21425353.4464
       190.0004        191.0004
   8298519.38148   6461149.10046  23071163.473    23071164.1674   23071169.9754
       167.0004        167.0004
  -2164620.80048  -1673560.43946  21791764.743    21791764.6384   21791769.8664
       187.0004        187.0004
  -8724280.44748  -6771236.16546  22849379.212    22849379.7974   22849387.1604
       172.0004        174.0004
  -8538225.60449  -6637148.17447  21156087.200    21156087.9014   21156092.2264
       204.0004        204.0004
   7121042.80649   5543562.13147  22306538.447    22306539.2304   22306546.2874
       210.0004        209.0004
   2790389.13649   2243515.77647  21513568.432    21513568.8564   21513575.2404
       202.0004        202.0004
  -6872830.50347  -5339493.02146  23210767.764    23210768.2754   23210771.0644
       163.0004        163.0004
  -1605806.21047  -1239837.08545  23377444.198    23377443.7974   23377449.2994
       154.0004        156.0004
 21  2  5  0 59  0.0000000  0 10G22G01G04G21G30G07G08G09G17G14
   5287032.71354   4106369.716 3                                  24580184.176
        74.0004         74.000
  -8458976.96948  -6577712.97047  21414433.472    21414433.8034   21414440.5704
       192.0004        193.0004
   8395973.97248   6537087.72246  23089708.482    23089708.7484   23089713.8864
       166.0004        167.0004
  -2151108.47148  -1663031.33946  21794336.422    21794336.4284   21794341.1284
       187.0004        187.0004
  -8811617.45148  -6839290.97446  22832761.318    22832760.9774   22832766.4984
       173.0004        175.0004
  -8600907.56749  -6685991.26547  21144159.743    21144160.3954   21144164.2254
       204.0004        204.0004
   7211579.44749   5614110.16147  22323767.159    22323767.0784   22323775.2764
       209.0004        209.0004
   2849778.73949   2289793.39647  21524869.441    21524869.7664   21524876.5024
       203.0004        203.0004
  -6953215.28047  -5402130.49945  23195471.176    23195471.7344   23195472.6414
       161.0004        161.0004
  -1631598.63547  -1259935.06445  23372535.676    23372536.3754   23372541.2524
       154.0004        156.0004
 21  2  5  0 59 30.0000000  0 10G22G01G04G21G30G07G08G09G17G14
   5287032.71344   4106369.716 3                                  24580184.176
        74.0004         74.000
  -8515957.19448  -6622113.13847  21403590.491    21403591.0014   21403597.5864
       193.0004        194.0004
   8493494.14248   6613077.44246  23108264.996    23108265.9294   23108271.8124
       165.0004        166.0004
  -2137103.58148  -1652118.42446  21797001.185    21797000.2184   21797006.1764
       187.0004        187.0004
  -8898903.76948  -6907306.28046  22816149.008    22816149.8864   22816156.7344
       172.0004        173.0004
  -8663328.75349  -6734631.15247  21132281.487    21132281.5104   21132285.8484
       204.0004        204.0004
   7302263.94349   5684773.39547  22341023.599    22341024.2554   22341031.6414
       209.0004        208.0004
   2909515.85149   2336341.78547  21536237.965    21536238.2454   21536244.5434
       203.0004        204.0004
  -7033261.43047  -5464504.09845  23180238.252    23180238.4094   23180240.5794
       157.0004        157.0004
  -1657386.23047  -1280029.27245  23367629.139    23367629.3834   23367634.4274
       155.0004        158.0004
 21  2  5  1  0  0.0000000  0 10G22G01G04G21G30G07G08G09G17G14
   5287032.71356   4106369.716 3                                  24580184.176
       109.0004         74.000
  -8572568.60348  -6666225.92047  21392817.963    21392817.9654   21392824.8054
       194.0004        193.0004
   8591077.25448   6689116.22246  23126835.485    23126836.1154   23126841.7334
       165.0004        166.0004
  -2122605.19348  -1640820.96046  21799760.102    21799759.5054   21799765.0794
       186.0004        186.0004
  -8986136.86148  -6975280.11046  22799550.925    22799550.6314   22799557.6074
       176.0004        179.0004
  -8725486.23749  -6783065.55247  21120452.938    21120453.5344   21120457.5194
       204.0004        204.0004
   7393093.88149   5755549.96947  22358309.407    22358308.8594   22358315.7804
       209.0004        209.0004
   2969597.88049   2383158.96247  21547670.803    21547670.8424   21547677.6584
       203.0004        204.0004
  -7112967.32947  -5526612.58845  23165070.761    23165071.4984   23165074.8604
       156.0004        159.0004
  -1683169.86547  -1300120.37645  23362722.659    23362722.9324   23362728.1774
       157.0004        160.0004
 21  2  5  1  0 30.0000000  0  9G01G04G21G30G07G08G09G17G14
  -8628809.99248  -6710050.37647  21382114.039    21382115.0864   21382122.8064
       193.0004        193.0004
   8688718.57447   6765200.35746  23145416.208    23145416.2084   23145422.2124
       164.0004        164.0004
  -2107615.10948  -1629140.36646  21802612.800    21802612.7894   21802617.5984
       186.0004        187.0004
  -9073316.37348  -7043212.18046  22782960.663    22782960.4424   22782967.6204
       177.0004        179.0004
  -8787378.69249  -6831293.45047  21108675.755    21108675.7964   21108679.5894
       204.0004        205.0004
   7484064.75349   5826436.35047  22375620.923    22375620.2454   22375627.4904
       209.0004        209.0004
   3030020.12949   2430241.22047  21559168.462    21559168.9454   21559175.5894
       204.0004        204.0004
  -7192333.14847  -5588456.09746  23149968.522    23149969.1344   23149972.4024
       159.0004        163.0004
  -1708952.53547  -1320210.74945  23357816.220    23357816.5044   23357820.9414
       159.0004        162.0004
 21  2  5  1  1  0.0000000  0  9G01G04G21G30G07G08G09G17G14
  -8684677.53948  -6753583.51547  21371483.011    21371483.6194   21371491.1884
       192.0004        192.0004
   8786415.97347   6841328.19246  23164005.447    23164006.5044   23164013.1344
       162.0004        163.0004
  -2092131.76748  -1617075.40947  21805558.748    21805558.7974   21805563.7114
       187.0004        188.0004
  -9160439.22548  -7111100.12046  22766381.878    22766381.3124   22766387.8704
       179.0004        179.0004
  -8849002.79849  -6879312.23447  21096948.281    21096948.8694   21096953.3054
       204.0004        204.0004
   7575174.41149   5897430.88447  22392957.245    22392957.5074   22392965.3624
       208.0004        208.0004
   3090780.50049   2477586.97647  21570730.818    21570731.0014   21570737.6474
       204.0004        204.0004
  -7271356.38847  -5650032.61046  23134930.880    23134931.2474   23134936.7104
       163.0004        169.0004
  -1734734.62047  -1340300.66545  23352910.077    23352910.0154   23352915.2154
       160.0004        162.0004
 21  2  5  1  1 30.0000000  0  9G01G04G21G30G07G08G09G17G14
  -8740167.51548  -6796822.45047  21360923.111    21360923.8014   21360932.0124
       191.0004        191.0004
   8884167.28847   6917498.02946  23182608.894    23182608.5204   23182615.4264
       162.0004        164.0004
  -2076154.45048  -1604625.53946  21808599.080    21808599.2124   21808603.9114
       186.0004        186.0004
  -9247502.50648  -7178941.62246  22749814.223    22749814.2294   22749820.3004
       179.0004        180.0004
  -8910355.17749  -6927119.27447  21085273.437    21085273.7734   21085277.8884
       204.0004        204.0004
   7666420.55149   5968531.76347  22410320.113    22410320.8174   22410328.8744
       208.0004        207.0004
   3151876.86149   2525194.52347  21582358.181    21582357.8824   21582364.4734
       204.0004        205.0004
  -7350035.01748  -5711340.60546  23119958.794    23119959.0514   23119965.2014
       168.0004        171.0004
  -1760516.54747  -1360390.46645  23348003.620    23348004.1014   23348009.2024
       159.0004        160.0004
 21  2  5  1  2  0.0000000  0  9G01G04G21G30G07G08G09G17G14
  -8795276.99548  -6839764.88447  21350436.027    21350436.3874   21350445.3244
       190.0004        191.0004
   8981969.50547   6993707.52646  23201219.599    23201219.3454   23201226.6224
       163.0004        165.0004
  -2059683.13348  -1591790.73546  21811733.870    21811733.5034   21811738.6674
       186.0004        186.0004
  -9334504.03548  -7246735.02046  22733259.715    22733259.0544   22733264.9954
       181.0004        183.0004
  -8971433.07749  -6974712.46347  21073651.488    21073651.8654   21073654.8614
       204.0004        205.0004
   7757800.20349   6039736.66147  22427709.557    22427710.1264   22427717.5914
       207.0004        206.0004
   3213306.20449   2573061.55447  21594046.303    21594047.0864   21594053.7664
       204.0004        204.0004
  -7428367.46348  -5772378.83146  23105052.565    23105052.8364   23105059.8044
       170.0004        173.0004
  -1786299.66647  -1380481.18945  23343097.051    23343097.9614   23343102.9294
       158.0004        160.0004
 21  2  5  1  2 30.0000000  0 10G01G04G21G30G07G08G09G28G17G14
  -8850003.29448  -6882408.71947  21340021.041    21340021.6924   21340031.5294
       190.0004        190.0004
   9079819.43947   7069954.20746  23219840.961    23219840.6434   23219846.8724
       164.0004        165.0004
  -2042717.57948  -1578570.80046  21814962.289    21814961.6424   21814967.0874
       186.0004        185.0004
  -9421441.87048  -7314478.77846  22716715.454    22716715.4884   22716721.3884
       182.0004        184.0004
  -9032234.25549  -7022090.00347  21062080.935    21062081.3524   21062085.0544
       204.0004        205.0004
   7849310.57249   6111043.44447  22445123.687    22445123.7994   22445131.7584
       207.0004        208.0004
   3275065.34249   2621185.55347  21605799.520    21605799.6664   21605805.9984
       204.0004        204.0004
   -141393.55456   -100739.16545  23671942.227                    23671947.3014
       132.0004        147.0004
  -7506352.67148  -5833146.49146  23090212.336    23090212.7894   23090218.9244
       171.0004        171.0004
  -1812085.28447  -1400573.85946  23338190.928    23338191.8084   23338195.5484
       160.0004        163.0004
 21  2  5  1  3  0.0000000  0 10G01G04G21G30G07G08G09G28G17G14
  -8904344.04948  -6924752.15047  21329681.234    21329681.6344   21329690.3054
       190.0004        191.0004
   9177713.58547   7146235.32746  23238470.031    23238469.7814   23238475.7534
       163.0004        163.0004
  -2025258.02248  -1564965.93846  21818284.406    21818284.3214   21818289.5774
       186.0004        186.0004
  -9508314.42148  -7382171.66646  22700183.636    22700183.5304   22700190.0404
       181.0004        180.0004
  -9092756.59849  -7069250.27047  21050563.623    21050563.9564   21050568.2444
       204.0004        204.0004
   7940948.18949   6182449.37847  22462561.059    22462561.4614   22462570.1654
       208.0004        207.0004
   3337150.66549   2669563.73247  21617613.567    21617613.7034   21617620.3664
       203.0004        203.0004
   -156293.57047   -112349.55845  23669109.124    23669106.2664   23669110.8564
       143.0004        149.0004
  -7583990.00048  -5893643.08246  23075438.608    23075439.3074   23075444.8654
       171.0004        173.0004
  -1837875.29447  -1420669.95946  23333282.564    23333282.8904   23333287.6814
       161.0004        163.0004
 21  2  5  1  3 30.0000000  0 10G01G04G21G30G07G08G09G28G17G14
  -8958298.66748  -6966794.70247  21319414.690    21319415.2134   21319422.6174
       191.0004        192.0004
   9275646.61947   7222546.79346  23257104.226    23257105.6044   23257110.6944
       162.0004        163.0004
  -2007306.97548  -1550978.10146  21821699.898    21821699.5984   21821705.2014
       186.0004        185.0004
  -9595121.76148  -7449813.74946  22683665.495    22683664.3474   22683670.6424
       180.0004        179.0004
  -9152999.73949  -7116192.98847  21039100.259    21039100.9314   21039103.9724
       204.0004        205.0004
   8032708.26249   6253950.72347  22480023.037    22480023.0854   22480030.9894
       207.0004        206.0004
   3399556.92949   2718191.98747  21629488.878    21629488.7494   21629495.9834
       202.0004        202.0004
   -171188.69847   -123956.10645  23666272.707    23666271.8834   23666276.4254
       147.0004        152.0004
  -7661280.24348  -5953869.18546  23060731.238    23060731.5604   23060737.2134
       172.0004        174.0004
  -1863673.15347  -1440772.18646  23328372.972    23328374.1344   23328379.1344
       161.0004        163.0004
 21  2  5  1  4  0.0000000  0 10G01G04G21G30G07G08G09G28G17G14
  -9011861.36148  -7008531.84247  21309222.051    21309222.5104   21309229.8884
       192.0004        193.0004
   9373618.52747   7298888.55646  23275747.943    23275748.7784   23275754.7654
       162.0004        164.0004
  -1988861.77948  -1536605.20446  21825210.020    21825209.9734   21825215.2904
       185.0004        185.0004
  -9681858.77048  -7517401.03446  22667158.988    22667159.0664   22667164.5084
       179.0004        180.0004
  -9212957.99849  -7162913.71347  21027690.735    21027690.8894   21027694.6364
       205.0004        205.0004
   8124590.19549   6325547.02047  22497507.526    22497507.8634   22497515.4864
       206.0004        206.0004
   3462284.09849   2767070.29947  21641425.306    21641425.5984   21641432.3084
       201.0004        201.0004
   -186077.47347   -135557.73745  23663439.061    23663439.2574   23663444.5794
       150.0004        153.0004
  -7738218.97548  -6013821.41146  23046089.615    23046090.1674   23046095.4424
       172.0004        173.0004
  -1889477.18147  -1460879.20145  23323464.098    23323464.5024   23323468.2964
       160.0004        161.0004
 21  2  5  1  4 30.0000000  0 10G01G04G21G30G07G08G09G28G17G14
  -9065028.59648  -7049960.84747  21299104.133    21299104.5104   21299112.6524
       193.0004        193.0004
   9471627.02247   7375258.77946  23294399.369    23294399.8024   23294405.4014
       163.0004        165.0004
  -1969921.09548  -1521846.20146  21828814.387    21828814.1504   21828819.5244
       185.0004        186.0004
  -9768522.63648  -7584931.34046  22650667.313    22650667.7624   22650674.1964
       181.0004        183.0004
  -9272628.01549  -7209409.82547  21016335.456    21016335.8204   21016340.2664
       205.0004        205.0004
   8216591.71849   6397236.51347  22515014.679    22515014.4294   22515022.0484
       205.0004        204.0004
   3525329.68449   2816196.72947  21653422.306    21653422.5704   21653429.5824
       201.0004        201.0004
   -200961.08347   -147155.32545  23660606.012    23660606.4404   23660612.0844
       150.0004        153.0004
  -7814804.52848  -6073498.42046  23031515.381    23031516.5134   23031521.1314
       170.0004        171.0004
  -1915287.98947  -1480991.50345  23318551.307    23318551.6674   23318556.9744
       158.0004        159.0004
 21  2  5  1  5  0.0000000  0 10G01G04G21G30G07G08G09G28G17G14
  -9117796.00348  -7091078.30447  21289062.973    21289063.7024   21289071.5254
       193.0004        195.0004
   9569670.69047   7451656.41646  23313054.831    23313056.1324   23313061.9104
       164.0004        164.0004
  -1950483.27348  -1506699.85646  21832512.949    21832513.4194   21832518.3094
       185.0004        185.0004
  -9855109.57848  -7652401.66646  22634190.678    22634190.7984   22634197.9174
       183.0004        184.0004
  -9332005.88549  -7255678.30947  21005036.679    21005037.0344   21005040.6154
       205.0004        205.0004
   8308712.06149   6469018.58647  22532543.989    22532544.0694   22532552.3844
       204.0004        203.0004
   3588692.27449   2865570.16547  21665479.698    21665479.6134   21665487.5294
       200.0004        201.0004
   -215839.39747   -158748.81045  23657775.348    23657775.3634   23657779.3434
       150.0004        153.0004
  -7891033.84648  -6132897.88246  23017010.520    23017010.4584   23017014.9724
       170.0004        171.0004
  -1941105.15147  -1501108.75345  23313639.756    23313639.6714   23313644.3934
       158.0004        159.0004
 21  2  5  1  5 30.0000000  0 10G01G04G21G30G07G08G09G28G17G14
  -9170160.20449  -7131881.56147  21279099.326    21279099.8094   21279107.8064
       195.0004        195.0004
   9667747.04847   7528079.54046  23331718.920    23331719.5254   23331725.3184
       163.0004        164.0004
  -1930548.03748  -1491165.87846  21836308.122    21836306.9044   21836312.5494
       186.0004        186.0004
  -9941616.91048  -7719809.96046  22617728.452    22617727.9074   22617734.9544
       182.0004        182.0004
  -9391088.19649  -7301716.47147  20993793.227    20993793.4174   20993797.4374
       205.0004        205.0004
   8400948.46149   6540891.10147  22550096.460    22550096.7164   22550104.9244
       204.0004        204.0004
   3652369.31849   2915188.64447  21677596.245    21677597.4504   21677604.2194
       199.0004        199.0004
   -230713.86647   -170339.29045  23654946.021    23654945.5464   23654949.2574
       151.0004        154.0004
  -7966905.09848  -6192018.30046  23002571.673    23002572.4074   23002576.9044
       169.0004        171.0004
  -1966929.41747  -1521231.55545  23308724.825    23308725.5514   23308729.7494
       158.0004        160.0004
 21  2  5  1  6  0.0000000  0 10G01G04G21G30G07G08G09G28G17G14
  -9222119.70749  -7172369.47147  21269212.104    21269212.0134   21269219.3464
       195.0004        196.0004
   9765851.88047   7604524.84546  23350387.084    23350388.1454   23350393.4894
       162.0004        163.0004
  -1910116.64848  -1475245.30546  21840194.973    21840194.6614   21840200.2724
       186.0004        186.0004
 -10028043.62248  -7787155.44446  22601282.836    22601282.2634   22601288.6974
       182.0004        183.0004
  -9449873.62749  -7347523.30247  20982607.034    20982607.3894   20982610.9804
       205.0004        205.0004
   8493297.25449   6612851.19547  22567670.631    22567670.3834   22567678.2614
       204.0004        205.0004
   3716356.46149   2965048.75147  21689774.522    21689774.0854   21689780.8004
       200.0004        200.0004
   -245587.13447   -181928.82345  23652114.297    23652114.0104   23652118.2184
       151.0004        154.0004
  -8042418.47248  -6250859.85046  22988202.946    22988203.3024   22988207.2794
       171.0004        172.0004
  -1992763.27747  -1541361.84445  23303808.206    23303808.8124   23303814.1104
       158.0004        160.0004
 21  2  5  1  6 30.0000000  0 10G01G04G21G30G07G08G09G28G17G14
  -9273671.03649  -7212539.32947  21259401.680    21259402.3634   21259409.2894
       195.0004        196.0004
   9863982.88247   7680990.55645  23369061.908    23369061.7914   23369067.8614
       161.0004        162.0004
  -1889188.64748  -1458937.75246  21844177.500    21844177.6994   21844182.0524
       186.0004        186.0004
 -10114386.95348  -7854435.96646  22584851.055    22584851.2214   22584858.2114
       182.0004        183.0004
  -9508359.13649  -7393096.43147  20971477.676    20971477.9584   20971481.3524
       205.0004        205.0004
   8585755.95049   6684896.91847  22585263.196    22585264.3254   22585272.1604
       204.0004        204.0004
   3780651.24749   3015148.57847  21702008.615    21702008.6824   21702015.3284
       200.0004        200.0004
   -260460.62947   -193518.54645  23649284.816    23649284.6244   23649289.0284
       152.0004        156.0004
  -8117572.34348  -6309421.29746  22973900.280    22973900.6244   22973903.8374
       170.0004        170.0004
  -2018607.48247  -1561500.15745  23298889.759    23298890.4544   23298895.8064
       158.0004        160.0004
 21  2  5  1  7  0.0000000  0 10G01G04G21G30G07G08G09G28G17G14
  -9324811.49449  -7252389.02247  21249669.715    21249670.1614   21249677.4184
       195.0004        195.0004
   9962137.05047   7757474.32745  23387740.380    23387740.5204   23387744.8284
       161.0004        162.0004
  -1867763.90048  -1442243.13846  21848254.861    21848254.8194   21848259.2504
       186.0004        186.0004
 -10200644.69248  -7921649.78846  22568436.817    22568436.9854   22568444.3394
       181.0004        182.0004
  -9566541.94949  -7438433.69747  20960405.903    20960406.1474   20960409.6724
       205.0004        205.0004
   8678321.74749   6757026.09547  22602878.131    22602878.7684   22602887.3154
       203.0004        203.0004
   3845250.60649   3065485.73947  21714301.706    21714301.7284   21714308.9534
       200.0004        201.0004
   -275335.56647   -205109.41345  23646454.124    23646453.4104   23646457.0664
       153.0004        155.0004
  -8192364.86648  -6367701.17046  22959669.095    22959668.6204   22959672.0924
       169.0004        170.0004
  -2044462.93947  -1581647.27845  23293971.779    23293970.9364   23293975.0844
       159.0004        161.0004
 21  2  5  1  7 30.0000000  0 10G01G04G21G30G07G08G09G28G17G14
  -9375538.76949  -7291916.74947  21240016.092    21240016.6954   21240025.1304
       195.0004        195.0004
  10060310.95047   7833973.46645  23406421.834    23406422.0444   23406427.5444
       160.0004        160.0004
  -1845843.04548  -1425161.93146  21852426.802    21852425.6264   21852430.5954
       186.0004        185.0004
 -10286815.13648  -7988795.57746  22552038.585    22552039.2734   22552046.3914
       180.0004        180.0004
  -9624420.02849  -7483533.49947  20949391.684    20949392.2184   20949396.0944
       205.0004        205.0004
   8770991.33449   6829236.14847  22620513.409    22620512.7834   22620521.7414
       202.0004        202.0004
   3910150.95849   3116057.44347  21726651.849    21726651.9734   21726658.9144
       200.0004        200.0004
   -290214.38247   -216703.24745  23643621.755    23643622.2014   23643627.4524
       152.0004        155.0004
  -8266795.72648  -6425699.20446  22945505.150    22945505.1334   22945509.1474
       171.0004        173.0004
  -2070331.53647  -1601804.61745  23289047.869    23289048.4784   23289052.6724
       159.0004        161.0004
 21  2  5  1  8  0.0000000  0 10G01G04G21G30G07G08G09G28G17G14
  -9425849.77748  -7331120.11947  21230442.699    21230442.7994   21230451.1154
       194.0004        194.0004
  10158502.00547   7910485.97945  23425106.314    23425106.8834   23425112.7954
       159.0004        159.0004
  -1823426.07448  -1407694.14246  21856690.973    21856691.1894   21856696.5774
       185.0004        185.0004
 -10372895.61648  -8055871.27646  22535659.039    22535658.3834   22535666.0904
       180.0004        181.0004
  -9681990.42249  -7528393.55247  20938436.957    20938436.6854   20938440.8864
       205.0004        206.0004
   8863761.95749   6901524.92747  22638166.962    22638167.1844   22638175.1674
       202.0004        202.0004
   3975349.55949   3166861.54647  21739059.034    21739059.0824   21739066.1074
       200.0004        200.0004
   -305098.33747   -228301.10345  23640790.703    23640790.6244   23640794.7694
       153.0004        156.0004
  -8340863.29648  -6483414.19446  22931410.249    22931411.0094   22931414.6864
       172.0004        174.0004
  -2096214.11347  -1621972.84945  23284121.634    23284122.0044   23284127.9714
       160.0004        161.0004
 21  2  5  1  8 30.0000000  0 10G01G04G21G30G07G08G09G28G17G14
  -9475741.42948  -7369996.70747  21220948.603    21220949.4314   21220956.5234
       194.0004        195.0004
  10256707.60547   7987009.81645  23443793.774    23443794.9274   23443800.3044
       157.0004        160.0004
  -1800512.61148  -1389839.48446  21861052.208    21861051.8114   21861056.5914
       185.0004        185.0004
 -10458883.59548  -8122874.88446  22519296.357    22519296.2614   22519302.7624
       179.0004        179.0004
  -9739250.44249  -7573011.74847  20927540.402    20927540.7604   20927544.7464
       206.0004        206.0004
   8956631.41849   6973890.74647  22655838.774    22655839.9224   22655847.7444
       202.0004        203.0004
   4040843.63549   3217895.89947  21751521.373    21751522.0374   21751529.1654
       200.0004        201.0004
   -319988.68247   -239903.94745  23637956.596    23637955.8284   23637960.7444
       152.0004        154.0004
  -8414566.09748  -6540844.92346  22917384.810    22917385.9864   22917389.1714
       172.0004        174.0004
  -2122111.55147  -1642152.66946  23279194.470    23279195.5534   23279198.6124
       161.0004        163.0004
 21  2  5  1  9  0.0000000  0 10G01G04G21G30G07G08G09G28G17G14
  -9525210.53248  -7408544.04247  21211534.633    21211534.9744   21211542.9274
       193.0004        193.0004
  10354925.30647   8063543.07045  23462484.874    23462484.6254   23462490.1384
       158.0004        160.0004
  -1777102.24748  -1371597.62346  21865506.694    21865506.5264   21865511.4274
       185.0004        185.0004
 -10544776.35948  -8189804.31446  22502952.140    22502951.2154   22502957.9634
       179.0004        181.0004
  -9796196.56149  -7617385.35647  20916703.957    20916704.4814   20916708.2174
       206.0004        207.0004
   9049597.52549   7046331.86647  22673530.509    22673530.0334   22673538.1644
       201.0004        201.0004
   4106630.58749   3269158.45147  21764039.965    21764040.6724   21764047.3764
       200.0004        199.0004
   -334886.51147   -251512.63545  23635120.546    23635121.0424   23635125.8364
       149.0004        151.0004
  -8487902.57748  -6597990.19446  22903428.473    22903428.5154   22903434.8444
       172.0004        172.0004
  -2148024.56047  -1662344.57846  23274262.393    23274264.2384   23274269.5424
       162.0004        163.0004
 21  2  5  1  9 30.0000000  0 10G01G04G21G30G07G08G09G28G17G14
  -9574254.91848  -7446760.43247  21202200.754    21202202.1884   21202209.7294
       193.0004        193.0004
  10453151.61847   8140083.05045  23481176.447    23481176.4344   23481181.5534
       157.0004        158.0004
  -1753195.96948  -1352969.34746  21870056.486    21870055.8264   21870060.7164
       185.0004        185.0004
 -10630572.19048  -8256658.21346  22486624.912    22486624.8264   22486631.3314
       180.0004        182.0004
  -9852827.14449  -7661513.07647  20905927.460    20905927.5404   20905931.9364
       206.0004        206.0004
   9142656.33849   7118845.21047  22691239.285    22691239.2034   22691247.6114
       201.0004        201.0004
   4172706.69649   3320646.33347  21776614.332    21776614.6074   21776621.7374
       199.0004        199.0004
   -349794.08547   -263128.91145  23632284.318    23632284.0974   23632289.6604
       149.0004        152.0004
  -8560871.90148  -6654849.37846  22889544.443    22889544.4544   22889548.5334
       172.0004        174.0004
  -2173954.83847  -1682549.96745  23269327.359    23269329.2814   23269333.1884
       161.0004        162.0004
 21  2  5  1 10  0.0000000  0 10G01G04G21G30G07G08G09G28G17G14
  -9622871.80148  -7484643.71747  21192950.205    21192951.1674   21192958.3064
       194.0004        194.0004
  10551383.71147   8216627.51445  23499870.529    23499870.5314   23499874.7114
       156.0004        157.0004
  -1728793.87248  -1333954.72246  21874699.538    21874699.4984   21874703.8524
       185.0004        185.0004
 -10716268.80948  -8323434.79946  22470316.880    22470317.2524   22470324.4784
       181.0004        181.0004
  -9909139.35549  -7705392.73647  20895211.799    20895212.2104   20895216.0734
       206.0004        207.0004
   9235805.72349   7191429.12647  22708964.534    22708964.0794   22708973.1874
       199.0004        198.0004
   4239068.93049   3372357.15747  21789242.421    21789242.8584   21789249.7634
       198.0004        198.0004
   -364712.91347   -274753.97845  23629445.570    23629445.6544   23629449.7214
       151.0004        155.0004
  -8633473.36548  -6711421.93046  22875728.004    22875728.9464   22875733.2914
       173.0004        176.0004
  -2199903.48347  -1702769.71245  23264391.307    23264391.5554   23264395.9054
       160.0004        162.0004
 21  2  5  1 10 30.0000000  0 10G01G04G21G30G07G08G09G28G17G14
  -9671058.34548  -7522191.66547  21183780.053    21183781.1234   21183788.8114
       194.0004        195.0004
  10649618.84547   8293174.37945  23518563.102    23518563.3304   23518568.4734
       154.0004        157.0004
  -1703895.71048  -1314553.54646  21879438.165    21879437.7324   21879442.7234
       185.0004        186.0004
 -10801863.69348  -8390132.09546  22454028.662    22454028.4904   22454035.6824
       180.0004        180.0004
  -9965130.28849  -7749022.03247  20884556.875    20884557.3794   20884561.0044
       206.0004        207.0004
   9329042.80349   7264081.38447  22726706.868    22726707.1414   22726715.8124
       200.0004        201.0004
   4305714.39349   3424288.69147  21801925.186    21801925.6264   21801931.3004
       198.0004        199.0004
   -379644.58647   -286389.04745  23626603.552    23626604.8104   23626607.2574
       152.0004        155.0004
  -8705705.43148  -6767706.64846  22861983.522    22861983.3734   22861987.7074
       174.0004        175.0004
  -2225871.53647  -1723004.55946  23259449.264    23259449.8034   23259454.1334
       162.0004        164.0004
 21  2  5  1 11  0.0000000  0 10G01G04G21G30G07G08G09G28G17G14
  -9718811.31049  -7559401.75747  21174693.481    21174693.8964   21174702.4264
       195.0004        196.0004
  10747854.70747   8369721.79645  23537256.822    23537257.7304   23537263.5614
       154.0004        157.0004
  -1678501.32948  -1294765.70046  21884269.807    21884269.5064   21884275.5634
       185.0004        186.0004
 -10887354.04048  -8456747.93946  22437761.050    22437760.3824   22437768.0554
       180.0004        182.0004
 -10020796.97049  -7792398.66947  20873963.481    20873963.8454   20873967.9334
       206.0004        207.0004
   9422365.26049   7336800.18247  22744465.089    22744465.1164   22744474.5654
       200.0004        200.0004
   4372640.49149   3476438.91747  21814660.750    21814660.6794   21814667.4894
       198.0004        198.0004
   -394589.85347   -298034.69645  23623761.147    23623761.6404   23623764.2194
       151.0004        154.0004
  -8777566.21348  -6823702.02646  22848309.279    22848308.4254   22848314.0114
       174.0004        175.0004
  -2251859.53647  -1743254.95446  23254505.163    23254505.0684   23254509.1414
       164.0004        166.0004
 21  2  5  1 11 30.0000000  0 10G01G04G21G30G07G08G09G28G17G14
  -9766128.22049  -7596272.07147  21165689.578    21165690.0524   21165697.9934
       196.0004        196.0004
  10846088.26447   8446267.40345  23555951.073    23555949.8594   23555956.3914
       155.0004        157.0004
  -1652611.43448  -1274591.74646  21889196.621    21889196.4574   21889201.2744
       186.0004        186.0004
 -10972737.65548  -8523280.62146  22421512.158    22421512.3234   22421519.4014
       181.0004        181.0004
 -10076136.93949  -7835520.72947  20863432.537    20863433.1184   20863437.1884
       206.0004        206.0004
   9515770.56049   7409583.52947  22762238.337    22762239.1534   22762248.5074
       199.0004        199.0004
   4439843.97049   3528805.24847  21827449.514    21827449.8224   21827455.8544
       198.0004        199.0004
   -409550.67547   -309692.46245  23620913.802    23620913.1024   23620918.0364
       151.0004        153.0004
  -8849055.08748  -6879407.62046  22834703.187    22834704.7884   22834709.7514
       174.0004        176.0004
  -2277868.90248  -1763521.94646  23249554.589    23249555.9944   23249559.7424
       165.0004        166.0004
 21  2  5  1 12  0.0000000  0 10G01G04G21G30G07G08G09G28G17G14
  -9813005.59249  -7632799.88447  21156769.581    21156769.9834   21156777.7574
       196.0004        196.0004
  10944317.34747   8522809.54945  23574641.838    23574642.9364   23574649.6814
       155.0004        157.0004
  -1626225.30348  -1254031.10346  21894218.467    21894217.4754   21894222.3334
       185.0004        186.0004
 -11058011.58648  -8589727.83946  22405284.780    22405284.7324   22405293.0564
       181.0004        183.0004
 -10131146.93449  -7878385.65647  20852964.649    20852965.2094   20852969.3434
       206.0004        207.0004
   9609256.64749   7482429.82447  22780028.362    22780029.0944   22780038.6034
       198.0004        197.0004
   4507322.40249   3581385.84547  21840290.529    21840290.3784   21840297.2934
       199.0004        199.0004
   -424527.92047   -321363.03945  23618063.143    23618063.5584   23618068.1114
       152.0004        156.0004
  -8920170.02848  -6934821.84446  22821172.213    22821172.3574   22821176.8674
       176.0004        177.0004
  -2303899.92948  -1783805.83946  23244601.299    23244601.5864   23244606.4594
       166.0004        167.0004
 21  2  5  1 12 30.0000000  0 10G01G04G21G30G07G08G09G28G17G14
  -9859440.58649  -7668982.98547  21147932.308    21147933.5664   21147941.3164
       197.0004        198.0004
  11042539.37547   8599346.18045  23593333.120    23593333.4504   23593340.3074
       155.0004        156.0004
  -1599342.95748  -1233083.79646  21899333.317    21899332.7814   21899338.3404
       185.0004        185.0004
 -11143173.17948  -8656087.51246  22389080.353    22389080.2804   22389086.0964
       182.0004        183.0004
 -10185823.95849  -7920991.13647  20842560.753    20842560.9034   20842564.5984
       206.0004        207.0004
   9702820.49649   7555336.71147  22797833.802    22797834.0234   22797843.6234
       196.0004        196.0004
   4575072.96249   3634178.49247  21853182.075    21853182.3034   21853189.6564
       197.0004        197.0004
   -439522.95247   -333047.46445  23615209.534    23615210.2474   23615213.7804
       152.0004        155.0004
  -8990909.26548  -6989943.27746  22807710.145    22807710.6314   22807715.6374
       176.0004        176.0004
  -2329953.51048  -1804107.33946  23239644.025    23239644.8224   23239649.1484
       167.0004        169.0004
 21  2  5  1 13  0.0000000  0 10G01G04G21G30G07G08G09G28G17G14
  -9905430.72649  -7704819.46147  21139181.221    21139181.5924   21139189.2404
       197.0004        197.0004
  11140751.29747   8675874.92045  23612021.925    23612021.9674   23612028.4264
       154.0004        154.0004
  -1571964.94248  -1211750.27346  21904542.182    21904542.6454   21904547.7834
       185.0004        186.0004
 -11228220.30248  -8722358.00646  22372896.568    22372896.0404   22372902.7614
       182.0004        183.0004
 -10240165.54349  -7963335.23147  20832218.470    20832219.4494   20832223.8074
       206.0004        207.0004
   9796459.45449   7628302.10347  22815652.971    22815653.3054   22815661.7694
       196.0004        195.0004
   4643092.31549   3687180.58247  21866125.359    21866125.8514   21866132.6454
       196.0004        195.0004
   -454537.07647   -344746.75445  23612353.107    23612352.3594   23612356.9884
       154.0004        158.0004
  -9061272.57748  -7044771.82046  22794320.573    22794321.2684   22794325.6614
       174.0004        174.0004
  -2356030.97448  -1824427.41546  23234681.890    23234681.6894   23234686.4174
       168.0004        168.0004
 21  2  5  1 13 30.0000000  0 10G01G04G21G30G07G08G09G28G17G14
  -9950973.73449  -7740307.51847  21130514.853    21130515.3734   21130523.0584
       198.0004        198.0004
  11238950.03747   8752393.39645  23630708.689    23630709.1964   23630714.4334
       153.0004        156.0004
  -1544092.11748  -1190031.17846  21909847.695    21909846.6904   21909851.6514
       185.0004        185.0004
 -11313150.95948  -8788537.73646  22356734.287    22356734.5124   22356741.1654
       184.0004        186.0004
 -10294169.32349  -8005416.09847  20821942.541    20821943.0634   20821947.6734
       207.0004        208.0004
   9890170.37049   7701323.59847  22833486.686    22833486.7014   22833493.8384
       196.0004        197.0004
   4711377.05249   3740389.46547  21879120.239    21879120.1914   21879128.0884
       195.0004        196.0004
   -469572.54447   -356462.67245  23609492.195    23609492.0384   23609496.7424
       155.0004        159.0004
  -9131259.62848  -7099307.15246  22781002.862    22781003.7154   22781008.7014
       174.0004        175.0004
  -2382133.71748  -1844767.21546  23229715.008    23229715.2104   23229718.7734
       167.0004        169.0004
 21  2  5  1 14  0.0000000  0 10G01G04G21G30G07G08G09G28G17G14
  -9996067.00649  -7775445.12147  21121933.855    21121934.5384   21121941.8994
       198.0004        198.0004
  11337132.67247   8828899.33045  23649392.800    23649392.4474   23649398.9094
       154.0004        155.0004
  -1515724.87948  -1167926.81746  21915246.156    21915245.2484   21915250.5554
       185.0004        185.0004
 -11397962.72148  -8854624.81846  22340594.801    22340595.3524   22340602.0064
       185.0004        186.0004
 -10347833.08949  -8047232.02047  20811731.423    20811731.5384   20811735.3644
       207.0004        208.0004
   9983950.75349   7774399.23047  22851331.646    22851332.0254   22851339.8804
       197.0004        197.0004
   4779924.06248   3793802.72347  21892162.742    21892163.5224   21892171.5454
       194.0004        194.0004
   -484631.02047   -368196.53245  23606626.360    23606626.7494   23606630.5574
       155.0004        156.0004
  -9200868.77048  -7153548.02746  22767757.374    22767757.3504   22767761.6154
       175.0004        177.0004
  -2408262.84048  -1865127.57346  23224742.474    23224743.4054   23224746.3294
       167.0004        168.0004
 21  2  5  1 14 30.0000000  0 10G01G04G21G30G07G08G09G28G17G14
 -10040707.29849  -7810229.76347  21113438.092    21113439.0604   21113447.2434
       198.0004        198.0004
  11435297.08747   8905391.05945  23668073.152    23668073.0854   23668078.9624
       153.0004        156.0004
  -1486862.64848  -1145436.76446  21920737.465    21920736.9984   21920741.0324
       184.0004        184.0004
 -11482652.61348  -8920616.95246  22324479.507    22324479.6634   22324485.1434
       186.0004        186.0004
 -10401153.59849  -8088780.47747  20801583.874    20801584.7104   20801588.7084
       207.0004        208.0004
  10077799.23049   7847527.89947  22869189.520    22869190.3494   22869199.2584
       197.0004        197.0004
   4848730.81648   3847418.35147  21905255.861    21905255.9624   21905264.4774
       193.0004        192.0004
   -499713.40447   -379949.03645  23603756.513    23603755.9084   23603760.5684
       155.0004        158.0004
  -9270098.47948  -7207493.23646  22754582.367    22754583.1964   22754587.4744
       175.0004        175.0004
  -2434418.81848  -1885508.85446  23219764.511    23219764.2144   23219769.8134
       166.0004        165.0004
 21  2  5  1 15  0.0000000  0 10G01G04G21G30G07G08G09G28G17G14
 -10084892.01849  -7844659.41247  21105030.929    21105031.6164   21105039.0384
       198.0004        199.0004
  11533440.39847   8981866.35345  23686748.004    23686749.0704   23686755.1324
       154.0004        158.0004
  -1457506.06748  -1122561.49746  21926323.662    21926323.2574   21926327.8474
       184.0004        184.0004
 -11567218.38848  -8986512.36346  22308387.168    22308387.0254   22308394.0444
       187.0004        187.0004
 -10454128.09049  -8130059.30147  20791503.241    20791504.0274   20791508.1664
       207.0004        208.0004
  10171712.09249   7920706.73047  22887060.884    22887060.9484   22887070.1204
       195.0004        194.0004
   4917794.20648   3901233.95047  21918398.918    21918399.4854   21918406.9514
       192.0004        192.0004
   -514820.97847   -391721.12945  23600881.649    23600880.6264   23600886.1484
       155.0004        156.0004
  -9338947.82448  -7261142.08146  22741481.616    22741481.2804   22741485.4104
       173.0004        174.0004
  -2460602.70947  -1905911.87546  23214781.410    23214780.9684   23214786.5064
       163.0004        163.0004
 21  2  5  1 15 30.0000000  0 10G01G04G21G30G07G08G09G28G17G14
 -10128618.01849  -7878731.59847  21096710.453    21096710.8414   21096718.6254
       199.0004        199.0004
  11631560.48747   9058323.56845  23705419.426    23705420.6234   23705427.0024
       156.0004        159.0004
  -1427654.75548  -1099300.71446  21932005.119    21932004.0824   21932009.2434
       184.0004        185.0004
 -11651656.99348  -9052308.65546  22292318.826    22292318.5664   22292325.4534
       187.0004        187.0004
 -10506753.35949  -8171065.99947  20781489.575    20781490.0104   20781494.1614
       208.0004        209.0004
  10265687.65248   7993934.44147  22904943.431    22904944.5284   22904952.7824
       194.0004        194.0004
   4987111.68948   3955247.59147  21931590.413    21931590.5204   21931597.4794
       193.0004        195.0004
   -529954.84247   -403513.71745  23598002.183    23598001.1834   23598005.1034
       155.0004        157.0004
  -9407414.96448  -7314493.06946  22728451.448    22728452.0574   22728455.7794
       172.0004        173.0004
  -2486815.04747  -1926337.04846  23209793.536    23209794.2024   23209799.4834
       164.0004        167.0004
 21  2  5  1 16  0.0000000  0 10G01G04G21G30G07G08G09G28G17G14
 -10171881.61149  -7912443.48647  21088476.748    21088477.7594   21088485.5884
       198.0004        198.0004
  11729655.64547   9134761.33145  23724086.708    23724087.1444   23724094.9294
       156.0004        158.0004
  -1397308.42448  -1075654.21646  21937778.937    21937778.8984   21937784.3704
       184.0004        185.0004
 -11735964.91448  -9118003.14047  22276274.950    22276275.0104   22276281.6394
       187.0004        188.0004
 -10559025.91249  -8211797.86247  20771542.240    20771542.6404   20771547.0574
       208.0004        208.0004
  10359724.04448   8067209.52947  22922839.315    22922838.5494   22922847.6694
       194.0004        194.0004
   5056681.27949   4009457.66247  21944830.263    21944830.1924   21944836.3694
       196.0004        197.0004
   -545115.39347   -415327.11745  23595116.658    23595115.8444   23595120.0694
       153.0004        156.0004
  -9475498.10048  -7367544.86546  22715495.819    22715496.3834   22715500.3354
       171.0004        172.0004
  -2513055.66648  -1946784.27746  23204800.486    23204800.7614   23204805.6714
       165.0004        166.0004
 21  2  5  1 16 30.0000000  0 10G01G04G21G30G07G08G09G28G17G14
 -10214681.65449  -7945794.16147  21080332.651    21080333.2194   21080340.8944
       198.0004        198.0004
  11827721.75247   9211176.45545  23742748.876    23742749.3284   23742756.3914
       156.0004        158.0004
  -1366468.72248  -1051623.26846  21943647.938    21943646.6074   21943652.4974
       184.0004        185.0004
 -11820141.11948  -9183595.00647  22260256.797    22260257.5294   22260264.2694
       187.0004        189.0004
 -10610944.31649  -8252253.76847  20761662.470    20761662.9124   20761666.8924
       208.0004        209.0004
  10453817.75248   8140529.30247  22940743.915    22940744.0744   22940752.6614
       194.0004        194.0004
   5126498.44249   4063860.64947  21958116.029    21958116.2974   21958121.5924
       197.0004        198.0004
   -560305.34547   -427163.43445  23592225.853    23592225.5134   23592230.3654
       153.0004        155.0004
  -9543197.70948  -7420297.78546  22702613.421    22702613.3634   22702617.8254
       172.0004        174.0004
  -2539327.03447  -1967255.45846  23199799.898    23199800.3864   23199805.2464
       164.0004        163.0004
 21  2  5  1 17  0.0000000  0 10G01G04G21G30G07G08G09G28G17G14
 -10257014.90349  -7978781.09647  21072276.279    21072276.8694   21072285.2194
       198.0004        197.0004
  11925756.73547   9287567.33145  23761403.625    23761404.8174   23761410.5944
       157.0004        158.0004
  -1335135.36448  -1027207.65946  21949610.048    21949609.6094   21949615.5004
       184.0004        183.0004
 -11904182.52448  -9249081.79447  22244264.087    22244264.5774   22244271.9894
       188.0004        190.0004
 -10662505.26249  -8292431.13047  20751850.647    20751851.0904   20751855.3754
       208.0004        208.0004
  10547966.87649   8213892.24647  22958660.941    22958660.5744   22958668.8034
       195.0004        195.0004
   5196560.77849   4118454.67347  21971449.005    21971449.5714   21971454.8044
       198.0004        200.0004
   -575525.70347   -439023.45245  23589330.106    23589329.2384   23589332.8694
       153.0004        156.0004
  -9610512.27248  -7472750.66646  22689803.450    22689803.4594   22689807.8204
       173.0004        173.0004
  -2565629.49647  -1987750.88745  23194795.316    23194795.4734   23194800.5664
       162.0004        162.0004
 21  2  5  1 17 30.0000000  0 10G01G04G21G30G07G08G09G28G17G14
 -10298879.18749  -8011402.61447  21064310.030    21064311.0664   21064318.4154
       197.0004        197.0004
  12023757.50447   9363931.55645  23780053.155    23780053.2724   23780058.9544
       156.0004        158.0004
  -1303309.22848  -1002408.05346  21955666.925    21955666.4054   21955671.8494
       184.0004        184.0004
 -11988086.99848  -9314461.90147  22228298.660    22228298.6684   22228305.4014
       190.0004        191.0004
 -10713706.68849  -8332328.34947  20742107.808    20742108.2504   20742112.2014
       208.0004        209.0004
  10642168.00148   8287295.70047  22976587.530    22976587.2904   22976594.7344
       194.0004        194.0004
   5266864.83149   4173237.05847  21984826.884    21984827.2804   21984832.9384
       199.0004        198.0004
   -590778.40247   -450908.63945  23586426.842    23586427.4804   23586431.0774
       152.0004        155.0004
  -9677441.12148  -7524903.00046  22677066.320    22677067.8194   22677072.4284
       173.0004        175.0004
  -2591964.41747  -2008271.62745  23189784.242    23189785.0074   23189788.7884
       161.0004        161.0004
 21  2  5  1 18  0.0000000  0 10G01G04G21G30G07G08G09G28G17G14
 -10340271.88149  -8043656.65047  21056433.799    21056434.3034   21056441.7934
       197.0004        197.0004
  12121721.41447   9440267.04845  23798693.487    23798694.3704   23798701.0814
       155.0004        157.0004
  -1270990.76848   -977224.82646  21961816.636    21961816.1054   21961821.4464
       184.0004        185.0004
 -12071852.00748  -9379733.34147  22212358.184    22212358.3584   22212365.5394
       191.0004        192.0004
 -10764545.87349  -8371943.29747  20732432.803    20732433.4174   20732437.6284
       208.0004        209.0004
  10736418.75548   8360737.83447  22994522.039    22994521.6134   22994530.3564
       193.0004        194.0004
   5337407.61349   4228205.45947  21998249.704    21998250.6994   21998257.0194
       198.0004        197.0004
   -606064.67447   -462820.05445  23583517.817    23583517.9244   23583521.0194
       150.0004        153.0004
  -9743982.69548  -7576753.55246  22664405.322    22664406.2374   22664409.2114
       174.0004        175.0004
  -2618332.70447  -2028818.33946  23184766.151    23184766.6754   23184771.8074
       161.0004        164.0004
 21  2  5  1 18 30.0000000  0 10G01G04G21G30G07G08G09G28G17G14
 -10381190.47149  -8075541.25947  21048646.235    21048647.6904   21048655.2954
       197.0004        197.0004
  12219645.81147   9516571.75945  23817328.796    23817329.1194   23817335.5154
       155.0004        158.0004
  -1238180.57048   -951658.43346  21968059.167    21968058.9754   21968065.2584
       184.0004        184.0004
 -12155475.12948  -9444894.20247  22196445.141    22196445.7754   22196452.8654
       191.0004        191.0004
 -10815020.24449  -8411273.98247  20722828.490    20722828.9194   20722832.8364
       209.0004        209.0004
  10830717.06548   8434216.99147  23012467.246    23012466.6714   23012474.0824
       193.0004        194.0004
   5408186.00849   4283357.45247  22011717.934    22011718.2914   22011725.8404
       197.0004        196.0004
   -621385.68747   -474758.49345  23580602.340    23580601.4794   23580606.0914
       148.0004        151.0004
  -9810136.67048  -7628302.08346  22651817.383    22651816.5214   22651820.4344
       174.0004        175.0004
  -2644735.31948  -2049391.80446  23179742.134    23179742.5914   23179747.3744
       165.0004        167.0004
 21  2  5  1 19  0.0000000  0 10G01G04G21G30G07G08G09G28G17G14
 -10421632.28249  -8107054.35247  21040950.826    21040951.1554   21040959.4154
       197.0004        197.0004
  12317528.16947   9592843.71145  23835956.687    23835956.8314   23835962.9034
       156.0004        158.0004
  -1204878.93248   -925709.09546  21974397.376    21974396.5324   21974401.6584
       183.0004        184.0004
 -12238953.64648  -9509942.40647  22180560.102    22180560.0504   22180566.4444
       189.0004        189.0004
 -10865126.94349  -8450318.16847  20713293.380    20713293.4904   20713297.4674
       209.0004        209.0004
  10925060.32748   8507731.21847  23030419.353    23030419.8454   23030427.7414
       194.0004        195.0004
   5479197.14148   4338690.79247  22025229.984    22025230.6604   22025237.9144
       194.0004        192.0004
   -636743.08147   -486725.27145  23577679.424    23577679.1744   23577684.6354
       148.0004        151.0004
  -9875902.11248  -7679547.87246  22639301.502    22639302.1674   22639305.7114
       173.0004        174.0004
  -2671173.05948  -2069992.62446  23174711.983    23174712.7274   23174716.8594
       167.0004        170.0004
 21  2  5  1 19 30.0000000  0 10G01G04G21G30G07G08G09G28G17G14
 -10461595.06249  -8138194.16047  21033345.949    21033346.6064   21033354.6964
       196.0004        197.0004
  12415365.59747   9669080.65545  23854574.842    23854574.2064   23854580.7494
       156.0004        157.0004
  -1171086.30248   -899377.15046  21980827.874    21980827.4624   21980833.2354
       184.0004        184.0004
 -12322285.34548  -9574876.20247  22164702.369    22164702.4404   22164709.0764
       189.0004        189.0004
 -10914863.43349  -8489073.87647  20703828.707    20703829.2834   20703833.4204
       209.0004        210.0004
  11019445.50849   8581278.09747  23048381.262    23048380.8454   23048388.2754
       195.0004        195.0004
   5550437.67948   4394202.89347  22038787.706    22038787.9334   22038794.8134
       192.0004        192.0004
   -652137.93947   -498721.26045  23574749.938    23574750.4514   23574754.4874
       147.0004        149.0004
  -9941277.38048  -7730489.61946  22626860.592    22626860.8274   22626866.1944
       174.0004        176.0004
  -2697647.01248  -2090621.62946  23169675.945    23169675.6774   23169678.4194
       170.0004        173.0004
 21  2  5  1 20  0.0000000  0 10G01G04G21G30G07G08G09G28G17G14
 -10501075.93049  -8168958.46947  21025833.104    21025833.6124   21025841.8784
       196.0004        197.0004
  12513155.78847   9745280.79845  23873183.267    23873183.2934   23873190.3354
       155.0004        156.0004
  -1136803.17748   -872663.03346  21987351.861    21987351.0714   21987356.8454
       184.0004        184.0004
 -12405467.32948  -9639693.32647  22148872.642    22148873.3904   22148880.2524
       188.0004        188.0004
 -10964227.07949  -8527539.05547  20694435.169    20694435.4294   20694439.4944
       209.0004        210.0004
  11113870.38849   8654855.91747  23066349.015    23066348.7154   23066356.9254
       195.0004        195.0004
   5621904.83648   4449891.58047  22052386.257    22052387.1334   22052394.6504
       192.0004        192.0004
   -667571.88447   -510747.69045  23571812.858    23571812.9584   23571816.0814
       144.0004        147.0004
 -10006262.05348  -7781127.02846  22614495.317    22614495.4344   22614499.1074
       175.0004        177.0004
  -2724157.92548  -2111279.46046  23164630.409    23164630.3044   23164633.8074
       171.0004        171.0004
 21  2  5  1 20 30.0000000  0 10G01G04G21G30G07G08G09G28G17G14
 -10540072.10649  -8199345.09047  21018413.014    21018412.8374   21018420.7464
       197.0004        197.0004
  12610896.49547   9821442.35745  23891783.522    23891782.5044   23891787.6474
       153.0004        154.0004
  -1102029.96248   -845567.01246  21993968.413    21993968.2344   21993972.9944
       183.0004        184.0004
 -12488496.70548  -9704391.52447  22133073.489    22133073.0974   22133080.0964
       188.0004        189.0004
 -11013214.58949  -8565711.14447  20685113.000    20685113.4634   20685117.6184
       209.0004        209.0004
  11208333.33348   8728463.39947  23084323.191    23084323.9204   23084332.9114
       194.0004        194.0004
   5693596.00548   4505754.81747  22066030.276    22066030.3944   22066037.2274
       192.0004        193.0004
   -683045.66847   -522805.16345  23568869.665    23568868.2994   23568872.8814
       145.0004        149.0004
 -10070854.79148  -7831459.00446  22602204.460    22602204.7194   22602207.9664
       177.0004        178.0004
  -2750706.23148  -2131966.45346  23159574.555    23159575.0924   23159581.6154
       167.0004        166.0004
 21  2  5  1 21  0.0000000  0 10G01G04G21G30G07G08G09G28G17G14
 -10578580.28749  -8229351.46147  21011084.244    21011085.1344   21011093.2564
       197.0004        197.0004
  12708585.86547   9897563.95545  23910372.289    23910373.0174   23910378.9974
       152.0004        154.0004
  -1066766.28648   -818088.82346  22000680.115    22000679.6994   22000683.8104
       184.0004        184.0004
 -12571370.15148  -9768968.24247  22117302.604    22117302.5994   22117309.4134
       188.0004        189.0004
 -11061822.90849  -8603587.76147  20675863.432    20675863.8934   20675867.8484
       209.0004        210.0004
  11302832.38248   8802098.99847  23102305.759    23102306.2854   23102315.8124
       193.0004        193.0004
   5765508.89748   4561790.81547  22079715.153    22079715.3294   22079721.9804
       193.0004        193.0004
   -698560.13247   -534894.34545  23565917.061    23565916.2534   23565921.3284
       148.0004        153.0004
 -10135053.72048  -7881484.13446  22589986.764    22589986.2914   22589992.0014
       178.0004        179.0004
  -2777292.01247  -2152682.66846  23154515.097    23154516.3494   23154523.0884
       163.0004        163.0004
 21  2  5  1 21 30.0000000  0 10G01G04G21G30G07G08G09G28G17G14
 -10616598.22449  -8258975.81547  21003849.995    21003850.8164   21003858.6514
       197.0004        197.0004
  12806221.20047   9973643.42445  23928951.405    23928951.4854   23928956.5194
       151.0004        154.0004
  -1031012.97548   -790229.09446  22007482.955    22007482.9394   22007487.0594
       184.0004        183.0004
 -12654085.27048  -9833421.57547  22101562.684    22101563.0204   22101569.7464
       189.0004        190.0004
 -11110049.36749  -8641166.82547  20666686.077    20666686.5244   20666690.4784
       210.0004        210.0004
  11397364.74948   8875760.56347  23120295.559    23120295.7014   23120304.3254
       193.0004        193.0004
   5837640.27048   4617997.08347  22093440.995    22093441.7784   22093448.0214
       193.0004        194.0004
   -714116.58647   -547016.26145  23562955.724    23562955.6124   23562960.1684
       152.0004        155.0004
 -10198858.10848  -7931201.82846  22577844.919    22577846.1464   22577850.0314
       178.0004        179.0004
  -2803916.36547  -2173428.92746  23149451.434    23149452.3784   23149455.9054
       163.0004        166.0004
 21  2  5  1 22  0.0000000  0 10G01G04G21G30G07G08G09G28G17G14
 -10654123.43249  -8288216.22547  20996709.055    20996709.6124   20996718.2694
       197.0004        197.0004
  12903799.84447  10049678.74045  23947518.953    23947520.1944   23947526.2554
       150.0004        152.0004
   -994770.47748   -761988.18246  22014378.803    22014379.5694   22014384.6784
       183.0004        184.0004
 -12736639.51648  -9897749.56147  22085854.516    22085853.9094   22085859.7584
       189.0004        190.0004
 -11157891.53449  -8678446.43547  20657582.284    20657582.5024   20657586.4344
       210.0004        210.0004
  11491928.24148   8949446.39847  23138288.760    23138290.0494   23138300.3044
       193.0004        194.0004
   5909987.08648   4674371.22347  22107208.057    22107208.1684   22107215.2384
       194.0004        194.0004
   -729716.63047   -559172.15045  23559987.480    23559986.7494   23559990.7184
       150.0004        152.0004
 -10262267.53048  -7980611.75146  22565779.004    22565779.6154   22565783.8604
       178.0004        180.0004
  -2830580.20448  -2194205.90546  23144379.644    23144379.3244   23144382.7184
       166.0004        169.0004
 21  2  5  1 22 30.0000000  0 10G01G04G21G30G07G08G09G28G17G14
 -10691154.16549  -8317071.32947  20989662.469    20989663.0674   20989671.1954
       197.0004        197.0004
  13001318.60847  10125667.37545  23966076.636    23966077.0194   23966084.6874
       150.0004        153.0004
   -958039.90748   -733366.95646  22021370.359    22021369.3044   22021373.9414
       184.0004        185.0004
 -12819030.91548  -9961950.64647  22070174.478    22070174.9694   22070181.8504
       189.0004        189.0004
 -11205347.40349  -8715425.03947  20648551.784    20648552.1384   20648555.9454
       210.0004        211.0004
  11586520.05148   9023154.29347  23156289.192    23156290.1374   23156299.9224
       193.0004        193.0004
   5982545.65748   4730910.37547  22121014.544    22121015.4724   22121023.0214
       193.0004        194.0004
   -745361.83847   -571363.19245  23557011.049    23557010.6084   23557013.9154
       149.0004        151.0004
 -10325281.53048  -8029713.56246  22553787.746    22553787.1084   22553793.1794
       179.0004        179.0004
  -2857284.97048  -2215014.78146  23139295.357    23139296.5634   23139300.8554
       166.0004        167.0004
 21  2  5  1 23  0.0000000  0 10G01G04G21G30G07G08G09G28G17G14
 -10727688.46949  -8345539.62447  20982710.978    20982711.8264   20982718.6544
       198.0004        198.0004
  13098774.45047  10201606.96345  23984623.803    23984622.1404   23984628.3404
       149.0004        151.0004
   -920822.76248   -704366.57146  22028452.238    22028451.6604   22028455.7934
       184.0004        183.0004
 -12901257.49048 -10026023.28147  22054526.407    22054527.0174   22054534.3894
       188.0004        188.0004
 -11252414.73149  -8752100.88947  20639594.855    20639595.3854   20639599.2674
       210.0004        211.0004
  11681136.97148   9096881.75047  23174296.233    23174296.1684   23174304.2674
       193.0004        193.0004
   6055312.46748   4787611.76547  22134862.675    22134862.7474   22134870.2024
       192.0004        192.0004
   -761054.13247   -583590.95545  23554024.986    23554023.9904   23554027.3394
       149.0004        152.0004
 -10387899.80848  -8078507.01146  22541871.102    22541871.8324   22541876.4194
       179.0004        179.0004
  -2884031.96647  -2235856.62846  23134205.116    23134205.7404   23134209.8404
       164.0004        165.0004
 21  2  5  1 23 30.0000000  0 10G01G04G21G30G07G08G09G28G17G14
 -10763723.82049  -8373619.09747  20975853.559    20975854.2134   20975861.9264
       198.0004        199.0004
  13196164.96247  10277495.65745  24003154.626    24003155.3954   24003161.1754
       147.0004        150.0004
   -883119.49648   -674987.39746  22035626.026    22035625.5394   22035630.1794
       183.0004        183.0004
 -12983316.33848 -10089965.24947  22038913.173    22038912.5644   22038918.4394
       188.0004        190.0004
 -11299090.86449  -8788471.90047  20630712.753    20630713.2044   20630717.1114
       210.0004        211.0004
  11775776.94448   9170627.17347  23192304.283    23192304.8984   23192313.6024
       191.0004        191.0004
   6128284.60848   4844473.16547  22148748.880    22148749.2824   22148756.0654
       192.0004        193.0004
   -776794.73647   -595856.35445  23551028.487    23551029.2624   23551032.6624
       148.0004        152.0004
 -10450121.18248  -8126991.17446  22530032.249    22530031.5984   22530035.7854
       180.0004        180.0004
  -2910821.89348  -2256731.88046  23129106.840    23129107.1594   23129112.8084
       166.0004        167.0004
 21  2  5  1 24  0.0000000  0 10G01G04G21G30G07G08G09G28G17G14
 -10799256.65249  -8401307.01347  20969090.241    20969091.6944   20969099.8454
       198.0004        199.0004
  13293488.83347  10353332.42245  24021673.866    24021675.4414   24021680.4074
       146.0004        149.0004
   -844929.69848   -645229.10846  22042893.188    22042892.7074   22042897.9754
       183.0004        184.0004
 -13065203.74248 -10153773.61847  22023330.004    22023329.2544   22023335.1044
       189.0004        188.0004
 -11345371.97749  -8824535.11647  20621906.009    20621906.2754   20621910.4784
       210.0004        211.0004
  11870438.86448   9244389.67647  23210317.993    23210318.3824   23210327.4364
       191.0004        191.0004
   6201460.28048   4901493.16147  22162674.190    22162673.8514   22162680.3294
       192.0004        192.0004
   -792583.62747   -608159.37945  23548024.965    23548024.2784   23548029.2304
       149.0004        153.0004
 -10511943.72448  -8175164.56146  22518266.694    22518267.1964   22518271.0754
       180.0004        180.0004
  -2937654.38548  -2277640.31746  23124000.898    23124001.3764   23124007.2684
       166.0004        167.0004
 21  2  5  1 24 30.0000000  0 10G01G04G21G30G07G08G09G28G17G14
 -10834285.63549  -8428602.31447  20962425.055    20962426.2094   20962433.8154
       198.0004        199.0004
  13390742.47047  10429114.47445  24040181.751    24040182.2704   24040188.6494
       144.0004        148.0004
   -806254.83248   -615092.83746  22050252.360    22050252.5004   22050257.6884
       183.0004        184.0004
 -13146918.13548 -10217447.15847  22007779.112    22007778.9734   22007786.4014
       188.0004        188.0004
 -11391256.65949  -8860289.40947  20613173.588    20613174.2434   20613178.9004
       210.0004        211.0004
  11965119.23348   9318166.57547  23228336.720    23228336.0544   23228344.1134
       191.0004        190.0004
   6274835.37048   4958668.56447  22176636.114    22176636.9404   22176643.6554
       192.0004        193.0004
   -808423.15547   -620501.83745  23545010.175    23545010.8404   23545014.0854
       150.0004        152.0004
 -10573367.75848  -8223027.42446  22506577.451    22506578.8424   22506582.8844
       180.0004        182.0004
  -2964531.30547  -2298583.33646  23118886.289    23118886.5084   23118892.9094
       163.0004        163.0004
 21  2  5  1 25  0.0000000  0 11G19G01G04G21G30G07G08G09G28G17G14
  -1901243.74657  -1456814.86945  24789001.420    24789000.5175   24789004.9194
       140.0004        150.0004
 -10868808.54649  -8455503.27847  20955856.388    20955856.8124   20955864.3554
       199.0004        199.0004
  13487923.32547  10504839.80145  24058677.356    24058675.6704   24058680.3354
       144.0004        148.0004
   -767095.71048   -584579.23646  22057704.767    22057704.2664   22057709.6854
       183.0004        183.0004
 -13228457.00948 -10280983.94647  21992263.405    21992263.5164   21992270.4354
       189.0004        190.0004
 -11436742.30349  -8895732.78347  20604518.858    20604519.1044   20604522.9614
       210.0004        211.0004
  12059815.32448   9391955.71547  23246357.795    23246357.0314   23246364.0724
       190.0004        190.0004
   6348406.74048   5015996.88447  22190637.442    22190637.3874   22190643.6934
       192.0004        192.0004
   -824314.96347   -632885.06445  23541985.544    23541985.6214   23541989.6464
       151.0004        154.0004
 -10634392.97248  -8270579.52946  22494965.487    22494965.8664   22494970.6944
       181.0004        182.0004
  -2991453.55447  -2319561.73146  23113763.833    23113764.3944   23113769.1934
       162.0004        164.0004
 21  2  5  1 25 30.0000000  0 11G19G01G04G21G30G07G08G09G28G17G14
  -1992191.15447  -1527682.91445  24771692.942    24771693.7074   24771698.5784
       143.0004        148.0004
 -10902824.28949  -8482009.03447  20949383.344    20949383.9824   20949391.6014
       199.0004        200.0004
  13585027.65247  10580505.47645  24077155.345    24077153.3884   24077159.5614
       145.0004        148.0004
   -727454.37348   -553689.86246  22065248.661    22065248.0334   22065252.8844
       183.0004        183.0004
 -13309818.89548 -10344382.80047  21976780.343    21976781.0084   21976787.4064
       190.0004        190.0004
 -11481827.63349  -8930864.20647  20595938.563    20595939.1524   20595943.8104
       210.0004        211.0004
  12154523.65848   9465754.40247  23264379.549    23264379.1134   23264386.2104
       190.0004        190.0004
   6422170.18348   5073474.89547  22204673.085    22204673.6054   22204680.3704
       191.0004        192.0004
   -840261.24647   -645310.73045  23538951.576    23538951.4574   23538955.7864
       151.0004        155.0004
 -10695019.38348  -8317820.86346  22483429.002    22483428.8054   22483433.5034
       183.0004        183.0004
  -3018423.15447  -2340576.98346  23108629.664    23108630.4024   23108636.8244
       162.0004        163.0004
 21  2  5  1 26  0.0000000  0 11G19G01G04G21G30G07G08G09G28G17G14
  -2082928.38047  -1598387.20745  24754427.941    24754426.1474   24754432.4724
       143.0004        146.0004
 -10936328.84249  -8508116.48047  20943007.534    20943007.9304   20943016.0184
       200.0004        200.0004
  13682054.57947  10656110.85645  24095616.347    24095617.6374   24095623.3884
       145.0004        149.0004
   -687330.34848   -522424.37846  22072882.719    22072883.1974   22072888.3904
       182.0004        182.0004
 -13390999.58548 -10407640.48347  21961333.278    21961333.2404   21961338.9844
       191.0004        192.0004
 -11526508.43849  -8965680.42947  20587436.473    20587436.9354   20587441.1594
       210.0004        211.0004
  12249243.68648   9539562.20347  23282401.541    23282402.0974   23282411.8484
       189.0004        188.0004
   6496124.30948   5131101.47747  22218746.082    22218746.7224   22218753.5004
       191.0004        191.0004
   -856261.63347   -657778.57145  23535907.306    23535907.5904   23535911.2984
       153.0004        155.0004
 -10755244.90748  -8364749.81646  22471967.237    22471968.2104   22471972.8594
       182.0004        183.0004
  -3045439.12347  -2361628.38046  23103490.673    23103490.8254   23103495.9634
       163.0004        166.0004
 21  2  5  1 26 30.0000000  0 11G19G01G04G21G30G07G08G09G28G17G14
  -2173453.39147  -1668926.16245  24737201.516    24737200.9404   24737205.5374
       143.0004        147.0004
 -10969319.71449  -8533823.64147  20936729.841    20936730.3634   20936737.7994
       200.0004        200.0004
  13779001.93547  10731654.26745  24114066.049    24114066.7424   24114071.7714
       146.0004        150.0004
   -646724.06948   -490783.11046  22080611.013    22080609.9304   22080614.9264
       181.0004        182.0004
 -13471996.11248 -10470754.65847  21945920.016    21945920.3534   21945926.1764
       191.0004        193.0004
 -11570781.79449  -9000179.15447  20579011.694    20579011.9834   20579016.1224
       210.0004        211.0004
  12343973.20548   9613377.40547  23300427.945    23300428.4644   23300437.7974
       188.0004        188.0004
   6570266.34148   5188874.49547  22232854.145    22232854.7054   22232861.7554
       190.0004        190.0004
   -872317.22147   -670289.40945  23532851.565    23532851.0034   23532855.6034
       151.0004        153.0004
 -10815068.08548  -8411365.25846  22460584.534    22460584.7504   22460589.2194
       183.0004        183.0004
  -3072502.07948  -2382716.39846  23098340.509    23098341.7444   23098346.3514
       166.0004        169.0004
 21  2  5  1 31 30.0000000  0  8G01G30G17G04G07G09G14G21
    -58480.62058    -33878.96647  19678917.333                    19678925.3634
       186.0004        200.0004
    -44481.75854     -6853.01041  20593323.056
        74.0004
    -77123.96858    -48696.74146  21150476.427                    21150481.2884
       167.0004        183.0004
     26341.17454     11265.985 3                                  23096794.180
        74.0004         74.000
    -58725.37958    -28407.38047  19298628.993                    19298633.6084
       189.0004        212.0004
     32846.46358     20839.84746  21175284.127                    21175291.1964
       172.0004        187.0004
    -52856.81154    -23795.11643  21845816.277
        74.0004         74.0004
      6890.35957      1951.76046  20962396.457                    20962400.2044
       142.0004        180.0004
 21  2  5  1 32  0.0000000  0  9G01G30G17G04G28G07G09G14G21
   -122270.62049    -83585.44347  19666778.256    19666778.5984   19666786.4334
       197.0004        200.0004
   -159872.07044    -96610.44144  20571365.546
        74.0004        110.0004
   -169077.50648   -120348.83046  21132977.517    21132978.3504   21132982.3804
       179.0004        181.0004
     87639.93144     59030.87745  23108401.776
        74.0004        142.0004
    -38880.29354    -19790.01943  22291017.850
        74.0004         74.0004
   -134946.34049    -87800.33348  19284125.126    19284125.1854   19284129.2714
       208.0004        213.0004
     72262.09448     51553.32646  21182783.159    21182784.2204   21182790.8564
       183.0004        185.0004
   -117078.73645    -73837.91546  21833596.377                    21833601.6664
        95.0004        168.0004
     16152.29148      9168.87546  20964158.572    20964158.5244   20964163.7934
       175.0004        180.0004
 21  2  5  1 32 30.0000000  0 11G01G30G17G04G28G19G07G08G09G14G21
   -185560.71849   -132902.39247  21153696.285    21153697.3944   21153705.2444
       199.0004        200.0004
   -275077.12844   -185928.62044  22048404.252
        74.0004        115.0004
   -260656.35948   -191708.95046  22614513.802    22614513.9734   22614519.0754
       180.0004        182.0004
    146788.42244    105120.69545  24618619.697
        74.0004        147.0004
    -92327.93144    -61434.20844  23779809.443
        74.0004        111.0004
   -143693.37354    -84834.83244  24818272.672
        74.0004        109.0004
   -210767.50849   -146881.75748  20768658.864    20768658.9564   20768663.2334
       211.0004        213.0004
     44526.41654     12403.14043  23801257.392
        74.0004         74.0004
    111772.87848     82340.94146  22689264.738    22689265.0554   22689272.6724
       184.0004        186.0004
   -181395.46747   -123954.82846  23320319.333    23320319.4684   23320325.7604
       162.0004        169.0004
     25834.13048     16713.17746  22464963.629    22464963.1924   22464967.8234
       179.0004        180.0004
 21  2  5  1 33  0.0000000  0 11G01G30G17G04G28G19G07G08G09G14G21
   -248320.52349   -181806.11447  21141753.637    21141754.6674   21141762.2134
       200.0004        200.0004
   -390083.12344      -705.00943  22026519.865
        74.0004         74.0004
   -351841.27548   -262762.10946  22597162.708    22597162.5114   22597166.6124
       183.0004        185.0004
    205835.36247    151131.33445  24629857.834                    24629862.6024
       136.0004        147.0004
   -145855.87944   -103140.84444  23769624.840
        74.0004        109.0004
   -267961.41744   -181666.99645  24794625.696
        74.0004        153.0004
   -286162.56749   -205631.14648  20754311.858    20754312.0114   20754316.1244
       212.0004        213.0004
    102531.37944     57601.73546  23812295.843
        74.0004        183.0004
    151438.41648    113249.16446  22696811.837    22696813.6694   22696819.9884
       184.0004        185.0004
   -245779.54848   -174124.20646  23308065.861    23308067.4134   23308073.8364
       167.0004        170.0004
     35987.39348     24624.83846  22466895.834    22466895.3864   22466900.1184
       179.0004        180.0004
 21  2  5  1 33 30.0000000  0 11G01G30G17G04G28G19G07G08G09G14G21
  -1732396.91549  -1338229.25647  20859343.714    20859344.0364   20859352.2874
       200.0004        200.0004
  -1926729.22748  -1198092.30647  21734106.044    21734105.9274   21734112.3364
       189.0004        197.0004
  -1864477.05348  -1441439.31446  22309316.235    22309317.5804   22309321.5624
       184.0004        184.0004
  -1157087.25547   -910886.28945  24370500.579    24370502.1164   24370508.3314
       142.0004        146.0004
  -1621315.17644  -1124976.37243  23488855.485
        74.0004         74.0004
  -1813857.11047  -1386260.98045  24500449.633                    24500452.9054
       137.0004        151.0004
  -1782975.67349  -1371979.01448  20469477.734    20469478.1314   20469482.1124
       212.0004        213.0004
  -1261341.95844  -1005156.69847  23552761.241
        74.0004        188.0004
  -1230607.18148   -963669.47746  22433819.250    22433819.1924   22433826.1604
       184.0004        184.0004
  -1732080.41448  -1332280.71946  23025234.620    23025235.1544   23025238.8824
       168.0004        169.0004
  -1375247.79348  -1075038.92246  22198346.370    22198345.6754   22198350.5644
       180.0004        180.0004
 21  2  5  1 34  0.0000000  0 11G01G30G17G04G28G19G07G08G09G14G21
  -1757429.53449  -1357735.16847  20854580.125    20854580.6604   20854589.0054
       200.0004        200.0004
  -2004651.08549  -1258810.61747  21719277.822    21719278.0004   21719284.5674
       195.0004        197.0004
  -1918203.06548  -1483303.70446  22299093.189    22299092.8524   22299097.5144
       183.0004        183.0004
  -1061630.76147   -836504.59445  24388665.630    24388666.5804   24388673.1594
       141.0004        145.0004
  -1638349.02944  -1138249.77345  23485612.583
        74.0004        157.0004
  -1901017.03047  -1454177.76645  24483864.393    24483863.9984   24483867.0044
       148.0004        154.0004
  -1820845.61249  -1401488.05248  20462270.989    20462271.4334   20462275.4594
       212.0004        213.0004
  -1166743.85748   -931443.89846  23570761.929    23570762.2924   23570769.3434
       178.0004        186.0004
  -1154014.75148   -903987.03646  22448394.127    22448394.2634   22448400.8624
       185.0004        185.0004
  -1759940.16448  -1353989.60646  23019932.951    23019933.4634   23019937.8474
       169.0004        170.0004
  -1327518.54848  -1037847.27846  22207430.294    22207429.0504   22207433.5514
       180.0004        181.0004
 21  2  5  1 36 30.0000000  0  5G21G01G30G09G17
      3712.12354       831.09341  20211798.900
        74.0004
    -15160.76654     -3525.81241  18789956.444
        74.0004
    -28295.13054     -6818.14743  19603421.234
        74.0004         74.0004
     16267.99854      2457.92143  20479286.138
        74.0004         74.0004
    -23334.93254     -5290.03844  20206772.826
        74.0004        101.0004
 21  2  5  1 37  0.0000000  0  8G28G21G01G30G07G09G17G14
    -68613.49344    -45360.28345  21416530.927
        74.0004        143.0004
     17670.59644     12036.19644  20214455.077
        74.0004        118.0004
    -73438.27944    -49142.92145  18778866.345
        74.0004        147.0004
   -141371.74848    -94929.33347  19581899.698    19581899.8354   19581906.9314
       189.0004        197.0004
    -72503.38059    -48968.69248  18371502.549                    18371506.4524
       203.0004        214.0004
     57097.72948     34273.22046  20487055.822    20487056.4874   20487063.4894
       176.0004        184.0004
   -111145.55948    -73713.85146  20190063.352    20190063.9864   20190067.7384
       179.0004        187.0004
    -45056.28454    -24040.94443  20938557.086
        74.0004         74.0004
 21  2  5  1 37 30.0000000  0  9G28G19G21G01G30G07G09G17G14
   -122848.92244    -87621.59445  23504758.465
        74.0004        157.0004
    -77419.95954    -45209.04743  24411278.887
        74.0004         74.0004
     31969.79344     23501.78344  22315723.947
        74.0004        122.0004
   -131260.20644    -94416.11745  20866410.117
        74.0004        139.0004
   -254295.05049   -182921.51147  21658959.643    21658959.4334   21658965.3124
       197.0004        198.0004
   -143852.77049   -104565.60948  20456472.003    20456472.1974   20456476.0584
       211.0004        213.0004
     97923.61248     66085.61546  22593372.185    22593372.8234   22593379.4234
       183.0004        186.0004
   -198639.20748   -141890.67946  22271961.066    22271961.1354   22271965.5014
       185.0004        187.0004
   -109992.13547    -74640.19546  23024748.037                    23024750.6284
       155.0004        170.0004
 21  2  5  1 38  0.0000000  0  9G28G19G21G01G30G07G09G17G14
   -177201.70147   -129974.43345  23494413.308                    23494415.9404
       143.0004        157.0004
   -199340.69144   -140212.67145  24388078.354
        74.0004        154.0004
     46707.63144       100.41743  22318528.436
        74.0004         74.0004
   -188558.94544      -391.74143  20855506.877
        74.0004         74.0004
   -367022.24649   -270760.87947  21637507.475    21637507.8744   21637513.7684
       197.0004        198.0004
   -214779.27649   -159833.01148  20442974.903    20442975.3624   20442979.3274
       212.0004        214.0004
    138854.57548     97979.87346  22601160.197    22601161.0554   22601167.4024
       184.0004        183.0004
   -285762.94748   -209779.26747  22255381.898    22255381.9654   22255386.8444
       187.0004        188.0004
   -175028.50248   -125317.86746  23012370.775    23012371.2474   23012374.9474
       168.0004        172.0004
 21  2  5  1 38 30.0000000  0  9G28G19G21G01G30G07G09G17G14
   -380149.17947   -288115.29845  23455790.510    23455790.7054   23455797.1604
       150.0004        154.0004
   -469525.31047   -350746.01045  24336664.096                    24336667.9514
       144.0004        156.0004
    -86608.71144   -103652.58344  22293158.644
        74.0004        121.0004
   -393807.95348   -160326.37447  20816449.876    20816450.2674   20816457.7694
       192.0004        200.0004
   -628013.10449   -474130.35247  21587842.501    21587842.7114   21587848.9954
       197.0004        198.0004
   -433752.45049   -330461.45448  20401306.308    20401306.1494   20401310.2054
       213.0004        214.0004
     31389.74448     14241.05546  22580709.086    22580710.6814   22580717.6784
       183.0004        183.0004
   -520985.46348   -393069.52147  22210619.698    22210621.0344   22210625.6444
       187.0004        188.0004
   -388639.56548   -291768.01446  22971722.231    22971721.6894   22971726.0514
       171.0004        172.0004
 21  2  5  1 39  0.0000000  0  9G28G19G21G01G30G07G09G17G14
   -397961.13847   -301994.73345  23452403.077    23452402.6824   23452406.5074
       150.0004        153.0004
   -554240.53447   -416757.80145  24320543.249    24320542.4524   24320545.8084
       153.0004        158.0004
    -34249.47744    -62723.77044  22303122.325
        74.0004        110.0004
   -413274.16049   -175494.81847  20812744.758    20812745.9414   20812753.6994
       198.0004        200.0004
   -703533.15049   -532977.13147  21573472.203    21573471.8694   21573478.0454
       198.0004        198.0004
   -467038.87049   -356398.91748  20394971.256    20394971.8914   20394976.1344
       213.0004        214.0004
    109256.88548     74916.73846  22595528.613    22595528.6254   22595535.9504
       182.0004        183.0004
   -570574.62648   -431710.39146  22201183.818    22201184.2054   22201189.3224
       187.0004        187.0004
   -417094.43148   -313940.61846  22966306.993    22966307.8594   22966311.6564
       171.0004        172.0004
 21  2  5  1 39 30.0000000  0  9G28G19G21G01G30G07G09G17G14
   -415862.94947   -315944.17845  23448998.282    23448997.5324   23449000.9544
       151.0004        155.0004
   -638709.84847   -482578.02545  24304469.902    24304468.5704   24304472.5554
       154.0004        157.0004
                                  22313171.770

   -432180.46149   -190226.97847  20809146.601    20809147.7084   20809155.8384
       199.0004        200.0004
   -778804.49849   -591630.11947  21559147.740    21559147.7024   21559154.6254
       198.0004        198.0004
   -499860.80049   -381974.43848  20388726.372    20388726.7744   20388730.1724
       213.0004        215.0004
    187228.73948    135674.04446  22610366.445    22610366.7874   22610373.2114
       183.0004        184.0004
   -619754.85548   -470032.62246  22191824.831    22191824.8784   22191830.1934
       186.0004        186.0004
   -445618.27248   -336166.93746  22960878.788    22960879.4754   22960884.2124
       171.0004        172.0004
 21  2  5  1 40  0.0000000  0  9G28G19G21G01G30G07G09G17G14
   -433850.72347   -329960.59345  23445574.496    23445574.1154   23445578.1954
       154.0004        158.0004
   -722926.88447   -548201.66845  24288441.669    24288441.7234   24288445.9784
       153.0004        155.0004
     71821.44145    -17780.91844  22323306.842
        85.0004        117.0004
   -450520.00649   -204517.50247  20805657.058    20805658.2174   20805665.7104
       199.0004        200.0004
   -853819.20849   -650083.12347  21544873.619    21544873.6514   21544879.9494
       199.0004        199.0004
   -532210.63549   -407182.09648  20382570.093    20382570.3424   20382574.3354
       214.0004        214.0004
    265307.61248    196514.73846  22625224.163    22625224.4024   22625230.9244
       183.0004        183.0004
   -668520.76948   -508032.01446  22182545.944    22182546.1334   22182550.1494
       187.0004        187.0004
   -474206.32248   -358443.32446  22955439.619    22955439.3584   22955443.5934
       171.0004        172.0004
 21  2  5  1 40 30.0000000  0  9G28G19G21G01G30G07G09G17G14
   -451925.08447   -344044.48345  23442134.895    23442134.3124   23442139.1434
       156.0004        159.0004
   -806890.01947   -613627.42945  24272464.814    24272464.6234   24272467.6954
       151.0004        152.0004
    125536.33647     24086.60446  22333528.813                    22333534.0254
       151.0004        178.0004
   -468291.18049   -218365.13147  20802276.000    20802276.2694   20802284.0804
       200.0004        200.0004
   -928574.52849   -708334.00347  21530647.967    21530647.9214   21530654.5664
       199.0004        200.0004
   -564086.09249   -432020.09248  20376503.670    20376504.3284   20376508.6704
       213.0004        215.0004
    343490.56448    257436.53746  22640101.511    22640101.9874   22640108.1204
       182.0004        181.0004
   -716872.19748   -545708.41046  22173344.437    22173345.0754   22173348.8504
       186.0004        187.0004
   -502859.09848   -380770.16346  22949985.968    22949986.5324   22949991.0474
       170.0004        172.0004
 21  2  5  1 41  0.0000000  0  9G28G19G21G01G30G07G09G17G14
   -470087.30847   -358196.83945  23438678.735    23438678.6874   23438682.0984
       157.0004        158.0004
   -890598.31347   -678854.63245  24256536.146    24256535.0704   24256539.6194
       150.0004        153.0004
    179702.04348     66293.68646  22343836.109    22343835.2084   22343841.3164
       174.0004        179.0004
   -485492.42949   -231768.67547  20799002.287    20799002.7044   20799010.6024
       199.0004        199.0004
  -1003067.87249   -766380.75347  21516472.405    21516472.6364   21516478.5204
       200.0004        201.0004
   -595485.37449   -456487.05848  20370528.981    20370529.3434   20370533.3194
       214.0004        215.0004
    421774.55848    318437.05946  22654998.835    22654999.3614   22655005.5364
       182.0004        184.0004
   -764809.15348   -583061.86046  22164222.056    22164222.1954   22164227.4214
       187.0004        187.0004
   -531577.19448   -403147.85646  22944521.178    22944521.8844   22944526.0694
       170.0004        171.0004
 21  2  5  1 41 30.0000000  0 10G28G19G21G01G30G07G08G09G17G14
   -488336.91847   -372417.29045  23435206.611    23435206.2854   23435208.7514
       156.0004        157.0004
   -974048.68647   -743880.84845  24240656.540    24240655.6214   24240659.5444
       149.0004        152.0004
    234318.77648    108852.19246  22354228.840    22354229.0304   22354233.6694
       176.0004        177.0004
   -502120.69949   -244725.74647  20795838.169    20795838.8094   20795846.7484
       199.0004        200.0004
  -1077294.97449   -824220.04047  21502347.740    21502347.4744   21502354.0664
       200.0004        201.0004
   -626404.63649   -480579.98548  20364644.908    20364645.6404   20364649.3584
       213.0004        214.0004
  -1092658.81354
        74.0004
    500158.13048    379515.18646  22669913.878    22669914.8654   22669922.5564
       184.0004        185.0004
   -812329.66248   -620090.80546  22155179.726    22155179.8144   22155184.5554
       187.0004        187.0004
   -560359.59648   -425575.68146  22939044.519    22939045.2634   22939049.1354
       171.0004        173.0004
 21  2  5  1 42  0.0000000  0 10G28G19G21G01G30G07G08G09G17G14
   -506675.36247   -386706.97745  23431715.626    23431716.3064   23431720.1284
       155.0004        157.0004
  -1057240.53447   -808705.63845  24224824.649    24224824.1884   24224827.8684
       148.0004        152.0004
    289384.68748    151760.70346  22364707.786    22364708.2064   22364712.6574
       176.0004        177.0004
   -518175.03749   -257235.60147  20792783.414    20792784.2614   20792791.8884
       200.0004        200.0004
  -1151253.66749   -881850.18147  21488273.651    21488273.2824   21488280.3764
       201.0004        202.0004
   -656842.51749   -504297.80948  20358853.118    20358853.4504   20358857.6394
       213.0004        214.0004
  -1393489.35344  -1095398.56445  23857872.636
        74.0004        143.0004
    578637.84248    440668.21246  22684849.121    22684849.4024   22684855.9224
       184.0004        184.0004
   -859434.32648   -656795.71147  22146215.598    22146216.4914   22146220.5064
       188.0004        190.0004
   -589207.37548   -448054.45346  22933554.979    22933555.1064   22933560.2214
       173.0004        174.0004
 21  2  5  1 42 30.0000000  0 10G28G19G21G01G30G07G08G09G17G14
   -525104.11747   -401067.03045  23428209.318    23428209.0924   23428212.9984
       156.0004        159.0004
  -1140172.58147   -873327.98345  24209044.333    24209043.7504   24209046.3384
       150.0004        154.0004
    344897.86948    195017.73646  22375270.798    22375271.0624   22375276.2694
       176.0004        177.0004
   -533654.20649   -269297.26547  20789837.869    20789838.2734   20789846.0294
       200.0004        201.0004
  -1224941.57249   -939269.31247  21474250.993    21474251.5114   21474257.6434
       201.0004        201.0004
   -686797.01249   -527638.97048  20353152.754    20353153.1894   20353157.3784
       214.0004        214.0004
  -1355927.07744  -1066124.910 5                                  23865035.770
        74.0004        140.000
    657210.43648    501893.61446  22699800.897    22699800.4104   22699807.8224
       182.0004        182.0004
   -906123.31848   -693176.73347  22137331.791    22137332.1714   22137335.7844
       190.0004        190.0004
   -618121.17048   -470584.66846  22928052.164    22928052.6664   22928056.8434
       171.0004        171.0004
 21  2  5  1 43  0.0000000  0  9G28G19G21G01G30G07G09G17G14
   -543623.74647   -415497.92345  23424685.937    23424685.5534   23424688.2464
       156.0004        158.0004
  -1222843.66847   -937747.00045  24193311.855    24193311.1224   24193314.6004
       152.0004        155.0004
    400857.29148    238622.48346  22385920.600    22385920.2864   22385925.1564
       176.0004        177.0004
   -548556.50249   -280909.43247  20787002.096    20787002.6134   20787010.1024
       200.0004        200.0004
  -1298355.75149   -996475.17747  21460281.614    21460281.2344   21460287.4864
       202.0004        202.0004
   -716265.70249   -550601.58848  20347545.172    20347545.5244   20347549.2804
       213.0004        214.0004
    735873.15848    563189.22946  22714769.464    22714770.2294   22714776.8954
       181.0004        182.0004
   -952396.36748   -729233.64347  22128526.011    22128526.1734   22128530.8764
       190.0004        191.0004
   -647101.35148   -493166.63246  22922537.855    22922538.3374   22922542.6944
       171.0004        172.0004
 21  2  5  1 43 30.0000000  0 10G28G19G21G01G30G07G08G09G17G14
   -562235.95547   -430000.90945  23421143.060    23421143.0104   23421146.5604
       156.0004        160.0004
  -1305252.76547  -1001961.84645  24177630.499    24177629.3784   24177632.4794
       155.0004        158.0004
    457260.73148    282573.23546  22396654.053    22396652.8544   22396658.3054
       176.0004        176.0004
   -562881.07449   -292071.40447  20784275.760    20784276.4744   20784284.4074
       200.0004        200.0004
  -1371494.09949  -1053466.08147  21446362.715    21446362.8834   21446370.0224
       202.0004        203.0004
   -745247.23649   -573184.59848  20342030.313    20342030.8964   20342034.5364
       214.0004        215.0004
  -1320931.30854  -1045521.82243  23911432.867
        74.0004         74.0004
    814622.44748    624552.33546  22729754.304    22729755.1844   22729762.9534
       180.0004        180.0004
   -998253.86748   -764966.73647  22119799.402    22119799.9094   22119803.4164
       190.0004        190.0004
   -676149.01348   -515801.14646  22917009.479    22917009.9834   22917015.2094
       170.0004        170.0004
 21  2  5  1 44  0.0000000  0 10G28G19G21G01G30G07G08G09G17G14
   -580941.21247   -444576.40545  23417583.614    23417583.6874   23417588.0114
       156.0004        159.0004
  -1387398.52847  -1065971.48245  24161995.866    24161995.9324   24162001.1874
       155.0004        157.0004
    514107.01548    326869.05546  22407470.302    22407469.9984   22407476.0834
       175.0004        176.0004
   -576626.08549   -302781.78647  20781660.425    20781660.7254   20781668.4294
       200.0004        200.0004
  -1444353.51249  -1110239.64647  21432498.572    21432498.4744   21432505.4044
       203.0004        203.0004
   -773739.05649   -595386.01148  20336608.484    20336608.8824   20336612.7074
       214.0004        215.0004
  -1227227.75444   -972505.81546  23929264.821
        74.0004        175.0004
    893455.87648    685980.96646  22744756.363    22744756.6984   22744763.9564
       179.0004        179.0004
  -1043695.77048   -800375.99747  22111151.540    22111152.0014   22111156.5404
       189.0004        189.0004
   -705264.06548   -538488.19546  22911469.963    22911470.6824   22911474.3464
       170.0004        171.0004
 21  2  5  1 44 30.0000000  0 11G04G28G19G21G01G30G07G08G09G17G14
  -1776654.90354  -1372715.96643                                  20850930.3974
        74.0004         74.0004
   -599739.92447   -459224.73645  23414006.803    23414006.5094   23414010.0044
       157.0004        159.0004
  -1469278.86247  -1129774.30345  24146416.204    24146416.3354   24146419.9274
       155.0004        158.0004
    571395.95248    371509.79346  22418373.486    22418373.0324   22418377.6054
       176.0004        176.0004
   -589789.52749   -313038.99047  20779155.084    20779155.8764   20779163.6494
       200.0004        200.0004
  -1516930.59549  -1166793.20247  21418686.646    21418687.1494   21418694.1764
       202.0004        202.0004
   -801738.41549   -617203.68748  20331280.298    20331280.7274   20331284.6184
       214.0004        215.0004
  -1133588.93146   -899540.51946  23947084.780                    23947093.1144
       120.0004        180.0004
    972371.09848    747473.36946  22759773.760    22759774.1694   22759780.3314
       178.0004        179.0004
  -1088721.15048   -835460.69547  22102584.426    22102584.4204   22102588.4704
       190.0004        191.0004
   -734446.40748   -561227.65646  22905915.810    22905916.6834   22905922.5144
       172.0004        173.0004
 21  2  5  1 45  0.0000000  0 11G04G28G19G21G01G30G07G08G09G17G14
  -1776654.90344  -1372715.966 3                                  20850930.397
        74.0004         88.000
   -618634.56247   -473947.80945  23410411.856    23410410.6894   23410414.6634
       158.0004        161.0004
  -1550894.33547  -1193370.75445  24130884.292    24130883.9734   24130890.0504
       154.0004        155.0004
    629123.88048    416492.59946  22429358.860    22429358.1974   22429361.4244
       175.0004        174.0004
   -602371.69049   -322843.25847  20776761.685    20776761.3134   20776769.1694
       200.0004        200.0004
  -1589224.36549  -1223126.01847  21404929.913    21404930.1944   21404937.0294
       202.0004        202.0004
   -829244.99349   -638637.39748  20326046.299    20326046.5954   20326050.3254
       214.0004        216.0004
  -1040018.28548   -826628.36346  23964888.765    23964891.2354   23964898.3474
       174.0004        180.0004
   1051363.57548    809025.92646  22774806.084    22774806.4124   22774812.1174
       178.0004        179.0004
  -1133331.29548   -870221.83647  22094094.737    22094095.7264   22094100.3134
       191.0004        192.0004
   -763698.09848   -584021.17046  22900349.495    22900350.7464   22900354.4984
       170.0004        170.0004
 21  2  5  1 45 30.0000000  0 10G28G19G21G01G30G07G08G09G17G14
   -637624.75447   -488745.33645  23406797.048    23406797.2544   23406800.2374
       157.0004        158.0004
  -1632242.20047  -1256758.67045  24115405.795    24115405.1604   24115409.4874
       154.0004        158.0004
    687290.40448    461817.18546  22440426.833    22440426.8874   22440430.1314
       174.0004        174.0004
   -614370.03749   -332192.58547  20774477.893    20774478.3254   20774485.8944
       200.0004        200.0004
  -1661230.90449  -1279234.98747  21391227.353    21391227.2644   21391234.8834
       201.0004        201.0004
   -856255.54249   -659684.56548  20320905.892    20320906.3574   20320910.1994
       214.0004        215.0004
   -946516.81348   -753770.07346  23982683.441    23982683.2004   23982690.9704
       177.0004        178.0004
   1130431.49948    870637.31446  22789851.471    22789851.7064   22789858.8694
       179.0004        179.0004
  -1177525.51548   -904658.87147  22085684.985    22085685.6204   22085689.5034
       191.0004        191.0004
   -793018.35248   -606868.11446  22894770.403    22894770.8054   22894775.4814
       169.0004        169.0004
 21  2  5  1 46  0.0000000  0 10G28G19G21G01G30G07G08G09G17G14
   -656712.37047   -503618.79745  23403164.746    23403164.7094   23403168.7734
       156.0004        159.0004
  -1713321.96647  -1319937.71345  24099977.239    24099976.3454   24099980.8324
       156.0004        159.0004
    745893.50048    507481.92646  22451580.183    22451579.1304   22451582.2864
       174.0004        174.0004
   -625783.83149   -341086.44747  20772305.785    20772306.4354   20772314.1284
       200.0004        200.0004
  -1732948.15449  -1335118.57247  21377580.593    21377580.4934   21377587.2224
       202.0004        202.0004
   -882769.00749   -680344.42448  20315860.905    20315861.2624   20315865.2214
       214.0004        215.0004
   -853086.79148   -680967.50246  24000465.368    24000463.8394   24000470.6604
       176.0004        177.0004
   1209571.45348    932304.78346  22804911.112    22804911.4514   22804919.5844
       179.0004        179.0004
  -1221304.15848   -938772.09747  22077353.877    22077354.5814   22077358.7294
       191.0004        191.0004
   -822408.19348   -629769.29346  22889177.354    22889178.3304   22889182.3044
       169.0004        171.0004
 21  2  5  1 46 30.0000000  0 10G28G19G21G01G30G07G08G09G17G14
   -675898.84447   -518569.28245  23399513.210    23399513.7054   23399518.6194
       156.0004        158.0004
  -1794133.04847  -1382907.36245  24084598.691    24084598.2124   24084601.9244
       154.0004        156.0004
    804931.18048    553485.33346  22462813.839    22462813.1234   22462816.7924
       174.0004        174.0004
   -636612.37949   -349524.26547  20770245.148    20770245.8564   20770254.1124
       201.0004        201.0004
  -1804373.85549  -1390774.96047  21363988.250    21363988.4144   21363995.5834
       202.0004        202.0004
   -908783.44249   -700615.41348  20310910.409    20310910.8724   20310914.9024
       215.0004        216.0004
   -759730.50648   -608222.34446  24018228.247    24018227.7844   24018235.8584
       177.0004        177.0004
   1288779.98148    994025.72246  22819984.178    22819984.4794   22819991.5744
       178.0004        178.0004
  -1264668.06348   -972562.13847  22069102.342    22069102.1984   22069106.3934
       190.0004        191.0004
   -851868.52448   -652725.38146  22883571.745    22883572.5964   22883576.6374
       170.0004        171.0004
 21  2  5  1 47  0.0000000  0 11G28G19G21G01G30G07G08G09G17G14G22
   -695183.80447   -533596.50345  23395844.200    23395843.0574   23395848.3554
       156.0004        159.0004
  -1874673.30447  -1445665.96145  24069271.996    24069272.2644   24069276.5444
       155.0004        158.0004
    864402.58848    599826.72446  22474130.561    22474129.7694   22474133.5474
       173.0004        173.0004
   -646853.57949   -357504.39047  20768296.999    20768297.6684   20768304.9934
       201.0004        201.0004
  -1875504.56249  -1446201.47347  21350452.725    21350452.8104   21350459.6314
       202.0004        202.0004
   -934296.29249   -720495.54448  20306055.357    20306055.9404   20306059.8424
       215.0004        216.0004
   -666448.97148   -535535.43146  24035977.506    24035977.2694   24035986.5214
       174.0004        174.0004
   1368054.97348   1055798.45646  22835070.043    22835070.6474   22835077.1044
       177.0004        177.0004
  -1307616.45948  -1006028.38947  22060929.610    22060929.7164   22060935.0614
       191.0004        192.0004
   -881398.95348   -675736.08846  22877951.166    22877951.8204   22877956.9844
       170.0004        170.0004
  -1289802.78954  -1008458.364 3                                  22214610.878
        74.0004         74.000
 21  2  5  1 47 30.0000000  0 11G28G19G21G01G30G07G08G09G17G14G22
   -714568.41747   -548701.38145  23392155.378    23392154.7894   23392159.5424
       158.0004        161.0004
  -1954941.69947  -1508212.73745  24053997.953    24053997.1684   24054002.4064
       157.0004        160.0004
    924306.18548    646504.83346  22485529.982    22485530.1034   22485532.6834
       173.0004        173.0004
   -656506.11749   -365025.83947  20766459.502    20766460.2674   20766467.9304
       201.0004        201.0004
  -1946337.47149  -1501395.94647  21336973.939    21336973.4524   21336981.0124
       202.0004        203.0004
   -959305.37549   -739983.14948  20301296.452    20301296.9054   20301300.7214
       215.0004        216.0004
   -573244.01548   -462908.19546  24053712.833    24053713.5954   24053723.3364
       177.0004        179.0004
   1447393.52148   1117620.69646  22850166.563    22850167.5314   22850174.3714
       176.0004        176.0004
  -1350149.28048  -1039170.83647  22052835.222    22052835.7844   22052840.5024
       191.0004        191.0004
   -910999.75548   -698801.65846  22872319.544    22872320.3134   22872324.1994
       170.0004        171.0004
  -1289802.78944  -1008458.364 3                                  22214610.878
        74.0004         74.000
 21  2  5  1 48  0.0000000  0 11G28G19G21G01G30G07G08G09G17G14G22
   -734053.29047   -563884.38245  23388447.239    23388446.3714   23388451.3944
       156.0004        156.0004
  -2034936.47247  -1570546.31945  24038776.015    24038774.9504   24038778.5464
       158.0004        160.0004
    984640.94548    693518.93646  22497010.567    22497010.9594   22497013.8294
       173.0004        173.0004
   -665568.25949   -372087.23147  20764735.199    20764735.8324   20764743.2464
       201.0004        201.0004
  -2016869.37049  -1556355.85247  21323551.240    21323551.5904   21323559.1674
       202.0004        203.0004
   -983808.37649   -759076.39748  20296633.925    20296634.1044   20296638.2494
       215.0004        216.0004
   -480117.12948   -390341.83746  24071432.564    24071433.9084   24071444.7944
       175.0004        176.0004
   1526793.40548   1179490.73346  22865276.115    22865276.7534   22865283.3114
       175.0004        176.0004
  -1392266.17848  -1071989.19247  22044821.121    22044821.5964   22044825.8734
       192.0004        192.0004
   -940670.78148   -721921.93846  22866673.605    22866674.2194   22866677.1084
       170.0004        171.0004
  -1289802.78944  -1008458.364 4                                  22214610.878
        74.0004        115.000
 21  2  5  1 48 30.0000000  0 10G28G19G21G01G30G07G08G09G17G14
   -753639.49847   -579146.33345  23384720.293    23384720.2414   23384724.1714
       155.0004        157.0004
  -2114657.41247  -1632666.53145  24023605.274    24023605.1194   24023607.1494
       158.0004        160.0004
   1045404.30848    740867.03146  22508574.439    22508574.0204   22508576.0104
       173.0004        173.0004
   -674039.74649   -378688.37547  20763123.352    20763124.0744   20763131.2804
       201.0004        201.0004
  -2087098.45549  -1611079.81647  21310187.969    21310187.8974   21310194.4284
       203.0004        203.0004
  -1007804.33749   -777774.54748  20292067.359    20292067.7404   20292071.8074
       215.0004        216.0004
   -387070.64148   -317838.07146  24089140.562    24089141.2164   24089150.0394
       174.0004        175.0004
   1606250.85048   1241405.62446  22880397.098    22880396.6294   22880404.7374
       176.0004        177.0004
  -1433967.97248  -1104484.08547  22036885.577    22036885.2394   22036890.0294
       191.0004        191.0004
   -970413.25948   -745097.87246  22861012.670    22861013.3144   22861017.5344
       170.0004        170.0004
 21  2  5  1 49  0.0000000  0 10G28G19G21G01G30G07G08G09G17G14
   -773328.01947   -594488.04745  23380972.947    23380973.5014   23380978.5854
       158.0004        161.0004
  -2194102.92347  -1694572.08145  24008487.252    24008486.6434   24008487.9084
       155.0004        156.0004
   1106595.00348    788548.11046  22520218.238    22520217.5574   22520221.2354
       172.0004        173.0004
   -681919.19249   -384828.17647  20761623.979    20761624.1504   20761631.7384
       201.0004        201.0004
  -2157021.78549  -1665565.52447  21296881.651    21296881.9574   21296888.5594
       203.0004        203.0004
  -1031290.95849   -796075.80548  20287597.634    20287598.3834   20287602.4214
       215.0004        216.0004
   -294106.59548   -245398.52646  24106831.351    24106831.4434   24106842.2364
       175.0004        176.0004
   1685763.09248   1303363.21946  22895527.235    22895527.8224   22895535.6674
       177.0004        178.0004
  -1475254.76448  -1136655.59147  22029029.067    22029029.5734   22029033.6334
       191.0004        192.0004
  -1000227.30648   -768329.59046  22855340.252    22855340.8844   22855345.0154
       170.0004        171.0004
 21  2  5  1 49 30.0000000  0 10G28G19G21G01G30G07G08G09G17G14
   -793120.32547   -609910.61845  23377206.806    23377206.9244   23377211.3244
       157.0004        159.0004
  -2273272.35047  -1756262.53345  23993421.107    23993419.9774   23993421.8934
       153.0004        154.0004
   1168210.82948    836560.43446  22531942.400    22531941.9694   22531946.4944
       172.0004        172.0004
   -689205.99549   -390506.20147  20760237.228    20760238.0274   20760245.0564
       200.0004        201.0004
  -2226637.21949  -1719811.31047  21283634.382    21283634.4014   21283641.8234
       203.0004        203.0004
  -1054266.98149   -813979.20648  20283225.165    20283226.0184   20283230.3144
       215.0004        216.0004
   -201226.75748   -173024.67246  24124508.076    24124507.8884   24124514.7824
       175.0004        177.0004
   1765326.86248   1365360.94146  22910668.258    22910668.4394   22910675.9194
       177.0004        178.0004
  -1516127.20948  -1168504.24547  22021251.316    22021251.3554   22021255.8124
       191.0004        191.0004
  -1030113.84648   -791617.77146  22849651.843    22849652.7944   22849657.9864
       171.0004        173.0004
 21  2  5  1 50  0.0000000  0 10G28G19G21G01G30G07G08G09G17G14
   -813016.70347   -625414.24845  23373420.263    23373420.5434   23373424.7624
       157.0004        159.0004
  -2352164.31247  -1817736.76545  23978408.361    23978408.5604   23978411.0774
       154.0004        158.0004
   1230250.45548    884903.01846  22543749.180    22543748.1274   22543752.2834
       173.0004        173.0004
   -695898.59049   -395721.18447  20758963.705    20758964.2654   20758971.8064
       201.0004        201.0004
  -2295941.53249  -1773814.64747  21270446.536    21270446.5804   21270453.2544
       203.0004        204.0004
  -1076730.22149   -831483.01848  20278951.580    20278951.7284   20278955.7424
       215.0004        216.0004
   -108432.61148   -100717.54746  24142165.114    24142165.6124   24142174.0134
       177.0004        177.0004
   1844939.75048   1427396.96146  22925818.585    22925819.1564   22925825.6254
       176.0004        176.0004
  -1556584.99248  -1200029.77247  22013552.609    22013552.7334   22013556.9304
       190.0004        190.0004
  -1060072.62148   -814962.26746  22843952.701    22843952.8864   22843956.4384
       171.0004        171.0004
 21  2  5  1 50 30.0000000  0 10G28G19G21G01G30G07G08G09G17G14
   -833018.36147   -640999.96445  23369615.036    23369614.6094   23369618.4924
       156.0004        159.0004
  -2430777.98047  -1878994.16345  23963448.031    23963447.7454   23963452.2234
       156.0004        158.0004
   1292711.96348    933574.31946  22555635.383    22555634.6194   22555639.0864
       173.0004        174.0004
   -701996.29749   -400472.63647  20757802.495    20757803.3234   20757810.9024
       200.0004        200.0004
  -2364932.43049  -1827573.80347  21257318.001    21257317.9644   21257324.7724
       204.0004        205.0004
  -1098678.95249   -848585.94448  20274774.667    20274775.0224   20274778.7754
       215.0004        216.0004
    -15726.46948    -28478.99746  24159806.080    24159806.9724   24159814.9914
       176.0004        177.0004
   1924598.54148   1489468.75646  22940976.207    22940976.9734   22940982.7694
       174.0004        175.0004
  -1596628.24948  -1231232.31347  22005931.637    22005932.2124   22005936.8804
       190.0004        190.0004
  -1090104.32548   -838363.60646  22838236.545    22838236.6864   22838241.6254
       169.0004        170.0004
 21  2  5  1 51  0.0000000  0 10G28G19G21G01G30G07G08G09G17G14
   -853124.97147   -656667.41645  23365789.368    23365788.1284   23365792.8164
       157.0004        159.0004
  -2509110.98747  -1940032.82745  23948542.236    23948542.1284   23948545.0424
       156.0004        158.0004
   1355594.62248    982573.79746  22567601.361    22567600.6574   22567605.3214
       174.0004        175.0004
   -707496.88049   -404758.77047  20756755.955    20756756.8354   20756764.2944
       200.0004        200.0004
  -2433606.05249  -1881085.69447  21244249.222    21244249.5364   21244256.5054
       203.0004        203.0004
  -1120110.05249   -865285.48948  20270696.085    20270696.7014   20270700.7834
       215.0004        217.0004
     76891.54248     43690.88646  24177429.661    24177430.7614   24177440.2384
       177.0004        178.0004
   2004301.57848   1551575.04446  22956143.841    22956144.2644   22956149.8354
       175.0004        177.0004
  -1636256.70548  -1262111.60247  21998392.293    21998392.4424   21998396.3334
       191.0004        192.0004
  -1120208.05948   -861821.03646  22832507.968    22832508.8984   22832513.2364
       169.0004        171.0004
 21  2  5  1 51 30.0000000  0 11G28G19G21G01G30G07G08G09G17G14G22
   -873338.07947   -672417.89245  23361942.491    23361941.9644   23361945.6244
       156.0004        158.0004
  -2587163.00547  -2000852.59645  23933690.131    23933689.1804   23933692.6164
       157.0004        159.0004
   1418896.22148   1031899.71346  22579646.994    22579647.0354   22579651.6424
       174.0004        175.0004
   -712400.23749   -408579.57547  20755823.330    20755823.8364   20755831.4234
       200.0004        200.0004
  -2501960.57949  -1934348.97647  21231241.897    21231242.3194   21231248.7574
       203.0004        204.0004
  -1141022.75749   -881581.11848  20266717.043    20266717.1184   20266720.9584
       215.0004        217.0004
    169418.42648    115789.76246  24195038.986    24195038.5624   24195046.6224
       174.0004        174.0004
   2084045.09848   1613712.83046  22971319.265    22971318.8164   22971326.5334
       176.0004        177.0004
  -1675471.53948  -1292668.61347  21990928.789    21990929.3524   21990933.5284
       190.0004        190.0004
  -1150385.05148   -885335.60346  22826766.653    22826766.9954   22826770.3294
       170.0004        172.0004
  -1289802.78954
        74.0004
 21  2  5  1 52  0.0000000  0 10G28G19G21G01G30G07G08G09G17G14
   -893659.06847   -688252.40245  23358075.026    23358075.0004   23358079.4344
       156.0004        158.0004
  -2664933.52347  -2061452.97145  23918891.404    23918890.9004   23918893.8404
       157.0004        161.0004
   1482614.40648   1081550.26146  22591772.211    22591772.4434   22591776.6374
       175.0004        176.0004
   -716705.82649   -411934.54747  20755004.745    20755004.7294   20755012.1894
       200.0004        200.0004
  -2569993.81649  -1987361.86647  21218295.485    21218295.6304   21218302.6754
       203.0004        204.0004
  -1161416.07049   -897472.00548  20262835.702    20262836.3634   20262840.3484
       215.0004        216.0004
    261852.10848    187816.01046  24212627.681    24212628.3984   24212637.5884
       174.0004        175.0004
   2163825.86248   1675879.67646  22986499.461    22986499.8044   22986507.4974
       175.0004        176.0004
  -1714272.70148  -1322903.26547  21983545.429    21983545.8234   21983549.4844
       190.0004        189.0004
  -1180636.04848   -908907.77946  22821009.822    22821009.8794   22821014.1984
       170.0004        170.0004
 21  2  5  1 52 30.0000000  0 11G28G19G21G01G30G07G08G09G17G14G22
   -914088.21547   -704171.21645  23354186.987    23354187.3084   23354191.1004
       155.0004        156.0004
  -2742421.36847  -2121833.08245  23904145.024    23904144.5014   23904149.4524
       159.0004        162.0004
   1546747.67048   1131524.23246  22603977.076    22603976.7854   22603980.3824
       176.0004        177.0004
   -720412.40449   -414822.78747  20754299.202    20754299.7934   20754306.9914
       201.0004        201.0004
  -2637702.73449  -2040122.06347  21205411.618    21205411.4884   21205418.4084
       204.0004        205.0004
  -1181287.66549   -912956.37748  20259054.725    20259054.9064   20259058.8264
       216.0004        217.0004
    354191.29848    259768.63046  24230197.638    24230199.8084   24230209.4964
       176.0004        178.0004
   2243641.31548   1738073.53946  23001687.788    23001688.9324   23001696.3384
       176.0004        177.0004
  -1752660.51648  -1352815.83347  21976240.434    21976240.4714   21976244.8254
       190.0004        190.0004
  -1210960.98648   -932537.61346  22815239.030    22815239.7834   22815243.9624
       170.0004        172.0004
  -1289802.78944  -1008458.36445                                  22214610.8784
        74.0004        134.0004
 21  2  5  1 53  0.0000000  0 10G28G19G21G01G30G07G08G09G17G14
   -934625.40347   -720174.21045  23350280.589    23350279.9604   23350283.0404
       154.0004        157.0004
  -2819624.14447  -2181991.07546  23889454.984    23889454.2304   23889457.1064
       161.0004        163.0004
   1611295.40148   1181821.16746  22616259.471    22616259.0694   22616263.9654
       176.0004        177.0004
   -723517.97649   -417242.70047  20753707.031    20753708.1514   20753716.1794
       201.0004        200.0004
  -2705083.59549  -2092626.62947  21192588.743    21192588.8984   21192595.8834
       204.0004        204.0004
  -1200634.62249   -928031.92748  20255373.261    20255373.6174   20255377.5134
       216.0004        217.0004
    446435.43648    331647.15646  24247754.825    24247754.1134   24247762.0044
       176.0004        177.0004
   2323489.71648   1800293.07146  23016883.038    23016883.5024   23016889.8384
       175.0004        175.0004
  -1790634.32348  -1382405.80047  21969014.245    21969014.1034   21969018.9944
       191.0004        192.0004
  -1241358.96048   -956224.34346  22809453.484    22809454.9344   22809459.6574
       170.0004        171.0004
 21  2  5  1 53 30.0000000  0 10G28G19G21G01G30G07G08G09G17G14
   -955272.84247   -736263.12445  23346351.400    23346350.7594   23346354.0514
       155.0004        158.0004
  -2896542.13847  -2241927.15246  23874818.027    23874817.5354   23874821.1794
       161.0004        164.0004
   1676254.72148   1232438.82746  22628621.392    22628619.9974   22628625.9574
       176.0004        176.0004
   -726022.88649   -419194.56347  20753231.183    20753231.6484   20753239.6464
       201.0004        201.0004
  -2772134.97449  -2144874.44847  21179829.485    21179829.5214   21179836.6844
       204.0004        205.0004
  -1219456.58849   -942698.39648  20251791.574    20251791.7084   20251795.6284
       216.0004        217.0004
    538581.43448    403449.23846  24265289.703    24265289.2464   24265296.3814
       176.0004        177.0004
   2403367.06048   1862535.16246  23032084.596    23032083.8854   23032090.4534
       173.0004        174.0004
  -1828195.74348  -1411674.43447  21961866.324    21961866.7224   21961870.3954
       190.0004        191.0004
  -1271831.54948   -979969.18746  22803655.355    22803655.7144   22803660.9704
       170.0004        171.0004
 21  2  5  1 54  0.0000000  0 10G28G19G21G01G30G07G08G09G17G14
   -976031.36047   -752438.56145  23342399.279    23342398.8984   23342404.6164
       156.0004        158.0004
  -2973174.48747  -2301640.64146  23860234.267    23860232.9724   23860238.1804
       162.0004        163.0004
   1741623.50448   1283375.55046  22641059.249    22641059.4444   22641064.7874
       176.0004        177.0004
   -727926.47349   -420677.85547  20752869.028    20752869.4294   20752877.1814
       201.0004        201.0004
  -2838854.35149  -2196863.56047  21167133.242    21167133.5394   21167140.4604
       205.0004        205.0004
  -1237751.91049   -956954.48748  20248310.300    20248310.3864   20248314.4264
       216.0004        217.0004
    630627.44848    475173.39446  24282803.179    24282803.8444   24282812.6104
       175.0004        176.0004
   2483270.32948   1924797.45646  23047288.388    23047289.1364   23047295.6084
       173.0004        175.0004
  -1865345.09148  -1440621.96547  21954796.703    21954797.6604   21954802.0764
       190.0004        192.0004
  -1302379.09548  -1003772.43446  22797842.107    22797842.3454   22797847.9704
       170.0004        170.0004
 21  2  5  1 54 30.0000000  0 10G28G19G21G01G30G07G08G09G17G14
   -996898.98347   -768699.04145  23338428.589    23338429.1234   23338433.9874
       156.0004        158.0004
  -3049517.67347  -2361128.82345  23845706.508    23845706.6674   23845710.3774
       161.0004        162.0004
   1807402.48248   1334631.87346  22653576.644    22653576.6344   22653582.3654
       176.0004        177.0004
   -729225.48049   -421690.06747  20752621.534    20752622.1524   20752629.7564
       200.0004        201.0004
  -2905236.66649  -2248590.04447  21154501.525    21154501.5874   21154508.5954
       206.0004        206.0004
  -1255516.60149   -970797.11748  20244929.149    20244929.6654   20244934.1724
       216.0004        217.0004
    722573.94448    546819.99546  24300299.476    24300300.8064   24300309.2814
       175.0004        176.0004
   2563199.12048   1987079.62146  23062497.936    23062498.8894   23062505.7354
       172.0004        173.0004
  -1902080.30148  -1469246.80747  21947807.062    21947807.3304   21947811.6324
       192.0004        192.0004
  -1332999.45948  -1027632.46846  22792015.799    22792016.2394   22792020.6654
       170.0004        171.0004
 21  2  5  1 55  0.0000000  0 10G28G19G21G01G30G07G08G09G17G14
  -1017878.10847   -785046.40745  23334436.773    23334435.8544   23334441.0794
       155.0004        157.0004
  -3125571.92947  -2420391.86546  23831234.668    23831233.9394   23831237.9004
       162.0004        164.0004
   1873588.53248   1386205.42346  22666171.614    22666171.9124   22666177.1084
       176.0004        177.0004
   -729920.43349   -422231.59247  20752488.897    20752489.9564   20752497.3744
       201.0004        201.0004
  -2971280.60649  -2300052.86047  21141933.641    21141933.4084   21141940.4334
       206.0004        205.0004
  -1272750.36849   -984226.03348  20241649.836    20241650.3224   20241654.4774
       216.0004        217.0004
    814418.64648    618387.27646  24317777.829    24317777.9514   24317787.1064
       173.0004        172.0004
   2643149.31648   2049378.47746  23077712.252    23077713.0734   23077719.2794
       173.0004        174.0004
  -1938402.95948  -1497550.16947  21940894.524    21940895.0134   21940899.6104
       192.0004        191.0004
  -1363694.15748  -1051550.42146  22786172.859    22786174.3214   22786179.6514
       168.0004        169.0004
 21  2  5  1 55 30.0000000  0 10G28G19G21G01G30G07G08G09G17G14
  -1038970.18647   -801481.78545  23330421.886    23330422.6614   23330426.6044
       154.0004        156.0004
  -3201337.63747  -2479430.04746  23816817.049    23816815.9144   23816820.3824
       162.0004        164.0004
   1940178.61048   1438093.79046  22678843.555    22678842.9064   22678849.1724
       176.0004        176.0004
   -730011.65949   -422302.65947  20752472.406    20752472.4764   20752480.7094
       201.0004        201.0004
  -3036984.56749  -2351250.74647  21129431.196    21129430.8534   21129437.3704
       206.0004        206.0004
  -1289452.53349   -997240.70648  20238471.299    20238471.7574   20238476.2994
       216.0004        217.0004
    906158.28648    689872.68846  24335235.047    24335235.3414   24335243.9354
       170.0004        171.0004
   2723117.13548   2111691.05546  23092929.024    23092929.7614   23092936.6084
       172.0004        173.0004
  -1974314.55948  -1525533.22547  21934060.777    21934060.7344   21934064.9314
       191.0004        190.0004
  -1394464.47448  -1075527.28046  22780319.283    22780319.6314   22780323.5044
       169.0004        170.0004
 21  2  5  1 56  0.0000000  0 10G28G19G21G01G30G07G08G09G17G14
  -1060174.82147   -818004.87245  23326388.330    23326388.1774   23326391.8754
       154.0004        158.0004
  -3276812.10247  -2538241.35046  23802453.838    23802453.8894   23802457.5484
       162.0004        163.0004
   2007172.12748   1490296.52446  22691590.782    22691591.2024   22691597.0904
       175.0004        176.0004
   -729496.96949   -421901.59647  20752569.980    20752570.4424   20752578.2524
       201.0004        201.0004
  -3102344.53149  -2402180.58747  21116992.981    21116993.0044   21117000.0794
       207.0004        207.0004
  -1305620.10449  -1009838.81748  20235394.848    20235395.2624   20235399.4334
       216.0004        217.0004
    997793.07348    761276.40346  24352673.992    24352673.2384   24352681.3644
       172.0004        174.0004
   2803101.17548   2174016.28046  23108150.342    23108150.2054   23108157.8644
       173.0004        174.0004
  -2009814.40748  -1553195.43547  21927305.152    21927305.6464   21927309.6224
       191.0004        191.0004
  -1425309.20248  -1099562.13746  22774450.611    22774450.4964   22774454.4284
       170.0004        172.0004
 21  2  5  1 56 30.0000000  0 10G28G19G21G01G30G07G08G09G17G14
  -1081493.96347   -834617.16645  23322330.113    23322329.5074   23322336.7044
       154.0004        156.0004
  -3351995.58847  -2596825.86145  23788146.485    23788145.8634   23788149.5874
       160.0004        162.0004
   2074566.48748   1542811.59646  22704417.094    22704416.5054   22704422.0214
       175.0004        176.0004
   -728376.90349   -421028.81247  20752783.293    20752783.8344   20752791.3424
       201.0004        202.0004
  -3167359.05849  -2452841.25847  21104621.061    21104621.3784   21104628.1014
       207.0004        207.0004
  -1321252.72449  -1022020.09048  20232420.316    20232420.5964   20232424.5744
       216.0004        218.0004
   1089319.97348    832596.02446  24370090.931    24370091.2614   24370098.4824
       172.0004        173.0004
   2883097.36648   2236350.97646  23123373.994    23123373.7714   23123380.7874
       173.0004        173.0004
  -2044904.03448  -1580537.99647  21920628.292    21920628.6284   21920632.0594
       191.0004        192.0004
  -1456229.73348  -1123656.04046  22768565.076    22768565.0904   22768570.2674
       169.0004        169.0004
 21  2  5  1 57  0.0000000  0 10G28G19G21G01G30G07G08G09G17G14
  -1102927.91647   -851318.94245  23318252.184    23318252.8464   23318255.4864
       153.0004        156.0004
  -3426887.18047  -2655182.91246  23773896.127    23773895.4564   23773899.4964
       161.0004        164.0004
   2142359.97048   1595637.69646  22717317.186    22717317.1144   22717322.6094
       175.0004        176.0004
   -726650.61549   -419683.63047  20753111.313    20753111.8884   20753119.4624
       201.0004        201.0004
  -3232025.34049  -2503230.55447  21092315.784    21092315.8074   21092322.5034
       208.0004        208.0004
  -1336348.57449  -1033783.07348  20229547.105    20229547.3714   20229552.2584
       216.0004        217.0004
   1180737.61748    903830.55746  24387486.378    24387486.5484   24387494.0334
       171.0004        171.0004
   2963103.15948   2298693.18546  23138598.058    23138597.7644   23138604.5404
       171.0004        172.0004
  -2079583.61448  -1607561.02247  21914029.401    21914029.2644   21914033.5984
       192.0004        192.0004
  -1487226.09348  -1147809.01546  22762665.560    22762666.7924   22762671.8684
       168.0004        168.0004
 21  2  5  1 57 30.0000000  0 10G28G19G21G01G30G07G08G09G17G14
  -1124476.64847   -868110.15845  23314151.739    23314151.4174   23314155.8584
       154.0004        157.0004
  -3501484.71447  -2713310.84346  23759701.157    23759699.1544   23759702.9364
       163.0004        165.0004
   2210551.43748   1648773.86946  22730294.127    22730293.6014   22730299.6774
       174.0004        175.0004
   -724316.46749   -417864.81947  20753554.692    20753556.1314   20753563.7144
       200.0004        201.0004
  -3296339.66149  -2553345.61747  21080076.740    21080077.0784   21080083.8054
       208.0004        208.0004
  -1350905.22649  -1045125.93348  20226777.207    20226777.8654   20226782.2224
       216.0004        218.0004
   1272045.34248    974979.41046  24404859.721    24404860.4664   24404870.2024
       170.0004        171.0004
   3043116.86848   2361041.52046  23153823.864    23153823.7344   23153830.7654
       170.0004        171.0004
  -2113852.49848  -1634264.04247  21907507.263    21907507.9184   21907512.3864
       191.0004        191.0004
  -1518297.38448  -1172020.41646  22756754.412    22756754.7354   22756759.2224
       169.0004        171.0004
 21  2  5  1 58  0.0000000  0 10G28G19G21G01G30G07G08G09G17G14
  -1146141.60647   -884991.92645  23310028.244    23310028.7804   23310032.8164
       156.0004        159.0004
  -3575788.75947  -2771210.09246  23745559.802    23745559.3484   23745563.9074
       162.0004        164.0004
   2279137.55948   1702217.59646  22743345.117    22743345.1984   22743350.3664
       174.0004        175.0004
   -721374.82849   -415572.61447  20754115.920    20754116.1834   20754123.1754
       201.0004        201.0004
  -3360300.49549  -2603185.21947  21067905.378    21067905.9114   21067912.3164
       208.0004        208.0004
  -1364922.21049  -1056048.26148  20224110.354    20224110.4534   20224114.8504
       216.0004        218.0004
   1363240.35448   1046040.45646  24422217.067    24422216.2314   24422223.2574
       171.0004        172.0004
   3123134.71248   2423393.07946  23169050.125    23169050.0644   23169056.7034
       168.0004        169.0004
  -2147712.29648  -1660648.28847  21901063.990    21901064.3834   21901068.8464
       191.0004        191.0004
  -1549444.78048  -1196291.08746  22750828.089    22750827.3724   22750833.3144
       170.0004        172.0004
 21  2  5  1 58 30.0000000  0 10G28G19G21G01G30G07G08G09G17G14
  -1167922.95347   -901964.39545  23305885.262    23305885.3974   23305888.6694
       157.0004        159.0004
  -3649797.40047  -2828879.13246  23731476.558    23731476.3444   23731480.2554
       163.0004        165.0004
   2348118.03448   1755968.62646  22756472.533    22756471.8894   22756477.2604
       174.0004        174.0004
   -717824.45549   -412806.08147  20754791.039    20754791.4344   20754799.2674
       200.0004        200.0004
  -3423904.52149  -2652746.79647  21055803.009    21055802.6984   21055808.7514
       208.0004        208.0004
  -1378397.39449  -1066548.40248  20221545.485    20221546.2204   20221550.3794
       216.0004        217.0004
   1454321.99648   1117013.16846  24439548.155    24439547.9564   24439557.1324
       172.0004        173.0004
   3203154.59048   2485746.23346  23184278.172    23184278.3934   23184284.9114
       169.0004        172.0004
  -2181162.82748  -1686713.61447  21894698.815    21894699.2024   21894703.8514
       191.0004        193.0004
  -1580667.69848  -1220620.63546  22744885.429    22744885.9684   22744891.3504
       171.0004        172.0004
 21  2  5  1 59  0.0000000  0 10G28G19G21G01G30G07G08G09G17G14
  -1189821.57547   -919028.25845  23301717.191    23301716.0854   23301721.9174
       157.0004        158.0004
  -3723509.56647  -2886317.14846  23717452.237    23717450.8854   23717453.5704
       164.0004        166.0004
   2417490.00248   1810024.69646  22769673.225    22769672.6414   22769678.8264
       173.0004        173.0004
   -713665.29249   -409565.16847  20755582.173    20755583.0674   20755590.5414
       200.0004        200.0004
  -3487149.68949  -2702028.74347  21043766.739    21043767.2784   21043773.8894
       208.0004        209.0004
  -1391329.44449  -1076625.33148  20219085.295    20219085.4944   20219089.6954
       216.0004        218.0004
   1545288.28848   1187896.00446  24456859.316    24456859.1574   24456867.5114
       172.0004        173.0004
   3283173.19148   2548098.38546  23199504.460    23199505.1034   23199512.4924
       171.0004        172.0004
  -2214204.79448  -1712460.60247  21888411.385    21888411.8724   21888416.0794
       192.0004        192.0004
  -1611966.89148  -1245009.61346  22738929.709    22738929.8544   22738935.4924
       171.0004        173.0004
 21  2  5  1 59 30.0000000  0 10G28G19G21G01G30G07G08G09G17G14
  -1211837.82147   -936183.74145  23297526.216    23297526.3944   23297531.4894
       155.0004        158.0004
  -3796924.63747  -2943523.68446  23703479.163    23703479.4874   23703483.1014
       164.0004        165.0004
   2487252.03348   1864384.72946  22782948.698    22782947.6134   22782953.4704
       173.0004        174.0004
   -708896.33949   -405849.08747  20756490.001    20756490.6424   20756497.8754
       200.0004        200.0004
  -3550032.84149  -2751028.59147  21031801.023    21031800.9964   21031807.1724
       209.0004        209.0004
  -1403716.84749  -1086277.84848  20216727.259    20216727.9744   20216732.5594
       216.0004        218.0004
   1636138.38348   1258688.27646  24474146.920    24474147.0194   24474155.8024
       173.0004        174.0004
   3363188.38748   2610447.89446  23214729.770    23214730.6414   23214738.3864
       169.0004        169.0004
  -2246839.07748  -1737889.90247  21882201.324    21882201.8524   21882205.6514
       192.0004        192.0004
  -1643341.95448  -1269457.69746  22732958.869    22732959.7104   22732963.6314
       171.0004        171.0004
 21  2  5  2  0  0.0000000  0 10G28G19G21G01G30G07G08G09G17G14
  -1233972.22347   -953431.33345  23293314.933    23293315.1854   23293319.2014
       156.0004        159.0004
  -3870041.45047  -3000497.79445  23689565.795    23689564.6854   23689569.2904
       162.0004        162.0004
   2557402.20448   1919047.17046  22796297.005    22796297.0544   22796302.0224
       172.0004        171.0004
   -703516.81749   -401657.25847  20757514.164    20757514.8034   20757521.8534
       201.0004        201.0004
  -3612551.09749  -2799744.13447  21019904.840    21019904.7364   21019910.5374
       209.0004        209.0004
  -1415557.56549  -1095504.39448  20214474.858    20214475.0114   20214478.8334
       216.0004        218.0004
   1726870.84148   1329388.87846  24491409.796    24491411.0404   24491420.6104
       169.0004        168.0004
   3443197.69448   2672792.80746  23229956.309    23229956.7734   23229963.3424
       167.0004        168.0004
  -2279065.59248  -1763001.47547  21876067.964    21876068.8884   21876073.1824
       191.0004        191.0004
  -1674792.66748  -1293964.75446  22726973.632    22726974.6444   22726980.1714
       172.0004        173.0004
 21  2  5  2  0 30.0000000  0 10G28G19G21G01G30G07G08G09G17G14
  -1256225.29447   -970771.35745  23289081.476    23289080.9934   23289084.9584
       156.0004        157.0004
  -3942858.77247  -3057238.55846  23675710.685    23675709.5584   23675712.9664
       162.0004        165.0004
   2627938.86948   1974010.80946  22809720.427    22809720.1264   22809724.7714
       171.0004        171.0004
   -697526.23349   -396989.25547  20758653.657    20758654.6234   20758661.6944
       201.0004        200.0004
  -3674701.82949  -2848173.27147  21008077.400    21008077.5634   21008083.7764
       209.0004        209.0004
  -1426850.45549  -1104304.05148  20212325.545    20212326.0544   20212330.2514
       216.0004        218.0004
   1817483.90548   1399996.46146  24508655.464    24508655.5714   24508663.0944
       169.0004        170.0004
   3523198.44348   2735131.04547  23245180.874    23245181.1654   23245187.2214
       182.0004        188.0004
  -2310884.60848  -1787795.51347  21870014.086    21870014.4534   21870018.3214
       191.0004        193.0004
  -1706319.10448  -1318530.80946  22720975.884    22720975.6284   22720979.7444
       171.0004        171.0004
 21  2  5  2  1  0.0000000  0 10G28G19G21G01G30G07G08G09G17G14
  -1278598.79347   -988205.23945  23284824.450    23284823.4404   23284827.1434
       155.0004        158.0004
  -4015377.11947  -3113746.33246  23661910.540    23661910.0864   23661913.9954
       164.0004        166.0004
   2698859.12948   2029273.36246  22823217.191    22823216.2994   22823220.5234
       170.0004        171.0004
   -690925.18149   -391845.57147  20759909.996    20759910.8044   20759918.0274
       201.0004        201.0004
  -3736483.47849  -2896314.81047  20996320.418    20996320.4844   20996327.1784
       209.0004        209.0004
  -1437595.00949  -1112676.43248  20210280.502    20210281.0474   20210285.8574
       216.0004        218.0004
   1907975.25648   1470509.19746  24525874.323    24525874.8854   24525882.9164
       166.0004        165.0004
   3603186.87048   2797459.67646  23260400.322    23260401.5344   23260408.2044
       186.0004        186.0004
  -2342297.79748  -1812273.30947  21864035.558    21864036.3994   21864040.8014
       191.0004        192.0004
  -1737922.46348  -1343156.77046  22714959.838    22714960.2504   22714966.0134
       169.0004        169.0004
 21  2  5  2  1 30.0000000  0 10G28G19G21G01G30G07G08G09G17G14
  -1301092.65347  -1005732.91645  23280543.220    23280542.3724   23280546.6474
       155.0004        158.0004
  -4087595.04047  -3170020.01446  23648166.973    23648165.7304   23648170.8524
       164.0004        165.0004
   2770161.24548   2084833.43346  22836785.127    22836784.7084   22836787.9274
       170.0004        171.0004
   -683712.88449   -386225.59247  20761282.417    20761282.8594   20761290.4744
       200.0004        200.0004
  -3797893.09049  -2944166.46247  20984634.450    20984634.6264   20984641.3684
       209.0004        209.0004
  -1447789.63649  -1120620.30648  20208340.975    20208341.4534   20208345.4154
       216.0004        218.0004
   1998343.60957   1540926.05746  24543070.549    24543071.5455   24543079.4854
       164.0004        165.0004
   3683160.68249   2859776.92247  23275620.142    23275620.0894   23275627.2994
       195.0004        201.0004
  -2373305.54048  -1836435.17747  21858135.139    21858135.5044   21858140.5464
       192.0004        193.0004
  -1769602.33548  -1367842.39446  22708931.842    22708932.8314   22708937.4734
       169.0004        171.0004
 21  2  5  2  2  0.0000000  0 10G28G19G21G01G30G07G08G09G17G14
  -1323707.30447  -1023354.68545  23276239.112    23276239.1174   23276242.6074
       156.0004        159.0004
  -4159511.73447  -3226059.00646  23634482.259    23634481.0904   23634485.0564
       163.0004        165.0004
   2841843.06948   2140689.39246  22850423.369    22850424.5454   22850428.7574
       169.0004        171.0004
   -675888.92949   -380128.98947  20762770.895    20762771.9494   20762779.1344
       200.0004        201.0004
  -3858928.12549  -2991726.22947  20973020.506    20973020.3424   20973026.7234
       209.0004        210.0004
  -1457432.98949  -1128134.60848  20206505.720    20206506.2584   20206510.5074
       216.0004        218.0004
   2088587.67947   1611246.06846  24560244.689    24560244.7364   24560253.4024
       164.0004        166.0004
   3763117.22049   2922080.73747  23290835.325    23290835.9154   23290842.0174
       200.0004        202.0004
  -2403907.98248  -1860281.22747  21852311.946    21852312.4814   21852316.7574
       192.0004        192.0004
  -1801358.78448  -1392587.67846  22702889.466    22702889.9174   22702895.2974
       171.0004        173.0004
 21  2  5  2  2 30.0000000  0 10G28G19G21G01G30G07G08G09G17G14
  -1346442.53747  -1041070.46845  23271913.714    23271913.6444   23271917.8424
       157.0004        159.0004
  -4231125.37347  -3281861.80646  23620853.575    23620853.4914   23620856.7384
       162.0004        164.0004
   2913903.78848   2196840.60746  22864137.595    22864136.7384   22864141.2444
       168.0004        168.0004
   -667451.90949   -373554.68547  20764377.072    20764377.6834   20764385.1374
       200.0004        201.0004
  -3919584.86849  -3038991.23547  20961477.838    20961477.8324   20961483.9924
       209.0004        209.0004
  -1466522.87349  -1135217.64548  20204776.468    20204776.7604   20204780.8554
       217.0004        218.0004
   2178707.43748   1681469.21646  24577394.698    24577394.3304   24577402.7124
       166.0004        167.0004
   3843054.85149   2984369.81347  23306047.191    23306047.2464   23306053.6924
       200.0004        201.0004
  -2434105.52848  -1883811.78447  21846565.825    21846565.7054   21846570.8814
       192.0004        192.0004
  -1833190.82648  -1417391.84946  22696832.434    22696832.5354   22696837.8474
       172.0004        173.0004
 21  2  5  2  3  0.0000000  0 10G28G19G21G01G30G07G08G09G17G14
  -1369300.75947  -1058882.03545  23267562.638    23267563.5774   23267567.0124
       156.0004        159.0004
  -4302436.73147  -3337429.11146  23607284.348    23607282.6654   23607286.9274
       161.0004        163.0004
   2986339.59948   2253284.09446  22877921.639    22877920.7874   22877924.9804
       167.0004        169.0004
   -658403.29449   -366503.80247  20766097.924    20766099.1754   20766106.4174
       200.0004        200.0004
  -3979862.54849  -3085960.84047  20950007.142    20950007.0484   20950013.7814
       209.0004        209.0004
  -1475059.03049  -1141869.19148  20203151.744    20203152.3304   20203156.6744
       217.0004        218.0004
   2268699.42947   1751592.77846  24594521.334    24594520.0874   24594526.9024
       163.0004        164.0004
   3922969.18149   3046640.71847  23321253.393    23321253.8404   23321260.8844
       200.0004        199.0004
  -2463899.94348  -1907028.20547  21840895.693    21840896.2324   21840900.4644
       191.0004        191.0004
  -1865100.26348  -1442256.34246  22690759.330    22690759.5814   22690764.1034
       171.0004        170.0004
 21  2  5  2  3 30.0000000  0 10G28G19G21G01G30G07G08G09G17G14
  -1392280.93847  -1076788.67345  23263189.264    23263189.7404   23263194.1364
       156.0004        158.0004
  -4373443.87647  -3392759.36346  23593772.126    23593771.1054   23593775.2654
       163.0004        166.0004
   3059150.10348   2310019.54546  22891776.905    22891776.6704   22891779.9744
       167.0004        168.0004
   -648741.44949   -358975.08347  20767937.082    20767937.6034   20767945.3354
       200.0004        200.0004
  -4039757.28649  -3132632.06747  20938609.459    20938609.5244   20938616.3034
       210.0004        210.0004
  -1483039.16249  -1148087.48348  20201632.928    20201633.5194   20201637.5934
       216.0004        217.0004
   2358563.45647   1821616.66046  24611620.526    24611620.6704   24611628.9214
       163.0004        164.0004
   4002858.82849   3108892.39747  23336455.972    23336456.4014   23336463.1644
       199.0004        198.0004
  -2493290.68548  -1929930.07447  21835302.684    21835303.3324   21835307.8264
       191.0004        191.0004
  -1897085.75248  -1467180.10246  22684673.402    22684673.0144   22684678.0644
       169.0004        169.0004
 21  2  5  2  4  0.0000000  0 10G28G19G21G01G30G07G08G09G17G14
  -1415383.66747  -1094790.78245  23258794.103    23258794.3274   23258798.3394
       158.0004        162.0004
  -4444146.01647  -3447851.92946  23580317.241    23580316.9964   23580321.0344
       164.0004        166.0004
   3132333.43548   2367045.50046  22905702.990    22905703.3744   22905706.6144
       166.0004        167.0004
   -638465.99749   -350968.23247  20769892.173    20769892.9894   20769900.3004
       200.0004        200.0004
  -4099266.35949  -3179002.78147  20927285.359    20927285.1784   20927292.1084
       210.0004        210.0004
  -1490462.30349  -1153871.76148  20200220.881    20200221.3044   20200225.1084
       216.0004        218.0004
   2448298.07857   1891539.67846  24628693.476    24628694.3735   24628704.9234
       162.0004        163.0004
   4082721.27949   3171122.87247  23351653.082    23351653.6484   23351660.6364
       198.0004        198.0004
  -2522278.82048  -1952518.23047  21829787.139    21829787.5704   21829791.1104
       193.0004        194.0004
  -1929147.21748  -1492163.05346  22678570.912    22678571.3124   22678577.4044
       169.0004        170.0004
 21  2  5  2  4 30.0000000  0 10G28G19G21G01G30G07G08G09G17G14
  -1438609.21547  -1112888.60945  23254374.793    23254374.1864   23254378.2854
       160.0004        162.0004
  -4514541.81748  -3502705.79246  23566921.711    23566921.2314   23566926.0264
       165.0004        167.0004
   3205887.40748   2424360.28946  22919700.850    22919699.4864   22919703.2864
       166.0004        167.0004
   -627576.37849   -342482.81447  20771964.321    20771965.0584   20771972.1094
       200.0004        200.0004
  -4158387.00449  -3225070.82647  20916034.848    20916034.7764   20916041.5884
       209.0004        209.0004
  -1497326.67349  -1159220.63148  20198914.249    20198914.6634   20198919.3584
       217.0004        218.0004
   2537902.61057   1961361.33546  24645744.844    24645745.5255   24645755.5554
       164.0004        167.0004
   4162554.28349   3233330.39647  23366844.966    23366845.6974   23366852.9914
       199.0004        200.0004
  -2550864.40648  -1974792.71747  21824347.360    21824347.9194   21824352.0564
       194.0004        193.0004
  -1961284.29948  -1517204.92446  22672456.123    22672457.5394   22672461.4064
       170.0004        172.0004
 21  2  5  2  5  0.0000000  0 10G28G19G21G01G30G07G08G09G17G14
  -1461959.60647  -1131083.69745  23249931.029    23249930.7164   23249935.4764
       159.0004        160.0004
  -4584632.06648  -3557321.56846  23553584.726    23553583.4764   23553587.2594
       165.0004        165.0004
   3279808.71248   2481961.28546  22933766.188    22933767.0954   22933770.9314
       166.0004        168.0004
   -616073.83849   -333519.77547  20774153.293    20774154.0064   20774161.3184
       199.0004        199.0004
  -4217118.01149  -3270835.23947  20904858.934    20904858.9184   20904865.5264
       209.0004        209.0004
  -1503632.37649  -1164134.16648  20197714.376    20197715.0734   20197718.9394
       217.0004        218.0004
   2627373.87447   2031079.15346  24662768.618    24662770.7884   24662781.2264
       162.0004        163.0004
   4242353.74849   3295511.78747  23382031.521    23382031.6114   23382037.6084
       200.0004        201.0004
  -2579049.60748  -1996755.21947  21818983.430    21818983.7504   21818988.5804
       194.0004        194.0004
  -1993498.36648  -1542306.80046  22666327.425    22666327.8184   22666331.6064
       172.0004        174.0004
 21  2  5  2  5 30.0000000  0 10G28G19G21G01G30G07G08G09G17G14
  -1485434.39347  -1149375.73445  23245463.219    23245462.9764   23245466.5564
       159.0004        161.0004
  -4654415.09947  -3611697.95645  23540305.005    23540304.3994   23540307.9134
       162.0004        162.0004
   3354095.71248   2539847.26846  22947904.823    22947903.1254   22947908.0434
       167.0004        169.0004
   -603957.31949   -324078.31947  20776458.528    20776459.1604   20776467.1784
       199.0004        199.0004
  -4275456.01449  -3316293.43147  20893757.503    20893757.8004   20893764.0684
       209.0004        210.0004
  -1509377.34649  -1168610.77048  20196621.564    20196621.8344   20196625.6524
       217.0004        218.0004
   2716711.48748   2100692.81746  24679774.712    24679774.6204   24679781.0954
       166.0004        169.0004
   4322117.84649   3357665.63647  23397210.089    23397210.3374   23397216.1824
       201.0004        200.0004
  -2606834.21648  -2018405.56047  21813696.618    21813696.6934   21813701.0854
       193.0004        193.0004
  -2025788.62148  -1567468.02046  22660181.903    22660182.9894   22660187.8384
       175.0004        177.0004
 21  2  5  2  6  0.0000000  0 10G28G19G21G01G30G07G08G09G17G14
  -1509035.33247  -1167766.06546  23240973.331    23240972.5634   23240977.1644
       160.0004        163.0004
  -4723891.55447  -3665835.44446  23527084.639    23527083.8914   23527086.6464
       162.0004        164.0004
   3428745.64348   2598016.04246  22962109.016    22962108.3544   22962112.9704
       166.0004        168.0004
   -591228.16749   -314159.49847  20778881.611    20778882.2554   20778889.8354
       199.0004        200.0004
  -4333399.97949  -3361444.57247  20882731.088    20882731.0154   20882737.6584
       209.0004        209.0004
  -1514561.98749  -1172650.75448  20195633.880    20195634.5514   20195639.6564
       216.0004        218.0004
   2805912.67648   2170200.16746  24696749.270    24696748.8344   24696755.5444
       166.0004        167.0004
   4401842.61949   3419788.83747  23412379.740    23412380.7104   23412387.1114
       199.0004        198.0004
  -2634220.21148  -2039745.29147  21808484.742    21808485.0734   21808489.3874
       194.0004        194.0004
  -2058156.39048  -1592689.66246  22654023.786    22654023.6714   22654027.5624
       177.0004        178.0004
 21  2  5  2  6 30.0000000  0 10G28G19G21G01G30G07G08G09G17G14
  -1532761.87347  -1186254.26545  23236457.881    23236456.9124   23236462.4374
       160.0004        162.0004
  -4793059.54947  -3719732.58546  23513920.547    23513920.7714   23513924.0634
       161.0004        163.0004
   3503757.65048   2656466.95746  22976382.423    22976382.7094   22976387.5944
       166.0004        168.0004
   -577884.96549   -303762.19147  20781420.060    20781421.1764   20781428.4514
       200.0004        200.0004
  -4390946.07549  -3406285.69147  20871780.254    20871780.5564   20871787.4924
       209.0004        210.0004
  -1519184.05849  -1176252.37848  20194755.026    20194755.5534   20194759.8214
       216.0004        218.0004
   2894977.08548   2239600.96246  24713695.315    24713695.9634   24713704.1904
       165.0004        167.0004
   4481526.68949   3481880.32747  23427543.873    23427544.2034   23427550.3544
       198.0004        197.0004
  -2661207.50249  -2060774.33847  21803349.412    21803350.0584   21803354.7714
       195.0004        197.0004
  -2090600.38748  -1617970.69046  22647848.848    22647849.8884   22647853.6584
       176.0004        175.0004
 21  2  5  2  7  0.0000000  0 10G28G19G21G01G30G07G08G09G17G14
  -1556613.65447  -1204840.06046  23231920.377    23231919.6404   23231923.4654
       161.0004        164.0004
  -4861917.68547  -3773388.26346  23500818.940    23500818.2144   23500820.9784
       164.0004        167.0004
   3579130.10748   2715198.73146  22990726.481    22990725.8554   22990730.0704
       167.0004        168.0004
   -563926.98149   -292885.82447  20784076.792    20784077.0164   20784084.4704
       199.0004        200.0004
  -4448091.08249  -3450814.26647  20860905.937    20860905.9124   20860913.0704
       210.0004        210.0004
  -1523241.75949  -1179414.22548  20193983.179    20193983.3104   20193987.3264
       216.0004        217.0004
   2983904.53247   2308895.04945  24730616.599    24730616.4604   24730626.1154
       162.0004        162.0004
   4561168.18449   3543938.63647  23442698.800    23442699.4404   23442706.3354
       197.0004        197.0004
  -2687795.94849  -2081492.60847  21798289.931    21798290.3384   21798294.7104
       195.0004        194.0004
  -2123119.88448  -1643310.54146  22641659.409    22641660.4114   22641665.7434
       175.0004        175.0004
 21  2  5  2  7 30.0000000  0 10G28G19G21G01G30G07G08G09G17G14
  -1580591.64947  -1223524.18745  23227355.117    23227355.4454   23227360.1414
       160.0004        161.0004
  -4930465.75947  -3826802.34446  23487774.102    23487773.7324   23487777.1164
       163.0004        164.0004
   3654860.26448   2774209.24946  23005136.812    23005136.7264   23005141.9264
       168.0004        168.0004
   -549354.54949   -281530.68747  20786849.256    20786850.1374   20786857.7254
       199.0004        199.0004
  -4504832.97249  -3495028.72847  20850108.457    20850108.3074   20850115.1314
       209.0004        210.0004
  -1526734.23249  -1182135.64248  20193318.287    20193318.8094   20193323.0884
       216.0004        218.0004
   3072692.75247   2378080.58446  24747516.811    24747515.3684   24747521.5614
       162.0004        164.0004
   4640764.10249   3605961.42047  23457845.402    23457846.2024   23457852.9124
       197.0004        198.0004
  -2713987.00748  -2101901.22647  21793306.340    21793306.3654   21793309.9274
       194.0004        193.0004
  -2155715.16948  -1668709.45646  22635458.539    22635457.8944   22635463.1324
       175.0004        175.0004
 21  2  5  2  8  0.0000000  0  9G28G19G21G01G30G07G09G17G14
  -1604695.05047  -1242306.06645  23222768.899    23222769.2364   23222773.2824
       160.0004        162.0004
  -4998701.67747  -3879973.16646  23474789.393    23474788.2904   23474793.2924
       163.0004        164.0004
   3730947.36348   2833497.88346  23019616.013    23019615.5504   23019621.4574
       168.0004        170.0004
   -534166.35349   -269695.72247  20789739.608    20789740.3694   20789747.8934
       199.0004        200.0004
  -4561167.96549  -3538926.13147  20839388.227    20839388.3794   20839394.6834
       209.0004        210.0004
  -1529659.49249  -1184415.07448  20192761.727    20192762.1354   20192766.3924
       216.0004        218.0004
   4720313.12649   3667947.67647  23472983.540    23472983.6634   23472991.2594
       199.0004        199.0004
  -2739779.91448  -2121999.59247  21788396.791    21788397.8024   21788402.0834
       192.0004        193.0004
  -2188384.95148  -1694166.41346  22629240.719    22629241.1864   22629245.3284
       175.0004        175.0004
 21  2  5  2  8 30.0000000  0  9G28G19G21G01G30G07G09G17G14
  -1628926.50447  -1261187.69945  23218157.173    23218158.2284   23218162.2314
       161.0004        162.0004
  -5066627.42047  -3932902.31746  23461863.245    23461862.6134   23461866.9414
       164.0004        168.0004
   3807387.19848   2893061.39446  23034161.472    23034160.7374   23034167.3974
       168.0004        169.0004
   -518364.93549   -257382.92447  20792746.595    20792747.3124   20792755.1674
       199.0004        200.0004
  -4617096.02149  -3582506.43547  20828745.001    20828745.1514   20828752.2624
       209.0004        209.0004
  -1532018.38749  -1186253.16948  20192311.966    20192312.7774   20192317.2814
       216.0004        217.0004
   4799810.27749   3729893.51747  23488111.075    23488111.3824   23488119.2304
       199.0004        198.0004
  -2765178.06448  -2141790.35047  21783564.593    21783565.3884   21783568.4404
       193.0004        194.0004
  -2221131.54348  -1719683.24846  22623010.038    22623010.2784   22623014.5234
       176.0004        177.0004
 21  2  5  2  9  0.0000000  0  9G28G19G21G01G30G07G09G17G14
  -1653286.18447  -1280169.28745  23213523.375    23213523.2154   23213526.3914
       160.0004        162.0004
  -5134241.58248  -3985588.65146  23448997.114    23448996.0294   23448999.8984
       165.0004        166.0004
   3884177.72848   2952898.15846  23048774.538    23048773.1534   23048780.1854
       167.0004        167.0004
   -501949.84349   -244591.93947  20795870.099    20795871.0414   20795878.6234
       199.0004        200.0004
  -4672614.25849  -3625767.39047  20818180.124    20818180.3724   20818187.7534
       209.0004        209.0004
  -1533810.02649  -1187649.26648  20191972.270    20191972.5134   20191976.7154
       216.0004        218.0004
   4879253.41749   3791797.27947  23503228.306    23503228.9484   23503235.7044
       196.0004        193.0004
  -2790182.24949  -2161274.12547  21778806.342    21778806.5524   21778811.1504
       195.0004        195.0004
  -2253954.35448  -1745259.44346  22616763.167    22616763.8784   22616769.3654
       177.0004        178.0004
 21  2  5  2  9 30.0000000  0  9G28G19G21G01G30G07G09G17G14
  -1677773.73047  -1299250.48445  23208862.994    23208862.7224   23208867.4494
       161.0004        162.0004
  -5201542.85048  -4038031.18546  23436190.704    23436189.7354   23436192.9134
       166.0004        167.0004
   3961317.39448   3013006.97246  23063454.612    23063454.5014   23063458.6104
       168.0004        168.0004
   -484920.33549   -231322.18447  20799110.329    20799111.3564   20799119.4104
       199.0004        200.0004
  -4727719.38049  -3668706.45147  20807694.478    20807694.2894   20807701.2034
       209.0004        210.0004
  -1535032.15549  -1188601.58348  20191739.316    20191739.6084   20191744.1954
       216.0004        218.0004
   4958640.88748   3853657.65247  23518334.717    23518335.4404   23518342.9794
       193.0004        193.0004
  -2814792.28549  -2180450.76947  21774123.501    21774123.3754   21774127.5814
       195.0004        195.0004
  -2286852.52048  -1770894.37046  22610502.978    22610503.7234   22610509.0504
       178.0004        178.0004
 21  2  5  2 10  0.0000000  0  9G28G19G21G01G30G07G09G17G14
  -1702390.57647  -1318432.41645  23204178.316    23204178.8634   23204182.6144
       160.0004        162.0004
  -5268531.60848  -4090230.20446  23423442.329    23423441.6144   23423444.9704
       165.0004        168.0004
   4038803.95748   3073386.11246  23078199.935    23078199.4584   23078203.3444
       167.0004        167.0004
   -467277.37749   -217574.42847  20802468.029    20802468.8504   20802476.7654
       199.0004        200.0004
  -4782409.85549  -3711322.41347  20797286.832    20797286.9804   20797294.4064
       209.0004        210.0004
  -1535684.86549  -1189110.19248  20191614.915    20191615.4064   20191619.8684
       216.0004        217.0004
   5037969.14948   3915471.87647  23533431.177    23533431.4804   23533438.0414
       192.0004        192.0004
  -2839009.78249  -2199321.54047  21769514.387    21769514.7504   21769519.1314
       195.0004        195.0004
  -2319826.79348  -1796588.59146  22604227.313    22604227.8314   22604233.9254
       176.0004        175.0004
 21  2  5  2 10 30.0000000  0  9G28G19G21G01G30G07G09G17G14
  -1727136.77547  -1337715.17745  23199468.261    23199469.7184   23199472.7974
       159.0004        161.0004
  -5335206.99347  -4142185.06246  23410753.784    23410753.4234   23410757.9964
       163.0004        164.0004
   4116635.06848   3134033.73246  23093009.981    23093008.7384   23093015.1384
       166.0004        168.0004
   -449020.92049   -203348.61047  20805942.676    20805943.3324   20805950.7614
       199.0004        199.0004
  -4836682.99949  -3753613.17647  20786959.178    20786959.1464   20786966.5024
       209.0004        210.0004
  -1535767.27649  -1189174.42048  20191599.554    20191600.0434   20191604.1964
       216.0004        218.0004
   5117235.95248   3977238.21347  23548515.709    23548515.7714   23548523.1204
       194.0004        195.0004
  -2862835.62749  -2217887.14747  21764980.954    21764981.0284   21764985.1674
       195.0004        195.0004
  -2352876.74248  -1822341.81746  22597939.602    22597939.8974   22597943.5334
       175.0004        176.0004
 21  2  5  2 11  0.0000000  0  9G28G19G21G01G30G07G09G17G14
  -1752012.18047  -1357098.59945  23194735.480    23194734.8354   23194739.6524
       158.0004        159.0004
  -5401568.12548  -4193895.02846  23398127.430    23398126.0884   23398130.0174
       165.0004        168.0004
   4194808.63148   3194948.18246  23107884.317    23107884.4664   23107889.7324
       166.0004        166.0004
   -430150.68349   -188644.52547  20809532.847    20809533.8714   20809541.4874
       199.0004        200.0004
  -4890535.94749  -3795576.51847  20776711.173    20776711.4404   20776718.3074
       210.0004        210.0004
  -1535278.00049  -1188793.17848  20191692.877    20191693.1214   20191697.1194
       216.0004        218.0004
   5196439.20048   4038955.01947  23563586.814    23563587.0134   23563594.4464
       193.0004        192.0004
  -2886270.18549  -2236147.83547  21760522.018    21760522.5314   21760525.6514
       196.0004        196.0004
  -2386001.80848  -1848153.55146  22591636.736    22591637.0974   22591640.3734
       176.0004        177.0004
 21  2  5  2 11 30.0000000  0  9G28G19G21G01G30G07G09G17G14
  -1777017.23647  -1376583.04446  23189977.446    23189977.3374   23189981.3864
       160.0004        163.0004
  -5467613.92248  -4245359.28946  23385557.780    23385556.7344   23385561.4354
       165.0004        165.0004
   4273323.09948   3256128.26846  23122825.939    23122826.1404   23122830.8274
       166.0004        167.0004
   -410666.77349   -173462.25447  20813240.337    20813241.7084   20813249.3164
       199.0004        199.0004
  -4943966.23649  -3837210.50847  20766543.997    20766543.7994   20766550.8814
       210.0004        210.0004
  -1534215.88849  -1187965.56248  20191894.703    20191894.9854   20191899.3254
       216.0004        217.0004
   5275576.50748   4100620.44847  23578646.713    23578646.3754   23578653.7624
       192.0004        192.0004
  -2909314.42049  -2254104.36447  21756136.242    21756136.4734   21756140.8114
       196.0004        196.0004
  -2419201.76448  -1874023.65546  22585318.192    22585318.3444   22585322.2574
       176.0004        176.0004
 21  2  5  2 12  0.0000000  0  9G28G19G21G01G30G07G09G17G14
  -1802152.11347  -1396168.66646  23185194.990    23185194.4054   23185198.8464
       162.0004        164.0004
  -5533343.99447  -4296577.51646  23373048.989    23373049.3974   23373052.3734
       161.0004        163.0004
   4352175.81148   3317571.94646  23137832.032    23137832.2754   23137834.6894
       165.0004        166.0004
   -390569.34449   -157801.91047  20817065.727    20817066.1714   20817073.8894
       199.0004        199.0004
  -4996971.37149  -3878513.20447  20756456.932    20756457.0524   20756464.5954
       209.0004        210.0004
  -1532580.27349  -1186691.05748  20192205.986    20192206.4194   20192210.6884
       216.0004        218.0004
   5354645.44348   4162232.61647  23593693.814    23593693.3264   23593699.9214
       193.0004        194.0004
  -2931969.18549  -2271757.41847  21751825.149    21751825.3624   21751830.0354
       195.0004        196.0004
  -2452476.36848  -1899951.91746  22578985.616    22578985.6864   22578991.2834
       176.0004        177.0004
 21  2  5  2 12 30.0000000  0  9G28G19G21G01G30G07G09G17G14
  -1827417.52647  -1415855.97446  23180385.653    23180386.8764   23180391.2394
       161.0004        163.0004
  -5598758.25147  -4347549.63446  23360602.540    23360601.7584   23360605.9144
       162.0004        164.0004
   4431364.51747   3379277.43246  23152901.568    23152901.0644   23152903.5854
       164.0004        165.0004
   -369859.05049   -141664.01247  20821006.096    20821006.7634   20821014.4284
       199.0004        199.0004
  -5049549.34249  -3919483.04447  20746451.153    20746451.9544   20746459.0934
       209.0004        210.0004
  -1530370.51449  -1184969.17848  20192626.837    20192626.9714   20192631.0884
       216.0004        218.0004
   5433643.02048   4223789.17147  23608725.084    23608725.8694   23608732.8954
       193.0004        193.0004
  -2954235.71749  -2289107.96747  21747588.024    21747588.2744   21747592.9844
       196.0004        197.0004
  -2485825.81148  -1925938.48246  22572639.244    22572639.9154   22572644.9984
       176.0004        177.0004
 21  2  5  2 13  0.0000000  0  9G28G19G21G01G30G07G09G17G14
  -1852814.22747  -1435645.60245  23175553.174    23175552.3974   23175558.2904
       160.0004        162.0004
  -5663856.25447  -4398275.33246  23348214.670    23348213.4884   23348218.2774
       162.0004        164.0004
   4510886.71447   3441242.77546  23168032.579    23168032.4984   23168036.5464
       163.0004        163.0004
   -348536.51249   -125049.05347  20825064.562    20825064.7494   20825071.9614
       198.0004        199.0004
  -5101698.12149  -3960118.46347  20736529.085    20736528.5234   20736534.8414
       209.0004        210.0004
  -1527586.27149  -1182799.65448  20193156.050    20193156.3114   20193161.0554
       216.0004        217.0004
   5512566.57448   4285288.05847  23623743.098    23623743.8164   23623751.8794
       191.0004        190.0004
  -2976115.47549  -2306157.11747  21743424.281    21743425.0114   21743428.9584
       197.0004        197.0004
  -2519250.17348  -1951983.45546  22566280.548    22566280.0804   22566284.3894
       177.0004        178.0004
 21  2  5  2 13 30.0000000  0  9G28G19G21G01G30G07G09G17G14
  -1878341.68547  -1455537.14245  23170695.346    23170695.4574   23170699.7344
       160.0004        162.0004
  -5728636.66147  -4448753.56946  23335887.866    23335886.8814   23335890.4514
       163.0004        166.0004
   4590741.29747   3503467.12146  23183228.975    23183228.0734   23183232.4494
       162.0004        164.0004
   -326601.09549   -107956.50747  20829237.379    20829238.7194   20829246.0414
       198.0004        198.0004
  -5153414.32249  -4000416.80447  20726687.102    20726687.3034   20726694.1314
       210.0004        211.0004
  -1524225.59749  -1180180.94548  20193795.722    20193796.1344   20193800.4514
       216.0004        217.0004
   5591414.54448   4346728.03547  23638749.992    23638749.1684   23638755.7894
       190.0004        190.0004
  -2997608.38749  -2322904.82247  21739334.152    21739334.4014   21739339.5184
       196.0004        196.0004
  -2552748.34748  -1978085.90746  22559904.169    22559905.1604   22559909.4634
       177.0004        178.0004
 21  2  5  2 14  0.0000000  0  9G28G19G21G01G30G07G09G17G14
  -1904001.20347  -1475531.56045  23165812.687    23165812.3094   23165817.3784
       160.0004        161.0004
  -5793100.02247  -4498984.73346  23323620.003    23323619.3284   23323623.4484
       164.0004        166.0004
   4670924.47847   3565947.52246  23198488.183    23198486.9484   23198491.9564
       163.0004        166.0004
   -304054.09849    -90387.42547  20833529.086    20833529.5974   20833537.6334
       199.0004        200.0004
  -5204696.65349  -4040377.06847  20716928.507    20716928.8164   20716935.5374
       211.0004        211.0004
  -1520288.79949  -1177113.32748  20194544.914    20194545.2304   20194549.7014
       216.0004        217.0004
   5670183.45348   4408106.39547  23653738.080    23653737.8654   23653744.6384
       190.0004        191.0004
  -3018716.47549  -2339352.68147  21735317.232    21735318.1304   21735322.8084
       196.0004        196.0004
  -2586321.08648  -2004246.48546  22553516.129    22553516.7504   22553521.0244
       178.0004        179.0004
 21  2  5  2 14 30.0000000  0  9G28G19G21G01G30G07G09G17G14
  -1929792.24247  -1495628.46345  23160905.353    23160905.3104   23160908.1584
       160.0004        162.0004
  -5857245.18947  -4548967.97746  23311412.637    23311411.9044   23311417.2684
       162.0004        163.0004
   4751435.09347   3628683.06346  23213808.350    23213807.3774   23213812.4844
       163.0004        164.0004
   -280895.26449    -72341.57547  20837935.514    20837936.3164   20837944.2894
       199.0004        199.0004
  -5255542.07949  -4079996.87747  20707252.747    20707252.7404   20707260.0414
       211.0004        211.0004
  -1515774.68649  -1173595.84248  20195404.228    20195404.3074   20195408.5314
       216.0004        217.0004
   5748871.53848   4469421.77547  23668710.898    23668711.6714   23668718.5724
       190.0004        191.0004
  -3039440.67949  -2355501.40347  21731374.051    21731374.0664   21731378.9054
       197.0004        198.0004
  -2619967.45948  -2030464.44746  22547113.766    22547114.3174   22547118.2434
       179.0004        180.0004
 21  2  5  2 15  0.0000000  0 10G28G19G21G01G30G07G09G17G14G22
  -1955715.78047  -1515828.62545  23155972.213    23155971.2454   23155975.3544
       160.0004        161.0004
  -5921072.01547  -4598703.18446  23299267.946    23299267.9284   23299271.8404
       162.0004        164.0004
   4832270.46247   3691671.67046  23229190.399    23229189.5014   23229195.8554
       163.0004        164.0004
   -257125.48949    -53819.66847  20842459.205    20842459.8714   20842467.0654
       199.0004        199.0004
  -5305948.75649  -4119274.80747  20697660.966    20697661.1504   20697667.7924
       211.0004        212.0004
  -1510683.09349  -1169628.38048  20196372.966    20196373.0714   20196377.4304
       216.0004        217.0004
   5827475.85148   4530671.89747  23683670.018    23683669.6414   23683676.7814
       191.0004        191.0004
  -3059782.13749  -2371351.88647  21727503.354    21727503.8164   21727508.4954
       198.0004        198.0004
  -2653687.74848  -2056739.97046  22540696.097    22540696.3774   22540702.3974
       179.0004        178.0004
  -3502037.08746  -2715556.32945  24788535.455    24788534.8234   24788538.2524
       133.0004        138.0004
 21  2  5  2 15 30.0000000  0 10G28G19G21G01G30G07G09G17G14G22
  -1981772.86547  -1536132.86345  23151013.687    23151014.5954   23151017.5504
       160.0004        162.0004
  -5984581.19447  -4648190.83946  23287182.900    23287181.3014   23287185.7944
       163.0004        164.0004
   4913427.22547   3754910.69146  23244633.659    23244633.5624   23244639.5444
       163.0004        164.0004
   -232746.22249    -34822.83047  20847098.470    20847099.2714   20847105.9784
       198.0004        198.0004
  -5355915.36649  -4158209.83747  20688152.621    20688152.7294   20688159.4994
       212.0004        212.0004
  -1505014.07149  -1165210.96648  20197451.316    20197451.9784   20197456.3934
       216.0004        217.0004
   5905993.02148   4591854.08347  23698611.715    23698611.8204   23698618.0084
       191.0004        191.0004
  -3079742.83449  -2386905.66147  21723705.160    21723705.4454   21723709.7984
       198.0004        198.0004
  -2687482.67048  -2083073.69046  22534266.472    22534266.7634   22534270.3354
       179.0004        179.0004
  -3524585.86746  -2733126.79845  24784243.013    24784242.0204   24784246.5434
       131.0004        138.0004
 21  2  5  2 16  0.0000000  0 10G28G19G21G01G30G07G09G17G14G22
  -2007961.93847  -1556539.93146  23146030.318    23146030.4734   23146034.3544
       161.0004        163.0004
  -6047769.97847  -4697428.82746  23275158.517    23275157.8974   23275161.3914
       163.0004        165.0004
   4994905.31747   3818400.11846  23260139.087    23260139.3814   23260144.9114
       163.0004        166.0004
   -207755.78049    -15349.75947  20851854.032    20851854.0504   20851861.9614
       198.0004        198.0004
  -5405437.50549  -4196798.52047  20678728.744    20678728.9874   20678736.0734
       212.0004        212.0004
  -1498765.23549  -1160341.75648  20198640.672    20198641.0194   20198645.6524
       216.0004        218.0004
   5984422.62548   4652968.06147  23713535.500    23713535.8634   23713542.9484
       191.0004        191.0004
  -3099321.70249  -2402161.92047  21719979.041    21719979.2904   21719983.5924
       197.0004        197.0004
  -2721349.87148  -2109463.73846  22527821.051    22527821.2274   22527826.4374
       179.0004        179.0004
  -3547040.08346  -2750623.63345  24779969.757    24779969.7534   24779971.3524
       134.0004        140.0004
 21  2  5  2 16 30.0000000  0 10G28G19G21G01G30G07G09G17G14G22
  -2034283.44347  -1577050.18746  23141021.491    23141021.3284   23141024.7884
       161.0004        163.0004
  -6110638.36547  -4746417.16246  23263193.886    23263193.2084   23263197.9994
       163.0004        165.0004
   5076702.06747   3882137.83846  23275705.076    23275704.6544   23275709.6434
       164.0004        166.0004
   -182154.98449      4598.91447  20856725.137    20856726.0134   20856733.4564
       198.0004        198.0004
  -5454513.15249  -4235039.27348  20669390.173    20669390.3924   20669397.0404
       212.0004        213.0004
  -1491936.31649  -1155020.52048  20199939.963    20199940.6534   20199945.0124
       216.0004        217.0004
   6062762.02748   4714011.75647  23728441.695    23728442.1794   23728451.0364
       190.0004        190.0004
  -3118520.42349  -2417121.95547  21716325.675    21716326.2564   21716330.4054
       196.0004        196.0004
  -2755289.37648  -2135910.06346  22521362.230    22521363.2254   22521368.5674
       179.0004        180.0004
  -3569397.79447  -2768045.21145  24775714.395    24775714.5084   24775716.9454
       135.0004        142.0004
 21  2  5  2 17  0.0000000  0 10G28G19G21G01G30G07G09G17G14G22
  -2060736.82047  -1597663.20145  23135986.727    23135987.5134   23135991.4244
       160.0004        162.0004
  -6173185.36447  -4795155.09246  23251291.709    23251290.8134   23251295.1544
       164.0004        166.0004
   5158815.31347   3946122.17546  23291328.970    23291329.5974   23291335.1264
       163.0004        164.0004
   -155943.87949     25023.15647  20861713.340    20861713.9234   20861720.6654
       198.0004        198.0004
  -5503139.58349  -4272930.00648  20660137.292    20660137.3744   20660143.9464
       213.0004        214.0004
  -1484526.13449  -1149246.36648  20201350.732    20201350.8774   20201355.2034
       216.0004        217.0004
   6141009.22248   4774983.58947  23743331.680    23743332.5714   23743339.6474
       189.0004        188.0004
  -3137339.37049  -2431786.08047  21712745.018    21712745.1114   21712749.3194
       196.0004        197.0004
  -2789300.39248  -2162412.17146  22514890.932    22514891.2524   22514895.5354
       179.0004        179.0004
  -3591656.32747  -2785389.52845  24771480.876    24771480.8234   24771482.2974
       136.0004        141.0004
 21  2  5  2 17 30.0000000  0 10G28G19G21G01G30G07G09G17G14G22
  -2087323.21747  -1618379.85045  23130927.007    23130927.1334   23130932.2424
       159.0004        161.0004
  -6235411.04548  -4843642.65546  23239452.161    23239451.7194   23239454.2364
       166.0004        169.0004
   5241242.99447   4010351.51746  23307014.136    23307015.2594   23307020.7644
       162.0004        163.0004
   -129123.36549     45922.26147  20866817.402    20866817.7024   20866824.7084
       198.0004        199.0004
  -5551314.86449  -4310469.18348  20650969.608    20650969.7444   20650976.2464
       213.0004        213.0004
  -1476534.56349  -1143019.17648  20202871.095    20202871.4384   20202875.8524
       216.0004        217.0004
   6219161.57448   4835881.51747  23758204.143    23758204.7724   23758211.3854
       188.0004        189.0004
  -3155780.14549  -2446155.50747  21709235.322    21709235.7934   21709239.9234
       196.0004        195.0004
  -2823382.98348  -2188970.03646  22508404.232    22508405.1094   22508410.3714
       179.0004        179.0004
  -3613813.44447  -2802654.81445  24767262.330    24767262.1864   24767265.2854
       135.0004        141.0004
 21  2  5  2 18  0.0000000  0 10G28G19G21G01G30G07G09G17G14G22
  -2114043.55247  -1639200.88946  23125843.608    23125843.2164   23125847.8124
       161.0004        163.0004
  -6297315.83348  -4891880.12646  23227670.667    23227669.7894   23227673.8174
       165.0004        165.0004
   5323982.19347   4074823.62446  23322761.267    23322760.6554   23322766.3104
       163.0004        165.0004
   -101694.86549     67295.12847  20872036.241    20872036.6854   20872044.8444
       198.0004        198.0004
  -5599037.53249  -4347655.68348  20641888.121    20641888.2764   20641894.8854
       213.0004        213.0004
  -1467961.75849  -1136339.07448  20204502.187    20204502.8894   20204507.0924
       216.0004        217.0004
   6297215.84448   4896703.05347  23773058.742    23773058.6774   23773064.9674
       189.0004        189.0004
  -3173844.79649  -2460231.84947  21705797.970    21705798.2674   21705802.5274
       196.0004        196.0004
  -2857537.59948  -2215584.01546  22501905.449    22501905.7274   22501910.8244
       180.0004        180.0004
  -3635867.73246  -2819839.98945  24763066.669    24763066.1784   24763071.1124
       134.0004        140.0004
 21  2  5  2 18 30.0000000  0 10G28G19G21G01G30G07G09G17G14G22
  -2140898.55547  -1660126.87746  23120732.922    23120733.4424   23120738.2774
       162.0004        164.0004
  -6358899.72647  -4939867.59146  23215951.353    23215950.7774   23215955.5294
       164.0004        166.0004
   5407029.59247   4139535.87046  23338565.584    23338564.4824   23338568.8704
       162.0004        163.0004
    -73659.55149     89140.81547  20877371.762    20877372.3414   20877379.3524
       198.0004        198.0004
  -5646305.96849  -4384488.23348  20632892.694    20632893.2504   20632900.1644
       213.0004        214.0004
  -1458807.91849  -1129206.22148  20206244.500    20206244.8734   20206248.9864
       216.0004        217.0004
   6375169.13248   4957445.86147  23787891.365    23787891.8764   23787899.4234
       190.0004        191.0004
  -3191534.94049  -2474016.36247  21702430.782    21702431.5014   21702435.6964
       196.0004        196.0004
  -2891764.49448  -2242254.33746  22495391.434    22495392.2084   22495397.0264
       179.0004        179.0004
  -3657817.36447  -2836943.58245  24758891.372    24758889.1564   24758892.4534
       136.0004        141.0004
 21  2  5  2 19  0.0000000  0 10G28G19G21G01G30G07G09G17G14G22
  -2167887.63347  -1681157.33646  23115598.171    23115598.3604   23115600.9074
       162.0004        164.0004
  -6420161.78048  -4987604.25346  23204294.875    23204293.9854   23204297.6014
       166.0004        168.0004
   5490383.72947   4204487.15945  23354426.429    23354425.8354   23354430.0634
       161.0004        162.0004
    -45017.32349    111459.43647  20882821.799    20882822.8294   20882829.9044
       198.0004        198.0004
  -5693117.19949  -4420964.51648  20623985.812    20623985.5064   20623991.7694
       213.0004        213.0004
  -1449071.64749  -1121619.52848  20208097.296    20208097.8024   20208101.8864
       216.0004        217.0004
   6453019.70748   5018108.64647  23802707.868    23802707.7994   23802712.8554
       191.0004        192.0004
  -3208851.05149  -2487509.42747  21699136.150    21699136.5194   21699140.4384
       196.0004        196.0004
  -2926062.67748  -2268980.19446  22488866.184    22488867.0364   22488870.2234
       178.0004        178.0004
  -3679659.20447  -2853963.15745  24754734.543    24754732.2184   24754737.4374
       137.0004        142.0004
 21  2  5  2 19 30.0000000  0 10G28G19G21G01G30G07G09G17G14G22
  -2195011.61347  -1702292.92145  23110433.808    23110434.3224   23110439.5474
       160.0004        160.0004
  -6481102.52648  -5035090.54046  23192697.169    23192696.4744   23192700.6524
       166.0004        167.0004
   5574041.53547   4269675.06245  23370344.834    23370344.9314   23370349.4804
       160.0004        162.0004
    -15769.64949    134249.84047  20888387.994    20888388.5814   20888395.9914
       198.0004        199.0004
  -5739469.76049  -4457083.39748  20615164.653    20615164.6004   20615171.4814
       213.0004        214.0004
  -1438753.55049  -1113579.45348  20210060.878    20210061.0404   20210065.1454
       216.0004        217.0004
   6530764.52548   5078689.03047  23817501.513    23817501.6844   23817507.3764
       192.0004        192.0004
  -3225794.97049  -2500712.47147  21695912.272    21695912.6504   21695916.2424
       196.0004        197.0004
  -2960432.45848  -2295761.83046  22482324.320    22482324.8894   22482330.2944
       177.0004        177.0004
  -3701392.00947  -2870897.81645  24750599.145    24750598.9024   24750600.9954
       140.0004        146.0004
 21  2  5  2 20  0.0000000  0 10G28G19G21G01G30G07G09G17G14G22
  -2222268.97947  -1723532.42245  23105248.146    23105247.8204   23105251.5064
       158.0004        159.0004
  -6541719.40548  -5082324.49246  23181163.231    23181162.0994   23181166.0964
       166.0004        168.0004
   5658002.67947   4335099.32245  23386321.880    23386321.4304   23386325.4134
       159.0004        160.0004
     14084.88749    157513.11447  20894068.649    20894069.2144   20894076.6904
       198.0004        198.0004
  -5785359.37249  -4492841.54248  20606432.212    20606432.3034   20606439.1694
       213.0004        214.0004
  -1427851.00549  -1105083.97548  20212135.750    20212136.1564   20212139.9284
       216.0004        217.0004
   6608403.32648   5139186.79747  23832273.639    23832274.8734   23832282.4134
       192.0004        192.0004
  -3242366.34149  -2513625.22047  21692758.881    21692759.2624   21692762.3994
       196.0004        197.0004
  -2994871.39448  -2322597.37446  22475771.982    22475772.6974   22475777.2584
       178.0004        179.0004
  -3723011.35647  -2887744.05645  24746483.257    24746482.7374   24746487.7394
       141.0004        145.0004
 21  2  5  2 20 30.0000000  0 10G28G19G21G01G30G07G09G17G14G22
  -2249660.49847  -1744876.46746  23100036.516    23100036.4434   23100040.6474
       160.0004        163.0004
  -6602012.80848  -5129306.35546  23169688.619    23169688.3674   23169692.2924
       166.0004        166.0004
   5742263.91547   4400757.43745  23402355.295    23402356.1194   23402358.9744
       157.0004        158.0004
     44544.75049    181248.07047  20899865.269    20899865.8794   20899873.4164
       198.0004        198.0004
  -5830784.63249  -4528237.85748  20597788.224    20597788.3884   20597795.1334
       214.0004        214.0004
  -1416364.29849  -1096133.29648  20214321.650    20214321.7954   20214325.9504
       216.0004        217.0004
   6685933.00448   5199599.53747  23847026.797    23847028.2544   23847036.0394
       192.0004        193.0004
  -3258566.81549  -2526248.97347  21689675.924    21689676.3544   21689680.0304
       197.0004        197.0004
  -3029379.96648  -2349487.17846  22469203.775    22469204.2804   22469210.2984
       178.0004        177.0004
  -3744515.58547  -2904500.58145  24742391.548    24742390.8124   24742396.1604
       140.0004        143.0004
 21  2  5  2 21  0.0000000  0 10G28G19G21G01G30G07G09G17G14G22
  -2277185.98847  -1766324.89645  23094798.433    23094798.5614   23094802.3794
       161.0004        162.0004
  -6661982.38148  -5176035.90046  23158277.074    23158276.6784   23158279.4244
       165.0004        166.0004
   5826823.52547   4466648.04245  23418446.248    23418446.2844   23418450.5094
       155.0004        158.0004
     75609.30749    205454.21647  20905776.760    20905777.1254   20905785.0074
       198.0004        199.0004
  -5875743.27149  -4563270.56848  20589232.119    20589232.6824   20589239.7034
       214.0004        214.0004
  -1404293.02649  -1086727.12548  20216618.127    20216618.7654   20216623.1804
       216.0004        217.0004
   6763351.32948   5259925.48847  23861760.766    23861760.8524   23861767.6384
       194.0004        194.0004
  -3274397.02749  -2538584.20847  21686663.622    21686663.5584   21686667.4104
       197.0004        198.0004
  -3063957.63048  -2376430.81746  22462625.511    22462625.8794   22462629.9064
       179.0004        179.0004
  -3765902.32447  -2921165.56645  24738320.968    24738319.8044   24738324.6664
       138.0004        143.0004
 21  2  5  2 21 30.0000000  0 10G28G19G21G01G30G07G09G17G14G22
  -2304846.52047  -1787878.55346  23089534.702    23089534.3104   23089538.6154
       162.0004        164.0004
  -6721628.49448  -5222513.36546  23146927.473    23146927.0894   23146929.4014
       167.0004        171.0004
   5911678.13147   4532768.51745  23434594.576    23434594.8484   23434598.2414
       155.0004        158.0004
    107276.98849    230130.33947  20911802.537    20911803.3984   20911810.9644
       198.0004        198.0004
  -5920233.89049  -4597938.57548  20580766.505    20580766.7154   20580773.1824
       214.0004        214.0004
  -1391637.66749  -1076865.80448  20219026.980    20219027.2794   20219031.2784
       216.0004        217.0004
   6840655.22548   5320162.30247  23876469.804    23876471.2344   23876478.3934
       192.0004        191.0004
  -3289859.73649  -2550633.06247  21683720.257    21683720.8384   21683725.7524
       198.0004        198.0004
  -3098604.76048  -2403428.57046  22456031.645    22456031.9354   22456036.8884
       179.0004        178.0004
  -3787169.91747  -2937737.69345  24734274.491    24734274.2714   24734277.7134
       140.0004        146.0004
 21  2  5  2 22  0.0000000  0 10G28G19G21G01G30G07G09G17G14G22
  -2332642.30547  -1809537.60646  23084246.234    23084245.1024   23084250.0574
       163.0004        165.0004
  -6780950.91048  -5268738.60246  23135637.955    23135637.3014   23135641.1894
       169.0004        171.0004
   5996825.52147   4599117.14045  23450798.056    23450798.3414   23450801.9104
       157.0004        160.0004
    139547.04549    255275.83147  20917943.069    20917943.7784   20917951.7324
       198.0004        198.0004
  -5964254.28649  -4632240.18848  20572389.612    20572389.8234   20572396.4114
       214.0004        214.0004
  -1378397.86149  -1066549.08848  20221545.879    20221546.5304   20221550.7244
       215.0004        216.0004
   6917842.51948   5380308.24847  23891159.823    23891159.6104   23891166.6724
       190.0004        189.0004
  -3304956.15949  -2562396.50347  21680848.001    21680848.3964   21680853.0564
       198.0004        199.0004
  -3133320.86348  -2430480.08146  22449425.762    22449426.5364   22449430.3824
       178.0004        179.0004
  -3808316.00147  -2954215.14245  24730250.541    24730250.9844   24730255.1594
       143.0004        147.0004
 21  2  5  2 22 30.0000000  0 10G28G19G21G01G30G07G09G17G14G22
  -2360574.10547  -1831302.64245  23078928.983    23078929.4304   23078935.7924
       162.0004        161.0004
  -6839950.07148  -5314711.97146  23124411.401    23124410.4664   23124413.7574
       171.0004        173.0004
   6082262.66747   4665691.53145  23467055.804    23467055.0374   23467061.8304
       157.0004        159.0004
    172417.95749    280889.53247  20924198.407    20924198.6074   20924206.9354
       197.0004        197.0004
  -6007803.03549  -4666174.28048  20564102.103    20564102.5494   20564109.6524
       214.0004        214.0004
  -1364574.19649  -1055777.41248  20224176.722    20224177.0374   20224181.3864
       215.0004        217.0004
   6994910.20248   5440360.99447  23905825.714    23905825.7914   23905832.1024
       190.0004        190.0004
  -3319688.01249  -2573875.86847  21678044.873    21678045.2864   21678049.5484
       199.0004        199.0004
  -3168106.20348  -2457585.55446  22442805.132    22442806.0744   22442811.1194
       177.0004        176.0004
  -3829339.08047  -2970596.76745  24726252.547    24726250.9484   24726253.8154
       144.0004        148.0004
 21  2  5  2 23  0.0000000  0 10G28G19G21G01G30G07G09G17G14G22
  -2388641.06447  -1853172.99746  23073590.009    23073589.7784   23073592.9374
       161.0004        163.0004
  -6898624.62048  -5360432.38646  23113245.912    23113245.5134   23113248.7914
       172.0004        174.0004
   6167987.90047   4732490.39445  23483368.543    23483369.1674   23483374.5164
       158.0004        160.0004
    205889.76349    306971.45747  20930567.821    20930568.4084   20930576.1154
       197.0004        198.0004
  -6050877.10749  -4699738.49048  20555906.474    20555906.3644   20555912.9654
       214.0004        215.0004
  -1350165.30449  -1044549.70848  20226918.615    20226919.0394   20226923.3874
       215.0004        216.0004
   7071856.86548   5500319.43247  23920469.046    23920468.5364   23920474.2674
       190.0004        190.0004
  -3334055.52149  -2585071.31947  21675309.945    21675310.5524   21675315.5684
       198.0004        198.0004
  -3202959.45548  -2484743.91546  22436173.070    22436172.8434   22436178.5264
       176.0004        177.0004
  -3850235.54547  -2986879.70945  24722275.232    24722273.8654   24722277.1364
       143.0004        147.0004
 21  2  5  2 23 30.0000000  0 10G28G19G21G01G30G07G09G17G14G22
  -2416843.54847  -1875148.97145  23068222.326    23068221.9224   23068226.3304
       159.0004        160.0004
  -6956975.04648  -5405900.24946  23102142.243    23102141.3854   23102144.9954
       172.0004        173.0004
   6253998.61747   4799511.73545  23499736.930    23499736.5644   23499742.8784
       159.0004        162.0004
    239961.02349    333520.48747  20937051.401    20937052.0194   20937059.7474
       197.0004        197.0004
  -6093474.91349  -4732931.59848  20547799.891    20547800.2684   20547806.8104
       215.0004        215.0004
  -1335171.57049  -1032866.29148  20229771.812    20229772.3144   20229776.5334
       215.0004        216.0004
   7148679.78948   5560181.43347  23935087.107    23935087.0164   23935093.1134
       189.0004        188.0004
  -3348060.71849  -2595984.46747  21672645.797    21672645.7474   21672649.9784
       198.0004        196.0004
  -3237880.65748  -2511955.24746  22429528.891    22429529.1754   22429533.9094
       177.0004        178.0004
  -3871004.10047  -3003062.98045  24718322.018    24718320.7004   24718324.9684
       142.0004        145.0004
 21  2  5  2 24  0.0000000  0 10G28G19G21G01G30G07G09G17G14G22
  -2445180.84347  -1897229.96945  23062828.936    23062829.2894   23062833.4154
       159.0004        161.0004
  -7014999.96848  -5451114.47146  23091101.201    23091100.1784   23091103.0874
       173.0004        173.0004
   6340293.81447   4866754.74046  23516157.206    23516158.1594   23516164.5434
       160.0004        163.0004
    274632.02849    360536.85447  20943649.358    20943650.1134   20943657.5554
       197.0004        197.0004
  -6135593.17649  -4765751.02448  20539785.442    20539785.1964   20539792.0564
       215.0004        215.0004
  -1319591.55149  -1020726.02348  20232736.665    20232736.7624   20232741.3884
       215.0004        216.0004
   7225377.87948   5619946.20046  23949680.835    23949681.2394   23949688.3164
       187.0004        186.0004
  -3361703.58249  -2606615.27047  21670048.743    21670049.6944   21670054.1234
       196.0004        196.0004
  -3272868.12748  -2539218.21146  22422870.657    22422871.1714   22422875.8724
       177.0004        177.0004
  -3891641.06547  -3019143.73745  24714393.043    24714393.3514   24714397.5444
       140.0004        144.0004
 21  2  5  2 24 30.0000000  0 10G28G19G21G01G30G07G09G17G14G22
  -2473653.82847  -1919416.72345  23057411.704    23057411.9504   23057415.7794
       160.0004        162.0004
  -7072700.28148  -5496075.76546  23080119.647    23080119.5844   23080123.0404
       171.0004        171.0004
   6426869.95147   4934216.65545  23532633.092    23532632.2034   23532639.6224
       160.0004        161.0004
    309900.88649    388019.07847  20950360.274    20950361.0734   20950369.1634
       196.0004        196.0004
  -6177230.75849  -4798195.89548  20531861.765    20531861.7914   20531868.2554
       215.0004        215.0004
  -1303426.05449  -1008129.53948  20235812.369    20235812.9204   20235817.5114
       215.0004        216.0004
   7301948.00448   5679611.25946  23964250.901    23964251.7684   23964259.6994
       185.0004        185.0004
  -3374986.68049  -2616965.73947  21667521.643    21667521.8624   21667526.4664
       195.0004        196.0004
  -3307922.37548  -2566533.22046  22416200.891    22416200.9154   22416204.9214
       176.0004        176.0004
  -3912145.06847  -3035120.92045  24710494.641    24710493.1034   24710496.7204
       140.0004        146.0004
 21  2  5  2 25  0.0000000  0 10G28G19G21G01G30G07G09G17G14G22
  -2502262.29047  -1941709.03746  23051967.554    23051967.6884   23051971.7004
       161.0004        163.0004
  -7130075.66848  -5540783.85846  23069202.186    23069202.0384   23069205.1024
       170.0004        170.0004
   6513724.59047   5001895.57045  23549159.318    23549160.5854   23549166.5514
       160.0004        161.0004
    345766.72949    415966.48447  20957185.262    20957186.3164   20957194.1384
       196.0004        196.0004
  -6218385.54449  -4830264.56548  20524030.480    20524030.5984   20524036.7514
       215.0004        215.0004
  -1286674.96849   -995076.75448  20239000.633    20239000.9124   20239005.1734
       215.0004        216.0004
   7378387.96748   5739174.86646  23978797.998    23978797.9434   23978804.5254
       185.0004        185.0004
  -3387911.17949  -2627036.77347  21665062.072    21665062.4874   21665066.8334
       195.0004        196.0004
  -3343042.85648  -2593899.83246  22409516.896    22409516.8294   22409521.6334
       175.0004        176.0004
  -3932513.88347  -3050992.74345  24706617.156    24706616.6044   24706621.5704
       141.0004        145.0004
 21  2  5  2 25 30.0000000  0 11G28G19G21G01G30G07G06G09G17G14G22
  -2531005.65547  -1964106.46745  23046498.206    23046497.8864   23046501.7184
       160.0004        160.0004
  -7187124.70048  -5585237.64246  23058346.416    23058346.2864   23058348.7494
       169.0004        171.0004
   6600856.17047   5069790.32845  23565741.585    23565740.8894   23565747.1654
       160.0004        162.0004
    382229.34549    444378.92847  20964124.956    20964124.7584   20964133.4094
       197.0004        197.0004
  -6259054.62849  -4861954.76348  20516291.171    20516291.2954   20516297.8834
       215.0004        215.0004
  -1269337.38049   -981566.95048  20242299.368    20242299.7234   20242304.2274
       214.0004        215.0004
  -1847559.19657  -1419249.19145  24335117.104    24335117.3505   24335125.6034
       140.0004        147.0004
   7454696.51348   5798636.06246  23993320.035    23993320.4114   23993325.2044
       186.0004        187.0004
  -3400477.37049  -2636828.59947  21662671.379    21662671.5034   21662675.2094
       197.0004        198.0004
  -3378228.09248  -2621316.90546  22402821.994    22402823.0374   22402826.4614
       176.0004        178.0004
  -3952744.14047  -3066756.56045  24702766.809    24702766.1034   24702771.1664
       140.0004        144.0004
 21  2  5  2 26  0.0000000  0 11G28G19G21G01G30G07G06G09G17G14G22
  -2559885.61047  -1986610.31945  23041002.893    23041002.5934   23041006.5564
       159.0004        162.0004
  -7243848.53548  -5629437.99646  23047552.452    23047551.8294   23047555.0204
       172.0004        174.0004
   6688261.39047   5137898.27845  23582374.000    23582374.4344   23582379.5794
       159.0004        160.0004
    419286.09849    473254.31247  20971175.880    20971176.6384   20971184.2914
       197.0004        197.0004
  -6299237.64249  -4893266.20448  20508645.078    20508644.7784   20508651.5304
       215.0004        216.0004
  -1251414.36649   -967600.98048  20245710.093    20245710.4984   20245714.8194
       214.0004        215.0004
  -1956154.38047  -1503868.74445  24314453.262    24314453.3364   24314459.5194
       143.0004        148.0004
   7530869.71548   5857991.79946  24007815.258    24007815.3214   24007822.0284
       186.0004        187.0004
  -3412688.15849  -2646343.49147  21660347.225    21660347.9404   21660352.1234
       197.0004        198.0004
  -3413479.25848  -2648785.35146  22396112.893    22396113.4944   22396117.7154
       177.0004        177.0004
  -3972834.88747  -3082411.66845  24698942.546    24698942.2374   24698948.4694
       138.0004        143.0004
