     2.11           OBSERVATION DATA    G (GPS)             RINEX VERSION / TYPE
teqc  2018Jun8                          20210202 03:10:37UTCPGM / RUN BY / DATE
Linux2.6.32-573.12.1.el6.x86_64|x86_64|gcc|Win64-MinGW64|=+ COMMENT
BIT 2 OF LLI FLAGS DATA COLLECTED UNDER A/S CONDITION       COMMENT
-Unknown-                                                   MARKER NAME
CRNO                                                        MARKER NUMBER
-Unknown-           -Unknown-                               OBSERVER / AGENCY
-Unknown-           ASHTECH             -Unknown-           REC # / TYPE / VERS
-Unknown-           -Unknown-                               ANT # / TYPE
   408080.3641 -6158375.7499  1605164.6397                  APPROX POSITION XYZ
        0.0000        0.0000        0.0000                  ANTENNA: DELTA H/E/N
     1     1                                                WAVELENGTH FACT L1/2
     7    L1    L2    C1    P1    P2    S1    S2            # / TYPES OF OBSERV
    30.0000                                                 INTERVAL
Forced Modulo Decimation to 30 seconds                      COMMENT
 SNR is mapped to RINEX snr flag value [1-9]                COMMENT
  L1: 1 -> 1;  90 -> 5; 210 -> 9                            COMMENT
  L2: 1 -> 1; 150 -> 5; 250 -> 9                            COMMENT
pseudorange smoothing corrections not applied               COMMENT
  2021     2     2     0     0   30.0000000     GPS         TIME OF FIRST OBS
                                                            END OF HEADER
 21  2  2  0  0 30.0000000  0  9G08G07G01G09G21G03G16G27G04
 -23306349.68649 -18142063.90347  20155342.187    20155342.3844   20155349.6884
       212.0004        212.0004
  -5244501.20347  -4075361.93846  23883342.253    23883342.7984   23883346.3044
       160.0004        163.0004
  -3311266.09447  -2549756.40245  24145829.027    24145830.6324   24145841.8344
       142.0004        147.0004
 -18190066.20949 -14142130.58147  21094217.717    21094218.0824   21094224.4734
       207.0004        208.0004
  -7786756.17547  -6053035.50345  22769388.052    22769387.0894   22769391.8114
       154.0004        157.0004
  -1209916.06948   -922984.85546  24180252.466    24180253.6064   24180263.2324
       178.0004        178.0004
  -1666876.58747  -1272035.48345  24236855.922    24236856.3084   24236861.7614
       139.0004        145.0004
 -17357333.29549 -13493548.38748  21752397.378    21752397.9164   21752404.7524
       219.0004        219.0004
 -20745398.09649 -15878133.04847  20357815.026    20357815.3574   20357821.0584
       211.0004        210.0004
 21  2  2  0  1  0.0000000  0  9G08G07G01G09G21G03G16G27G04
 -23296745.69249 -18134580.24047  20157169.721    20157170.1764   20157177.1684
       212.0004        212.0004
  -5312545.21847  -4128383.19746  23870394.905    23870394.8164   23870398.5704
       162.0004        165.0004
  -3379381.25847  -2602832.84445  24132867.169    24132869.1424   24132878.9234
       144.0004        148.0004
 -18232459.73949 -14175164.48047  21086150.134    21086150.5334   21086157.5464
       208.0004        209.0004
  -7837400.89047  -6092498.82845  22759750.761    22759748.4244   22759755.1274
       155.0004        157.0004
  -1151950.32848   -877816.84646  24191284.619    24191285.0264   24191295.6394
       179.0004        180.0004
  -1587266.50847  -1210001.64045  24252006.556    24252005.3624   24252010.2994
       138.0004        144.0004
 -17280900.23949 -13433990.13848  21766941.678    21766942.1324   21766949.6294
       219.0004        218.0004
 -20716331.18249 -15855483.48947  20363345.710    20363346.4624   20363351.9224
       211.0004        210.0004
 21  2  2  0  1 30.0000000  0  9G08G07G01G09G21G03G16G27G04
 -23286536.99349 -18126625.39347  20159112.490    20159112.6784   20159119.8864
       212.0004        212.0004
  -5380729.02647  -4181513.40745  23857418.785    23857419.1874   23857423.2364
       161.0004        161.0004
  -3447708.15947  -2656074.26545  24119862.170    24119864.0794   24119876.0744
       143.0004        146.0004
 -18274332.48349 -14207792.58447  21078181.630    21078182.0574   21078188.8284
       208.0004        207.0004
  -7887958.79347  -6131894.54545  22750128.689    22750128.9214   22750134.2364
       155.0004        158.0004
  -1094160.34848   -832785.78346  24202280.317    24202281.8004   24202292.5184
       180.0004        181.0004
  -1507800.66347  -1148080.20545  24267126.559    24267126.7634   24267131.9694
       137.0004        142.0004
 -17204035.31149 -13374095.38348  21781569.307    21781569.5494   21781576.6574
       219.0004        220.0004
 -20686708.17949 -15832400.63847  20368983.625    20368983.5584   20368989.2774
       211.0004        210.0004
 21  2  2  0  2  0.0000000  0  9G08G07G01G09G21G03G16G27G04
 -23275722.11949 -18118198.22348  20161170.414    20161170.7964   20161177.8424
       212.0004        213.0004
  -5449049.03347  -4234749.79346  23844418.371    23844418.7654   23844421.6074
       160.0004        163.0004
  -3516242.53747  -2709477.42645  24106821.145    24106821.7984   24106835.1554
       143.0004        146.0004
 -18315680.69649 -14240011.98447  21070313.697    21070314.1364   21070320.6264
       207.0004        208.0004
  -7938424.30047  -6171218.27145  22740525.689    22740525.8294   22740530.7054
       156.0004        159.0004
  -1036545.83448   -787891.50946  24213244.312    24213245.8624   24213255.4184
       180.0004        181.0004
  -1428477.68847  -1086270.09445  24282222.367    24282222.0734   24282225.1454
       136.0004        142.0004
 -17126738.94249 -13313864.46248  21796278.039    21796278.3384   21796284.9354
       219.0004        218.0004
 -20656527.77749 -15808883.45747  20374726.167    20374726.5464   20374732.6604
       211.0004        210.0004
 21  2  2  0  2 30.0000000  0  9G08G07G01G09G21G03G16G27G04
 -23264303.67349 -18109300.70048  20163343.421    20163343.2824   20163351.2034
       212.0004        213.0004
  -5517507.06947  -4288093.68746  23831390.708    23831390.6344   23831395.6584
       161.0004        163.0004
  -3584984.36747  -2763042.20445  24093741.051    24093741.5824   24093753.1384
       144.0004        149.0004
 -18356504.96049 -14271823.07647  21062545.186    21062545.8844   21062551.7124
       208.0004        209.0004
  -7988796.78347  -6210469.47845  22730940.460    22730940.4714   22730945.0954
       156.0004        159.0004
   -979110.88748   -743137.13746  24224176.107    24224176.2144   24224185.2384
       182.0004        183.0004
  -1349300.64546  -1024573.69645  24297287.313    24297289.2584   24297292.4464
       132.0004        138.0004
 -17049016.03349 -13253301.13548  21811068.046    21811068.5374   21811074.7034
       218.0004        217.0004
 -20625793.11849 -15784934.36147  20380574.922    20380575.3084   20380581.0204
       211.0004        209.0004
 21  2  2  0  3  0.0000000  0  9G08G07G01G09G21G03G16G27G04
 -23252282.24449 -18099933.32847  20165630.460    20165630.9074   20165638.7824
       212.0004        212.0004
  -5586101.45847  -4341543.81046  23818336.082    23818337.8204   23818342.5604
       162.0004        163.0004
  -3653931.15547  -2816766.70445  24080621.925    24080621.6954   24080633.0834
       148.0004        152.0004
 -18396803.21049 -14303224.29347  21054876.516    21054876.8584   21054883.6444
       208.0004        209.0004
  -8039072.99947  -6249645.66045  22721372.602    22721371.7674   22721377.5044
       156.0004        158.0004
   -921856.89648   -698523.75746  24235070.054    24235070.6254   24235080.8654
       181.0004        181.0004
  -1270269.85346   -962991.24045  24312329.525    24312329.6824   24312329.0624
       133.0004        139.0004
 -16970868.69749 -13192407.08348  21825939.375    21825939.3614   21825946.4024
       218.0004        217.0004
 -20594504.57949 -15760553.67747  20386529.465    20386529.6354   20386535.3454
       211.0004        209.0004
 21  2  2  0  3 30.0000000  0  9G08G07G01G09G21G03G16G27G04
 -23239659.16849 -18090097.13748  20168033.280    20168033.3924   20168040.7574
       212.0004        213.0004
  -5654832.28547  -4395100.25346  23805258.866    23805259.4454   23805263.1484
       163.0004        165.0004
  -3723081.98347  -2870650.22345  24067462.248    24067462.1704   24067472.8184
       144.0004        147.0004
 -18436575.27849 -14334215.50547  21047308.759    21047309.1124   21047315.4374
       209.0004        209.0004
  -8089251.29047  -6288745.55845  22711823.687    22711824.4524   22711829.2724
       156.0004        157.0004
   -864787.09248   -654053.93146  24245927.652    24245929.1004   24245940.5514
       176.0004        175.0004
  -1191387.24047   -901524.30345  24327338.550    24327342.5754   24327339.3504
       136.0004        141.0004
 -16892300.98749 -13131185.47248  21840889.948    21840890.5134   21840897.5294
       218.0004        218.0004
 -20562664.47949 -15735743.20747  20392588.225    20392588.6564   20392594.1604
       211.0004        209.0004
 21  2  2  0  4  0.0000000  0  9G08G07G01G09G21G03G16G27G04
 -23226433.79049 -18079791.63248  20170550.004    20170550.2564   20170557.2424
       212.0004        213.0004
  -5723696.25547  -4448760.47846  23792155.312    23792155.2984   23792158.2494
       163.0004        164.0004
  -3792432.67847  -2924689.48545  24054264.202    24054264.9214   24054275.3124
       146.0004        151.0004
 -18475817.65649 -14364793.97647  21039841.703    21039841.6654   21039847.5584
       209.0004        209.0004
  -8139326.97747  -6327765.52845  22702294.849    22702295.0074   22702301.2004
       156.0004        158.0004
   -807901.30548   -609727.48246  24256755.026    24256755.3594   24256765.4434
       173.0004        173.0004
  -1112651.95046   -840172.19445  24342322.097    24342324.2554   24342321.6894
       134.0004        138.0004
 -16813313.57749 -13069636.83248  21855921.076    21855921.2944   21855928.1044
       218.0004        218.0004
 -20530271.82949 -15710502.18647  20398752.087    20398752.3434   20398758.2164
       210.0004        209.0004
 21  2  2  0  4 30.0000000  0  9G08G07G01G09G21G03G16G27G04
 -23212607.63149 -18069017.99847  20173180.661    20173180.9594   20173188.1584
       212.0004        212.0004
  -5792693.79447  -4502524.76845  23779024.195    23779024.2504   23779028.5664
       161.0004        162.0004
  -3861982.22547  -2978883.74245  24041030.359    24041031.5334   24041041.6674
       147.0004        151.0004
 -18514530.04049 -14394959.47347  21032474.015    21032474.5224   21032480.5234
       209.0004        209.0004
  -8189298.78147  -6366704.56045  22692785.157    22692785.9324   22692791.2084
       156.0004        158.0004
   -751202.65648   -565546.86146  24267545.042    24267545.7964   24267555.0674
       174.0004        175.0004
  -1034066.00446   -778936.33245  24357276.122    24357275.9884   24357280.1054
       130.0004        137.0004
 -16733910.36649 -13007764.20648  21871031.655    21871031.3244   21871037.8504
       218.0004        217.0004
 -20497328.82849 -15684832.33147  20405020.568    20405021.0854   20405027.0134
       210.0004        209.0004
 21  2  2  0  5  0.0000000  0  9G08G07G01G09G21G03G16G27G04
 -23198182.13749 -18057777.31847  20175925.762    20175926.0974   20175933.1914
       212.0004        212.0004
  -5861824.58947  -4556392.88046  23765869.223    23765870.2394   23765873.1614
       161.0004        163.0004
  -3931729.50547  -3033232.00745  24027756.007    24027756.2514   24027766.4174
       143.0004        145.0004
 -18552711.95549 -14424711.59347  21025208.037    21025208.5344   21025214.7314
       209.0004        209.0004
  -8239164.62347  -6405560.96645  22683296.156    22683295.9164   22683301.8784
       156.0004        159.0004
   -694693.93348   -521514.19146  24278298.209    24278298.6694   24278308.6424
       175.0004        176.0004
   -955630.96746   -717818.12945  24372202.512    24372201.3974   24372209.5634
       131.0004        139.0004
 -16654095.02849 -12945570.39848  21886219.066    21886219.7274   21886226.4474
       218.0004        218.0004
 -20463837.48449 -15658735.15847  20411394.242    20411394.4304   20411400.6254
       210.0004        209.0004
 21  2  2  0  5 30.0000000  0  9G08G07G01G09G21G03G16G27G04
 -23183156.79649 -18046069.24347  20178785.140    20178785.1624   20178792.4674
       212.0004        212.0004
  -5931087.18847  -4610363.72646  23752689.559    23752689.8714   23752693.3414
       163.0004        166.0004
  -4001671.27147  -3087731.84745  24014448.887    24014448.7414   24014458.4724
       145.0004        150.0004
 -18590361.01749 -14454048.51647  21018043.728    21018044.1534   21018050.2814
       208.0004        209.0004
  -8288920.39747  -6444331.63345  22673828.851    22673828.1894   22673832.9704
       157.0004        158.0004
   -638375.93248   -477630.19346  24289015.511    24289016.2844   24289025.5594
       174.0004        175.0004
   -877346.93046   -656817.58745  24387098.279    24387098.1684   24387102.8714
       130.0004        136.0004
 -16573869.35049 -12883056.86948  21901486.096    21901486.1694   21901492.6104
       218.0004        218.0004
 -20429797.91549 -15632210.82747  20417871.821    20417872.7964   20417877.5994
       210.0004        208.0004
 21  2  2  0  6  0.0000000  0  9G08G07G01G09G21G03G16G27G04
 -23167532.62249 -18033894.55447  20181757.987    20181758.0694   20181765.7714
       212.0004        212.0004
  -6000480.32047  -4664436.29346  23739483.394    23739484.3544   23739488.7804
       163.0004        164.0004
  -4071805.19447  -3142381.45445  24001102.153    24001101.2904   24001111.3704
       146.0004        149.0004
 -18627475.63549 -14482969.00347  21010980.455    21010981.1094   21010987.9684
       209.0004        209.0004
  -8338563.42847  -6483014.47145  22664381.743    22664381.9834   22664385.8194
       157.0004        158.0004
   -582250.43648   -433896.22946  24299693.119    24299694.6944   24299706.5144
       174.0004        175.0004
   -799214.13346   -595934.88745  24401969.505    24401967.2614   24401971.5854
       129.0004        136.0004
 -16493235.88849 -12820225.59248  21916829.896    21916830.6694   21916836.5194
       218.0004        217.0004
 -20395211.07849 -15605260.05247  20424452.888    20424453.8184   20424458.9154
       210.0004        209.0004
 21  2  2  0  6 30.0000000  0  9G08G07G01G09G21G03G16G27G04
 -23151310.90649 -18021254.23147  20184844.423    20184844.9974   20184852.3764
       212.0004        212.0004
  -6070002.85747  -4718609.65845  23726252.588    23726254.1154   23726258.5094
       162.0004        162.0004
  -4142129.12947  -3197179.07145  23987719.107    23987719.2634   23987729.6154
       144.0004        148.0004
 -18664054.49549 -14511471.99347  21004020.188    21004020.4854   21004027.3524
       209.0004        210.0004
  -8388091.07647  -6521607.37245  22654956.589    22654955.3634   22654963.0764
       157.0004        158.0004
   -526319.34348   -390313.68446  24310340.317    24310340.3644   24310350.7814
       175.0004        176.0004
   -721233.65446   -535170.89345  24416806.847    24416806.2454   24416808.2724
       129.0004        136.0004
 -16412197.49549 -12757078.76848  21932251.329    21932251.4554   21932257.8834
       217.0004        217.0004
 -20360078.12549 -15577883.72347  20431139.098    20431139.0824   20431144.9994
       210.0004        208.0004
 21  2  2  0  7  0.0000000  0  9G08G07G01G09G21G03G16G27G04
 -23134492.95949 -18008149.31347  20188045.318    20188045.3454   20188052.6714
       212.0004        212.0004
  -6139654.28447  -4772883.47146  23712998.243    23712999.7864   23713004.9994
       161.0004        163.0004
  -4212641.65147  -3252123.69545  23974301.803    23974302.0284   23974312.0554
       143.0004        147.0004
 -18700097.07249 -14539557.10147  20997162.143    20997162.2734   20997169.1094
       210.0004        211.0004
  -8437501.41247  -6560108.87845  22645554.094    22645552.4164   22645559.4774
       154.0004        155.0004
   -470585.25848   -346884.65146  24320944.350    24320944.9784   24320956.2864
       174.0004        174.0004
   -643407.22846   -474526.95345  24431616.116    24431615.6584   24431621.6694
       131.0004        138.0004
 -16330757.79349 -12693619.24348  21947747.950    21947748.5944   21947755.4354
       216.0004        216.0004
 -20324401.11249 -15550083.44147  20437927.563    20437928.1714   20437933.8914
       209.0004        207.0004
 21  2  2  0  7 30.0000000  0  9G08G07G01G09G21G03G16G27G04
 -23117079.20449 -17994580.16647  20191359.434    20191359.5934   20191366.4294
       212.0004        212.0004
  -6209433.07547  -4827256.56246  23699722.639    23699722.5064   23699727.2154
       164.0004        167.0004
  -4283339.89547  -3307213.06145  23960847.763    23960847.6784   23960857.1154
       143.0004        146.0004
 -18735601.39749 -14567222.83247  20990405.070    20990405.8144   20990412.2424
       210.0004        210.0004
  -8486790.80047  -6598516.13945  22636173.789    22636172.7494   22636180.1834
       154.0004        156.0004
   -415049.42348   -303610.12046  24331513.299    24331513.4304   24331523.8784
       172.0004        172.0004
   -565734.47246   -414002.74845  24446395.528    24446395.6124   24446401.6064
       126.0004        134.0004
 -16248918.87249 -12629848.66948  21963322.069    21963322.1904   21963328.5014
       216.0004        216.0004
 -20288180.51749 -15521859.62947  20444820.664    20444820.8754   20444826.5364
       209.0004        207.0004
 21  2  2  0  8  0.0000000  0  9G08G07G01G09G21G03G16G27G04
 -23099069.94649 -17980546.94447  20194785.979    20194786.2984   20194793.1854
       212.0004        212.0004
  -6279338.00648  -4881727.90046  23686419.639    23686420.5014   23686423.5884
       166.0004        167.0004
  -4354221.74047  -3362445.45045  23947358.809    23947360.5904   23947368.0404
       144.0004        149.0004
 -18770566.23049 -14594468.14047  20983751.931    20983752.4894   20983758.8624
       210.0004        210.0004
  -8535956.39747  -6636826.90845  22626818.349    22626817.4994   22626824.4144
       156.0004        159.0004
   -359713.60148   -260491.46146  24342042.907    24342043.9604   24342054.3384
       170.0004        171.0004
   -488216.56546   -353599.21745  24461149.019    24461147.4964   24461153.5704
       127.0004        135.0004
 -16166683.58849 -12565769.19448  21978970.780    21978970.6604   21978977.1034
       215.0004        215.0004
 -20251417.65149 -15493213.23047  20451816.211    20451816.7674   20451822.0634
       209.0004        207.0004
 21  2  2  0  8 30.0000000  0  9G08G07G01G09G21G03G16G27G04
 -23080467.66349 -17966051.64247  20198325.283    20198325.9214   20198333.4674
       211.0004        212.0004
  -6349369.05048  -4936297.54846  23673093.426    23673093.3164   23673097.6424
       165.0004        165.0004
  -4425285.80047  -3417819.82645  23933837.035    23933835.9974   23933844.4854
       145.0004        148.0004
 -18804991.20049 -14621292.78847  20977201.310    20977201.7344   20977208.2924
       210.0004        211.0004
  -8584996.68247  -6675040.05845  22617487.791    22617486.1254   22617492.2384
       157.0004        159.0004
   -304580.53148   -217530.80746  24352534.071    24352535.6154   24352545.4224
       171.0004        172.0004
   -410855.20546   -293317.63445  24475867.857    24475868.1854   24475873.2474
       127.0004        135.0004
 -16084055.66049 -12501383.79748  21994693.827    21994694.5214   21994701.1424
       215.0004        215.0004
 -20214114.63849 -15464145.94747  20458914.963    20458915.3924   20458920.6864
       209.0004        207.0004
 21  2  2  0  9  0.0000000  0  9G08G07G01G09G21G03G16G27G04
 -23061271.89949 -17951093.89747  20201978.420    20201979.0414   20201986.1634
       212.0004        212.0004
  -6419523.89347  -4990963.64745  23659741.954    23659741.5004   23659746.3234
       161.0004        161.0004
  -4496528.59947  -3473333.50845  23920279.620    23920279.8814   23920288.3774
       146.0004        149.0004
 -18838873.87549 -14647694.86747  20970753.569    20970753.7244   20970760.3844
       211.0004        211.0004
  -8633907.66547  -6713152.45745  22608179.068    22608177.7954   22608184.1614
       157.0004        159.0004
   -249650.78948   -174728.57846  24362987.126    24362988.5274   24362998.4314
       172.0004        173.0004
   -333649.52746   -233157.40044  24490558.477    24490559.3934   24490565.4054
       122.0004        131.0004
 -16001036.71449 -12436693.70548  22010493.013    22010492.7394   22010498.9224
       215.0004        215.0004
 -20176271.56749 -15434657.84347  20466115.975    20466116.3494   20466122.1074
       209.0004        207.0004
 21  2  2  0  9 30.0000000  0  9G08G07G01G09G21G03G16G27G04
 -23041484.28449 -17935674.95847  20205744.006    20205744.5604   20205751.6324
       211.0004        212.0004
  -6489801.85247  -5045725.65546  23646368.848    23646369.0424   23646373.4554
       161.0004        164.0004
  -4567948.39747  -3528985.06145  23906687.502    23906686.8664   23906698.3944
       145.0004        148.0004
 -18872213.55249 -14673673.83047  20964409.014    20964409.4204   20964416.0904
       211.0004        211.0004
  -8682686.79347  -6751162.09845  22598894.223    22598894.5724   22598901.5584
       155.0004        157.0004
   -194926.76148   -132086.63246  24373401.219    24373402.0994   24373411.2094
       171.0004        172.0004
   -256601.21746   -173119.78645  24505221.942    24505224.0644   24505227.0784
       126.0004        136.0004
 -15917630.11249 -12371701.53548  22026364.154    22026364.0444   22026370.8554
       215.0004        214.0004
 -20137890.26649 -15404750.32447  20473419.700    20473420.1334   20473425.8584
       209.0004        207.0004
 21  2  2  0 10  0.0000000  0  9G08G07G01G09G21G03G16G27G04
 -23021106.26649 -17919795.98047  20209622.440    20209622.5224   20209629.4294
       212.0004        212.0004
  -6560202.44147  -5100583.25046  23632973.179    23632973.0864   23632976.2724
       163.0004        164.0004
  -4639543.51047  -3584773.27445  23893063.196    23893063.5284   23893072.9534
       142.0004        146.0004
 -18905009.61649 -14699229.20547  20958167.804    20958168.3094   20958175.3094
       210.0004        211.0004
  -8731331.31647  -6789066.84345  22589639.374    22589638.8124   22589644.4914
       154.0004        156.0004
   -140410.76148    -89606.80646  24383775.888    24383775.8794   24383787.2314
       172.0004        174.0004
   -179711.68346   -113205.84345  24519856.490    24519856.9424   24519854.8914
       128.0004        135.0004
 -15833839.25849 -12306409.97448  22042309.184    22042308.9604   22042315.8554
       214.0004        214.0004
 -20098972.63249 -15374424.90347  20480825.649    20480826.0464   20480831.9014
       209.0004        207.0004
 21  2  2  0 10 30.0000000  0  9G08G07G01G09G21G03G16G27G04
 -23000138.28549 -17903457.28347  20213612.135    20213612.2744   20213619.2674
       211.0004        212.0004
  -6630723.85147  -5155534.96046  23619553.218    23619552.7554   23619557.5094
       162.0004        164.0004
  -4711310.92947  -3640695.74745  23879406.528    23879407.0664   23879414.8014
       141.0004        145.0004
 -18937260.12849 -14724359.47147  20952030.945    20952031.7474   20952037.9694
       211.0004        211.0004
  -8779838.77447  -6826864.79445  22580409.834    22580408.1024   22580414.0824
       155.0004        159.0004
    -86103.78448    -47289.86746  24394108.465    24394110.2634   24394123.1954
       175.0004        176.0004
   -102980.23546    -53415.10245  24534455.302    24534453.1684   24534458.6774
       126.0004        135.0004
 -15749666.25349 -12240820.61948  22058325.494    22058326.5034   22058333.2184
       214.0004        213.0004
 -20059519.26449 -15343682.02347  20488333.258    20488333.5604   20488339.8764
       209.0004        207.0004
 21  2  2  0 11  0.0000000  0  9G08G07G01G09G21G03G16G27G04
 -22978582.31749 -17886660.43747  20217713.346    20217713.9504   20217721.3904
       211.0004        211.0004
  -6701365.57547  -5210580.46346  23606110.264    23606110.8294   23606114.2214
       163.0004        165.0004
  -4783249.15947  -3696751.32545  23865716.915    23865717.9874   23865726.9464
       142.0004        146.0004
 -18968964.76549 -14749064.39247  20945998.007    20945998.2304   20946005.0234
       211.0004        211.0004
  -8828206.67047  -6864554.01645  22571205.641    22571204.4344   22571210.0444
       157.0004        159.0004
    -32008.34848     -5137.79046  24404403.355    24404404.4684   24404416.5474
       175.0004        175.0004
    -26408.60646      6251.07145  24549026.555    24549027.3054   24549032.0794
       126.0004        134.0004
 -15665114.76549 -12174936.35447  22074415.898    22074416.1524   22074422.8874
       213.0004        212.0004
 -20019532.33649 -15312523.38947  20495942.719    20495943.0664   20495948.8384
       208.0004        207.0004
 21  2  2  0 11 30.0000000  0  9G08G07G01G09G21G03G16G27G04
 -22956440.03149 -17869406.67447  20221927.547    20221927.7954   20221934.9554
       211.0004        211.0004
  -6772126.98247  -5265719.16346  23592645.622    23592644.9074   23592649.3984
       163.0004        166.0004
  -4855356.58547  -3752938.78345  23851994.345    23851994.7654   23852004.2874
       142.0004        146.0004
 -19000123.12449 -14773343.60347  20940068.509    20940069.0034   20940075.7314
       211.0004        211.0004
  -8876433.20047  -6902133.02145  22562026.478    22562026.5574   22562032.8704
       157.0004        160.0004
     21873.07548     36847.51946  24414656.880    24414658.5394   24414668.3264
       172.0004        171.0004
     50001.82346     65791.62845  24563569.462    24563567.0184   24563573.7724
       128.0004        136.0004
 -15580188.35349 -12108759.90047  22090576.013    22090576.7404   22090583.7854
       212.0004        211.0004
 -19979013.97049 -15280950.61647  20503653.185    20503653.4814   20503659.1524
       208.0004        207.0004
 21  2  2  0 12  0.0000000  0  9G08G07G01G09G21G03G16G27G04
 -22933711.09549 -17851695.81547  20226252.597    20226252.7784   20226260.2264
       211.0004        211.0004
  -6843005.98847  -5320949.53146  23579156.313    23579156.2524   23579161.3114
       164.0004        166.0004
  -4927629.37347  -3809255.04645  23838239.304    23838240.1014   23838252.5774
       141.0004        144.0004
 -19030732.58549 -14797195.13947  20934243.935    20934243.9834   20934250.8904
       210.0004        210.0004
  -8924513.94247  -6939598.46445  22552879.308    22552878.5894   22552882.7834
       158.0004        160.0004
     75540.24048     78665.89446  24424869.838    24424870.7444   24424881.7584
       169.0004        169.0004
    126251.78046    125207.18745  24578076.068    24578074.9234   24578084.6474
       127.0004        135.0004
 -15494888.37949 -12042292.39547  22106808.419    22106808.9834   22106815.9904
       211.0004        211.0004
 -19937964.06449 -15248963.68447  20511464.407    20511464.9564   20511470.7894
       208.0004        206.0004
 21  2  2  0 12 30.0000000  0  9G08G07G01G09G21G03G16G27G04
 -22910397.23849 -17833529.17047  20230688.868    20230689.2394   20230696.6304
       211.0004        211.0004
  -6914001.56347  -5376270.74946  23565646.235    23565646.2394   23565650.4744
       163.0004        165.0004
  -5000065.81047  -3865698.90245  23824454.380    23824456.4884   23824468.0814
       141.0004        146.0004
 -19060792.80549 -14820618.68347  20928523.739    20928523.9404   20928530.1904
       210.0004        210.0004
  -8972446.45247  -6976948.40145  22543757.951    22543756.5624   22543761.8014
       159.0004        162.0004
    128990.71548    120315.42446  24435041.368    24435041.9674   24435052.2774
       169.0004        171.0004
    202339.76246    184496.46945  24592555.732    24592557.3274   24592560.7394
       127.0004        134.0004
 -15409218.44049 -11975536.60147  22123110.754    22123111.0264   22123118.8194
       211.0004        211.0004
 -19896384.74349 -15216564.22147  20519376.421    20519376.9704   20519382.7644
       208.0004        206.0004
 21  2  2  0 13  0.0000000  0  9G08G07G01G09G21G03G16G27G04
 -22886498.96449 -17814907.11047  20235236.257    20235236.6484   20235244.7244
       211.0004        211.0004
  -6985111.51248  -5431681.06246  23552114.246    23552115.2024   23552119.7994
       165.0004        168.0004
  -5072662.75247  -3922267.76545  23810640.193    23810641.5844   23810651.8684
       143.0004        148.0004
 -19090301.78549 -14843612.66647  20922908.077    20922908.6124   20922915.2014
       210.0004        210.0004
  -9020227.24347  -7014180.09645  22534664.115    22534663.6254   22534668.6454
       159.0004        160.0004
    182223.70748    161795.51146  24445172.444    24445173.4124   24445182.7024
       172.0004        174.0004
    278266.41146    243660.11545  24607003.447    24607003.0504   24607007.9874
       128.0004        134.0004
 -15323180.54349 -11908494.06447  22139483.770    22139483.8994   22139491.3734
       211.0004        211.0004
 -19854276.59649 -15183752.66447  20527389.653    20527390.3154   20527395.7384
       207.0004        206.0004
 21  2  2  0 13 30.0000000  0  9G08G07G01G09G21G03G16G27G04
 -22862018.15549 -17795831.16347  20239894.945    20239895.4014   20239903.2024
       210.0004        211.0004
  -7056335.68748  -5487180.41946  23538560.902    23538561.5824   23538565.2774
       167.0004        169.0004
  -5145418.65147  -3978960.53145  23796797.579    23796798.3844   23796807.6284
       142.0004        146.0004
 -19119259.39949 -14866177.04847  20917397.440    20917398.0094   20917404.8124
       210.0004        210.0004
  -9067854.68347  -7051292.34545  22525600.527    22525600.2454   22525605.2524
       159.0004        161.0004
    235236.70248    203104.15746  24455260.465    24455261.0964   24455270.9874
       173.0004        173.0004
    354030.17146    302696.78345  24621421.416    24621422.1734   24621427.3964
       127.0004        135.0004
 -15236778.40449 -11841167.71547  22155926.033    22155925.8714   22155932.8184
       211.0004        211.0004
 -19811641.97449 -15150530.89547  20535502.612    20535503.0134   20535509.0324
       207.0004        206.0004
 21  2  2  0 14  0.0000000  0  9G08G07G01G09G21G03G16G27G04
 -22836956.48649 -17776302.59747  20244664.157    20244664.5674   20244671.9444
       210.0004        211.0004
  -7127673.04248  -5542767.97546  23524984.745    23524985.7294   23524990.5644
       167.0004        168.0004
  -5218331.25647  -4035775.41045  23782922.882    23782923.1654   23782932.3514
       143.0004        147.0004
 -19147664.75049 -14888311.09647  20911992.203    20911991.9854   20911999.1874
       209.0004        209.0004
  -9115326.01747  -7088282.94045  22516567.474    22516567.9844   22516572.3904
       160.0004        162.0004
    288027.93248    244239.96846  24465307.540    24465306.6984   24465317.7994
       171.0004        172.0004
    429629.97046    361605.65945  24635806.370    24635804.1854   24635812.4734
       125.0004        133.0004
 -15150015.01549 -11773559.88547  22172436.851    22172436.3564   22172443.3354
       211.0004        211.0004
 -19768482.48849 -15116900.14447  20543716.134    20543716.3904   20543722.2574
       207.0004        206.0004
 21  2  2  0 14 30.0000000  0  9G08G07G01G09G21G03G16G27G04
 -22811314.97749 -17756322.16247  20249543.481    20249543.7754   20249551.1384
       210.0004        211.0004
  -7199122.15148  -5598442.54746  23511388.921    23511389.4124   23511394.3514
       166.0004        168.0004
  -5291398.36347  -4092710.66745  23769016.308    23769017.4034   23769028.8624
       143.0004        147.0004
 -19175517.02849 -14910014.15247  20906692.668    20906693.0394   20906699.0264
       210.0004        211.0004
  -9162638.58547  -7125149.77246  22507565.038    22507563.8764   22507568.9254
       161.0004        163.0004
    340595.47048    285201.47346  24475308.811    24475309.7664   24475321.5874
       170.0004        171.0004
    505065.48946    420386.59745  24650163.795    24650164.3434   24650165.3194
       125.0004        133.0004
 -15062893.50749 -11705672.97047  22189013.913    22189014.5254   22189021.8994
       211.0004        211.0004
 -19724799.90849 -15082861.74847  20552028.168    20552028.6104   20552034.6354
       207.0004        206.0004
 21  2  2  0 15  0.0000000  0  9G08G07G01G09G21G03G16G27G04
 -22785095.56549 -17735891.43447  20254532.781    20254533.1854   20254540.6284
       210.0004        211.0004
  -7270682.89648  -5654204.14046  23497772.708    23497773.0914   23497777.1804
       167.0004        169.0004
  -5364618.06847  -4149764.81945  23755082.962    23755085.2394   23755094.4874
       143.0004        147.0004
 -19202815.84549 -14931285.95847  20901497.461    20901497.8134   20901504.1694
       211.0004        211.0004
  -9209789.83547  -7161890.93346  22498592.093    22498591.7154   22498596.3504
       162.0004        164.0004
    392937.17048    325987.01646  24485269.971    24485270.2094   24485281.8474
       168.0004        168.0004
    580335.65346    479038.71645  24664487.774    24664487.2464   24664490.9404
       127.0004        135.0004
 -14975417.29549 -11637509.69147  22205660.665    22205661.3874   22205667.6384
       210.0004        211.0004
 -19680596.31549 -15048417.38847  20560440.042    20560440.2404   20560446.2444
       207.0004        206.0004
 21  2  2  0 15 30.0000000  0  9G08G07G01G09G21G03G16G27G04
 -22758299.04449 -17715011.02247  20259632.399    20259632.5984   20259639.8024
       210.0004        211.0004
  -7342353.04848  -5710051.02046  23484134.041    23484135.3294   23484137.9514
       169.0004        171.0004
  -5437987.33047  -4206935.53145  23741122.924    23741123.3714   23741133.6124
       145.0004        149.0004
 -19229559.64349 -14952125.28147  20896407.952    20896408.3814   20896415.3024
       211.0004        211.0004
  -9256776.39347  -7198503.78846  22489651.462    22489650.1694   22489655.1434
       163.0004        165.0004
    445052.03448    366595.76846  24495187.857    24495188.7074   24495198.7074
       169.0004        171.0004
    655440.27746    537561.75145  24678778.795    24678779.2774   24678785.2474
       131.0004        139.0004
 -14887588.70449 -11569071.81747  22222375.040    22222374.6584   22222380.7464
       211.0004        210.0004
 -19635872.58749 -15013567.74047  20568950.322    20568951.1414   20568956.7334
       207.0004        205.0004
 21  2  2  0 16  0.0000000  0  9G08G07G01G09G21G03G16G27G04
 -22730926.70749 -17693681.91747  20264840.894    20264841.5124   20264848.4934
       210.0004        211.0004
  -7414131.48648  -5765982.26846  23470474.338    23470474.7184   23470478.9704
       169.0004        169.0004
  -5511503.97347  -4264221.07245  23727131.334    23727133.0794   23727143.2854
       146.0004        150.0004
 -19255747.70049 -14972531.55247  20891424.801    20891425.0614   20891431.5134
       210.0004        211.0004
  -9303596.14547  -7234986.65646  22480740.065    22480739.6484   22480744.4904
       162.0004        163.0004
    496938.18348    407026.30946  24505059.698    24505060.8844   24505071.8474
       168.0004        169.0004
    730378.37946    595955.04945  24693040.680    24693040.0964   24693044.5354
       134.0004        140.0004
 -14799410.76149 -11500361.73247  22239154.940    22239154.6924   22239160.3004
       210.0004        210.0004
 -19590630.54549 -14978314.20547  20577559.647    20577560.1434   20577565.8444
       206.0004        205.0004
 21  2  2  0 16 30.0000000  0  9G08G07G01G09G21G03G16G27G04
 -22702980.39049 -17671905.56047  20270159.099    20270159.3864   20270166.5804
       210.0004        210.0004
  -7486016.79748  -5821996.79246  23456795.310    23456796.0734   23456799.9194
       168.0004        170.0004
  -5585165.41547  -4321619.42945  23713114.858    23713115.3214   23713125.7204
       146.0004        151.0004
 -19281379.00149 -14992504.00647  20886547.839    20886547.9794   20886554.2204
       210.0004        211.0004
  -9350245.85647  -7271337.01946  22471861.949    22471862.8034   22471868.7374
       162.0004        163.0004
    548594.18048    447277.53046  24514890.454    24514891.6664   24514902.9534
       168.0004        170.0004
    805149.62846    654218.38445  24707266.829    24707267.4324   24707273.3114
       132.0004        138.0004
 -14710886.33149 -11431381.64447  22255999.104    22255999.6264   22256006.7134
       210.0004        210.0004
 -19544871.67649 -14942657.95847  20586267.545    20586267.8854   20586273.9544
       206.0004        205.0004
 21  2  2  0 17  0.0000000  0  8G08G07G01G09G21G03G27G04
 -22674458.92449 -17649681.03147  20275586.810    20275586.8974   20275593.8564
       210.0004        211.0004
  -7558005.94148  -5878092.22346  23443095.574    23443095.3674   23443100.4384
       168.0004        167.0004
  -5658967.36447  -4379127.29445  23699068.367    23699071.2164   23699081.8534
       147.0004        150.0004
 -19306450.90349 -15012040.56447  20881776.750    20881776.9954   20881783.2044
       211.0004        211.0004
  -9396720.88447  -7307551.30146  22463018.351    22463019.1994   22463025.6084
       163.0004        165.0004
    600020.21148    487349.55446  24524677.286    24524677.9934   24524690.3654
       169.0004        170.0004
 -14622016.51449 -11362132.45347  22272910.516    22272911.2274   22272917.9764
       211.0004        210.0004
 -19498595.83449 -14906598.86947  20595072.940    20595073.5204   20595079.8774
       205.0004        204.0004
 21  2  2  0 17 30.0000000  0  8G08G07G01G09G21G03G27G04
 -22645365.56749 -17627010.84347  20281122.648    20281123.1584   20281130.2184
       210.0004        210.0004
  -7630098.59848  -5934268.25446  23429376.388    23429377.2624   23429382.0724
       167.0004        169.0004
  -5732908.71147  -4436743.75045  23685002.015    23685001.4764   23685010.8444
       147.0004        150.0004
 -19330963.87449 -15031141.55447  20877111.530    20877112.1004   20877118.5314
       211.0004        211.0004
  -9443019.71047  -7343628.24146  22454208.483    22454208.9744   22454214.8654
       163.0004        164.0004
    651213.37948    527240.10446  24534418.853    24534419.5784   24534430.7584
       168.0004        169.0004
 -14532805.59649 -11292617.41847  22289886.844    22289887.7874   22289894.3184
       211.0004        210.0004
 -19451805.97949 -14870139.22047  20603977.297    20603977.7544   20603983.5404
       205.0004        204.0004
 21  2  2  0 18  0.0000000  0  8G08G07G01G09G21G03G27G04
 -22615702.70349 -17603896.92947  20286767.524    20286768.0914   20286774.6984
       210.0004        211.0004
  -7702295.42648  -5990525.52446  23415640.072    23415639.7454   23415644.2194
       171.0004        174.0004
  -5806988.49247  -4494468.09545  23670902.578    23670904.2644   23670913.4804
       148.0004        151.0004
 -19354918.63349 -15049807.63047  20872552.831    20872553.4224   20872559.9614
       211.0004        211.0004
  -9489141.08047  -7379566.93446  22445432.383    22445432.6964   22445437.3184
       163.0004        165.0004
    702170.53448    566946.74546  24544117.973    24544117.6254   24544128.0914
       167.0004        168.0004
 -14443257.93849 -11222840.03347  22306928.493    22306928.3304   22306934.8004
       211.0004        211.0004
 -19404505.32149 -14833281.58747  20612978.721    20612978.8974   20612984.4734
       205.0004        203.0004
 21  2  2  0 18 30.0000000  0  8G08G07G01G09G21G03G27G04
 -22585473.66749 -17580341.80447  20292520.178    20292520.3604   20292527.1124
       210.0004        211.0004
  -7774596.17448  -6046863.76146  23401881.017    23401881.2654   23401886.0944
       174.0004        174.0004
  -5881205.38647  -4552299.29745  23656780.307    23656781.0924   23656789.3644
       149.0004        152.0004
 -19378315.58349 -15068039.00747  20868101.043    20868101.3664   20868107.5474
       211.0004        211.0004
  -9535083.80047  -7415366.40046  22436689.643    22436689.0634   22436694.9224
       164.0004        165.0004
    752888.94048    606467.34246  24553767.731    24553768.4244   24553780.6554
       169.0004        171.0004
 -14353377.72049 -11152803.48347  22324031.006    22324031.4724   22324038.3774
       211.0004        210.0004
 -19356696.77249 -14796028.15847  20622075.500    20622076.2804   20622081.5554
       204.0004        203.0004
 21  2  2  0 19  0.0000000  0  8G08G07G01G09G21G03G27G04
 -22554677.28349 -17556344.61447  20298380.389    20298380.4774   20298387.9214
       210.0004        211.0004
  -7846996.96148  -6103279.94746  23388101.892    23388103.8224   23388107.5124
       172.0004        172.0004
  -5955554.60947  -4610233.61545  23642632.940    23642633.0354   23642642.0954
       149.0004        152.0004
 -19401151.65649 -15085833.35347  20863755.472    20863755.6274   20863762.3444
       211.0004        212.0004
  -9580842.01747  -7451022.11846  22427981.837    22427981.4444   22427988.5484
       164.0004        166.0004
    803369.40648    645802.49846  24563374.297    24563374.2054   24563386.4594
       167.0004        168.0004
 -14263165.61749 -11082508.33547  22341196.979    22341197.7834   22341205.3574
       210.0004        210.0004
 -19308379.73049 -14758378.52747  20631271.177    20631271.0294   20631276.2914
       204.0004        203.0004
 21  2  2  0 19 30.0000000  0  8G08G07G01G09G21G03G27G04
 -22523315.04949 -17531906.50947  20304348.358    20304348.8874   20304355.9284
       210.0004        211.0004
  -7919496.13348  -6159772.82746  23374308.743    23374308.5484   23374311.9104
       173.0004        174.0004
  -6030033.40747  -4668268.88745  23628459.875    23628460.5654   23628467.9824
       149.0004        153.0004
 -19423425.90649 -15103189.93147  20859517.083    20859517.3784   20859523.8414
       211.0004        212.0004
  -9626413.36247  -7486532.24046  22419310.675    22419310.2724   22419315.5554
       164.0004        165.0004
    853610.58947    684951.20646  24572932.823    24572933.9224   24572946.0334
       163.0004        164.0004
 -14172624.25149 -11011956.64147  22358427.502    22358427.5214   22358434.1154
       210.0004        209.0004
 -19259555.72549 -14720333.86747  20640560.967    20640561.5454   20640567.5304
       204.0004        203.0004
 21  2  2  0 20  0.0000000  0  8G08G07G01G09G21G03G27G04
 -22491389.69649 -17507029.58347  20310423.627    20310423.9864   20310431.2354
       211.0004        211.0004
  -7992094.12048  -6216342.66246  23360492.294    23360491.0094   23360496.2444
       171.0004        169.0004
  -6104640.81147  -4726404.37145  23614263.029    23614263.0464   23614271.4994
       150.0004        154.0004
 -19445139.16149 -15120109.32947  20855384.823    20855385.0004   20855391.9354
       211.0004        211.0004
  -9671796.37147  -7521895.55846  22410673.631    22410673.4214   22410678.6714
       164.0004        164.0004
    903609.48948    723911.15046  24582449.831    24582450.4044   24582460.9884
       165.0004        167.0004
 -14081758.17849 -10941151.87947  22375718.054    22375719.0164   22375725.0984
       208.0004        208.0004
 -19210228.04949 -14681896.70347  20649948.049    20649948.4484   20649954.3504
       204.0004        203.0004
 21  2  2  0 20 30.0000000  0  8G08G07G01G09G21G03G27G04
 -22458902.14149 -17481714.59447  20316605.484    20316605.7374   20316613.3184
       211.0004        211.0004
  -8064787.83548  -6272987.09546  23346659.110    23346659.3174   23346662.8364
       169.0004        170.0004
  -6179373.41847  -4784637.39445  23600042.694    23600042.5354   23600049.5254
       151.0004        155.0004
 -19466289.82349 -15136590.36647  20851360.186    20851360.2584   20851367.1194
       211.0004        212.0004
  -9716987.53147  -7557109.40846  22402075.129    22402074.3224   22402079.8164
       164.0004        165.0004
    953365.42248    762681.76646  24591919.008    24591919.4054   24591929.5084
       168.0004        171.0004
 -13990569.42549 -10870095.69147  22393070.883    22393071.4204   22393077.9064
       209.0004        208.0004
 -19160397.54649 -14643067.73847  20659430.713    20659430.8444   20659436.7044
       204.0004        203.0004
 21  2  2  0 21  0.0000000  0  8G08G07G01G09G21G03G27G04
 -22425854.61349 -17455963.25247  20322894.200    20322895.0454   20322901.5694
       210.0004        211.0004
  -8137577.62248  -6329706.41446  23332806.763    23332807.6064   23332812.1734
       170.0004        172.0004
  -6254229.48647  -4842966.67645  23585797.693    23585797.4964   23585805.2134
       153.0004        156.0004
 -19486878.14349 -15152633.20847  20847442.156    20847442.5054   20847448.9254
       211.0004        212.0004
  -9761984.74247  -7592172.11846  22393512.301    22393511.2984   22393517.4884
       164.0004        165.0004
   1002875.99548    801261.16546  24601340.132    24601340.4254   24601351.5174
       170.0004        172.0004
 -13899061.82549 -10798791.06447  22410483.491    22410484.3724   22410491.2484
       208.0004        207.0004
 -19110066.97549 -14603849.11247  20669007.519    20669008.6504   20669014.2794
       204.0004        202.0004
 21  2  2  0 21 30.0000000  0  8G08G07G01G09G21G03G27G04
 -22392248.34549 -17429776.55447  20329290.035    20329289.7494   20329297.0054
       210.0004        210.0004
  -8210461.41648  -6386498.97446  23318938.106    23318938.3874   23318943.2954
       171.0004        172.0004
  -6329206.04047  -4901389.78545  23571527.548    23571528.4984   23571537.5454
       153.0004        155.0004
 -19506903.02449 -15168237.01747  20843630.948    20843631.7624   20843638.6724
       211.0004        212.0004
  -9806784.39548  -7627080.90746  22384988.013    22384986.5154   22384991.6174
       165.0004        166.0004
   1052140.16348    839648.62046  24610714.524    24610714.8884   24610726.6994
       168.0004        170.0004
 -13807237.89249 -10727239.95247  22427957.602    22427958.3474   22427964.9984
       207.0004        207.0004
 -19059237.68349 -14564241.88347  20678680.696    20678680.8574   20678686.4824
       203.0004        202.0004
 21  2  2  0 22  0.0000000  0  8G08G07G01G09G21G03G27G04
 -22358083.70649 -17403154.73547  20335791.642    20335791.0104   20335798.2174
       210.0004        211.0004
  -8283436.18648  -6443362.38046  23305051.193    23305052.3514   23305056.2114
       172.0004        173.0004
  -6404298.76847  -4959903.45145  23557239.509    23557239.4204   23557246.9774
       152.0004        155.0004
 -19526362.19149 -15183399.98647  20839928.466    20839928.7724   20839935.7254
       212.0004        212.0004
  -9851382.56748  -7661832.66446  22376500.884    22376501.0984   22376504.5524
       165.0004        166.0004
   1101158.19748    877844.24246  24620042.869    24620043.1924   24620054.8334
       170.0004        171.0004
 -13715098.90749 -10655443.31847  22445492.022    22445491.8254   22445497.7604
       207.0004        207.0004
 -19007909.81549 -14524246.13447  20688447.600    20688447.9904   20688454.0124
       203.0004        202.0004
 21  2  2  0 22 30.0000000  0  8G08G07G01G09G21G03G27G04
 -22323360.16049 -17376097.43647  20342398.824    20342398.4644   20342405.7994
       210.0004        211.0004
  -8356498.27748  -6500293.87946  23291147.296    23291147.6024   23291151.8254
       171.0004        170.0004
  -6479503.26947  -5018504.21245  23542926.878    23542927.9024   23542936.6934
       151.0004        154.0004
 -19545253.12349 -15198120.20847  20836333.702    20836334.0594   20836340.6614
       212.0004        212.0004
  -9895774.61948  -7696423.81646  22368052.881    22368051.9224   22368058.0144
       165.0004        164.0004
   1149930.54048    915848.41146  24629323.592    24629324.4594   24629336.1514
       169.0004        170.0004
 -13622645.90049 -10583402.00547  22463085.165    22463085.0964   22463091.2814
       207.0004        206.0004
 -18956083.35549 -14483861.89547  20698309.840    20698310.1714   20698316.2224
       203.0004        201.0004
 21  2  2  0 23  0.0000000  0  8G08G07G01G09G21G03G27G04
 -22288084.09649 -17348609.59647  20349110.922    20349111.3954   20349118.5014
       210.0004        210.0004
  -8429651.71348  -6557296.58246  23277227.802    23277227.8104   23277231.1354
       170.0004        171.0004
  -6554822.15547  -5077194.16245  23528594.741    23528595.6664   23528603.8824
       152.0004        155.0004
 -19563580.59849 -15212401.37847  20832845.671    20832846.2524   20832853.3374
       212.0004        212.0004
  -9939962.80047  -7730856.12846  22359642.941    22359642.5714   22359647.9084
       164.0004        165.0004
   1198450.37148    953655.80446  24638555.493    24638556.3954   24638569.6124
       168.0004        168.0004
 -13529887.09549 -10511122.42547  22480736.938    22480736.7054   22480742.7694
       207.0004        207.0004
 -18903765.46249 -14443094.71547  20708265.311    20708265.8334   20708272.2024
       202.0004        201.0004
 21  2  2  0 23 30.0000000  0  8G08G07G01G09G21G03G27G04
 -22252257.69249 -17320692.89747  20355928.419    20355928.5954   20355936.3974
       210.0004        210.0004
  -8502894.65848  -6614368.95446  23263289.922    23263291.1834   23263295.3474
       172.0004        174.0004
  -6630252.61147  -5135970.97745  23514239.895    23514240.4334   23514251.1284
       153.0004        156.0004
 -19581343.78349 -15226242.80847  20829465.810    20829466.3254   20829472.7524
       212.0004        212.0004
  -9983943.81148  -7765126.99846  22351274.631    22351273.9934   22351279.7954
       165.0004        166.0004
   1246716.66248    991265.64846  24647740.839    24647742.4194   24647754.1354
       167.0004        168.0004
 -13436825.25049 -10438606.69347  22498446.210    22498446.1554   22498452.6374
       207.0004        207.0004
 -18850957.71149 -14401945.81547  20718315.112    20718315.3614   20718321.3754
       202.0004        201.0004
 21  2  2  0 24  0.0000000  0  8G08G07G01G09G21G03G27G04
 -22215881.96649 -17292348.14447  20362849.981    20362850.7534   20362858.4054
       210.0004        210.0004
  -8576225.01148  -6671509.45346  23249335.461    23249335.6264   23249339.0214
       171.0004        170.0004
  -6705791.48847  -5194832.31745  23499865.199    23499866.4964   23499876.0674
       154.0004        156.0004
 -19598541.70349 -15239643.76348  20826192.821    20826193.6074   20826200.1704
       212.0004        213.0004
 -10027714.93948  -7799234.30046  22342945.564    22342944.7954   22342949.0424
       165.0004        165.0004
   1294728.34548   1028677.09346  24656879.303    24656879.5864   24656892.5574
       170.0004        172.0004
 -13343462.85149 -10365856.73547  22516211.665    22516211.9334   22516218.6224
       207.0004        206.0004
 -18797661.62449 -14360416.38147  20728456.967    20728457.2864   20728463.1014
       203.0004        201.0004
 21  2  2  0 24 30.0000000  0  8G08G07G01G09G21G03G27G04
 -22178957.80849 -17263576.07547  20369877.329    20369877.6124   20369884.8294
       210.0004        210.0004
  -8649640.70848  -6728716.48746  23235365.297    23235365.3414   23235368.9224
       168.0004        170.0004
  -6781435.56347  -5253775.66345  23485470.862    23485472.3524   23485480.0994
       155.0004        157.0004
 -19615173.25849 -15252603.42748  20823028.674    20823028.7094   20823035.6044
       212.0004        213.0004
 -10071272.43347  -7833175.16546  22334655.779    22334655.7904   22334660.5474
       164.0004        166.0004
   1342484.66148   1065889.51246  24665965.861    24665967.0304   24665979.4354
       171.0004        172.0004
 -13249802.18049 -10292874.40147  22534034.463    22534035.0514   22534041.3624
       206.0004        205.0004
 -18743878.50249 -14318507.46747  20738690.963    20738692.0114   20738697.5184
       202.0004        201.0004
 21  2  2  0 25  0.0000000  0  8G08G07G01G09G21G03G27G04
 -22141487.26849 -17234378.23547  20377007.559    20377007.9694   20377015.0724
       210.0004        210.0004
  -8723140.13848  -6785988.74646  23221379.793    23221379.4674   23221383.3814
       171.0004        173.0004
  -6857182.12147  -5312798.81645  23471054.911    23471056.1074   23471065.3254
       152.0004        153.0004
 -19631237.95249 -15265121.35947  20819970.810    20819971.4624   20819978.3604
       212.0004        212.0004
 -10114613.73648  -7866947.55646  22326408.631    22326409.1004   22326412.7684
       165.0004        167.0004
   1389984.28548   1102901.94046  24675005.392    24675006.0214   24675018.1544
       170.0004        171.0004
 -13155846.18349 -10219661.92947  22551913.910    22551913.9294   22551920.7244
       205.0004        204.0004
 -18689610.23349 -14276220.50247  20749018.507    20749018.6124   20749024.5854
       202.0004        201.0004
 21  2  2  0 25 30.0000000  0  8G08G07G01G09G21G03G27G04
 -22103471.90449 -17204755.86147  20384241.510    20384241.8624   20384249.2874
       210.0004        210.0004
  -8796722.09648  -6843325.32746  23207375.532    23207376.5654   23207380.6604
       170.0004        169.0004
  -6933028.68647  -5371899.93445  23456622.472    23456623.3844   23456633.1744
       153.0004        156.0004
 -19646735.53449 -15277197.40147  20817022.209    20817022.5704   20817029.0044
       212.0004        212.0004
 -10157736.27748  -7900549.50746  22318203.465    22318202.3244   22318207.5654
       166.0004        167.0004
   1437225.64448   1139713.10646  24683995.735    24683995.9554   24684007.2614
       168.0004        169.0004
 -13061598.02349 -10146221.81047  22569848.857    22569849.2104   22569855.7234
       204.0004        204.0004
 -18634859.00849 -14233557.21447  20759437.217    20759437.4334   20759443.4644
       203.0004        201.0004
 21  2  2  0 26  0.0000000  0  8G08G07G01G09G21G03G27G04
 -22064912.37249 -17174709.46847  20391579.424    20391579.5474   20391586.6574
       209.0004        209.0004
  -8870383.96548  -6900724.17046  23193358.136    23193358.7194   23193362.8854
       169.0004        171.0004
  -7008971.42547  -5431075.99145  23442171.382    23442171.9034   23442181.6334
       153.0004        156.0004
 -19661664.48849 -15288830.34847  20814181.067    20814181.7024   20814188.4914
       212.0004        212.0004
 -10200636.10948  -7933977.90646  22310039.728    22310038.6794   22310043.4024
       165.0004        165.0004
   1484208.43248   1176322.80346  24692935.935    24692936.3784   24692948.7884
       167.0004        168.0004
 -12967059.54749 -10072555.46647  22587837.972    22587838.9504   22587845.5714
       204.0004        203.0004
 -18579625.67449 -14190518.25347  20769947.427    20769948.0294   20769954.1004
       202.0004        200.0004
 21  2  2  0 26 30.0000000  0  8G08G07G01G09G21G03G27G04
 -22025811.63849 -17144241.37247  20399020.166    20399020.3084   20399027.3954
       209.0004        210.0004
  -8944124.86048  -6958184.59946  23179326.594    23179327.1754   23179331.1584
       171.0004        172.0004
  -7085008.55347  -5490325.60545  23427702.468    23427703.6604   23427712.5344
       152.0004        155.0004
 -19676025.24149 -15300020.56448  20811448.686    20811449.2054   20811455.6804
       212.0004        213.0004
 -10243311.27747  -7967231.24746  22301918.613    22301918.2764   22301923.3954
       164.0004        165.0004
   1530930.60248   1212729.38746  24701827.733    24701828.3164   24701841.4944
       169.0004        171.0004
 -12872234.55749  -9998665.87847  22605882.638    22605883.0084   22605890.4114
       203.0004        203.0004
 -18523913.04249 -14147105.83847  20780549.254    20780549.6534   20780556.0404
       202.0004        200.0004
 21  2  2  0 27  0.0000000  0  8G08G07G01G09G21G03G27G04
 -21986172.05649 -17113353.35747  20406563.103    20406563.3124   20406570.3014
       209.0004        209.0004
  -9017943.85648  -7015705.87846  23165278.856    23165279.8304   23165283.7964
       170.0004        171.0004
  -7161137.89147  -5549647.08845  23413215.332    23413216.6454   23413225.3904
       154.0004        156.0004
 -19689818.08249 -15310768.21348  20808824.026    20808824.1554   20808830.8444
       213.0004        213.0004
 -10285759.16747  -8000307.48646  22293841.483    22293841.1354   22293845.1724
       164.0004        166.0004
   1577390.06348   1248931.25146  24710668.354    24710668.7444   24710682.6474
       168.0004        169.0004
 -12777126.61549  -9924555.78147  22623981.791    22623981.6054   22623988.8844
       203.0004        203.0004
 -18467723.78649 -14103321.99047  20791241.548    20791242.3304   20791247.9144
       202.0004        200.0004
 21  2  2  0 27 30.0000000  0  8G08G07G01G09G21G03G27G04
 -21945996.05049 -17082047.35647  20414207.621    20414208.0724   20414215.8724
       209.0004        209.0004
  -9091839.64248  -7073286.99046  23151218.138    23151218.5154   23151221.8414
       170.0004        172.0004
  -7237357.13747  -5609038.60445  23398712.566    23398712.5114   23398721.1844
       153.0004        155.0004
 -19703042.99249 -15321073.33248  20806306.914    20806307.4944   20806314.1894
       212.0004        213.0004
 -10327978.20947  -8033205.39345  22285804.755    22285803.9344   22285810.8644
       162.0004        162.0004
   1623585.27548   1284927.24446  24719457.661    24719458.7474   24719472.6754
       166.0004        168.0004
 -12681738.99049  -9850227.76147  22642134.541    22642133.7494   22642140.6534
       202.0004        203.0004
 -18411060.24749 -14059168.58547  20802025.153    20802025.3274   20802030.7694
       201.0004        200.0004
 21  2  2  0 28  0.0000000  0  8G08G07G01G09G21G03G27G04
 -21905284.94449 -17050324.39547  20421955.765    20421956.1044   20421963.1134
       209.0004        210.0004
  -9165810.36348  -7130926.47846  23137140.769    23137141.1874   23137146.3274
       171.0004        172.0004
  -7313663.30047  -5668497.87245  23384189.357    23384190.4164   23384199.9784
       151.0004        153.0004
 -19715699.46649 -15330935.51248  20803899.012    20803899.3204   20803905.8384
       213.0004        214.0004
 -10369964.76047  -8065922.10445  22277813.874    22277814.1674   22277821.0674
       160.0004        162.0004
   1669515.03948   1320716.38146  24728201.458    24728201.5754   24728213.8684
       169.0004        171.0004
 -12586074.49449  -9775683.99747  22660336.702    22660337.6824   22660344.6874
       202.0004        201.0004
 -18353924.34349 -14014647.08247  20812897.259    20812897.5834   20812903.8054
       202.0004        201.0004
 21  2  2  0 28 30.0000000  0  8G08G07G01G09G21G03G27G04
 -21864040.61849 -17018185.95747  20429803.217    20429803.9674   20429811.8344
       209.0004        209.0004
  -9239854.47948  -7188623.18046  23123050.495    23123051.1724   23123055.3284
       171.0004        172.0004
  -7390053.68047  -5728022.77345  23369654.707    23369654.1674   23369663.1464
       150.0004        153.0004
 -19727787.17449 -15340354.51648  20801598.680    20801599.0014   20801605.8684
       213.0004        213.0004
 -10411716.33747  -8098455.79446  22269874.106    22269873.5834   22269876.0394
       164.0004        169.0004
   1715178.18548   1356297.70346  24736890.568    24736891.4684   24736901.9084
       170.0004        170.0004
 -12490135.99349  -9700926.73547  22678594.688    22678594.0404   22678600.6444
       201.0004        200.0004
 -18296318.03849 -13969759.06247  20823859.180    20823859.9144   20823865.8824
       202.0004        201.0004
 21  2  2  0 29  0.0000000  0  8G08G07G01G09G21G03G27G04
 -21822264.77949 -16985633.37647  20437753.457    20437753.7784   20437760.9764
       209.0004        209.0004
  -9313970.35648  -7246375.83446  23108947.226    23108947.6674   23108951.5404
       171.0004        173.0004
  -7466525.39947  -5787611.07445  23355102.434    23355102.3104   23355111.4324
       151.0004        154.0004
 -19739305.83349 -15349330.12948  20799406.466    20799407.1334   20799413.7474
       213.0004        213.0004
 -10453230.08548  -8130804.20846  22261973.637    22261973.4764   22261976.3184
       168.0004        170.0004
   1760573.44548   1391670.26746  24745527.547    24745527.7964   24745540.0954
       167.0004        166.0004
 -12393926.42949  -9625958.27847  22696900.633    22696902.5534   22696908.9654
       200.0004        200.0004
 -18238243.39649 -13924506.13047  20834910.862    20834911.0444   20834917.0754
       202.0004        200.0004
 21  2  2  0 29 30.0000000  0  8G08G07G01G09G21G03G27G04
 -21779960.05149 -16952668.61747  20445803.757    20445804.1614   20445811.3894
       209.0004        209.0004
  -9388156.25948  -7304183.00046  23094830.957    23094830.8764   23094835.0724
       173.0004        174.0004
  -7543075.84047  -5847260.63945  23340535.131    23340536.0484   23340544.1594
       152.0004        154.0004
 -19750255.30749 -15357862.16948  20797322.614    20797323.4434   20797329.9074
       212.0004        213.0004
 -10494503.31948  -8162965.13446  22254117.365    22254117.2764   22254122.9484
       167.0004        166.0004
   1805699.39148   1426833.05946  24754115.851    24754115.4904   24754128.6644
       165.0004        167.0004
 -12297448.91149  -9550780.95647  22715260.745    22715262.2424   22715267.6034
       201.0004        201.0004
 -18179702.67749 -13878889.96247  20846049.756    20846050.5754   20846057.2994
       201.0004        200.0004
 21  2  2  0 30  0.0000000  0  8G08G07G01G09G21G03G27G04
 -21737127.99949 -16919292.98247  20453954.508    20453955.0384   20453961.9704
       209.0004        210.0004
  -9462410.65548  -7362043.55046  23080699.172    23080700.5004   23080703.9034
       172.0004        174.0004
  -7619702.18247  -5906969.41145  23325953.294    23325953.1664   23325962.7764
       151.0004        153.0004
 -19760635.39349 -15365950.54048  20795348.137    20795348.3084   20795354.5094
       212.0004        213.0004
 -10535533.38047  -8194936.54146  22246306.798    22246306.9964   22246314.1854
       163.0004        163.0004
   1850554.86748   1461785.07146  24762652.539    24762652.4934   24762665.4964
       168.0004        170.0004
 -12200706.32849  -9475397.12547  22733671.238    22733671.5034   22733677.4094
       201.0004        201.0004
 -18120698.01649 -13832912.30747  20857278.732    20857279.1034   20857285.3694
       201.0004        200.0004
 21  2  2  0 30 30.0000000  0  8G08G07G01G09G21G03G27G04
 -21693770.00349 -16885507.51247  20462205.385    20462205.7074   20462212.8784
       209.0004        210.0004
  -9536731.47648  -7419955.86846  23066556.367    23066556.7334   23066561.7054
       174.0004        176.0004
  -7696401.29647  -5966734.87645  23311358.487    23311358.6184   23311366.3594
       151.0004        154.0004
 -19770445.50649 -15373594.77848  20793480.802    20793481.3854   20793488.2944
       213.0004        214.0004
 -10576316.91247  -8226715.86246  22238547.542    22238547.6704   22238553.6194
       163.0004        165.0004
   1895139.00548   1496525.65946  24771135.053    24771135.4734   24771150.4654
       169.0004        170.0004
 -12103701.27349  -9399808.76747  22752130.724    22752130.9594   22752136.8984
       201.0004        200.0004
 -18061231.02249 -13786574.38747  20868594.693    20868594.8284   20868600.7774
       201.0004        199.0004
 21  2  2  0 31  0.0000000  0  8G08G07G01G09G21G03G27G04
 -21649888.52049 -16851314.14747  20470555.608    20470555.8954   20470563.0194
       209.0004        209.0004
  -9611117.46748  -7477918.95946  23052401.939    23052402.8244   23052406.3194
       175.0004        178.0004
  -7773170.76147  -6026555.16645  23296749.175    23296749.4394   23296758.8884
       152.0004        155.0004
 -19779685.90649 -15380795.09448  20791722.539    20791723.0134   20791729.7094
       213.0004        213.0004
 -10616852.02348  -8258301.64546  22230835.582    22230835.4874   22230839.7464
       165.0004        167.0004
   1939450.14948   1531053.52846  24779568.942    24779569.0454   24779581.6474
       169.0004        170.0004
 -12006437.07449  -9324018.50147  22770639.375    22770639.2404   22770645.3394
       200.0004        199.0004
 -18001304.36949 -13739878.29847  20879998.492    20879998.9484   20880004.9294
       201.0004        199.0004
 21  2  2  0 31 30.0000000  0  8G08G07G01G09G21G03G27G04
 -21605486.81649 -16816715.41047  20479004.708    20479005.0464   20479012.3974
       209.0004        209.0004
  -9685567.20048  -7535931.73246  23038235.383    23038235.6654   23038239.7734
       177.0004        178.0004
  -7850008.26847  -6086428.48845  23282126.350    23282127.2974   23282136.1364
       152.0004        155.0004
 -19788357.00449 -15387551.80448  20790072.426    20790073.0074   20790079.6324
       213.0004        213.0004
 -10657136.31048  -8289691.97946  22223171.008    22223169.6364   22223173.8554
       167.0004        170.0004
   1983486.55648   1565367.27846  24787948.385    24787948.4434   24787961.6384
       169.0004        170.0004
 -11908917.24749  -9248029.02547  22789196.883    22789196.7204   22789202.6144
       199.0004        199.0004
 -17940920.68949 -13692826.08447  20891489.541    20891489.5694   20891495.2974
       201.0004        199.0004
 21  2  2  0 32  0.0000000  0  7G08G07G01G09G21G27G04
 -21560557.81749 -16781705.80147  20487554.195    20487554.8224   20487562.3974
       208.0004        209.0004
  -9760071.17448  -7593986.75546  23024057.254    23024058.0104   23024061.3534
       176.0004        177.0004
  -7926902.92347  -6146346.32545  23267493.470    23267494.6214   23267504.0344
       153.0004        155.0004
 -19796450.60049 -15393858.50848  20788531.998    20788532.5304   20788539.3934
       213.0004        213.0004
 -10697159.04148  -8320878.52246  22215555.018    22215554.1304   22215557.5244
       170.0004        171.0004
 -11811136.64549  -9171836.35947  22807804.097    22807804.2634   22807810.1954
       200.0004        202.0004
 -17880074.12549 -13645413.18447  20903068.031    20903068.4134   20903073.8324
       201.0004        199.0004
 21  2  2  0 32 30.0000000  0  7G08G07G01G09G21G27G04
 -21515112.35449 -16746293.73247  20496202.733    20496203.3524   20496210.3934
       209.0004        209.0004
  -9834635.72648  -7652088.99246  23009868.235    23009867.8084   23009871.7444
       177.0004        178.0004
  -8003860.01247  -6206312.82445  23252850.027    23252851.0104   23252858.5864
       152.0004        154.0004
 -19803974.72949 -15399721.45948  20787101.133    20787101.3004   20787107.5044
       213.0004        214.0004
 -10736925.42848  -8351865.28146  22207986.495    22207986.4164   22207991.8504
       170.0004        169.0004
 -11713106.39349  -9095449.14147  22826457.391    22826458.7404   22826463.7484
       200.0004        199.0004
 -17818774.97149 -13597647.59447  20914733.053    20914733.3634   20914738.8454
       201.0004        199.0004
 21  2  2  0 33  0.0000000  0  7G08G07G01G09G21G27G04
 -21469155.99949 -16710483.57347  20504947.766    20504948.0734   20504955.4804
       209.0004        209.0004
  -9909262.64648  -7710239.81646  22995666.287    22995666.9524   22995671.3204
       178.0004        180.0004
  -8080880.51747  -6266328.71745  23238193.319    23238194.6854   23238202.4774
       154.0004        158.0004
 -19810933.17949 -15405143.62448  20785776.411    20785776.7314   20785783.6124
       213.0004        214.0004
 -10776436.98248  -8382653.47146  22200467.312    22200467.2144   22200471.9204
       169.0004        170.0004
 -11614833.16449  -9018872.59647  22845159.935    22845159.7344   22845164.7444
       200.0004        201.0004
 -17757029.30749 -13549534.08947  20926482.572    20926482.7774   20926488.6024
       200.0004        199.0004
 21  2  2  0 33 30.0000000  0  7G08G07G01G09G21G27G04
 -21422687.02249 -16674273.97347  20513790.920    20513791.0024   20513798.0864
       209.0004        209.0004
  -9983946.74748  -7768435.21446  22981454.894    22981455.3174   22981459.1054
       179.0004        180.0004
  -8157957.99547  -6326389.03745  23223525.971    23223527.0134   23223535.4124
       155.0004        157.0004
 -19817322.33549 -15410122.19248  20784560.523    20784560.9814   20784567.7814
       213.0004        214.0004
 -10815686.76848  -8413237.70546  22192998.008    22192997.7714   22193003.1764
       168.0004        169.0004
 -11516316.41449  -8942106.31447  22863907.147    22863907.2394   22863912.5874
       201.0004        201.0004
 -17694835.75949 -13501071.58647  20938318.070    20938318.0744   20938323.3884
       200.0004        199.0004
 21  2  2  0 34  0.0000000  0  7G08G07G01G09G21G27G04
 -21375709.32549 -16637667.96547  20522730.336    20522730.8494   20522737.3384
       208.0004        208.0004
 -10058687.99748  -7826675.15046  22967232.365    22967233.2134   22967236.3254
       179.0004        180.0004
  -8235091.02247  -6386492.58445  23208847.751    23208848.8374   23208858.9424
       156.0004        160.0004
 -19823143.67349 -15414658.29948  20783453.126    20783453.4484   20783459.8844
       213.0004        214.0004
 -10854673.97348  -8443617.31046  22185578.693    22185578.4044   22185584.5114
       167.0004        167.0004
 -11417560.47849  -8865153.63747  22882698.536    22882699.5154   22882705.7624
       201.0004        202.0004
 -17632198.04249 -13452262.98347  20950237.194    20950237.7284   20950243.3724
       200.0004        199.0004
 21  2  2  0 34 30.0000000  0  7G08G07G01G09G21G27G04
 -21328222.88149 -16600665.52347  20531766.727    20531766.7674   20531774.1464
       208.0004        209.0004
 -10133482.45948  -7884956.53246  22952998.859    22952999.1984   22953005.2004
       179.0004        181.0004
  -8312274.68547  -6446635.63145  23194161.695    23194162.1854   23194169.2594
       158.0004        160.0004
 -19828395.21749 -15418750.40448  20782453.613    20782453.8124   20782460.4384
       213.0004        214.0004
 -10893393.81548  -8473788.58546  22178209.525    22178210.0984   22178215.6384
       166.0004        167.0004
 -11318566.33949  -8788015.33347  22901536.420    22901536.7474   22901543.6974
       201.0004        201.0004
 -17569116.40049 -13403108.45047  20962241.381    20962241.6244   20962247.2934
       200.0004        199.0004
 21  2  2  0 35  0.0000000  0  7G08G07G01G09G21G27G04
 -21280230.72949 -16563269.03447  20540899.266    20540899.6924   20540906.4504
       208.0004        208.0004
 -10208328.88248  -7943278.40446  22938756.079    22938756.1664   22938761.7284
       180.0004        180.0004
  -8389507.01447  -6506816.58645  23179464.269    23179464.6424   23179471.7234
       157.0004        159.0004
 -19833077.80249 -15422399.18048  20781562.104    20781562.6244   20781569.4104
       213.0004        213.0004
 -10931844.44648  -8503750.09046  22170894.000    22170893.8174   22170898.2074
       166.0004        167.0004
 -11219337.74749  -8710694.37047  22920418.494    22920419.2144   22920425.8014
       201.0004        199.0004
 -17505593.90349 -13353610.40347  20974329.365    20974330.0024   20974335.3464
       200.0004        199.0004
 21  2  2  0 35 30.0000000  0  7G08G07G01G09G21G27G04
 -21231736.20149 -16525481.07947  20550127.867    20550127.8594   20550134.7914
       208.0004        208.0004
 -10283226.61848  -8001640.27346  22924504.244    22924504.1334   22924507.9754
       180.0004        181.0004
  -8466786.08947  -6567033.95845  23164758.497    23164759.0004   23164766.9884
       159.0004        161.0004
 -19837192.60949 -15425605.51448  20780779.345    20780779.8094   20780786.5114
       213.0004        214.0004
 -10970024.09748  -8533500.44146  22163627.869    22163627.7564   22163634.3644
       167.0004        168.0004
 -11119878.65849  -8633193.78147  22939345.246    22939345.7914   22939352.2654
       200.0004        199.0004
 -17441633.96449 -13303771.49947  20986500.852    20986500.9294   20986506.3044
       200.0004        199.0004
 21  2  2  0 36  0.0000000  0  7G08G07G01G09G21G27G04
 -21182740.73849 -16487302.78747  20559451.919    20559451.7484   20559458.6574
       208.0004        209.0004
 -10358173.34648  -8060040.31746  22910240.824    22910241.7214   22910245.2434
       180.0004        180.0004
  -8544108.27747  -6627284.92246  23150044.701    23150046.2374   23150053.4084
       160.0004        163.0004
 -19840738.98949 -15428368.92448  20780104.668    20780104.9954   20780111.7784
       214.0004        214.0004
 -11007929.30548  -8563036.92846  22156416.342    22156415.6704   22156420.9174
       169.0004        171.0004
 -11020191.31849  -8555515.34147  22958314.721    22958315.5744   22958321.5994
       199.0004        198.0004
 -17377238.12249 -13253592.91947  20998754.189    20998755.0034   20998760.2564
       199.0004        198.0004
 21  2  2  0 36 30.0000000  0  7G08G07G01G09G21G27G04
 -21133244.84949 -16448734.55347  20568870.539    20568870.7864   20568876.9274
       209.0004        209.0004
 -10433166.29348  -8118476.37846  22895971.641    22895971.9204   22895975.7694
       180.0004        181.0004
  -8621469.49747  -6687566.30746  23135323.729    23135323.7404   23135332.0554
       161.0004        163.0004
 -19843715.90849 -15430688.60448  20779538.229    20779538.5124   20779545.0394
       214.0004        214.0004
 -11045556.35248  -8592356.68946  22149256.995    22149256.0214   22149259.7254
       171.0004        173.0004
 -10920277.45249  -8477660.39047  22977328.882    22977328.7554   22977334.8124
       198.0004        198.0004
 -17312407.51349 -13203075.56247  21011091.210    21011091.4794   21011097.5704
       199.0004        198.0004
 21  2  2  0 37  0.0000000  0  7G08G07G01G09G21G27G04
 -21083253.14449 -16409779.97447  20578383.771    20578383.5444   20578390.3334
       209.0004        209.0004
 -10508205.13848  -8176948.20746  22881692.607    22881692.5964   22881696.3204
       181.0004        182.0004
  -8698868.86047  -6747877.43345  23120594.768    23120595.0874   23120601.8884
       161.0004        162.0004
 -19846125.56149 -15432566.26848  20779080.084    20779080.1274   20779086.5694
       214.0004        215.0004
 -11082904.61548  -8621459.22446  22142149.093    22142148.6974   22142152.3524
       171.0004        171.0004
 -10820142.06249  -8399632.83447  22996383.323    22996384.0984   22996390.1304
       199.0004        199.0004
 -17247146.52249 -13152222.85747  21023509.788    21023510.0964   21023516.1654
       199.0004        197.0004
 21  2  2  0 37 30.0000000  0  7G08G07G01G09G21G27G04
 -21032766.91449 -16370440.04047  20587990.263    20587990.3904   20587997.5294
       208.0004        208.0004
 -10583287.06748  -8235453.60146  22867404.963    22867404.5044   22867408.5714
       180.0004        179.0004
  -8776302.41747  -6808215.15345  23105857.497    23105859.0804   23105866.9884
       159.0004        160.0004
 -19847967.31249 -15434001.39248  20778729.202    20778729.4404   20778736.0374
       214.0004        214.0004
 -11119970.28048  -8650341.54346  22135095.319    22135094.9004   22135099.1704
       171.0004        172.0004
 -10719787.25549  -8321434.27547  23015479.323    23015480.5974   23015487.4704
       198.0004        197.0004
 -17181456.69349 -13101035.97847  21036010.508    21036010.9904   21036016.2654
       199.0004        197.0004
 21  2  2  0 38  0.0000000  0  7G08G07G01G09G21G27G04
 -20981787.73749 -16330715.99447  20597690.227    20597690.8504   20597697.8814
       207.0004        207.0004
 -10658409.86448  -8293990.82246  22853109.097    22853109.0034   22853112.9464
       178.0004        179.0004
  -8853766.70947  -6868576.88145  23091118.059    23091118.4574   23091125.6234
       159.0004        161.0004
 -19849240.55649 -15434993.52648  20778486.566    20778486.9574   20778493.9214
       213.0004        214.0004
 -11156750.60148  -8679001.51546  22128095.896    22128095.2694   22128100.0424
       171.0004        171.0004
 -10619215.08449  -8243066.35047  23034617.853    23034618.7704   23034625.6214
       196.0004        195.0004
 -17115339.54549 -13049516.12147  21048592.402    21048592.6914   21048598.0464
       199.0004        197.0004
 21  2  2  0 38 30.0000000  0  7G08G07G01G09G21G27G04
 -20930319.40349 -16290610.78747  20607484.560    20607484.8534   20607492.3734
       206.0004        207.0004
 -10733572.30348  -8352558.95046  22838806.837    22838806.7664   22838810.9684
       179.0004        181.0004
  -8931260.21347  -6928961.36746  23076371.939    23076372.3564   23076379.1624
       159.0004        163.0004
 -19849947.11649 -15435544.08748  20778352.288    20778352.8714   20778359.3884
       214.0004        215.0004
 -11193243.97448  -8707437.87246  22121151.020    22121151.0434   22121156.8594
       171.0004        172.0004
 -10518430.08749  -8164532.58347  23053798.420    23053798.3714   23053804.3454
       196.0004        196.0004
 -17048799.00249 -12997666.34647  21061253.617    21061254.2744   21061259.9304
       198.0004        196.0004
 21  2  2  0 39  0.0000000  0  7G08G07G01G09G21G27G04
 -20878365.07649 -16250126.89647  20617370.704    20617371.2904   20617379.2944
       206.0004        206.0004
 -10808775.00648  -8411158.44746  22824495.186    22824495.4874   22824499.0714
       179.0004        180.0004
  -9008781.03947  -6989367.12846  23061620.912    23061620.7764   23061628.6074
       162.0004        164.0004
 -19850088.34949 -15435654.13648  20778326.209    20778326.2444   20778332.7764
       215.0004        215.0004
 -11229449.12648  -8735649.67946  22114262.135    22114261.4364   22114267.1664
       171.0004        171.0004
 -10417436.31449  -8085836.13047  23073015.797    23073015.4834   23073023.5654
       195.0004        194.0004
 -16981838.62549 -12945489.43347  21073996.690    21073997.3284   21074001.8794
       198.0004        196.0004
 21  2  2  0 39 30.0000000  0  7G08G07G01G09G21G27G04
 -20825923.85549 -16209263.60147  20627351.127    20627351.4274   20627358.5394
       207.0004        208.0004
 -10884012.58548  -8469785.12546  22810178.515    22810178.6704   22810181.6344
       180.0004        181.0004
  -9086323.25047  -7049789.55346  23046864.314    23046865.2904   23046873.3174
       163.0004        166.0004
 -19849661.58149 -15435321.59148  20778406.527    20778406.9874   20778413.9774
       215.0004        215.0004
 -11265360.45648  -8763632.51446  22107427.525    22107427.3504   22107432.9234
       170.0004        171.0004
 -10316233.62649  -8006976.91947  23092273.606    23092273.7274   23092281.4784
       195.0004        195.0004
 -16914457.80849 -12892984.89747  21086819.104    21086819.1934   21086824.7754
       198.0004        196.0004
 21  2  2  0 40  0.0000000  0  7G08G07G01G09G21G27G04
 -20772999.76449 -16168024.01547  20637422.334    20637422.4924   20637429.9924
       208.0004        208.0004
 -10959283.84748  -8528438.03546  22795854.606    22795854.1804   22795858.4624
       179.0004        178.0004
  -9163884.82947  -7110227.03746  23032103.773    23032103.9694   23032113.2514
       163.0004        164.0004
 -19848668.13249 -15434547.44348  20778595.732    20778595.9334   20778602.9644
       215.0004        216.0004
 -11300976.24048  -8791385.02546  22100650.588    22100649.7514   22100654.5284
       170.0004        171.0004
 -10214825.97049  -7927957.95547  23111570.594    23111571.5494   23111578.4324
       195.0004        195.0004
 -16846659.95149 -12840155.37447  21099720.536    21099720.4664   21099726.7924
       198.0004        197.0004
 21  2  2  0 40 30.0000000  0  7G08G07G01G09G21G27G04
 -20719593.47249 -16126408.72747  20647585.257    20647585.3194   20647591.9564
       208.0004        207.0004
 -11034585.28348  -8587114.47946  22781524.427    22781525.3844   22781529.5104
       178.0004        179.0004
  -9241461.47847  -7170676.33346  23017340.967    23017342.2174   23017349.0504
       161.0004        163.0004
 -19847106.96649 -15433330.96948  20778893.279    20778893.4234   20778899.8694
       215.0004        216.0004
 -11336292.37848  -8818904.07846  22093930.592    22093929.9644   22093935.0554
       171.0004        173.0004
 -10113214.89448  -7848780.52847  23130906.890    23130908.0534   23130913.3804
       193.0004        193.0004
 -16778446.16049 -12787001.78647  21112700.033    21112701.2194   21112707.3824
       198.0004        196.0004
 21  2  2  0 41  0.0000000  0  7G08G07G01G09G21G27G04
 -20665709.22949 -16084421.01647  20657838.693    20657838.9654   20657845.5104
       207.0004        206.0004
 -11109917.38748  -8645814.82046  22767190.097    22767190.0534   22767194.4664
       178.0004        179.0004
  -9319052.16647  -7231136.54946  23002575.795    23002577.3014   23002585.0934
       161.0004        163.0004
 -19844980.54649 -15431674.03848  20779297.475    20779297.9304   20779304.6634
       215.0004        215.0004
 -11371308.28548  -8846189.20246  22087267.061    22087266.1164   22087272.5284
       171.0004        171.0004
 -10011405.35748  -7769448.43347  23150281.223    23150281.6074   23150288.1394
       193.0004        192.0004
 -16709820.88949 -12733527.57647  21125759.362    21125759.5604   21125766.4114
       197.0004        196.0004
 21  2  2  0 41 30.0000000  0  7G08G07G01G09G21G27G04
 -20611349.49549 -16042062.76047  20668182.987    20668183.1684   20668190.0954
       206.0004        205.0004
 -11185278.62348  -8704537.83146  22752848.909    22752849.9404   22752853.7564
       178.0004        179.0004
  -9396654.24647  -7291605.61346  22987809.876    22987810.3674   22987817.3744
       162.0004        163.0004
 -19842289.59949 -15429577.17748  20779809.693    20779810.0304   20779816.3584
       215.0004        215.0004
 -11406022.02848  -8873238.83046  22080661.278    22080661.1504   22080665.7674
       171.0004        172.0004
  -9909400.60848  -7689964.20647  23169691.542    23169692.3494   23169699.2004
       192.0004        192.0004
 -16640786.98649 -12679734.90947  21138895.907    21138896.6384   21138903.0084
       197.0004        196.0004
 21  2  2  0 42  0.0000000  0  7G08G07G01G09G21G27G04
 -20556517.16749 -15999336.28747  20678616.365    20678616.8754   20678624.5624
       205.0004        205.0004
 -11260667.00448  -8763282.03646  22738503.351    22738503.5984   22738506.9474
       178.0004        178.0004
  -9474265.10147  -7352081.55246  22973041.715    22973041.3994   22973049.6134
       162.0004        163.0004
 -19839034.91549 -15427041.06548  20780428.870    20780429.1854   20780435.7904
       214.0004        215.0004
 -11440431.18948  -8900051.16846  22074113.604    22074113.8414   22074117.1454
       171.0004        173.0004
  -9807203.94348  -7610330.44847  23189139.487    23189139.6804   23189146.8714
       192.0004        193.0004
 -16571347.27049 -12625626.06247  21152109.946    21152110.4394   21152116.5004
       197.0004        196.0004
 21  2  2  0 42 30.0000000  0  7G08G07G01G09G21G27G04
 -20501214.69549 -15956243.43647  20689139.998    20689140.9544   20689148.4674
       206.0004        207.0004
 -11336081.05348  -8822046.20346  22724151.424    22724151.9594   22724156.1494
       178.0004        178.0004
  -9551881.72147  -7412561.95645  22958270.496    22958271.1354   22958278.7954
       161.0004        162.0004
 -19835217.03749 -15424066.07048  20781155.531    20781155.5974   20781162.1684
       214.0004        214.0004
 -11474533.55348  -8926624.40246  22067623.987    22067623.1434   22067628.0104
       171.0004        173.0004
  -9704818.33748  -7530549.48047  23208623.045    23208622.8834   23208629.5524
       191.0004        190.0004
 -16501504.33849 -12571202.98147  21165401.327    21165401.2534   21165407.6204
       197.0004        196.0004
 21  2  2  0 43  0.0000000  0  7G08G07G01G09G21G27G04
 -20445443.76749 -15912785.56147  20699754.091    20699754.3374   20699760.9354
       206.0004        206.0004
 -11411517.86848  -8880828.11646  22709795.821    22709796.8764   22709801.5104
       178.0004        180.0004
  -9629500.47147  -7473044.03145  22943499.736    22943500.7214   22943508.2854
       160.0004        161.0004
 -19830835.85249 -15420652.15448  20781988.921    20781989.4254   20781996.0274
       214.0004        214.0004
 -11508326.01648  -8952956.15546  22061193.438    22061192.4994   22061197.7294
       172.0004        174.0004
  -9602246.07548  -7450623.04847  23228142.013    23228141.7304   23228148.9644
       190.0004        191.0004
 -16431260.03349 -12516467.16147  21178767.677    21178768.5434   21178774.3544
       196.0004        195.0004
 21  2  2  0 43 30.0000000  0  7G08G07G01G09G21G27G04
 -20389205.12849 -15868963.23147  20710455.947    20710456.1004   20710463.1744
       206.0004        206.0004
 -11486973.81548  -8939624.95946  22695438.386    22695438.3034   22695443.3204
       179.0004        181.0004
  -9707116.40947  -7533523.92046  22928728.997    22928730.2624   22928739.0444
       160.0004        163.0004
 -19825890.00649 -15416798.23948  20782930.065    20782930.2884   20782937.3234
       214.0004        214.0004
 -11541803.68048  -8979042.62146  22054823.114    22054822.7234   22054826.6724
       173.0004        173.0004
  -9499488.15448  -7370551.95147  23247694.956    23247695.6954   23247702.8494
       189.0004        190.0004
 -16360615.02349 -12461419.10747  21192211.404    21192212.1204   21192217.7874
       197.0004        196.0004
 21  2  2  0 44  0.0000000  0  7G08G07G01G09G21G27G04
 -20332503.22249 -15824779.91747  20721245.286    20721245.8454   20721252.9564
       206.0004        206.0004
 -11562448.67848  -8998436.52046  22681075.067    22681076.2034   22681080.9924
       180.0004        181.0004
  -9784728.57647  -7594000.88546  22913961.205    22913962.2934   22913969.0794
       161.0004        163.0004
 -19820382.09249 -15412506.35948  20783979.031    20783979.2894   20783985.4744
       214.0004        215.0004
 -11574965.98548  -9004883.36546  22048512.438    22048511.9024   22048517.0864
       173.0004        174.0004
  -9396549.56748  -7290340.07447  23267284.140    23267283.7984   23267291.3444
       189.0004        189.0004
 -16289573.92749 -12406062.41047  21205730.385    21205730.6364   21205736.4064
       197.0004        195.0004
 21  2  2  0 44 30.0000000  0  7G08G07G01G09G21G27G04
 -20275340.97149 -15780237.89447  20732122.972    20732123.1464   20732130.2874
       205.0004        205.0004
 -11637941.25748  -9057261.89946  22666709.589    22666710.2384   22666713.5914
       179.0004        180.0004
  -9862334.19347  -7654472.73746  22899193.801    22899194.3474   22899202.1514
       162.0004        164.0004
 -19814312.96549 -15407777.17848  20785133.743    20785133.8694   20785140.0134
       215.0004        215.0004
 -11607811.06448  -9030476.92746  22042261.378    22042261.3764   22042266.2924
       173.0004        174.0004
  -9293433.45448  -7209989.85847  23286904.949    23286905.7764   23286913.5424
       188.0004        189.0004
 -16218139.55349 -12350399.26447  21219323.115    21219323.5954   21219330.2354
       197.0004        196.0004
 21  2  2  0 45  0.0000000  0  7G08G07G01G09G21G27G04
 -20217720.65749 -15735338.95247  20743088.166    20743087.9644   20743095.4404
       204.0004        205.0004
 -11713449.00948  -9116099.10146  22652340.952    22652341.4944   22652345.4604
       179.0004        180.0004
  -9939930.18247  -7714937.10646  22884427.996    22884428.4354   22884435.8974
       161.0004        163.0004
 -19807683.22549 -15402611.15448  20786394.547    20786395.1104   20786401.8124
       214.0004        214.0004
 -11640336.54648  -9055821.44246  22036072.751    22036072.1684   22036076.8494
       174.0004        175.0004
  -9190142.72048  -7129503.59447  23306560.818    23306561.7894   23306569.4234
       189.0004        189.0004
 -16146314.43949 -12294431.64947  21232991.207    21232991.3874   21232997.9674
       197.0004        195.0004
 21  2  2  0 45 30.0000000  0  7G08G07G01G09G21G27G04
 -20159645.04749 -15690085.20347  20754138.473    20754139.0824   20754146.9804
       204.0004        205.0004
 -11788971.01948  -9174947.39446  22637969.314    22637970.0704   22637974.0454
       180.0004        181.0004
 -10017514.24647  -7775392.15145  22869663.278    22869663.6484   22869672.1654
       160.0004        161.0004
 -19800494.24449 -15397009.33148  20787763.327    20787763.6834   20787769.7054
       214.0004        214.0004
 -11672540.34348  -9080915.29046  22029944.171    22029943.4204   22029948.3034
       174.0004        174.0004
  -9086681.02948  -7048884.09147  23326250.639    23326250.7454   23326257.5794
       189.0004        191.0004
 -16074101.93949 -12238162.15147  21246733.129    21246733.5904   21246739.1314
       196.0004        194.0004
 21  2  2  0 46  0.0000000  0  7G08G07G01G09G21G27G04
 -20101116.59149 -15644478.61747  20765276.581    20765277.0104   20765283.9414
       204.0004        204.0004
 -11864504.23248  -9233804.41846  22623595.960    22623596.6314   22623600.8064
       181.0004        182.0004
 -10095082.65547  -7835835.02646  22854903.355    22854903.6074   22854911.2434
       161.0004        163.0004
 -19792746.08549 -15390971.80848  20789237.692    20789237.9364   20789244.1044
       214.0004        214.0004
 -11704419.33348  -9105756.05246  22023877.809    22023877.3384   22023882.9264
       174.0004        174.0004
  -8983050.59448  -6968133.10147  23345970.551    23345970.4534   23345977.2704
       188.0004        189.0004
 -16001503.98649 -12181592.32247  21260547.899    21260548.7264   21260553.9744
       195.0004        194.0004
 21  2  2  0 46 30.0000000  0  7G08G07G01G09G21G27G04
 -20042136.81649 -15598520.33847  20776500.859    20776501.0384   20776507.4454
       204.0004        205.0004
 -11940045.82648  -9292667.99146  22609221.887    22609222.1764   22609224.8274
       182.0004        183.0004
 -10172631.52547  -7896262.67646  22840145.582    22840145.8964   22840153.5464
       161.0004        163.0004
 -19784438.61249 -15384498.44548  20790818.377    20790818.4754   20790825.1694
       214.0004        214.0004
 -11735970.28748  -9130341.17646  22017873.975    22017873.2744   22017878.7074
       174.0004        174.0004
  -8879253.50948  -6887252.27547  23365722.087    23365722.3284   23365730.1414
       190.0004        191.0004
 -15928522.41849 -12124723.56147  21274435.774    21274436.0114   21274442.5514
       195.0004        194.0004
 21  2  2  0 47  0.0000000  0  7G08G07G01G09G21G27G04
 -19982710.36149 -15552214.00047  20787809.096    20787809.3594   20787816.3084
       205.0004        205.0004
 -12015595.97648  -9351538.25246  22594845.093    22594844.9924   22594848.0614
       182.0004        183.0004
 -10250159.82247  -7956674.30946  22825392.911    22825393.2254   22825400.8674
       162.0004        163.0004
 -19775574.60649 -15377591.43048  20792505.317    20792505.6674   20792511.8674
       214.0004        215.0004
 -11767193.31048  -9154670.80746  22011932.610    22011931.5374   22011937.2424
       173.0004        173.0004
  -8775294.74148  -6806245.44747  23385505.537    23385505.6974   23385512.2044
       191.0004        192.0004
 -15855161.90549 -12067559.53947  21288396.344    21288396.7164   21288401.7914
       195.0004        193.0004
 21  2  2  0 47 30.0000000  0  7G08G07G01G09G21G27G04
 -19922837.80249 -15505560.05847  20799201.999    20799202.5264   20799209.6544
       204.0004        204.0004
 -12091151.26748  -9410412.50646  22580467.715    22580467.7494   22580472.4274
       183.0004        185.0004
 -10327662.88147  -8017066.27746  22810643.855    22810644.6944   22810652.9574
       162.0004        163.0004
 -19766153.22149 -15370250.10148  20794297.920    20794298.0634   20794305.1814
       214.0004        215.0004
 -11798083.96948  -9178741.43746  22006053.875    22006053.8124   22006058.1944
       173.0004        174.0004
  -8671175.52348  -6725113.60247  23405318.477    23405318.7764   23405325.4964
       191.0004        192.0004
 -15781423.43649 -12010100.99847  21302427.970    21302428.3694   21302433.8444
       195.0004        194.0004
 21  2  2  0 48  0.0000000  0  7G08G07G01G09G21G27G04
 -19862523.26149 -15458561.69247  20810679.726    20810679.5714   20810687.1014
       204.0004        203.0004
 -12166710.44448  -9469289.75046  22566088.807    22566089.2074   22566093.1964
       184.0004        185.0004
 -10405138.69347  -8077436.99546  22795901.484    22795901.7014   22795909.7884
       162.0004        163.0004
 -19756176.30849 -15362475.86048  20796196.157    20796196.5094   20796203.5544
       214.0004        214.0004
 -11828640.98548  -9202552.05746  22000239.965    22000238.8244   22000244.2764
       173.0004        174.0004
  -8566899.85148  -6643859.82047  23425160.843    23425160.6814   23425168.6724
       191.0004        191.0004
 -15707310.80849 -11952350.88347  21316531.114    21316531.4914   21316537.1614
       195.0004        194.0004
 21  2  2  0 48 30.0000000  0  7G08G07G01G09G21G27G04
 -19801767.47449 -15411219.52047  20822240.874    20822241.3164   20822248.7774
       203.0004        204.0004
 -12242269.74748  -9528167.11946  22551710.291    22551710.4214   22551714.2934
       184.0004        185.0004
 -10482582.58347  -8137782.85446  22781163.441    22781164.2574   22781172.3514
       163.0004        167.0004
 -19745643.14649 -15354268.20548  20798200.399    20798200.9534   20798207.6504
       214.0004        214.0004
 -11858859.82248  -9226099.18446  21994487.581    21994488.1614   21994494.1514
       173.0004        174.0004
  -8462469.10048  -6562485.22847  23445034.124    23445034.0574   23445040.8994
       191.0004        190.0004
 -15632825.09549 -11894310.07347  21330704.933    21330705.4004   21330711.0814
       195.0004        194.0004
 21  2  2  0 49  0.0000000  0  7G08G07G01G09G21G27G04
 -19740575.71749 -15363537.61947  20833885.279    20833885.6264   20833893.0084
       203.0004        203.0004
 -12317829.67948  -9587044.98246  22537332.004    22537332.3224   22537335.5784
       184.0004        185.0004
 -10559993.76548  -8198103.21946  22766433.859    22766434.0524   22766441.7704
       166.0004        168.0004
 -19734556.91949 -15345629.58648  20800310.386    20800310.8024   20800317.2454
       214.0004        214.0004
 -11888740.98948  -9249383.18146  21988800.777    21988801.7494   21988807.5704
       172.0004        172.0004
  -8357888.44248  -6480993.78947  23464934.072    23464934.8344   23464942.3564
       191.0004        191.0004
 -15557971.32249 -11835982.44247  21344949.165    21344949.7384   21344955.6524
       195.0004        193.0004
 21  2  2  0 49 30.0000000  0  7G08G07G01G09G21G27G04
 -19678948.12749 -15315516.14247  20845612.933    20845613.1284   20845619.8044
       203.0004        203.0004
 -12393386.06348  -9645920.10146  22522954.093    22522954.2044   22522957.6824
       185.0004        186.0004
 -10637367.18148  -8258394.17646  22751709.849    22751710.4024   22751717.9464
       167.0004        169.0004
 -19722916.50349 -15336559.15148  20802525.101    20802525.5544   20802532.5634
       214.0004        214.0004
 -11918280.47948  -9272400.97446  21983180.538    21983181.2154   21983185.3244
       171.0004        172.0004
  -8253158.80948  -6399386.31347  23484864.053    23484864.6904   23484870.8464
       190.0004        190.0004
 -15482750.16149 -11777368.58947  21359263.317    21359263.5904   21359269.5884
       195.0004        194.0004
 21  2  2  0 50  0.0000000  0  7G08G07G01G09G21G27G04
 -19616887.60449 -15267157.26247  20857422.910    20857422.8124   20857429.7654
       203.0004        203.0004
 -12468937.18048  -9704791.07546  22508576.928    22508576.7724   22508581.1484
       186.0004        187.0004
 -10714699.89248  -8318653.40446  22736993.586    22736994.0154   22737001.5394
       167.0004        168.0004
 -19710723.01449 -15327057.71048  20804846.103    20804845.9794   20804852.9864
       214.0004        214.0004
 -11947475.76948  -9295150.50846  21977625.635    21977625.3114   21977629.6474
       172.0004        172.0004
  -8148283.28148  -6317665.11547  23504821.999    23504821.6604   23504828.2254
       191.0004        191.0004
 -15407164.56648 -11718470.71447  21373647.061    21373647.3394   21373653.3144
       194.0004        193.0004
 21  2  2  0 50 30.0000000  0  7G08G07G01G09G21G27G04
 -19554399.00049 -15218464.82247  20869313.153    20869313.7204   20869321.1374
       203.0004        204.0004
 -12544482.50548  -9763657.55846  22494201.044    22494201.4774   22494204.6684
       186.0004        185.0004
 -10791990.73548  -8378879.99446  22722286.788    22722286.5024   22722293.8354
       167.0004        169.0004
 -19697979.29049 -15317127.52248  20807270.749    20807271.1154   20807277.5824
       214.0004        214.0004
 -11976326.17748  -9317631.30546  21972134.521    21972133.8864   21972140.0544
       171.0004        172.0004
  -8043266.58448  -6235833.92447  23524807.972    23524806.6484   23524811.1214
       190.0004        189.0004
 -15331219.17848 -11659292.47347  21388098.348    21388098.7874   21388104.5604
       193.0004        191.0004
 21  2  2  0 51  0.0000000  0  7G08G07G01G09G21G27G04
 -19491483.81749 -15169440.00547  20881285.643    20881285.9034   20881293.4254
       203.0004        202.0004
 -12620018.97248  -9822517.13146  22479827.158    22479827.0044   22479831.4594
       186.0004        186.0004
 -10869235.65048  -8439070.80546  22707586.432    22707586.8844   22707594.2974
       167.0004        169.0004
 -19684685.30949 -15306768.58948  20809800.594    20809801.0814   20809807.5284
       214.0004        215.0004
 -12004828.67948  -9339841.01946  21966711.319    21966710.8634   21966715.5464
       172.0004        172.0004
  -7938110.65548  -6153894.24947  23544817.639    23544816.7364   23544822.5204
       189.0004        190.0004
 -15254915.73448 -11599835.25447  21402618.640    21402619.4764   21402625.1014
       193.0004        192.0004
 21  2  2  0 51 30.0000000  0  8G30G08G07G01G09G21G27G04
   -781503.25954   -562528.78945  24388798.159                    24388804.3054
        74.0004        146.0004
 -19428143.93349 -15120084.24547  20893338.595    20893339.3634   20893346.3944
       202.0004        202.0004
 -12695544.46748  -9881368.16146  22465454.911    22465455.3434   22465458.8664
       186.0004        187.0004
 -10946430.86148  -8499222.87746  22692895.573    22692896.0524   22692905.2674
       168.0004        170.0004
 -19670841.44849 -15295981.16548  20812434.893    20812435.4054   20812441.9614
       214.0004        215.0004
 -12032980.67848  -9361777.61546  21961354.318    21961353.5234   21961359.5504
       172.0004        174.0004
  -7832817.76748  -6071847.84947  23564853.248    23564853.1854   23564858.9144
       190.0004        190.0004
 -15178256.36348 -11540100.68147  21417207.119    21417207.1934   21417213.3414
       193.0004        192.0004
 21  2  2  0 52  0.0000000  0  8G30G08G07G01G09G21G27G04
   -864644.36947   -627314.04345  24372975.906    24372977.0304   24372983.6774
       137.0004        146.0004
 -19364381.71549 -15070399.39747  20905472.333    20905472.5724   20905480.2804
       202.0004        202.0004
 -12771055.51248  -9940207.94147  22451085.413    22451086.2244   22451089.6464
       187.0004        188.0004
 -11023572.51048  -8559333.24346  22678216.467    22678217.8584   22678225.0294
       169.0004        170.0004
 -19656447.96849 -15284765.46748  20815174.190    20815174.8214   20815181.1774
       214.0004        215.0004
 -12060778.27048  -9383438.05946  21956064.556    21956064.4224   21956068.9944
       173.0004        175.0004
  -7727390.08948  -5989696.40447  23584915.649    23584915.6394   23584921.4484
       190.0004        191.0004
 -15101243.04548 -11480090.30747  21431861.297    21431861.9144   21431868.5544
       193.0004        192.0004
 21  2  2  0 52 30.0000000  0  8G30G08G07G01G09G21G27G04
   -947902.59847   -692190.57845  24357131.196    24357132.4564   24357140.4154
       139.0004        144.0004
 -19300201.85249 -15020389.13647  20917685.249    20917685.8444   20917693.2974
       202.0004        202.0004
 -12846552.27048  -9999036.60746  22436718.422    22436718.7394   22436722.7774
       187.0004        187.0004
 -11100659.75248  -8619401.22646  22663547.233    22663547.2544   22663555.2274
       169.0004        171.0004
 -19641508.23349 -15273124.14748  20818017.106    20818017.3704   20818023.7664
       214.0004        215.0004
 -12088221.83448  -9404822.65946  21950842.030    21950841.6184   21950847.6454
       174.0004        176.0004
  -7621832.68848  -5907443.91846  23605001.083    23605001.8304   23605007.6384
       188.0004        186.0004
 -15023880.90348 -11419808.13747  21446583.799    21446583.9374   21446589.7964
       193.0004        192.0004
 21  2  2  0 53  0.0000000  0  8G30G08G07G01G09G21G27G04
  -1031275.29147   -757156.22745  24341264.570    24341266.5254   24341273.7124
       140.0004        144.0004
 -19235605.50449 -14970054.27847  20929977.761    20929978.0304   20929985.5794
       201.0004        201.0004
 -12922031.18148 -10057851.30147  22422356.155    22422355.9674   22422360.4934
       187.0004        188.0004
 -11177687.96548  -8679423.15246  22648888.132    22648889.9604   22648897.6084
       169.0004        170.0004
 -19626021.82549 -15261056.78148  20820963.391    20820963.7964   20820970.6264
       214.0004        213.0004
 -12115308.08548  -9425928.77746  21945687.835    21945687.3794   21945692.7454
       175.0004        176.0004
  -7516146.98548  -5825091.39846  23625111.479    23625113.0404   23625120.0534
       186.0004        185.0004
 -14946171.21848 -11359255.11647  21461371.079    21461371.4734   21461377.7544
       193.0004        192.0004
 21  2  2  0 53 30.0000000  0  8G30G08G07G01G09G21G27G04
  -1114759.47247   -822208.81645  24325380.129    24325380.2684   24325388.0064
       142.0004        146.0004
 -19170593.53649 -14919395.61047  20942349.029    20942349.1174   20942356.4844
       201.0004        201.0004
 -12997488.67448 -10116649.34946  22407997.427    22407997.2564   22408001.4144
       187.0004        187.0004
 -11254652.32248  -8739395.37446  22634244.483    22634244.1094   22634252.0224
       170.0004        172.0004
 -19609988.14549 -15248563.02548  20824015.116    20824015.4704   20824021.8394
       213.0004        214.0004
 -12142031.94848  -9446752.56646  21940603.352    21940602.1924   21940606.9454
       176.0004        177.0004
  -7410334.13348  -5742639.84146  23645250.085    23645249.4334   23645254.9974
       185.0004        185.0004
 -14868115.03248 -11298432.12947  21476224.553    21476224.8174   21476230.9284
       193.0004        191.0004
 21  2  2  0 54  0.0000000  0  8G30G08G07G01G09G21G27G04
  -1198357.53247   -887350.16745  24309473.498    24309473.3194   24309478.8154
       144.0004        148.0004
 -19105172.94649 -14868418.52847  20954798.191    20954798.3294   20954805.8294
       200.0004        201.0004
 -13072926.06348 -10175431.72446  22393641.623    22393642.2254   22393645.3834
       187.0004        187.0004
 -11331553.33848  -8799318.20346  22619610.758    22619611.0454   22619618.7744
       171.0004        171.0004
 -19593411.94249 -15235646.50848  20827169.640    20827169.8514   20827176.2124
       214.0004        215.0004
 -12168396.57648  -9467296.41346  21935586.095    21935585.9764   21935589.3514
       176.0004        176.0004
  -7304400.62448  -5660094.25346  23665408.030    23665407.8094   23665413.9394
       184.0004        184.0004
 -14789718.86648 -11237344.21147  21491143.248    21491143.7264   21491149.0774
       193.0004        191.0004
 21  2  2  0 54 30.0000000  0  8G30G08G07G01G09G21G27G04
  -1282066.86847   -952578.20045  24293543.566    24293543.0464   24293550.2114
       145.0004        148.0004
 -19039344.53049 -14817123.65147  20967325.415    20967325.2284   20967332.5534
       201.0004        201.0004
 -13148339.10848 -10234195.12746  22379291.250    22379291.0124   22379294.9974
       187.0004        187.0004
 -11408386.49748  -8859188.17346  22604988.971    22604989.5774   22604997.7594
       170.0004        170.0004
 -19576293.08549 -15222307.12348  20830426.889    20830427.1754   20830433.6714
       214.0004        214.0004
 -12194397.44048  -9487556.80446  21930637.426    21930637.5614   21930641.6324
       176.0004        176.0004
  -7198347.96548  -5577455.81746  23685589.713    23685589.4684   23685594.2124
       185.0004        185.0004
 -14710984.12348 -11175992.46347  21506125.856    21506126.2854   21506132.3994
       192.0004        191.0004
 21  2  2  0 55  0.0000000  0  8G30G08G07G01G09G21G27G04
  -1365885.56647  -1017891.46345  24277593.370    24277593.4024   24277600.4934
       147.0004        152.0004
 -18973110.38449 -14765512.64847  20979928.539    20979929.1534   20979936.3804
       200.0004        200.0004
 -13223726.33648 -10292938.43546  22364945.116    22364945.5634   22364948.9344
       187.0004        187.0004
 -11485148.03748  -8919002.33846  22590381.117    22590381.3154   22590390.9454
       169.0004        171.0004
 -19558632.05549 -15208545.30648  20833788.072    20833788.4034   20833794.7674
       214.0004        214.0004
 -12220031.53648  -9507531.42546  21925760.496    21925759.6684   21925764.3504
       177.0004        178.0004
  -7092178.37948  -5494726.31047  23705793.304    23705793.3684   23705798.5594
       187.0004        188.0004
 -14631913.03148 -11114378.64747  21521173.281    21521173.3504   21521178.6894
       193.0004        191.0004
 21  2  2  0 55 30.0000000  0  8G30G08G07G01G09G21G27G04
  -1449813.00947  -1083289.42045  24261624.384    24261623.4854   24261630.6834
       151.0004        155.0004
 -18906474.03349 -14713588.18847  20992608.978    20992609.5474   20992617.2844
       200.0004        200.0004
 -13299085.58648 -10351659.90146  22350604.666    22350605.2364   22350608.9764
       187.0004        187.0004
 -11561835.50948  -8978758.75646  22575787.708    22575788.2734   22575796.5884
       169.0004        170.0004
 -19540430.78049 -15194362.47748  20837251.810    20837251.9624   20837258.1084
       214.0004        214.0004
 -12245297.63848  -9527219.25846  21920952.259    21920951.9494   21920956.5644
       177.0004        178.0004
  -6985895.40048  -5411908.36246  23726018.595    23726018.2184   23726023.5534
       186.0004        186.0004
 -14552509.11648 -11052505.43947  21536282.115    21536282.3774   21536289.4314
       192.0004        191.0004
 21  2  2  0 56  0.0000000  0  8G30G08G07G01G09G21G27G04
  -1533847.00147  -1148770.46445  24245632.389    24245632.4654   24245637.6434
       152.0004        155.0004
 -18839437.81249 -14661352.17847  21005365.061    21005365.5664   21005373.7074
       199.0004        199.0004
 -13374413.70748 -10410357.14546  22336269.738    22336270.4974   22336274.1934
       186.0004        186.0004
 -11638444.81248  -9038454.30346  22561210.861    22561210.9004   22561217.6934
       169.0004        170.0004
 -19521689.61549 -15179758.98648  20840817.316    20840817.8234   20840824.3094
       214.0004        214.0004
 -12270192.78748  -9546618.09446  21916214.444    21916214.1024   21916219.7644
       178.0004        178.0004
  -6879500.98648  -5329003.65947  23746264.550    23746264.1284   23746269.5054
       187.0004        188.0004
 -14472774.29948 -10990374.42847  21551455.447    21551455.9984   21551461.7234
       192.0004        191.0004
 21  2  2  0 56 30.0000000  0  8G30G08G07G01G09G21G27G04
  -1617986.63747  -1214333.82745  24229620.845    24229619.6774   24229626.1224
       151.0004        153.0004
 -18772004.12549 -14608806.45547  21018198.154    21018198.3734   21018205.4034
       199.0004        199.0004
 -13449709.00448 -10469028.80346  22321941.108    22321941.6014   22321946.4324
       186.0004        186.0004
 -11714973.15048  -9098086.76246  22546646.897    22546647.3524   22546655.6484
       169.0004        170.0004
 -19502410.14049 -15164736.03848  20844486.754    20844487.0874   20844493.6784
       214.0004        215.0004
 -12294714.98148  -9565726.28846  21911547.005    21911546.6914   21911553.4134
       178.0004        178.0004
  -6772998.23248  -5246014.52146  23766530.765    23766529.8674   23766536.5134
       185.0004        183.0004
 -14392711.75748 -10927988.05947  21566691.594    21566691.8424   21566697.1484
       193.0004        192.0004
 21  2  2  0 57  0.0000000  0  8G30G08G07G01G09G21G27G04
  -1702231.01947  -1279978.72245  24213588.117    24213588.0054   24213595.6444
       151.0004        153.0004
 -18704176.90049 -14555954.04747  21031105.575    21031105.6004   21031112.8544
       199.0004        200.0004
 -13524969.61348 -10527673.39147  22307620.102    22307620.8104   22307624.4384
       187.0004        188.0004
 -11791417.77648  -9157653.95546  22532099.929    22532101.1534   22532108.1934
       168.0004        169.0004
 -19482594.09849 -15149294.94248  20848257.440    20848257.8604   20848264.3964
       214.0004        215.0004
 -12318862.12948  -9584542.20946  21906952.490    21906952.8004   21906957.2154
       177.0004        178.0004
  -6666390.43948  -5162943.48246  23786816.438    23786816.4764   23786823.3674
       184.0004        184.0004
 -14312324.81348 -10865348.85547  21581988.259    21581988.5894   21581994.0064
       192.0004        191.0004
 21  2  2  0 57 30.0000000  0  8G30G08G07G01G09G21G27G04
  -1786576.32147  -1345702.32145  24197537.800    24197538.7614   24197545.2204
       152.0004        156.0004
 -18635956.47949 -14502795.26647  21044087.298    21044087.2754   21044095.0224
       199.0004        200.0004
 -13600190.72348 -10586287.22747  22293307.301    22293306.9764   22293309.7864
       188.0004        188.0004
 -11867773.07448  -9217151.55146  22517569.390    22517570.1204   22517579.1314
       168.0004        170.0004
 -19462240.30549 -15133434.83448  20852131.132    20852131.1064   20852137.4164
       214.0004        214.0004
 -12342630.16048  -9603062.74546  21902430.876    21902429.9964   21902433.9304
       178.0004        178.0004
  -6559678.00748  -5079790.94746  23807122.945    23807123.4064   23807129.4374
       183.0004        182.0004
 -14231613.83048 -10802457.17147  21597346.491    21597347.0254   21597352.9274
       191.0004        190.0004
 21  2  2  0 58  0.0000000  0  8G30G08G07G01G09G21G27G04
  -1871023.50047  -1411505.33545  24181468.332    24181468.4804   24181476.6014
       154.0004        158.0004
 -18567347.20249 -14449333.50947  21057141.729    21057142.8224   21057150.7714
       199.0004        199.0004
 -13675372.64448 -10644870.57346  22278999.497    22278999.7384   22279003.8424
       187.0004        187.0004
 -11944038.14448  -9276578.87146  22503057.092    22503058.1314   22503066.6834
       169.0004        171.0004
 -19441352.41149 -15117158.58748  20856105.421    20856105.5434   20856112.2804
       214.0004        214.0004
 -12366019.29948  -9621288.05746  21897978.564    21897978.3114   21897982.7774
       178.0004        178.0004
  -6452865.96848  -4996560.79046  23827447.811    23827448.8254   23827454.9324
       180.0004        180.0004
 -14150584.04248 -10739317.10847  21612766.117    21612766.7054   21612772.8224
       191.0004        191.0004
 21  2  2  0 58 30.0000000  0  8G30G08G07G01G09G21G27G04
  -1955571.86747  -1477387.17745  24165379.198    24165379.7494   24165387.9804
       156.0004        159.0004
 -18498352.95049 -14395571.74947  21070271.426    21070272.1284   21070280.0204
       198.0004        199.0004
 -13750513.66248 -10703422.00146  22264700.115    22264701.1264   22264704.8924
       186.0004        187.0004
 -12020210.45248  -9335933.88546  22488562.213    22488563.6074   22488570.1184
       169.0004        171.0004
 -19419932.40449 -15100467.67148  20860181.585    20860181.7064   20860188.6924
       213.0004        213.0004
 -12389028.04948  -9639216.94046  21893600.009    21893599.8644   21893605.5344
       178.0004        179.0004
  -6345957.75448  -4913255.73246  23847793.127    23847793.5294   23847798.7034
       181.0004        182.0004
 -14069238.90648 -10675931.28847  21628245.501    21628246.3284   21628251.8014
       191.0004        189.0004
 21  2  2  0 59  0.0000000  0  8G30G08G07G01G09G21G27G04
  -2040219.12447  -1543346.05945  24149272.277    24149272.2924   24149279.0454
       157.0004        160.0004
 -18428975.53649 -14341511.40147  21083473.939    21083473.8464   21083481.8194
       198.0004        198.0004
 -13825610.36048 -10761938.89447  22250411.057    22250410.9214   22250414.9404
       187.0004        188.0004
 -12096285.84048  -9395213.35546  22474085.957    22474086.4324   22474094.0134
       170.0004        172.0004
 -19397980.75849 -15083362.47348  20864358.389    20864358.7114   20864365.0494
       213.0004        213.0004
 -12411653.31948  -9656847.00246  21889295.630    21889295.1744   21889300.1594
       178.0004        178.0004
  -6238955.27348  -4829877.11746  23868154.682    23868154.4554   23868161.2614
       181.0004        181.0004
 -13987580.41148 -10612301.27547  21643784.582    21643785.0034   21643791.0374
       190.0004        189.0004
 21  2  2  0 59 30.0000000  0  8G30G08G07G01G09G21G27G04
  -2124965.43747  -1609382.14545  24133145.205    24133145.2244   24133152.3924
       157.0004        159.0004
 -18359219.36049 -14287155.93647  21096747.872    21096748.1644   21096756.0734
       198.0004        197.0004
 -13900662.46748 -10820421.03846  22236128.080    22236128.0094   22236132.7674
       187.0004        187.0004
 -12172262.69948  -9454416.07646  22459628.319    22459628.7874   22459635.4144
       171.0004        172.0004
 -19375500.41449 -15065845.31348  20868637.040    20868637.0844   20868643.5064
       213.0004        214.0004
 -12433894.58048  -9674177.82846  21885062.675    21885062.6574   21885067.8284
       177.0004        178.0004
  -6131862.86948  -4746428.51046  23888535.075    23888534.6814   23888540.3314
       183.0004        184.0004
 -13905612.99048 -10548430.55147  21659383.330    21659383.6964   21659389.5164
       191.0004        190.0004
 21  2  2  1  0  0.0000000  0  8G30G08G07G01G09G21G27G04
  -2209806.93847  -1675492.43345  24116999.365    24116999.7004   24117007.7684
       157.0004        159.0004
 -18289084.77149 -14232505.62347  21110094.101    21110094.4814   21110102.3104
       197.0004        198.0004
 -13975665.06548 -10878864.63047  22221855.301    22221855.9874   22221860.0164
       187.0004        188.0004
 -12248135.39848  -9513537.66346  22445188.921    22445189.8104   22445197.4074
       169.0004        170.0004
 -19352490.36549 -15047915.43748  20873015.672    20873015.6934   20873022.3044
       214.0004        214.0004
 -12455746.89848  -9691205.63146  21880905.606    21880905.0234   21880908.8074
       178.0004        179.0004
  -6024680.89648  -4662910.13146  23908930.060    23908929.5884   23908937.1094
       182.0004        182.0004
 -13823337.10248 -10484319.51347  21675039.544    21675039.7414   21675046.1344
       191.0004        191.0004
 21  2  2  1  0 30.0000000  0  8G30G08G07G01G09G21G27G04
  -2294743.62547  -1741676.85145  24100836.754    24100837.5824   24100844.5904
       156.0004        158.0004
 -18218576.16649 -14177563.83547  21123511.585    21123511.9464   21123519.7544
       197.0004        197.0004
 -14050617.23248 -10937268.90547  22207591.868    22207592.7764   22207597.0004
       189.0004        189.0004
 -12323901.92648  -9572576.48746  22430772.054    22430772.5884   22430780.0094
       170.0004        171.0004
 -19328953.35949 -15029574.90948  20877494.483    20877494.5534   20877501.4724
       214.0004        214.0004
 -12477210.24148  -9707930.29246  21876820.373    21876819.3314   21876825.5884
       178.0004        179.0004
  -5917413.38448  -4579325.03346  23929341.207    23929341.3474   23929349.0574
       180.0004        180.0004
 -13740756.89748 -10419971.29147  21690753.131    21690754.4524   21690760.3614
       191.0004        190.0004
 21  2  2  1  1  0.0000000  0  8G30G08G07G01G09G21G27G04
  -2379773.02147  -1807933.52945  24084658.034    24084657.8994   24084663.5914
       156.0004        158.0004
 -18147695.22649 -14122331.94347  21136999.244    21136999.9544   21137007.8114
       197.0004        197.0004
 -14125515.61948 -10995631.29147  22193339.904    22193340.8004   22193344.7644
       189.0004        190.0004
 -12399558.16348  -9631529.37446  22416376.199    22416375.6504   22416383.3264
       171.0004        173.0004
 -19304889.88649 -15010824.16248  20882073.251    20882073.5454   20882080.1734
       213.0004        214.0004
 -12498281.53148  -9724349.47046  21872811.264    21872809.9044   21872814.2414
       178.0004        179.0004
  -5810062.07548  -4495674.70446  23949770.450    23949770.3104   23949777.1834
       179.0004        179.0004
 -13657874.35648 -10355387.49247  21706525.960    21706526.2344   21706532.0504
       191.0004        189.0004
 21  2  2  1  1 30.0000000  0  8G30G08G07G01G09G21G27G04
  -2464896.42547  -1874263.41745  24068459.423    24068458.8934   24068465.0044
       156.0004        159.0004
 -18076447.63249 -14066814.32147  21150557.177    21150557.4214   21150566.2274
       196.0004        196.0004
 -14200360.30148 -11053951.81247  22179098.169    22179098.1574   22179102.1774
       189.0004        190.0004
 -12475103.58748  -9690395.88946  22401999.725    22401999.9344   22402007.1594
       171.0004        171.0004
 -19280304.14949 -14991666.43448  20886751.970    20886752.1534   20886759.1084
       213.0004        213.0004
 -12518961.38848  -9740463.61546  21868875.054    21868874.9724   21868879.9514
       178.0004        177.0004
  -5702632.54048  -4411963.35946  23970213.329    23970212.9804   23970220.6884
       180.0004        180.0004
 -13574695.09648 -10290572.48547  21722353.890    21722354.5714   21722360.8164
       190.0004        189.0004
 21  2  2  1  2  0.0000000  0  8G30G08G07G01G09G21G27G04
  -2550110.70647  -1940664.10945  24052242.576    24052242.5014   24052250.0134
       156.0004        159.0004
 -18004833.97549 -14011011.47847  21164184.387    21164185.4164   21164193.4764
       196.0004        196.0004
 -14275147.76348 -11112227.77147  22164867.056    22164867.3084   22164870.4324
       190.0004        189.0004
 -12550533.27148  -9749172.23746  22387644.755    22387645.2824   22387653.1924
       171.0004        172.0004
 -19255195.95949 -14972101.61648  20891529.756    20891530.1144   20891536.6144
       213.0004        213.0004
 -12539245.70748  -9756269.58046  21865014.513    21865014.6994   21865020.4774
       178.0004        179.0004
  -5595125.69148  -4328191.82746  23990669.683    23990670.5364   23990678.2354
       176.0004        176.0004
 -13491220.30148 -10225527.19247  21738239.301    21738238.9794   21738245.1694
       190.0004        189.0004
 21  2  2  1  2 30.0000000  0  8G30G08G07G01G09G21G27G04
  -2635412.66847  -2007133.13145  24036009.735    24036010.5714   24036017.7834
       158.0004        162.0004
 -17932855.77049 -13954924.56047  21177882.310    21177882.5604   21177890.4314
       196.0004        197.0004
 -14349873.77448 -11170455.81647  22150645.945    22150646.4774   22150650.3274
       189.0004        189.0004
 -12625842.19548  -9807854.49146  22373314.518    22373314.9484   22373322.6034
       172.0004        174.0004
 -19229565.12849 -14952129.54048  20896407.203    20896407.6634   20896414.3244
       213.0004        214.0004
 -12559131.24748  -9771764.78346  21861230.212    21861231.1354   21861235.8364
       178.0004        179.0004
  -5487542.60748  -4244360.84546  24011142.498    24011142.8964   24011149.5084
       175.0004        174.0004
 -13407451.16048 -10160252.53647  21754179.593    21754180.0454   21754186.2714
       189.0004        188.0004
 21  2  2  1  3  0.0000000  0  8G30G08G07G01G09G21G27G04
  -2720801.25247  -2073669.67946  24019761.323    24019762.0524   24019768.9844
       161.0004        164.0004
 -17860516.45949 -13898556.25747  21191648.170    21191648.6384   21191655.9984
       197.0004        198.0004
 -14424536.40548 -11228634.46847  22136438.518    22136439.0164   22136442.8794
       190.0004        191.0004
 -12701027.56148  -9866440.46346  22359007.098    22359007.3974   22359015.1274
       173.0004        174.0004
 -19203413.63449 -14931751.75348  20901383.268    20901383.8444   20901390.8194
       213.0004        214.0004
 -12578615.87448  -9786947.59846  21857524.235    21857523.6724   21857528.3344
       179.0004        180.0004
  -5379886.37248  -4160472.90646  24031628.382    24031629.4904   24031636.8114
       173.0004        175.0004
 -13323390.99348 -10094751.11446  21770176.637    21770176.3514   21770181.9044
       189.0004        187.0004
 21  2  2  1  3 30.0000000  0  8G30G08G07G01G09G21G27G04
  -2806277.19147  -2140274.27445  24003496.305    24003496.7504   24003502.8274
       160.0004        160.0004
 -17787820.84649 -13841910.31347  21205481.465    21205482.0994   21205489.9204
       197.0004        196.0004
 -14499135.16948 -11286763.36447  22122242.677    22122242.6354   22122246.9834
       191.0004        191.0004
 -12776088.31648  -9924929.34446  22344724.445    22344724.3644   22344732.0234
       173.0004        174.0004
 -19176745.23849 -14910971.18648  20906457.777    20906458.6904   20906465.7454
       213.0004        213.0004
 -12597700.20048  -9801818.48346  21853892.532    21853891.3854   21853896.7964
       179.0004        180.0004
  -5272161.92348  -4076531.77346  24052126.833    24052127.8194   24052135.2374
       173.0004        173.0004
 -13239044.94548 -10029026.91946  21786226.416    21786226.8024   21786232.3174
       188.0004        187.0004
 21  2  2  1  4  0.0000000  0  8G30G08G07G01G09G21G27G04
  -2891837.58547  -2206944.71145  23987214.621    23987214.7094   23987220.1944
       156.0004        156.0004
 -17714770.57849 -13784988.04747  21219381.712    21219382.6504   21219390.6204
       195.0004        195.0004
 -14573666.87148 -11344840.03647  22108060.434    22108060.6124   22108063.5824
       192.0004        192.0004
 -12851019.83648  -9983317.54446  22330465.168    22330465.7794   22330472.6174
       174.0004        175.0004
 -19149560.14649 -14889788.02048  20911631.259    20911631.6354   20911638.7414
       213.0004        213.0004
 -12616381.34248  -9816375.22246  21850336.326    21850336.7764   21850341.6504
       180.0004        180.0004
  -5164370.52948  -3992538.51746  24072639.792    24072639.9124   24072648.0204
       173.0004        175.0004
 -13154414.58448  -9963081.20046  21802331.116    21802331.2214   21802337.0834
       188.0004        187.0004
 21  2  2  1  4 30.0000000  0  8G30G08G07G01G09G21G27G04
  -2977481.87547  -2273680.52745  23970917.259    23970916.6824   23970922.4624
       154.0004        156.0004
 -17641369.25349 -13727792.21447  21233349.345    21233349.9914   21233359.1964
       195.0004        196.0004
 -14648129.58448 -11402862.93447  22093890.405    22093890.6574   22093894.0374
       192.0004        191.0004
 -12925819.75448 -10041603.15946  22316230.714    22316230.9944   22316238.8674
       175.0004        175.0004
 -19121860.91149 -14868204.19547  20916902.274    20916902.6714   20916909.6924
       212.0004        212.0004
 -12634657.73448  -9830616.55446  21846858.129    21846857.8284   21846864.2084
       179.0004        179.0004
  -5056515.84148  -3908495.92246  24093164.737    24093165.1754   24093170.9584
       175.0004        176.0004
 -13069503.66548  -9896916.84946  21818488.636    21818489.7454   21818495.4894
       188.0004        187.0004
 21  2  2  1  5  0.0000000  0  8G30G08G07G01G09G21G27G04
  -3063207.82647  -2340479.98545  23954604.225    23954604.2004   23954610.4464
       154.0004        156.0004
 -17567619.60449 -13670324.97347  21247385.289    21247385.1504   21247392.6654
       196.0004        196.0004
 -14722520.56548 -11460829.94847  22079734.604    22079734.5724   22079738.5514
       191.0004        192.0004
 -13000484.10548 -10099783.17546  22302022.102    22302022.7814   22302030.2994
       174.0004        175.0004
 -19093648.47449 -14846220.50147  20922271.147    20922271.6784   20922277.9174
       212.0004        212.0004
 -12652526.78848  -9844540.49246  21843457.445    21843457.7594   21843462.7604
       179.0004        178.0004
  -4948599.81748  -3824405.51746  24113699.383    24113701.2484   24113708.3534
       175.0004        176.0004
 -12984314.47648  -9830535.68346  21834700.634    21834700.6014   21834706.1954
       188.0004        186.0004
 21  2  2  1  5 30.0000000  0  8G30G08G07G01G09G21G27G04
  -3149014.32047  -2407342.15145  23938274.805    23938274.9874   23938282.2684
       155.0004        157.0004
 -17493523.97749 -13612588.09847  21261484.297    21261484.8544   21261492.1154
       196.0004        196.0004
 -14796837.73748 -11518739.42247  22065591.630    22065592.2444   22065595.8984
       192.0004        192.0004
 -13075010.02148 -10157855.29346  22287840.563    22287840.7174   22287848.8274
       174.0004        174.0004
 -19064924.93249 -14823838.51048  20927737.360    20927737.4284   20927744.2204
       212.0004        213.0004
 -12669987.10148  -9858145.89946  21840136.317    21840135.6874   21840139.2134
       179.0004        179.0004
  -4840625.61148  -3740269.74746  24134246.268    24134247.7004   24134253.8864
       175.0004        176.0004
 -12898850.38248  -9763940.29546  21850963.502    21850963.9684   21850969.7794
       187.0004        187.0004
 21  2  2  1  6  0.0000000  0  8G30G08G07G01G09G21G27G04
  -3234898.65847  -2474264.95545  23921930.719    23921930.6674   23921938.5874
       154.0004        155.0004
 -17419084.72049 -13554583.47047  21275648.980    21275649.8774   21275657.0584
       195.0004        195.0004
 -14871077.34848 -11576588.45847  22051464.427    22051464.9644   22051469.2864
       192.0004        193.0004
 -13149393.08148 -10215816.08746  22273685.791    22273686.2844   22273694.5794
       174.0004        176.0004
 -19035690.76349 -14801058.62748  20933300.526    20933300.6094   20933307.5204
       212.0004        213.0004
 -12687035.82348  -9871430.61446  21836890.995    21836891.2564   21836895.8184
       179.0004        179.0004
  -4732594.65248  -3656089.79446  24154805.144    24154805.8874   24154812.3954
       176.0004        176.0004
 -12813113.14148  -9697132.05046  21867277.931    21867278.8024   21867284.5104
       187.0004        185.0004
 21  2  2  1  6 30.0000000  0  8G30G08G07G01G09G21G27G04
  -3320860.57247  -2541248.22945  23905573.290    23905573.9894   23905580.4724
       155.0004        158.0004
 -17344305.87048 -13496314.21947  21289879.096    21289879.4904   21289887.0984
       194.0004        195.0004
 -14945238.41248 -11634376.29547  22037352.331    22037352.7514   22037356.0644
       193.0004        193.0004
 -13223631.27648 -10273663.99146  22259558.876    22259559.4214   22259567.1094
       175.0004        177.0004
 -19005948.99849 -14777883.21147  20938959.433    20938959.7114   20938966.9474
       212.0004        212.0004
 -12703672.28048  -9884394.07146  21833725.593    21833725.6754   21833730.3874
       179.0004        180.0004
  -4624510.92048  -3571868.68046  24175371.280    24175372.6664   24175379.3594
       176.0004        177.0004
 -12727106.94248  -9630114.22846  21883645.260    21883645.0164   21883651.5424
       186.0004        185.0004
 21  2  2  1  7  0.0000000  0  8G30G08G07G01G09G21G27G04
  -3406897.45447  -2608289.95845  23889202.597    23889201.9054   23889208.5184
       158.0004        161.0004
 -17269189.14448 -13437781.70947  21304173.981    21304174.0464   21304181.7974
       194.0004        195.0004
 -15019317.63948 -11692100.37647  22023254.867    22023255.4524   22023258.7294
       192.0004        192.0004
 -13297720.32848 -10331395.72146  22245459.652    22245460.0604   22245468.2914
       176.0004        175.0004
 -18975700.35849 -14754312.85147  20944715.783    20944716.2764   20944722.7064
       211.0004        212.0004
 -12719893.84548  -9897034.25246  21830639.571    21830638.9944   21830642.8004
       180.0004        181.0004
  -4516375.97648  -3487607.72346  24195949.663    24195950.6194   24195957.1254
       177.0004        178.0004
 -12640833.84348  -9562888.45046  21900062.055    21900062.9964   21900067.8614
       185.0004        185.0004
 21  2  2  1  7 30.0000000  0  9G30G14G08G07G01G09G21G27G04
  -3493008.63047  -2675389.54645  23872815.102    23872815.0304   23872822.1394
       157.0004        159.0004
  -1098390.23955
       101.0004
 -17193738.24748 -13378988.81247  21318531.896    21318532.0694   21318539.2964
       194.0004        194.0004
 -15093313.19148 -11749759.24247  22009173.312    22009174.5104   22009178.7234
       192.0004        192.0004
 -13371657.78448 -10389009.32346  22231390.322    22231391.6644   22231397.3904
       176.0004        177.0004
 -18944947.40649 -14730349.52247  20950568.161    20950568.5014   20950575.2294
       212.0004        212.0004
 -12735699.18248  -9909350.09546  21827631.403    21827631.1154   21827635.7754
       180.0004        181.0004
  -4408193.34648  -3403309.59846  24216536.532    24216537.5354   24216542.9704
       177.0004        179.0004
 -12554297.53048  -9495457.56146  21916529.913    21916529.9014   21916536.1494
       186.0004        186.0004
 21  2  2  1  8  0.0000000  0  8G30G08G07G01G09G21G27G04
  -3579193.30847  -2742546.41345  23856415.594    23856415.3134   23856421.2424
       155.0004        156.0004
 -17117957.14848 -13319938.59647  21332952.204    21332952.8434   21332960.6164
       194.0004        195.0004
 -15167223.45648 -11807351.63947  21995110.009    21995110.3104   21995114.5664
       193.0004        193.0004
 -13445441.23148 -10446502.88146  22217349.772    22217350.7684   22217358.1434
       175.0004        176.0004
 -18913692.80249 -14705995.27747  20956515.467    20956515.8454   20956522.8474
       212.0004        212.0004
 -12751087.42448  -9921340.91646  21824703.322    21824703.8494   21824707.3334
       180.0004        181.0004
  -4299966.54848  -3318977.03546  24237131.824    24237131.9094   24237137.8784
       178.0004        179.0004
 -12467501.81748  -9427824.54146  21933045.317    21933046.3274   21933052.0044
       185.0004        184.0004
 21  2  2  1  8 30.0000000  0  8G30G08G07G01G09G21G27G04
  -3665449.14747  -2809758.75445  23840000.863    23840001.1014   23840008.3754
       153.0004        155.0004
 -17041848.28449 -13260632.99247  21347435.581    21347436.0314   21347443.7154
       195.0004        195.0004
 -15241045.37248 -11864875.21547  21981061.998    21981062.5404   21981066.0684
       194.0004        194.0004
 -13519066.54848 -10503873.24746  22203339.066    22203339.7434   22203348.3564
       176.0004        177.0004
 -18881937.54349 -14681250.92047  20962558.126    20962558.8264   20962565.6664
       211.0004        212.0004
 -12766055.95648  -9933004.70346  21821854.792    21821854.2514   21821859.1194
       180.0004        180.0004
  -4191697.36148  -3234611.41346  24257734.471    24257735.3824   24257741.3604
       180.0004        181.0004
 -12380448.88248  -9359991.10846  21949611.869    21949612.3284   21949618.3064
       185.0004        185.0004
 21  2  2  1  9  0.0000000  0  8G30G08G07G01G09G21G27G04
  -3751773.61047  -2877024.57645  23823573.698    23823573.1884   23823580.7284
       153.0004        155.0004
 -16965413.33548 -13201073.30747  21361980.557    21361981.2714   21361988.6644
       194.0004        194.0004
 -15314775.41548 -11922327.19647  21967030.436    21967031.6614   21967035.4714
       193.0004        192.0004
 -13592529.57348 -10561117.16146  22189359.570    22189360.6714   22189367.6634
       177.0004        178.0004
 -18849682.52249 -14656117.15647  20968695.990    20968696.4604   20968703.3274
       211.0004        211.0004
 -12780602.24548  -9944339.46546  21819086.388    21819086.5654   21819090.9904
       180.0004        181.0004
  -4083387.51548  -3150214.16946  24278346.156    24278346.4404   24278352.1474
       182.0004        183.0004
 -12293140.79748  -9291958.84246  21966226.308    21966226.5164   21966232.6734
       186.0004        185.0004
 21  2  2  1  9 30.0000000  0  8G30G08G07G01G09G21G27G04
  -3838166.42147  -2944343.64245  23807131.773    23807133.4944   23807141.4534
       153.0004        155.0004
 -16888656.22948 -13141262.58647  21376586.964    21376587.8924   21376594.9074
       194.0004        194.0004
 -15388412.70548 -11979706.92047  21953019.181    21953019.5404   21953022.4094
       192.0004        192.0004
 -13665828.29648 -10618233.04246  22175411.187    22175412.0694   22175419.5264
       177.0004        178.0004
 -18816930.92749 -14630596.44147  20974928.429    20974929.2424   20974935.9124
       211.0004        212.0004
 -12794725.82948  -9955344.85546  21816397.658    21816398.5504   21816403.3514
       181.0004        180.0004
  -3975040.96448  -3065788.31546  24298964.033    24298963.4574   24298968.9194
       177.0004        176.0004
 -12205581.87448  -9223731.12146  21982888.371    21982888.2774   21982894.3984
       185.0004        184.0004
 21  2  2  1 10  0.0000000  0  8G30G08G07G01G09G21G27G04
  -3924624.96647  -3011713.93045  23790681.352    23790681.1054   23790687.2144
       154.0004        158.0004
 -16811579.08748 -13081202.46947  21391254.840    21391255.1204   21391262.7124
       194.0004        195.0004
 -15461953.08148 -12037011.10347  21939024.460    21939024.9964   21939028.7734
       193.0004        193.0004
 -13738958.50748 -10675217.60446  22161494.702    22161495.7154   22161503.9854
       177.0004        178.0004
 -18783683.66049 -14604689.47747  20981255.555    20981256.3424   20981262.1354
       211.0004        211.0004
 -12808423.79248  -9966018.59346  21813792.508    21813792.0294   21813796.6744
       180.0004        180.0004
  -3866659.31948  -2981335.05046  24319588.384    24319588.0834   24319592.6544
       175.0004        175.0004
 -12117774.06348  -9155309.44246  21999597.274    21999597.1614   21999603.8604
       184.0004        184.0004
 21  2  2  1 10 30.0000000  0  8G30G08G07G01G09G21G27G04
  -4011147.89847  -3079134.37445  23774217.136    23774217.1114   23774222.8524
       157.0004        160.0004
 -16734185.38348 -13020895.67647  21405981.917    21405981.9644   21405989.7284
       194.0004        194.0004
 -15535395.08848 -12094238.62947  21925049.448    21925049.5884   21925053.6904
       194.0004        195.0004
 -13811917.17348 -10732068.47846  22147609.668    22147611.0474   22147620.1084
       177.0004        177.0004
 -18749942.89449 -14578397.96447  20987675.871    20987676.1924   20987683.5924
       211.0004        212.0004
 -12821694.84248  -9976359.64146  21811267.524    21811266.5614   21811270.7844
       180.0004        179.0004
  -3758245.40748  -2896856.66546  24340217.971    24340218.1334   24340223.9704
       173.0004        172.0004
 -12029720.68848  -9086696.42446  22016353.155    22016354.0374   22016359.8764
       185.0004        185.0004
 21  2  2  1 11  0.0000000  0  8G30G08G07G01G09G21G27G04
  -4097732.68847  -3146603.07245  23757739.475    23757739.6934   23757747.7754
       158.0004        161.0004
 -16656476.86848 -12960343.59547  21420768.374    21420769.2954   21420777.7754
       193.0004        193.0004
 -15608735.39049 -12151386.91647  21911093.685    21911093.7804   21911097.0734
       195.0004        195.0004
 -13884700.21248 -10788782.52346  22133759.981    22133761.3434   22133770.4674
       176.0004        177.0004
 -18715709.66749 -14551722.71447  20994190.125    20994190.3584   20994197.3684
       211.0004        211.0004
 -12834536.74548  -9986366.31346  21808822.640    21808822.2874   21808827.1854
       179.0004        180.0004
  -3649800.98148  -2812354.50546  24360854.581    24360855.5164   24360859.0964
       171.0004        172.0004
 -11941423.88648  -9017893.73146  22033155.995    22033156.5694   22033161.2584
       185.0004        183.0004
 21  2  2  1 11 30.0000000  0  8G30G08G07G01G09G21G27G04
  -4184379.80147  -3214120.25545  23741250.825    23741250.7244   23741258.9204
       158.0004        160.0004
 -16578458.82048 -12899550.30447  21435615.413    21435615.8564   21435623.3004
       193.0004        193.0004
 -15681973.30849 -12208455.41247  21897155.910    21897156.3124   21897160.9104
       195.0004        195.0004
 -13957306.22348 -10845358.61046  22119944.405    22119945.7954   22119953.8434
       177.0004        179.0004
 -18680987.94649 -14524666.82547  21000797.558    21000798.2504   21000804.7934
       210.0004        211.0004
 -12846949.73348  -9996038.74546  21806461.100    21806460.9824   21806465.0844
       180.0004        181.0004
  -3541330.64548  -2727832.14146  24381496.217    24381495.8374   24381501.2794
       174.0004        176.0004
 -11852888.63648  -8948905.22446  22050003.817    22050003.7554   22050009.4824
       184.0004        184.0004
 21  2  2  1 12  0.0000000  0  8G30G08G07G01G09G21G27G04
  -4271086.00947  -3281683.51245  23724751.426    23724751.5534   23724758.8074
       158.0004        160.0004
 -16500132.38048 -12838516.71647  21450520.886    21450521.2084   21450528.9214
       193.0004        193.0004
 -15755104.97749 -12265441.12447  21883239.109    21883239.7244   21883244.1584
       195.0004        194.0004
 -14029730.60448 -10901793.18246  22106163.526    22106164.0934   22106170.7404
       178.0004        179.0004
 -18645778.22349 -14497230.69447  21007498.010    21007498.1304   21007505.1404
       210.0004        211.0004
 -12858930.50748 -10005374.41646  21804181.862    21804181.4024   21804185.4734
       181.0004        182.0004
  -3432835.64448  -2643290.63346  24402141.803    24402141.9124   24402147.6344
       173.0004        173.0004
 -11764116.48348  -8879732.12146  22066895.937    22066896.4564   22066902.6774
       184.0004        183.0004
 21  2  2  1 12 30.0000000  0  9G30G08G07G01G09G21G17G27G04
  -4357849.89047  -3349291.72845  23708241.592    23708241.1764   23708247.2894
       157.0004        158.0004
 -16421500.81049 -12777245.38147  21465483.816    21465484.1604   21465491.9984
       209.0004        211.0004
 -15828127.92648 -12322342.12647  21869343.664    21869344.1614   21869348.4804
       194.0004        195.0004
 -14101970.15748 -10958083.71546  22092415.769    22092416.7924   22092423.8444
       178.0004        179.0004
 -18610082.63849 -14469415.96147  21014290.734    21014290.9674   21014297.5864
       210.0004        210.0004
 -12870478.09648 -10014372.52446  21801983.971    21801983.4514   21801988.2384
       181.0004        182.0004
   -942138.13954   -694703.94445  24190739.616
        74.0004        144.0004
  -3324318.53848  -2558731.83946  24422791.582    24422791.9164   24422796.6584
       171.0004        170.0004
 -11675110.56248  -8810376.87546  22083833.450    22083833.4624   22083839.2884
       183.0004        183.0004
 21  2  2  1 13  0.0000000  0  9G30G08G07G01G09G21G17G27G04
  -4444670.94847  -3416944.49945  23691719.820    23691720.1104   23691726.5444
       157.0004        159.0004
 -16342568.45949 -12715739.66047  21480504.394    21480504.6464   21480511.9984
       212.0004        211.0004
 -15901040.94949 -12379157.46947  21855468.723    21855468.9724   21855473.0264
       195.0004        195.0004
 -14174022.77848 -11014228.60846  22078705.233    22078705.7164   22078714.5724
       178.0004        179.0004
 -18573904.44249 -14441225.16647  21021175.335    21021175.5504   21021182.2304
       210.0004        211.0004
 -12881591.71748 -10023032.48046  21799867.844    21799867.9904   21799874.1024
       182.0004        182.0004
  -1038399.29447   -769712.43645  24172425.151    24172422.7854   24172428.8444
       138.0004        149.0004
  -3215783.14548  -2474158.79646  24443443.648    24443445.4244   24443451.3104
       169.0004        170.0004
 -11585875.14548  -8740842.79346  22100813.106    22100814.5954   22100820.6354
       183.0004        183.0004
 21  2  2  1 13 30.0000000  0  9G30G08G07G01G09G21G17G27G04
  -4531549.19047  -3484641.83745  23675188.084    23675187.9784   23675194.2854
       157.0004        158.0004
 -16263339.73449 -12654002.97648  21495580.898    21495581.1554   21495588.6914
       221.0004        224.0004
 -15973843.33649 -12435886.59647  21841615.275    21841615.8704   21841619.2024
       195.0004        196.0004
 -14245886.94848 -11070226.65446  22065030.506    22065030.9354   22065038.7934
       178.0004        179.0004
 -18537247.33049 -14412661.19047  21028150.687    21028150.9354   21028157.7984
       210.0004        210.0004
 -12892271.48648 -10031354.37746  21797836.207    21797836.0374   21797841.9324
       181.0004        182.0004
  -1134434.58947   -844544.94945  24154147.692    24154148.1704   24154154.9534
       144.0004        149.0004
  -3107233.72948  -2389574.88746  24464100.679    24464101.5004   24464107.5664
       170.0004        171.0004
 -11496414.89148  -8671133.51846  22117837.750    22117838.1834   22117844.7074
       183.0004        183.0004
 21  2  2  1 14  0.0000000  0  9G30G08G07G01G09G21G17G27G04
  -4618480.27147  -3552380.32945  23658644.790    23658645.2664   23658652.5634
       158.0004        160.0004
 -16183814.89049 -12592035.56448  21510714.832    21510714.5724   21510721.5004
       223.0004        223.0004
 -16046529.66349 -12492525.27947  21827782.950    21827783.3114   21827787.7944
       195.0004        194.0004
 -14317556.69648 -11126073.18446  22051391.323    22051391.6104   22051398.5894
       178.0004        177.0004
 -18500110.72849 -14383723.56247  21035217.796    21035218.0134   21035224.5194
       210.0004        210.0004
 -12902513.27648 -10039334.97746  21795888.442    21795887.7004   21795891.9584
       181.0004        181.0004
  -1230239.27547   -919197.75545  24135915.270    24135915.9264   24135922.3394
       146.0004        150.0004
  -2998670.27148  -2304979.95546  24484759.153    24484760.4004   24484766.7204
       171.0004        172.0004
 -11406730.21848  -8601249.35346  22134904.662    22134905.1584   22134910.5224
       184.0004        184.0004
 21  2  2  1 14 30.0000000  0  9G30G08G07G01G09G21G17G27G04
  -4705461.64547  -3620158.05145  23642092.381    23642093.2004   23642100.0124
       159.0004        162.0004
 -16103995.98949 -12529839.04148  21525904.501    21525903.9874   21525910.7534
       224.0004        224.0004
 -16119096.81449 -12549071.12047  21813974.350    21813974.4934   21813979.2254
       195.0004        195.0004
 -14389027.92248 -11181765.06346  22037790.935    22037790.8374   22037798.7604
       178.0004        178.0004
 -18462495.82749 -14354413.26847  21042376.257    21042376.3614   21042382.9084
       211.0004        211.0004
 -12912314.51048 -10046972.28846  21794022.368    21794022.3924   21794026.2474
       180.0004        179.0004
  -1325810.32247   -993668.51245  24117729.920    24117730.5804   24117736.0594
       146.0004        149.0004
  -2890094.29648  -2220375.34246  24505420.783    24505421.3214   24505428.8054
       170.0004        170.0004
 -11316823.26448  -8531192.01246  22152012.653    22152013.5474   22152019.8674
       184.0004        183.0004
 21  2  2  1 15  0.0000000  0  9G30G08G07G01G09G21G17G27G04
  -4792490.56047  -3687972.76445  23625530.106    23625531.2374   23625538.3394
       159.0004        161.0004
 -16023885.25649 -12467415.07048  21541148.321    21541148.4124   21541155.3174
       224.0004        224.0004
 -16191540.98849 -12605521.10547  21800188.380    21800189.2684   21800192.8684
       195.0004        196.0004
 -14460296.27548 -11237298.80746  22024228.330    22024229.5354   22024236.3954
       178.0004        179.0004
 -18424403.69249 -14324731.06547  21049623.855    21049624.5224   21049631.6074
       211.0004        211.0004
 -12921672.94148 -10054264.55646  21792241.588    21792240.8944   21792244.5584
       179.0004        179.0004
  -1421144.30347  -1067954.54045  24099588.831    24099588.0834   24099593.7134
       147.0004        151.0004
  -2781507.41048  -2135762.18546  24526084.772    24526085.1654   24526091.3314
       170.0004        172.0004
 -11226695.98548  -8460962.93846  22169164.220    22169163.5804   22169170.5284
       183.0004        182.0004
 21  2  2  1 15 30.0000000  0 10G30G14G08G07G01G09G21G17G27G04
  -4879565.59847  -3755823.43745  23608960.312    23608961.2364   23608969.0064
       157.0004        159.0004
   -394603.73754   -285323.71543  23600666.722
        74.0004         74.0004
 -15943485.92249 -12404766.25848  21556448.172    21556447.7784   21556454.6714
       224.0004        224.0004
 -16263860.18049 -12661873.74247  21786426.900    21786427.6514   21786430.9354
       196.0004        196.0004
 -14531358.74548 -11292672.16646  22010704.499    22010706.4684   22010714.6514
       178.0004        178.0004
 -18385836.70049 -14294678.88347  21056963.513    21056964.1204   21056970.6644
       211.0004        211.0004
 -12930587.29848 -10061210.82946  21790545.253    21790545.2664   21790548.6254
       179.0004        179.0004
  -1516239.45347  -1142054.50145  24081493.774    24081493.3314   24081496.9604
       148.0004        151.0004
  -2672912.40148  -2051142.67746  24546747.440    24546748.8064   24546757.6984
       170.0004        170.0004
 -11136351.71248  -8390564.82046  22186356.029    22186356.3384   22186362.4574
       183.0004        183.0004
 21  2  2  1 16  0.0000000  0 10G30G14G08G07G01G09G21G17G27G04
  -4966686.23547  -3823709.60545  23592382.921    23592383.3604   23592391.2074
       159.0004        162.0004
   -421786.90544   -306505.31844  23595491.682
        74.0004        129.0004
 -15862801.92349 -12341895.59348  21571800.711    21571801.2684   21571808.8764
       224.0004        224.0004
 -16336053.07449 -12718127.92847  21772688.656    21772688.9784   21772692.7414
       196.0004        195.0004
 -14602213.37448 -11347883.53446  21997221.780    21997223.6264   21997231.2594
       178.0004        179.0004
 -18346798.25849 -14264259.31147  21064391.788    21064392.5754   21064398.9474
       210.0004        210.0004
 -12939057.37348 -10067810.87546  21788933.236    21788932.7494   21788936.8214
       179.0004        181.0004
  -1611094.68947  -1215967.47245  24063441.237    24063441.8344   24063446.8594
       148.0004        151.0004
  -2564312.93748  -1966519.74946  24567413.942    24567414.9584   24567422.7024
       168.0004        169.0004
 -11045794.75648  -8320000.94246  22203588.362    22203588.6354   22203594.6864
       182.0004        181.0004
 21  2  2  1 16 30.0000000  0  9G30G14G08G07G01G09G21G17G04
  -5053849.27847  -3891628.86446  23575797.684    23575797.2254   23575803.6494
       161.0004        163.0004
   -448455.29844   -327285.848 5                                  23590422.096
        74.0004        141.000
 -15781834.72149 -12278804.28048  21587208.076    21587208.6634   21587216.1684
       224.0004        222.0004
 -16408115.40249 -12774280.39747  21758975.408    21758976.1154   21758980.1284
       195.0004        195.0004
 -14672855.35448 -11402929.23546  21983779.825    21983780.8944   21983787.9244
       179.0004        180.0004
 -18307289.05549 -14233472.93247  21071910.296    21071910.7224   21071917.3224
       210.0004        210.0004
 -12947080.21048 -10074062.44046  21787407.271    21787406.8104   21787410.7884
       181.0004        181.0004
  -1705706.53647  -1289690.82645  24045437.153    24045437.5244   24045443.0644
       147.0004        150.0004
 -10955026.64548  -8249272.55646  22220860.250    22220860.7294   22220868.1434
       181.0004        182.0004
 21  2  2  1 17  0.0000000  0  9G30G14G08G07G01G09G21G17G04
  -5141055.30147  -3959581.59446  23559202.866    23559202.1244   23559208.5544
       161.0004        163.0004
   -475966.86846   -348723.40845  23585178.878                    23585180.0314
       122.0004        140.0004
 -15700589.99949 -12215496.68248  21602668.903    21602669.0914   21602676.0024
       223.0004        222.0004
 -16480047.19649 -12830331.12547  21745287.456    21745288.1364   21745291.9464
       195.0004        196.0004
 -14743283.75648 -11457808.47846  21970377.701    21970378.9594   21970385.8184
       179.0004        180.0004
 -18267313.56649 -14202323.18547  21079517.099    21079517.7114   21079524.6504
       210.0004        210.0004
 -12954656.62648 -10079966.11646  21785964.799    21785964.6554   21785970.0894
       182.0004        183.0004
  -1800075.36247  -1363224.82145  24027479.516    24027479.5314   24027484.2204
       149.0004        152.0004
 -10864052.70948  -8178383.77446  22238172.469    22238172.7934   22238179.1514
       181.0004        181.0004
 21  2  2  1 17 30.0000000  0  9G30G14G08G07G01G09G21G17G04
  -5228301.48547  -4027565.64846  23542600.085    23542600.6144   23542606.5304
       163.0004        164.0004
   -502967.51947   -369762.80545  23580043.238    23580043.1774   23580047.1204
       136.0004        143.0004
 -15619069.69649 -12151974.37248  21618183.202    21618182.6184   21618189.0104
       223.0004        223.0004
 -16551844.95449 -12886277.43747  21731625.048    21731625.1824   21731629.7124
       196.0004        196.0004
 -14813494.19548 -11512517.90046  21957016.438    21957017.4504   21957025.9374
       179.0004        179.0004
 -18226872.88449 -14170810.97647  21087213.647    21087213.6154   21087220.0124
       210.0004        210.0004
 -12961784.07648 -10085519.97246  21784607.654    21784608.1554   21784613.6134
       182.0004        182.0004
  -1894197.90647  -1436566.85145  24009568.339    24009568.9084   24009574.1204
       151.0004        154.0004
 -10772874.91748  -8107336.15546  22255523.553    22255523.1484   22255528.7184
       180.0004        179.0004
 21  2  2  1 18  0.0000000  0  9G30G14G08G07G01G09G21G17G04
  -5315587.15647  -4095580.43946  23525990.127    23525989.7474   23525997.2464
       164.0004        166.0004
   -529911.09447   -390757.74345  23574918.542    23574918.1354   23574921.8344
       140.0004        145.0004
 -15537277.49149 -12088240.18748  21633746.836    21633747.0904   21633753.3444
       223.0004        223.0004
 -16623506.59949 -12942117.67047  21717987.891    21717988.2164   21717992.6564
       196.0004        196.0004
 -14883484.54848 -11567055.82646  21943698.800    21943699.6514   21943706.5374
       179.0004        181.0004
 -18185970.33449 -14138938.86247  21094996.667    21094996.8384   21095003.8424
       210.0004        210.0004
 -12968462.53448 -10090723.94346  21783337.606    21783337.1684   21783342.6714
       182.0004        181.0004
  -1988073.18347  -1509716.20545  23991704.349    23991704.8774   23991711.1324
       153.0004        157.0004
 -10681497.41748  -8036132.90846  22272910.871    22272912.0844   22272917.3554
       179.0004        178.0004
 21  2  2  1 18 30.0000000  0  9G30G14G08G07G01G09G21G17G04
  -5402910.35247  -4163624.45246  23509373.572    23509372.9694   23509380.2744
       164.0004        166.0004
   -556798.71947   -411709.10545  23569798.403    23569799.3214   23569808.5304
       144.0004        150.0004
 -15455215.88749 -12024296.08148  21649362.429    21649362.5854   21649369.4884
       223.0004        222.0004
 -16695029.93249 -12997850.13147  21704377.681    21704378.4414   21704382.3724
       196.0004        196.0004
 -14953251.30748 -11621419.52346  21930422.796    21930423.0594   21930431.1914
       180.0004        181.0004
 -18144607.88849 -14106708.38747  21102867.717    21102868.0974   21102874.5554
       209.0004        210.0004
 -12974690.46548 -10095576.85546  21782152.747    21782151.9034   21782157.3534
       182.0004        183.0004
  -2081699.02047  -1582671.19545  23973886.997    23973887.6314   23973893.8714
       155.0004        158.0004
 -10589923.06148  -7964776.27646  22290337.697    22290337.3224   22290344.3504
       178.0004        177.0004
 21  2  2  1 19  0.0000000  0  9G30G14G08G07G01G09G21G17G04
  -5490268.85448  -4231696.00246  23492749.838    23492750.0204   23492756.0784
       165.0004        167.0004
   -583631.14447   -432617.49345  23564692.494    23564693.2634   23564701.8934
       149.0004        154.0004
 -15372888.13249 -11960144.58248  21665028.551    21665029.0264   21665035.5494
       222.0004        221.0004
 -16766411.64449 -13053472.24147  21690795.222    21690795.1484   21690797.9504
       196.0004        196.0004
 -15022790.79748 -11675606.13646  21917189.476    21917190.2364   21917197.1424
       180.0004        180.0004
 -18102787.56249 -14074121.11847  21110826.214    21110826.6364   21110832.7094
       209.0004        210.0004
 -12980466.07648 -10100077.32846  21781053.327    21781053.2304   21781057.8744
       182.0004        183.0004
  -2175072.94747  -1655429.90345  23956120.286    23956119.8644   23956124.8114
       155.0004        157.0004
 -10498154.40548  -7893268.22946  22307799.948    22307800.6064   22307806.8834
       177.0004        177.0004
 21  2  2  1 19 30.0000000  0  9G30G14G08G07G01G09G21G17G04
  -5577659.42048  -4299792.55046  23476119.480    23476119.5694   23476126.3254
       165.0004        166.0004
   -610408.38247   -453482.86545  23559598.957    23559599.7994   23559606.3854
       154.0004        157.0004
 -15290295.56149 -11895786.74048  21680746.161    21680746.3184   21680752.6434
       222.0004        222.0004
 -16837648.16049 -13108981.22747  21677238.291    21677238.8574   21677242.9844
       197.0004        197.0004
 -15092098.32348 -11729611.99046  21904001.114    21904001.8764   21904009.7724
       180.0004        182.0004
 -18060510.07049 -14041177.63047  21118871.139    21118871.4664   21118877.8184
       209.0004        210.0004
 -12985786.45548 -10104223.08046  21780040.091    21780040.6324   21780045.0314
       182.0004        182.0004
  -2268191.03847  -1727989.24745  23938398.838    23938399.7494   23938405.2204
       154.0004        156.0004
 -10406193.14048  -7821610.11546  22325300.162    22325300.9484   22325306.8464
       177.0004        178.0004
 21  2  2  1 20  0.0000000  0  9G30G14G08G07G01G09G21G17G04
  -5665081.74148  -4367913.83646  23459483.592    23459482.9394   23459490.3824
       165.0004        167.0004
   -637133.15347   -474307.38145  23554512.756    23554513.6524   23554518.2324
       154.0004        155.0004
 -15207442.53549 -11831225.94748  21696513.688    21696513.0324   21696519.3004
       223.0004        223.0004
 -16908738.15149 -13164376.02947  21663710.451    21663711.0834   21663715.1504
       197.0004        198.0004
 -15161172.09348 -11783435.69646  21890856.542    21890856.9604   21890865.1544
       182.0004        182.0004
 -18017779.20049 -14007880.84947  21127002.122    21127002.7254   21127009.6584
       209.0004        210.0004
 -12990651.78748 -10108014.26646  21779115.435    21779115.2524   21779118.1544
       182.0004        182.0004
  -2361053.03347  -1800349.05445  23920728.133    23920728.5114   23920733.8094
       155.0004        159.0004
 -10314043.73248  -7749805.39946  22342836.171    22342836.2924   22342841.7354
       178.0004        178.0004
 21  2  2  1 20 30.0000000  0  9G30G14G08G07G01G09G21G17G04
  -5752533.56447  -4436058.10946  23442839.858    23442841.0194   23442848.3244
       164.0004        163.0004
   -663806.37747   -495091.67345  23549437.725    23549437.5944   23549441.7944
       151.0004        153.0004
 -15124331.68349 -11766464.23348  21712327.604    21712327.8114   21712334.9854
       223.0004        223.0004
 -16979678.64249 -13219654.31747  21650211.352    21650211.5974   21650214.7484
       197.0004        197.0004
 -15230008.46848 -11837074.40546  21877757.100    21877757.1844   21877765.9494
       181.0004        181.0004
 -17974596.85549 -13974232.25547  21135219.864    21135220.2634   21135226.7414
       210.0004        210.0004
 -12995060.62648 -10111449.69746  21778277.505    21778276.5204   21778280.2194
       182.0004        182.0004
  -2453656.46947  -1872507.39845  23903106.150    23903106.3844   23903111.9604
       157.0004        159.0004
 -10221708.82748  -7677856.11246  22360405.926    22360407.2834   22360412.2914
       177.0004        175.0004
 21  2  2  1 21  0.0000000  0  9G30G14G08G07G01G09G21G17G04
  -5840012.39747  -4504223.44546  23426193.562    23426194.2604   23426201.8484
       162.0004        163.0004
   -690428.63147   -515836.25445  23544370.068    23544371.1364   23544375.2684
       151.0004        154.0004
 -15040965.24849 -11701503.38948  21728192.052    21728192.2654   21728198.8554
       223.0004        222.0004
 -17050466.09649 -13274813.37747  21636740.302    21636740.6674   21636744.5094
       197.0004        197.0004
 -15298603.40348 -11890525.00346  21864704.244    21864704.6874   21864712.0184
       181.0004        182.0004
 -17930964.61049 -13940233.11447  21143523.236    21143523.3604   21143529.4984
       210.0004        210.0004
 -12999010.93648 -10114527.86546  21777525.023    21777523.9594   21777528.3544
       182.0004        183.0004
  -2545998.37147  -1944461.96245  23885533.937    23885534.3404   23885539.8174
       157.0004        159.0004
 -10129190.74748  -7605764.10246  22378011.387    22378012.3664   22378017.5344
       176.0004        176.0004
 21  2  2  1 21 30.0000000  0  9G30G14G08G07G01G09G21G17G04
  -5927516.86347  -4572408.72446  23409542.163    23409542.1044   23409550.1184
       162.0004        164.0004
   -717001.69547   -536542.51945  23539314.607    23539315.3594   23539319.6084
       155.0004        159.0004
 -14957346.66149 -11636346.04948  21744104.220    21744104.2744   21744111.0024
       222.0004        221.0004
 -17121098.61649 -13329851.70447  21623298.946    21623299.9774   21623304.2664
       197.0004        198.0004
 -15366954.20348 -11943785.37246  21851697.640    21851698.7614   21851704.9854
       182.0004        183.0004
 -17886885.31949 -13905885.62747  21151910.254    21151910.9064   21151917.5884
       209.0004        209.0004
 -13002501.98548 -10117248.16146  21776859.866    21776859.5394   21776864.7634
       183.0004        183.0004
  -2638077.73747  -2016211.96645  23868012.303    23868012.5354   23868016.2374
       157.0004        160.0004
 -10036493.08948  -7533532.16546  22395652.406    22395651.9424   22395658.5184
       176.0004        177.0004
 21  2  2  1 22  0.0000000  0  9G30G14G08G07G01G09G21G17G04
  -6015045.30847  -4640612.70146  23392886.813    23392887.5374   23392894.3024
       164.0004        168.0004
   -743527.09547   -557211.62745  23534267.270    23534267.3514   23534271.6214
       158.0004        160.0004
 -14873478.95149 -11570994.58748  21760063.135    21760063.5174   21760070.4334
       221.0004        221.0004
 -17191573.75649 -13384767.39047  21609888.149    21609888.8024   21609892.9374
       197.0004        198.0004
 -15435057.80448 -11996853.08246  21838736.820    21838738.0274   21838746.3884
       182.0004        182.0004
 -17842361.55449 -13871191.77647  21160382.975    21160383.5294   21160390.0744
       209.0004        209.0004
 -13005532.60248 -10119609.67846  21776283.410    21776282.9284   21776288.5154
       184.0004        185.0004
  -2729892.18047  -2087755.57945  23850540.540    23850540.4554   23850544.6764
       158.0004        160.0004
  -9943619.12148  -7461162.86546  22413325.302    22413325.9974   22413332.5654
       177.0004        177.0004
 21  2  2  1 22 30.0000000  0  9G30G14G08G07G01G09G21G17G04
  -6102595.80548  -4708833.86746  23376227.470    23376227.3034   23376233.2914
       165.0004        165.0004
   -770005.99847   -577844.52445  23529228.490    23529229.1484   23529232.9474
       158.0004        160.0004
 -14789365.44549 -11505451.59548  21776069.981    21776070.1384   21776077.0354
       222.0004        222.0004
 -17261888.74749 -13439558.29347  21596508.210    21596508.2464   21596512.0434
       197.0004        197.0004
 -15502910.84948 -12049725.57646  21825825.185    21825826.5264   21825834.4624
       182.0004        183.0004
 -17797395.58949 -13836153.36247  21168940.147    21168940.6284   21168947.1474
       209.0004        210.0004
 -13008101.62148 -10121611.49446  21775794.992    21775795.0644   21775800.4704
       185.0004        186.0004
  -2821440.03447  -2159091.39645  23833117.224    23833118.0094   23833123.8324
       156.0004        156.0004
  -9850571.64248  -7388658.33046  22431032.389    22431032.0394   22431038.2814
       177.0004        177.0004
 21  2  2  1 23  0.0000000  0  9G30G14G08G07G01G09G21G17G04
  -6190166.04947  -4777070.44646  23359562.432    23359562.9444   23359569.7914
       162.0004        163.0004
   -796439.25647   -598441.85445  23524197.312    23524197.5984   23524202.8374
       158.0004        160.0004
 -14705008.16749 -11439718.64848  21792122.641    21792122.7714   21792129.5804
       222.0004        221.0004
 -17332040.72349 -13494222.16947  21583158.346    21583159.1694   21583163.1724
       198.0004        199.0004
 -15570509.62248 -12102399.94946  21812961.503    21812962.1954   21812970.3704
       182.0004        183.0004
 -17751989.39049 -13800771.91647  21177580.515    21177580.8174   21177587.4894
       209.0004        210.0004
 -13010207.29748 -10123252.26846  21775394.555    21775393.8114   21775400.0614
       187.0004        187.0004
  -2912718.65947  -2230217.43045  23815747.392    23815747.3984   23815753.2354
       151.0004        152.0004
  -9757353.33248  -7316020.69646  22448770.570    22448771.1924   22448777.0824
       177.0004        177.0004
 21  2  2  1 23 30.0000000  0  9G30G14G08G07G01G09G21G17G04
  -6277753.43447  -4845320.33146  23342894.899    23342895.4084   23342902.5624
       163.0004        165.0004
   -822827.41047   -619004.03946  23519176.684    23519176.5294   23519181.5074
       160.0004        163.0004
 -14620409.87449 -11373797.89748  21808221.063    21808221.1074   21808227.7404
       221.0004        220.0004
 -17402026.22349 -13548756.31347  21569840.825    21569841.2414   21569845.4024
       199.0004        198.0004
 -15637850.19348 -12154873.11346  21800147.673    21800148.2824   21800156.1714
       183.0004        184.0004
 -17706144.62949 -13765048.72947  21186304.515    21186305.3104   21186311.1684
       209.0004        209.0004
 -13011847.96048 -10124530.69647  21775081.759    21775081.4724   21775088.4914
       187.0004        188.0004
  -3003725.26747  -2301131.52945  23798429.789    23798430.8544   23798435.4224
       151.0004        155.0004
  -9663966.48948  -7243251.71746  22466541.157    22466541.8824   22466548.0394
       177.0004        176.0004
 21  2  2  1 24  0.0000000  0  9G30G14G08G07G01G09G21G17G04
  -6365357.52448  -4913583.24546  23326225.777    23326225.2424   23326232.7824
       165.0004        168.0004
   -849173.27047   -639533.26446  23514163.442    23514163.2354   23514168.0154
       163.0004        166.0004
 -14535574.74249 -11307692.61148  21824364.604    21824364.6104   21824371.4624
       220.0004        220.0004
 -17471844.21349 -13603159.94947  21556554.909    21556555.4354   21556559.4094
       198.0004        199.0004
 -15704930.74048 -12207143.66146  21787382.697    21787382.8004   21787391.6614
       184.0004        185.0004
 -17659865.18349 -13728986.83147  21195110.946    21195111.3844   21195118.0474
       209.0004        209.0004
 -13013023.94948 -10125447.04946  21774857.525    21774857.2054   21774864.5794
       187.0004        187.0004
  -3094459.50447  -2371833.38645  23781164.453    23781164.3724   23781167.9564
       153.0004        156.0004
  -9570415.59448  -7170354.92346  22484344.222    22484343.8554   22484349.8804
       177.0004        177.0004
 21  2  2  1 24 30.0000000  0  9G30G14G08G07G01G09G21G17G04
  -6452976.64048  -4981857.88646  23309550.831    23309551.4874   23309559.5304
       165.0004        166.0004
   -875478.28148   -660030.67946  23509157.436    23509158.3454   23509162.3154
       165.0004        166.0004
 -14450505.91449 -11241405.23848  21840551.962    21840552.5054   21840559.2054
       220.0004        219.0004
 -17541492.12549 -13657431.07447  21543301.709    21543301.6814   21543305.6864
       199.0004        199.0004
 -15771748.20548 -12259209.21246  21774667.357    21774667.7354   21774676.0964
       184.0004        185.0004
 -17613153.68249 -13692588.26347  21203999.269    21204000.0504   21204007.3824
       209.0004        209.0004
 -13013734.61348 -10126000.80346  21774722.985    21774722.5734   21774729.0514
       187.0004        187.0004
  -3184919.55447  -2442321.64745  23763949.741    23763951.2284   23763956.2664
       154.0004        158.0004
  -9476703.91748  -7097332.85346  22502176.097    22502177.4094   22502182.1494
       177.0004        177.0004
 21  2  2  1 25  0.0000000  0  9G30G14G08G07G01G09G21G17G04
  -6540607.36348  -5050141.53146  23292876.909    23292876.1604   23292883.3394
       165.0004        167.0004
   -901742.29847   -680496.10546  23504158.798    23504159.6114   23504165.1094
       163.0004        164.0004
 -14365204.85849 -11174936.85748  21856784.961    21856785.0174   21856791.5844
       219.0004        219.0004
 -17610965.90949 -13711566.45647  21530081.134    21530080.9284   21530085.3674
       199.0004        199.0004
 -15838297.91148 -12311066.08646  21762002.925    21762003.9814   21762011.4804
       184.0004        184.0004
 -17566011.13449 -13655853.79547  21212971.427    21212971.5454   21212977.6614
       209.0004        208.0004
 -13013977.22248 -10126189.80546  21774676.224    21774676.2634   21774682.8354
       187.0004        187.0004
  -3275101.61947  -2512593.24845  23746788.828    23746789.8634   23746795.8854
       157.0004        161.0004
  -9382833.03948  -7024186.69146  22520039.638    22520040.2954   22520045.3754
       177.0004        177.0004
 21  2  2  1 25 30.0000000  0  9G30G14G08G07G01G09G21G17G04
  -6628247.86047  -5118432.82346  23276197.701    23276198.0414   23276204.6434
       164.0004        164.0004
   -927966.64247   -700930.68346  23499168.239    23499169.0814   23499174.7304
       162.0004        163.0004
 -14279674.56149 -11108289.89848  21873061.527    21873061.4584   21873067.5424
       220.0004        219.0004
 -17680262.97749 -13765564.18647  21516894.104    21516894.5274   21516898.8414
       199.0004        200.0004
 -15904576.65348 -12362711.87446  21749391.805    21749392.3554   21749399.6604
       184.0004        186.0004
 -17518440.02349 -13618785.42047  21222023.637    21222023.7914   21222030.2674
       208.0004        208.0004
 -13013750.43448 -10126013.09146  21774718.770    21774718.7304   21774725.6354
       186.0004        186.0004
  -3365004.09047  -2582647.05845  23729681.628    23729681.7914   23729685.9824
       157.0004        158.0004
  -9288805.99948  -6950918.90346  22537932.096    22537933.0124   22537937.8984
       177.0004        177.0004
 21  2  2  1 26  0.0000000  0  9G30G14G08G07G01G09G21G17G04
  -6715896.80248  -5186730.69846  23259519.202    23259519.7804   23259526.2584
       165.0004        168.0004
   -954153.26047   -721335.83145  23494185.402    23494186.4944   23494190.9904
       161.0004        162.0004
 -14193918.78349 -11041467.20548  21889379.782    21889380.0534   21889386.3264
       220.0004        219.0004
 -17749381.26249 -13819422.59347  21503741.619    21503741.9024   21503745.4654
       200.0004        199.0004
 -15970581.91648 -12414144.54246  21736831.471    21736831.4684   21736838.9914
       185.0004        185.0004
 -17470443.52949 -13581385.55647  21231156.186    21231157.1394   21231164.3524
       208.0004        208.0004
 -13013054.26948 -10125470.63146  21774851.914    21774851.4204   21774857.2684
       186.0004        186.0004
  -3454626.07347  -2652482.29445  23712627.158    23712627.1014   23712631.7184
       155.0004        156.0004
  -9194626.54248  -6877532.31746  22555854.697    22555854.2554   22555860.1734
       176.0004        176.0004
 21  2  2  1 26 30.0000000  0  9G30G14G08G07G01G09G21G17G04
  -6803552.53748  -5255033.85246  23242839.390    23242839.2054   23242846.5494
       168.0004        170.0004
   -980303.69947   -741712.74746  23489210.517    23489210.2274   23489215.9654
       162.0004        164.0004
 -14107940.42549 -10974471.07448  21905740.546    21905740.7474   21905747.2154
       219.0004        218.0004
 -17818318.36449 -13873139.81247  21490622.824    21490623.5954   21490627.6164
       199.0004        199.0004
 -16036310.67648 -12465361.72746  21724322.197    21724323.4384   21724331.6724
       185.0004        185.0004
 -17422024.41449 -13543656.36847  21240371.336    21240371.4254   21240377.9394
       208.0004        208.0004
 -13011887.86548 -10124561.70746  21775074.060    21775073.2264   21775078.6464
       185.0004        184.0004
  -3543965.81947  -2722097.57045  23695624.698    23695626.2284   23695631.6054
       154.0004        157.0004
  -9100297.95148  -6804029.51246  22573802.960    22573804.3234   22573810.2304
       176.0004        177.0004
 21  2  2  1 27  0.0000000  0  9G30G14G08G07G01G09G21G17G04
  -6891211.16248  -5323339.26846  23226158.737    23226158.0464   23226165.1814
       167.0004        167.0004
  -1006417.17747   -762060.91046  23484238.466    23484239.5654   23484245.3424
       162.0004        164.0004
 -14021740.90149 -10907302.63948  21922143.837    21922144.1564   21922150.5944
       219.0004        218.0004
 -17887069.74549 -13926712.33847  21477541.128    21477540.9724   21477545.1004
       200.0004        200.0004
 -16101757.69448 -12516359.42646  21711869.316    21711869.8414   21711876.9614
       185.0004        186.0004
 -17373183.21949 -13505598.32947  21249665.606    21249665.5614   21249671.8054
       208.0004        208.0004
 -13010248.17848 -10123284.05046  21775385.478    21775386.2384   21775389.8394
       184.0004        184.0004
  -3633018.92447  -2791489.59945  23678678.347    23678679.2714   23678683.8854
       155.0004        158.0004
  -9005821.23748  -6730411.32646  22591781.796    22591782.6294   22591788.8334
       175.0004        175.0004
 21  2  2  1 27 30.0000000  0  9G30G14G08G07G01G09G21G17G04
  -6978872.39148  -5391646.68846  23209476.349    23209476.9584   23209483.2584
       166.0004        168.0004
  -1032496.68147   -782382.58046  23479278.291    23479278.5594   23479282.4274
       162.0004        164.0004
 -13935324.52149 -10839965.18348  21938588.453    21938588.9444   21938595.2734
       219.0004        219.0004
 -17955634.01249 -13980139.02547  21464493.361    21464493.3854   21464497.0874
       200.0004        199.0004
 -16166921.43248 -12567136.34046  21699469.660    21699469.4764   21699477.0454
       185.0004        186.0004
 -17323924.12549 -13467214.60247  21259038.634    21259039.0984   21259045.8164
       207.0004        208.0004
 -13008136.08448 -10121638.24346  21775788.342    21775787.0104   21775792.1554
       183.0004        183.0004
  -3721785.61547  -2860658.32345  23661787.769    23661788.0064   23661792.7004
       157.0004        160.0004
  -8911201.12148  -6656681.33246  22609787.911    22609788.0674   22609794.7344
       176.0004        176.0004
 21  2  2  1 28  0.0000000  0  9G30G14G08G07G01G09G21G17G04
  -7066533.95748  -5459954.41346  23192795.429    23192795.4324   23192802.6964
       168.0004        170.0004
  -1058543.28847   -802678.62546  23474321.332    23474321.6354   23474326.3284
       163.0004        164.0004
 -13848694.26349 -10772461.08748  21955073.899    21955073.8514   21955080.5774
       219.0004        218.0004
 -18024009.09049 -14033418.31047  21451480.970    21451481.5754   21451485.9514
       199.0004        199.0004
 -16231798.47548 -12617689.87046  21687123.447    21687123.5964   21687131.0604
       185.0004        186.0004
 -17274249.44549 -13428507.05947  21268491.375    21268491.7224   21268498.2544
       207.0004        207.0004
 -13005550.17548 -10119623.23446  21776280.829    21776279.8814   21776283.7344
       182.0004        182.0004
  -3810263.65947  -2929602.19645  23644951.938    23644951.5194   23644954.9574
       157.0004        159.0004
  -8816440.36448  -6582841.78946  22627819.628    22627820.5274   22627826.9994
       175.0004        175.0004
 21  2  2  1 28 30.0000000  0  9G30G14G08G07G01G09G21G17G04
  -7154195.42648  -5528262.03146  23176113.976    23176114.0734   23176120.9414
       169.0004        170.0004
  -1084559.73747   -822951.13746  23469371.328    23469371.6714   23469375.7614
       164.0004        165.0004
 -13761854.23649 -10704793.52548  21971598.466    21971598.9564   21971605.3384
       218.0004        216.0004
 -18092193.19249 -14086548.77147  21438506.326    21438506.7934   21438510.5264
       199.0004        200.0004
 -16296387.09648 -12668018.64746  21674831.406    21674832.3734   21674840.0604
       185.0004        185.0004
 -17224163.24849 -13389478.85247  21278022.948    21278023.1204   21278029.3104
       207.0004        207.0004
 -13002491.31448 -10117239.70346  21776862.789    21776862.0994   21776864.8604
       182.0004        182.0004
  -3898452.53447  -2998320.75145  23628169.672    23628170.7024   23628173.4034
       156.0004        157.0004
  -8721543.53148  -6508896.21246  22645878.880    22645879.3084   22645884.9884
       175.0004        175.0004
 21  2  2  1 29  0.0000000  0  9G30G14G08G07G01G09G21G17G04
  -7241852.13548  -5596565.98946  23159433.520    23159433.1104   23159440.9134
       170.0004        171.0004
  -1110544.64947   -843199.09846  23464425.339    23464426.0944   23464431.0264
       163.0004        164.0004
 -13674804.81049 -10636962.82548  21988163.642    21988163.9164   21988170.9214
       217.0004        217.0004
 -18160181.02249 -14139526.30647  21425568.426    21425569.0364   21425573.3494
       200.0004        200.0004
 -16360681.42648 -12718118.12546  21662596.838    21662598.1484   21662605.7804
       185.0004        186.0004
 -17173665.46649 -13350129.94447  21287631.697    21287632.3134   21287639.0914
       207.0004        207.0004
 -12998955.79248 -10114484.76846  21777535.849    21777535.1314   21777538.3344
       182.0004        182.0004
  -3986347.81047  -3066810.52645  23611444.283    23611443.9004   23611447.4164
       157.0004        159.0004
  -8626510.97448  -6434844.89446  22663962.225    22663962.6754   22663969.1964
       174.0004        175.0004
 21  2  2  1 29 30.0000000  0  9G30G14G08G07G01G09G21G17G04
  -7329504.16248  -5664866.24146  23142754.716    23142754.4004   23142760.5114
       171.0004        173.0004
  -1136501.28947   -863425.01846  23459486.095    23459486.5834   23459491.2534
       162.0004        164.0004
 -13587551.12249 -10568972.93448  22004767.576    22004767.5774   22004774.3884
       218.0004        217.0004
 -18227972.30649 -14192350.66547  21412668.536    21412668.8674   21412672.7514
       200.0004        200.0004
 -16424680.28948 -12767987.34646  21650419.032    21650419.7764   21650427.3544
       186.0004        187.0004
 -17122760.68849 -13310463.85847  21297319.114    21297319.2014   21297326.1554
       207.0004        208.0004
 -12994944.83348 -10111359.32146  21778297.624    21778297.6834   21778301.0574
       181.0004        180.0004
  -4073949.90147  -3135071.80945  23594773.043    23594773.1734   23594778.1404
       158.0004        161.0004
  -8531347.74548  -6360691.72746  22682072.128    22682073.0604   22682077.8654
       174.0004        174.0004
 21  2  2  1 30  0.0000000  0  9G30G14G08G07G01G09G21G17G04
  -7417146.93148  -5733159.31046  23126075.842    23126076.3154   23126083.6054
       172.0004        173.0004
  -1162428.37747   -883627.96645  23454551.565    23454553.2594   23454557.3754
       161.0004        162.0004
 -13500093.65549 -10500824.27648  22021410.037    22021410.1704   22021416.9714
       218.0004        217.0004
 -18295561.48549 -14245017.57347  21399806.784    21399806.8364   21399810.8004
       200.0004        199.0004
 -16488377.96648 -12817621.90346  21638297.081    21638297.5994   21638305.1124
       186.0004        186.0004
 -17071448.98849 -13270480.75347  21307083.020    21307083.5544   21307090.3874
       207.0004        207.0004
 -12990455.01748 -10107860.78146  21779152.876    21779152.8414   21779156.2234
       181.0004        181.0004
  -4161254.10047  -3203101.01245  23578160.410    23578160.7684   23578165.6294
       159.0004        161.0004
  -8436054.35348  -6286437.14246  22700204.762    22700205.0284   22700211.3994
       173.0004        174.0004
 21  2  2  1 30 30.0000000  0  9G30G14G08G07G01G09G21G17G04
  -7504779.29748  -5801444.24046  23109400.585    23109401.0644   23109407.8564
       172.0004        173.0004
  -1188328.14247   -903809.56445  23449623.625    23449623.8844   23449629.5364
       160.0004        162.0004
 -13412436.34849 -10432519.86848  22038090.628    22038090.8444   22038097.6484
       218.0004        217.0004
 -18362946.82249 -14297525.62547  21386983.556    21386983.9764   21386988.0674
       200.0004        201.0004
 -16551772.17948 -12867019.97546  21626233.762    21626234.5194   21626241.6574
       186.0004        187.0004
 -17019733.93849 -13230183.29847  21316923.311    21316923.9734   21316931.0854
       206.0004        205.0004
 -12985486.51748 -10103989.20146  21780098.250    21780097.9774   21780101.4784
       181.0004        182.0004
  -4248259.55247  -3270897.41345  23561601.653    23561603.0014   23561607.8434
       158.0004        159.0004
  -8340634.64448  -6212084.11046  22718363.015    22718363.7784   22718369.9164
       173.0004        173.0004
 21  2  2  1 31  0.0000000  0  9G30G14G08G07G01G09G21G17G04
  -7592400.07348  -5869720.18446  23092726.497    23092726.8944   23092733.0494
       171.0004        170.0004
  -1214202.58847   -923971.45746  23444700.176    23444700.0844   23444705.2704
       161.0004        163.0004
 -13324582.37449 -10364062.23448  22054808.578    22054808.8804   22054815.6584
       217.0004        217.0004
 -18430126.41749 -14349873.36947  21374200.503    21374200.2044   21374204.4204
       201.0004        201.0004
 -16614860.49148 -12916179.70046  21614229.028    21614229.8664   21614236.8724
       187.0004        187.0004
 -16967618.90549 -13189574.19947  21326841.280    21326841.5324   21326848.4124
       206.0004        207.0004
 -12980038.67948 -10099744.13346  21781134.237    21781134.0794   21781137.9624
       181.0004        180.0004
  -4334964.76747  -3338459.85745  23545103.084    23545103.3364   23545110.4134
       157.0004        159.0004
  -8245092.46948  -6137635.68946  22736544.653    22736544.7764   22736550.9824
       172.0004        172.0004
 21  2  2  1 31 30.0000000  0  9G30G14G08G07G01G09G21G17G04
  -7680006.03048  -5937984.59946  23076054.635    23076055.6754   23076062.2974
       169.0004        169.0004
  -1240051.81747   -944113.73145  23439779.667    23439780.9394   23439786.1514
       161.0004        162.0004
 -13236534.12949 -10295453.23648  22071563.847    22071563.9244   22071570.4554
       216.0004        215.0004
 -18497096.56049 -14402057.90847  21361455.687    21361455.9454   21361460.5594
       200.0004        201.0004
 -16677638.58748 -12965097.70847  21602282.465    21602283.0784   21602290.7124
       187.0004        188.0004
 -16915105.41449 -13148654.61847  21336834.371    21336834.6684   21336841.2864
       206.0004        206.0004
 -12974110.17348 -10095124.54046  21782262.163    21782262.8594   21782265.3214
       181.0004        181.0004
  -4421367.34947  -3405786.50745  23528660.278    23528661.7554   23528666.2014
       157.0004        159.0004
  -8149429.66548  -6063093.28246  22754748.370    22754749.3954   22754754.1634
       170.0004        171.0004
 21  2  2  1 32  0.0000000  0  9G30G14G08G07G01G09G21G17G04
  -7767595.50748  -6006236.12646  23059387.729    23059388.0414   23059395.9114
       170.0004        172.0004
  -1265877.41847   -964237.55245  23434866.725    23434867.1094   23434871.3504
       160.0004        161.0004
 -13148294.14449 -10226694.78148  22088354.816    22088355.4614   22088362.6124
       216.0004        216.0004
 -18563854.67549 -14454077.20347  21348752.798    21348753.1744   21348756.8734
       201.0004        202.0004
 -16740103.67948 -13013771.76547  21590395.777    21590396.8864   21590403.9834
       187.0004        188.0004
 -16862196.44849 -13107426.82447  21346902.761    21346902.9144   21346909.4424
       206.0004        206.0004
 -12967700.85948 -10090130.23546  21783482.561    21783482.0344   21783486.4734
       181.0004        182.0004
  -4507466.16547  -3472876.41545  23512277.161    23512277.6374   23512280.1504
       156.0004        157.0004
  -8053649.65448  -5988459.48646  22772975.410    22772975.0634   22772980.7224
       169.0004        170.0004
 21  2  2  1 32 30.0000000  0  9G30G14G08G07G01G09G21G17G04
  -7855165.95148  -6074472.82246  23042724.287    23042724.2644   23042730.8354
       172.0004        173.0004
  -1291680.23347   -984343.61245  23429956.400    23429956.7234   23429961.6334
       158.0004        160.0004
 -13059865.94649 -10157789.70448  22105182.522    22105183.1484   22105189.8534
       217.0004        216.0004
 -18630397.94249 -14505929.11147  21336089.868    21336090.1814   21336094.0824
       202.0004        202.0004
 -16802252.10048 -13062199.10847  21578570.047    21578570.3884   21578577.0864
       188.0004        188.0004
 -16808894.20449 -13065892.63047  21357045.543    21357046.0424   21357052.5794
       205.0004        205.0004
 -12960809.24048 -10084760.14746  21784793.652    21784793.4754   21784798.0604
       182.0004        183.0004
  -4593258.68247  -3539727.67245  23495949.493    23495950.5704   23495955.2374
       153.0004        155.0004
  -7957754.94548  -5913736.33246  22791222.496    22791223.0854   22791228.0144
       169.0004        170.0004
 21  2  2  1 33  0.0000000  0  9G30G14G08G07G01G09G21G17G04
  -7942715.66748  -6142693.38146  23026064.207    23026064.6224   23026070.1674
       172.0004        173.0004
  -1317461.80747  -1004433.12745  23425050.093    23425051.0394   23425055.5304
       158.0004        160.0004
 -12971252.08849 -10088739.96148  22122045.175    22122045.7044   22122052.3824
       216.0004        216.0004
 -18696723.99049 -14557611.75447  21323468.457    21323468.6904   21323472.7404
       202.0004        202.0004
 -16864081.04048 -13110377.52146  21566803.378    21566804.2644   21566811.2324
       187.0004        187.0004
 -16755201.75249 -13024054.36847  21367263.429    21367263.9074   21367270.4014
       206.0004        206.0004
 -12953434.78748 -10079013.83446  21786196.964    21786197.1344   21786202.2024
       183.0004        183.0004
  -4678743.24147  -3606338.97945  23479683.253    23479684.5984   23479688.3294
       153.0004        157.0004
  -7861748.87248  -5838926.43546  22809492.380    22809492.0314   22809498.3924
       169.0004        168.0004
 21  2  2  1 33 30.0000000  0  9G30G14G08G07G01G09G21G17G04
  -8030243.35348  -6210896.78646  23009408.715    23009408.8754   23009414.7424
       172.0004        174.0004
  -1343224.13947  -1024507.66945  23420147.401    23420148.1494   23420153.0254
       159.0004        161.0004
 -12882456.23749 -10019548.39548  22138942.963    22138942.7604   22138949.4314
       215.0004        214.0004
 -18762830.81549 -14609123.56847  21310888.562    21310889.1754   21310892.0964
       202.0004        202.0004
 -16925588.12748 -13158305.10347  21555098.687    21555099.5474   21555106.9894
       187.0004        188.0004
 -16701122.53649 -12981914.71947  21377554.141    21377554.0934   21377560.8104
       205.0004        205.0004
 -12945577.74148 -10072891.44546  21787693.260    21787692.7774   21787697.2224
       184.0004        183.0004
  -4763919.06347  -3672709.70045  23463476.539    23463476.2984   23463480.1674
       157.0004        161.0004
  -7765635.22348  -5764032.69946  22827782.382    22827782.5854   22827788.3124
       168.0004        170.0004
 21  2  2  1 34  0.0000000  0  9G30G14G08G07G01G09G21G17G04
  -8117746.80948  -6279081.29746  22992757.249    22992757.0554   22992762.5734
       172.0004        173.0004
  -1368968.43147  -1044568.13445  23415249.008    23415248.7944   23415253.8164
       159.0004        160.0004
 -12793481.24049  -9950217.22948  22155873.612    22155873.6694   22155880.4764
       214.0004        213.0004
 -18828715.51149 -14660462.29647  21298351.562    21298351.5104   21298355.6234
       202.0004        203.0004
 -16986770.14948 -13205979.39147  21543456.955    21543457.5734   21543464.9284
       187.0004        188.0004
 -16646659.23849 -12939475.77647  21387917.402    21387918.1154   21387924.2534
       204.0004        204.0004
 -12937237.40948 -10066392.47946  21789278.260    21789278.4754   21789284.1584
       183.0004        184.0004
  -4848784.53347  -3738838.60946  23447327.076    23447327.3214   23447330.9744
       161.0004        164.0004
  -7669416.90448  -5689057.38446  22846090.764    22846091.5324   22846098.0904
       168.0004        167.0004
 21  2  2  1 34 30.0000000  0  9G30G14G08G07G01G09G21G17G04
  -8205223.34348  -6347244.84646  22976109.909    22976110.3254   22976117.1914
       172.0004        173.0004
  -1394695.23747  -1064614.98845  23410353.008    23410353.7284   23410358.5534
       159.0004        161.0004
 -12704329.33849  -9880748.24348  22172838.995    22172839.0514   22172845.8684
       214.0004        214.0004
 -18894374.77049 -14711625.36947  21285856.227    21285856.7694   21285861.4454
       203.0004        203.0004
 -17047623.21248 -13253397.38547  21531877.139    21531877.7354   21531884.1934
       187.0004        188.0004
 -16591813.83849 -12896739.12147  21398354.889    21398355.3824   21398361.9574
       204.0004        205.0004
 -12928412.51348 -10059515.95246  21790957.935    21790958.1434   21790963.3744
       183.0004        183.0004
  -4933336.97747  -3804723.58846  23431235.258    23431236.5694   23431241.6594
       162.0004        163.0004
  -7573096.22848  -5614002.33046  22864421.483    22864421.2804   22864427.3854
       166.0004        167.0004
 21  2  2  1 35  0.0000000  0  9G30G14G08G07G01G09G21G17G04
  -8292669.90248  -6415385.00346  22959469.553    22959469.4784   22959477.0504
       173.0004        174.0004
  -1420404.88447  -1084648.43745  23405459.946    23405460.2914   23405465.1714
       159.0004        160.0004
 -12615002.72449  -9811143.06648  22189835.575    22189836.7874   22189844.1534
       213.0004        213.0004
 -18959805.02149 -14762609.96347  21273405.411    21273405.7794   21273409.6264
       202.0004        202.0004
 -17108143.42748 -13300555.97446  21520360.270    21520360.5204   21520368.0044
       187.0004        186.0004
 -16536588.22149 -12853706.15247  21408863.969    21408864.0354   21408871.4794
       205.0004        205.0004
 -12919101.51348 -10052260.60346  21792730.617    21792730.0794   21792735.1884
       184.0004        184.0004
  -5017573.84547  -3870362.63046  23415206.442    23415207.1394   23415211.7984
       162.0004        163.0004
  -7476675.31748  -5538869.14546  22882769.358    22882770.1134   22882775.8754
       168.0004        171.0004
 21  2  2  1 35 30.0000000  0  9G30G14G08G07G01G09G21G17G04
  -8380085.21748  -6483500.81046  22942833.829    22942834.3824   22942841.3934
       170.0004        169.0004
  -1446099.40247  -1104670.11545  23400572.071    23400571.9234   23400576.5344
       160.0004        162.0004
 -12525504.97749  -9741404.56148  22206868.149    22206868.4034   22206875.0574
       213.0004        213.0004
 -19025004.20649 -14813414.52147  21260998.294    21260998.6364   21261002.5084
       202.0004        202.0004
 -17168328.44048 -13347453.35346  21508905.885    21508906.6974   21508916.0424
       186.0004        187.0004
 -16480985.96549 -12810379.72447  21419444.422    21419445.0004   21419451.5464
       205.0004        204.0004
 -12909304.39948 -10044626.47746  21794594.209    21794593.6264   21794600.4854
       184.0004        185.0004
  -5101494.28247  -3935755.12146  23399237.319    23399237.2764   23399242.5024
       163.0004        165.0004
  -7380157.98548  -5463660.83046  22901136.705    22901136.6964   22901142.7614
       170.0004        170.0004
 21  2  2  1 36  0.0000000  0  9G30G14G08G07G01G09G21G17G04
  -8467467.60948  -6551590.97946  22926205.512    22926205.3894   22926213.1814
       168.0004        170.0004
  -1471780.47647  -1124681.36345  23395683.954    23395684.9904   23395689.3174
       158.0004        158.0004
 -12435839.48149  -9671535.34848  22223931.308    22223931.3004   22223937.5974
       213.0004        213.0004
 -19089970.26649 -14864037.43347  21248636.430    21248636.4754   21248639.9584
       202.0004        203.0004
 -17228175.50848 -13394087.41747  21497518.987    21497519.4764   21497527.3164
       188.0004        190.0004
 -16425010.22949 -12766762.27047  21430096.102    21430096.3404   21430103.3664
       204.0004        204.0004
 -12899021.19648 -10036613.57446  21796551.515    21796551.3794   21796556.8974
       185.0004        185.0004
  -5185096.93048  -4000899.98146  23383328.201    23383328.3174   23383333.7644
       165.0004        168.0004
  -7283547.62648  -5388380.04346  22919520.641    22919519.8254   22919525.7834
       168.0004        168.0004
 21  2  2  1 36 30.0000000  0  9G30G14G08G07G01G09G21G17G04
  -8554814.23848  -6619653.27546  22909584.259    22909585.0164   22909591.5454
       169.0004        170.0004
  -1497448.64847  -1144682.51545  23390799.663    23390800.1134   23390806.4624
       156.0004        157.0004
 -12346008.35949  -9601537.07648  22241025.147    22241025.3054   22241032.3364
       213.0004        213.0004
 -19154699.75349 -14914475.99647  21236317.827    21236318.4864   21236322.6934
       202.0004        203.0004
 -17287680.86848 -13440455.24547  21486197.368    21486197.4634   21486203.3464
       191.0004        193.0004
 -16368663.10549 -12722855.42547  21440818.150    21440818.9444   21440826.0004
       203.0004        203.0004
 -12888250.84448 -10028221.08546  21798601.246    21798600.4974   21798606.4044
       185.0004        185.0004
  -5268379.45748  -4065795.38246  23367478.801    23367479.6644   23367486.0424
       166.0004        168.0004
  -7186846.52348  -5313028.53446  22937920.318    22937921.2814   22937927.4854
       167.0004        168.0004
 21  2  2  1 37  0.0000000  0 10G30G14G08G07G01G09G21G28G17G04
  -8642122.44348  -6687685.67146  22892970.739    22892969.8504   22892977.5254
       169.0004        171.0004
  -1523104.57047  -1164674.13645  23385915.639    23385918.1924   23385921.9164
       154.0004        155.0004
 -12256014.05149  -9531411.66547  22258150.013    22258150.3004   22258157.4424
       212.0004        212.0004
 -19219189.51449 -14964727.75647  21224046.121    21224046.4964   21224050.5864
       202.0004        203.0004
 -17346840.86848 -13486553.97247  21474938.355    21474938.8434   21474945.1704
       192.0004        192.0004
 -16311946.84349 -12678660.95047  21451611.648    21451611.9744   21451618.5434
       203.0004        204.0004
 -12876992.15348 -10019448.08846  21800743.711    21800743.7224   21800748.0124
       185.0004        185.0004
   1568408.88556   1244235.473 3                                  24938241.345
       111.0004         90.000
  -5351339.62948  -4130439.61046  23351692.681    23351694.1494   23351699.2634
       167.0004        169.0004
  -7090057.14348  -5237608.27846  22956340.378    22956340.2954   22956345.9254
       167.0004        168.0004
 21  2  2  1 37 30.0000000  0 10G30G14G08G07G01G09G21G28G17G04
  -8729390.07648  -6755686.38546  22876363.674    22876363.5964   22876371.7774
       170.0004        172.0004
  -1548749.48347  -1184657.20245  23381037.245    23381037.9584   23381042.6154
       154.0004        156.0004
 -12165859.19949  -9461161.13247  22275307.309    22275306.5284   22275313.3504
       212.0004        212.0004
 -19283436.72949 -15014790.52647  21211820.884    21211821.3234   21211824.7754
       203.0004        204.0004
 -17405652.47148 -13532381.19247  21463745.182    21463746.1604   21463753.6314
       190.0004        188.0004
 -16254864.21649 -12634180.99147  21462473.902    21462474.3444   21462481.2224
       203.0004        203.0004
 -12865244.61548 -10010294.14546  21802978.980    21802979.0174   21802983.7984
       185.0004        185.0004
   -593166.34346   -451653.31645  23706588.541    23706588.7454   23706591.3614
       124.0004        135.0004
  -5433975.79148  -4194831.39146  23335968.021    23335967.9124   23335974.6434
       168.0004        169.0004
  -6993182.45448  -5162121.49246  22974774.268    22974774.9344   22974781.6074
       167.0004        167.0004
 21  2  2  1 38  0.0000000  0 10G30G14G08G07G01G09G21G28G17G04
  -8816617.52648  -6823655.83646  22859765.661    22859765.7544   22859772.1424
       171.0004        173.0004
  -1574387.15647  -1204634.61745  23376158.575    23376159.1404   23376164.9974
       155.0004        158.0004
 -12075549.54549  -9390789.98847  22292492.523    22292492.1954   22292498.5294
       212.0004        212.0004
 -19347441.14449 -15064664.11047  21199640.489    21199641.1454   21199644.9934
       203.0004        203.0004
 -17464115.15448 -13577936.51946  21452619.717    21452620.1294   21452628.9934
       188.0004        187.0004
 -16197420.62249 -12589419.76047  21473405.157    21473405.7364   21473412.1924
       203.0004        203.0004
 -12853010.24648 -10000760.87346  21805307.427    21805307.5414   21805312.2194
       185.0004        186.0004
   -608266.36646   -463419.55545  23703713.469    23703713.6054   23703717.0474
       128.0004        136.0004
  -5516289.15648  -4258971.65046  23320303.342    23320304.4634   23320310.4354
       167.0004        169.0004
  -6896227.97148  -5086572.56446  22993225.945    22993225.7534   22993230.6094
       167.0004        168.0004
 21  2  2  1 38 30.0000000  0 10G30G14G08G07G01G09G21G28G17G04
  -8903802.87248  -6891592.46246  22843175.080    22843174.9534   22843181.7654
       172.0004        173.0004
  -1600018.97747  -1224607.47945  23371281.227    23371281.4734   23371285.7124
       155.0004        156.0004
 -11985088.05949  -9320300.51347  22309705.019    22309705.7484   22309712.9654
       211.0004        210.0004
 -19411200.18849 -15114346.48147  21187506.833    21187507.6984   21187512.1504
       202.0004        203.0004
 -17522226.03148 -13623217.68747  21441561.818    21441562.9104   21441571.1364
       187.0004        188.0004
 -16139619.05349 -12544379.59047  21484404.359    21484404.4754   21484412.0864
       202.0004        203.0004
 -12840289.05148  -9990848.24546  21807727.643    21807727.2024   21807732.6864
       185.0004        185.0004
   -623342.84846   -475167.45645  23700844.347    23700842.3244   23700846.9104
       129.0004        136.0004
  -5598277.93748  -4322858.95646  23304703.843    23304704.2934   23304708.0424
       167.0004        168.0004
  -6799196.89148  -5010963.93846  23011690.003    23011690.2254   23011694.9434
       169.0004        170.0004
 21  2  2  1 39  0.0000000  0 10G30G14G08G07G01G09G21G28G17G04
  -8990942.76248  -6959493.68446  22826592.273    22826592.6004   22826599.2314
       171.0004        172.0004
  -1625645.07347  -1244575.84845  23366403.872    23366404.9484   23366410.8604
       154.0004        156.0004
 -11894476.31349  -9249693.96647  22326948.831    22326948.4534   22326956.1504
       210.0004        209.0004
 -19474710.44049 -15163834.99347  21175423.164    21175422.8974   21175426.3544
       203.0004        204.0004
 -17579980.85248 -13668221.44947  21430573.024    21430573.3234   21430580.4634
       189.0004        190.0004
 -16081461.24549 -12499061.81547  21495470.931    21495471.4584   21495478.6204
       202.0004        202.0004
 -12827079.31048  -9980554.92846  21810240.989    21810240.5964   21810246.8314
       185.0004        186.0004
   -638396.07446   -486897.19645  23697981.683    23697980.5784   23697984.0984
       132.0004        139.0004
  -5679939.73647  -4386491.47846  23289162.366    23289163.1764   23289167.3214
       164.0004        165.0004
  -6702091.02148  -4935297.02846  23030166.771    23030168.4104   23030173.6394
       168.0004        168.0004
 21  2  2  1 39 30.0000000  0 10G30G14G08G07G01G09G21G28G17G04
  -9078032.41848  -7027355.73946  22810020.468    22810021.0514   22810026.7604
       172.0004        176.0004
  -1651263.95347  -1264538.57845  23361529.265    23361529.7894   23361534.6374
       155.0004        158.0004
 -11803714.87249  -9178970.76347  22344219.447    22344219.8144   22344227.2924
       210.0004        209.0004
 -19537966.12749 -15213125.14447  21163384.923    21163385.4964   21163389.1884
       203.0004        203.0004
 -17637373.91248 -13712943.31347  21419652.414    21419652.7004   21419659.1174
       191.0004        193.0004
 -16022947.30649 -12453466.53447  21506606.737    21506606.8894   21506613.3644
       202.0004        203.0004
 -12813377.92448  -9969878.51746  21812848.604    21812848.0764   21812854.3144
       185.0004        185.0004
   -653425.23146   -498608.23145  23695119.804    23695121.0774   23695124.9574
       134.0004        140.0004
  -5761269.91047  -4449865.62046  23273686.334    23273686.0614   23273688.8714
       164.0004        165.0004
  -6604910.64648  -4859572.07446  23048659.548    23048660.5164   23048667.5834
       167.0004        168.0004
 21  2  2  1 40  0.0000000  0 10G30G14G08G07G01G09G21G28G17G04
  -9165068.15348  -7095175.76546  22793458.059    22793457.7814   22793464.4074
       176.0004        179.0004
  -1676875.39647  -1284495.51145  23356655.737    23356656.0334   23356661.1584
       158.0004        160.0004
 -11712804.63749  -9108131.60547  22361519.525    22361520.0824   22361526.8954
       210.0004        210.0004
 -19600963.45649 -15262213.95147  21151396.383    21151397.0534   21151401.2834
       203.0004        203.0004
 -17694400.88348 -13757379.89447  21408799.190    21408800.3124   21408807.3404
       193.0004        193.0004
 -15964078.73549 -12407594.92347  21517808.797    21517809.3044   21517815.2724
       202.0004        201.0004
 -12799183.08848  -9958817.58446  21815549.975    21815550.2094   21815554.7294
       185.0004        185.0004
   -668430.48747   -510300.63445  23692263.329    23692264.1244   23692268.9144
       135.0004        141.0004
  -5842265.62647  -4512979.13746  23258273.065    23258272.9174   23258275.5814
       162.0004        163.0004
  -6507657.38448  -4783790.30546  23067167.022    23067166.7874   23067173.6024
       167.0004        168.0004
 21  2  2  1 40 30.0000000  0 10G30G14G08G07G01G09G21G28G17G04
  -9252050.17948  -7162953.96946  22776906.593    22776906.4994   22776912.2384
       177.0004        179.0004
  -1702482.91147  -1304449.39945  23351783.371    23351783.9114   23351788.2834
       159.0004        161.0004
 -11621751.18249  -9037180.87447  22378847.463    22378847.0094   22378853.9204
       210.0004        209.0004
 -19663701.80749 -15311100.98247  21139459.132    21139458.8254   21139462.6884
       203.0004        204.0004
 -17751060.95148 -13801530.59747  21398018.060    21398018.4364   21398024.8414
       193.0004        193.0004
 -15904860.70849 -12361451.00947  21529078.036    21529078.0864   21529084.6434
       202.0004        202.0004
 -12784496.70348  -9947373.63646  21818344.845    21818344.7704   21818349.1244
       185.0004        185.0004
   -683415.77447   -521977.46045  23689414.375    23689414.1534   23689418.1274
       138.0004        143.0004
  -5922928.16647  -4575833.01645  23242922.637    23242922.7044   23242926.4374
       160.0004        161.0004
  -6410336.41948  -4707955.80046  23085687.192    23085687.4484   23085693.4944
       167.0004        168.0004
 21  2  2  1 41  0.0000000  0 10G30G14G08G07G01G09G21G28G17G04
  -9338976.04348  -7230688.40346  22760364.034    22760363.8014   22760370.3074
       177.0004        178.0004
  -1728087.48547  -1324401.00845  23346910.724    23346911.0044   23346915.7134
       160.0004        161.0004
 -11530557.12349  -8966120.57047  22396199.096    22396199.7234   22396207.7654
       209.0004        208.0004
 -19726178.40449 -15359784.06347  21127569.242    21127569.7744   21127574.0394
       203.0004        204.0004
 -17807350.85848 -13845392.88047  21387305.653    21387306.0724   21387313.4334
       192.0004        192.0004
 -15845295.84049 -12315036.84547  21540411.690    21540412.5884   21540419.3604
       202.0004        202.0004
 -12769318.42248  -9935546.40546  21821234.309    21821233.2754   21821237.5134
       185.0004        185.0004
   -698382.39147   -533639.76545  23686564.998    23686564.8214   23686569.5004
       137.0004        142.0004
  -6003255.39647  -4638425.63145  23227636.450    23227637.2624   23227640.2064
       160.0004        160.0004
  -6312950.48948  -4632070.68246  23104219.325    23104219.0794   23104225.3384
       167.0004        167.0004
 21  2  2  1 41 30.0000000  0 10G30G14G08G07G01G09G21G28G17G04
  -9425843.05148  -7298376.97946  22743834.694    22743834.5234   22743840.6434
       178.0004        180.0004
  -1753689.78147  -1344350.83445  23342039.557    23342039.9654   23342044.4294
       160.0004        161.0004
 -11439224.70749  -8894952.46247  22413578.235    22413579.5074   22413587.1164
       207.0004        206.0004
 -19788389.73949 -15408260.42847  21115730.803    21115731.3624   21115735.6004
       204.0004        204.0004
 -17863267.16548 -13888964.01447  21376665.058    21376665.6674   21376672.4064
       191.0004        191.0004
 -15785386.53349 -12268354.27247  21551813.066    21551812.8924   21551819.4604
       202.0004        202.0004
 -12753647.42248  -9923335.22946  21824215.574    21824214.9464   21824220.2544
       185.0004        185.0004
   -713331.51947   -545288.41345  23683719.735    23683720.3174   23683723.3384
       138.0004        144.0004
  -6083245.23647  -4700755.38245  23212415.228    23212415.7514   23212418.1024
       159.0004        160.0004
  -6215502.08548  -4556136.86446  23122761.985    23122763.8014   23122767.9904
       165.0004        165.0004
 21  2  2  1 42  0.0000000  0 10G30G14G08G07G01G09G21G28G17G04
  -9512649.05648  -7366018.01446  22727315.249    22727315.6644   22727321.9494
       180.0004        181.0004
  -1779291.13747  -1364299.94645  23337166.978    23337167.4704   23337171.6544
       159.0004        160.0004
 -11347757.11449  -8823679.03047  22430986.081    22430985.8534   22430992.9844
       207.0004        207.0004
 -19850333.39049 -15456528.20947  21103943.948    21103943.9964   21103947.6784
       204.0004        204.0004
 -17918806.93548 -13932241.75747  21366096.016    21366096.3284   21366103.8104
       190.0004        190.0004
 -15725135.77749 -12221405.64847  21563278.727    21563278.9974   21563285.4784
       203.0004        204.0004
 -12737483.51848  -9910739.97346  21827290.207    21827290.6584   21827295.5474
       184.0004        185.0004
   -728264.82847   -556924.74145  23680878.868    23680879.5794   23680883.6174
       139.0004        144.0004
  -6162896.22447  -4762821.07645  23197259.048    23197259.3204   23197262.4624
       160.0004        162.0004
  -6117994.20947  -4480156.72346  23141317.342    23141317.9394   23141324.5364
       164.0004        165.0004
 21  2  2  1 42 30.0000000  0 10G30G14G08G07G01G09G21G28G17G04
  -9599391.44948  -7433609.50246  22710809.509    22710808.8084   22710815.6374
       181.0004        181.0004
  -1804892.29047  -1384248.90845  23332295.811    23332295.8594   23332298.9724
       159.0004        161.0004
 -11256156.32849  -8752301.80447  22448417.795    22448416.8784   22448424.2654
       208.0004        208.0004
 -19912006.37049 -15504585.09847  21092207.242    21092207.8644   21092211.9184
       204.0004        204.0004
 -17973966.81348 -13975223.47847  21355599.108    21355599.5054   21355607.5784
       190.0004        190.0004
 -15664546.12149 -12174192.93447  21574808.317    21574808.3974   21574814.6974
       203.0004        203.0004
 -12720826.00248  -9897760.09346  21830460.065    21830460.4604   21830465.6794
       185.0004        185.0004
   -743183.94947   -568550.01845  23678040.531    23678039.7094   23678044.5044
       140.0004        145.0004
  -6242206.67847  -4824621.42246  23182165.749    23182166.7124   23182172.0394
       162.0004        166.0004
  -6020429.41347  -4404132.23646  23159882.815    23159883.8484   23159889.9254
       162.0004        163.0004
 21  2  2  1 43  0.0000000  0 10G30G14G08G07G01G09G21G28G17G04
  -9686069.61448  -7501150.91646  22694314.008    22694313.6514   22694320.6524
       179.0004        177.0004
  -1830496.04547  -1404199.88145  23327423.524    23327424.0754   23327428.3144
       159.0004        161.0004
 -11164427.01549  -8680824.41347  22465871.209    22465872.1204   22465880.3704
       208.0004        208.0004
 -19973407.49249 -15552430.12347  21080522.592    21080523.5114   21080527.9204
       203.0004        204.0004
 -18028745.39348 -14017908.06647  21345174.532    21345175.5584   21345183.6904
       190.0004        190.0004
 -15603622.00249 -12126719.60247  21586402.004    21586402.1344   21586409.0044
       204.0004        204.0004
 -12703676.41848  -9884396.76946  21833723.484    21833723.8174   21833729.6204
       185.0004        185.0004
   -758091.52647   -580166.31745  23675203.084    23675202.5194   23675207.4914
       141.0004        146.0004
  -6321176.45948  -4886156.26846  23167139.830    23167139.8444   23167145.1204
       166.0004        170.0004
  -5922812.28147  -4328066.94146  23178458.411    23178459.2894   23178466.5874
       162.0004        164.0004
 21  2  2  1 43 30.0000000  0 10G30G14G08G07G01G09G21G28G17G04
  -9772680.40048  -7568639.84346  22677832.700    22677832.2704   22677838.6524
       177.0004        177.0004
  -1856102.63547  -1424153.04745  23322550.475    23322550.0984   23322555.1834
       159.0004        161.0004
 -11072571.00249  -8609248.29947  22483352.524    22483352.3884   22483359.4704
       207.0004        207.0004
 -20034532.94849 -15600060.34947  21068891.075    21068891.7614   21068895.5504
       203.0004        204.0004
 -18083138.80048 -14060292.51047  21334823.836    21334824.2064   21334832.4594
       189.0004        190.0004
 -15542365.44149 -12078987.21547  21598057.941    21598058.5354   21598065.2454
       203.0004        203.0004
 -12686033.47148  -9870649.00846  21837082.666    21837081.6844   21837086.5414
       185.0004        185.0004
   -772988.50147   -591774.32745  23672368.130    23672367.4034   23672372.4764
       143.0004        146.0004
  -6399803.25048  -4947423.87246  23152176.202    23152176.9494   23152182.9514
       168.0004        169.0004
  -5825144.72447  -4251962.36746  23197045.414    23197045.1844   23197052.4454
       162.0004        164.0004
 21  2  2  1 44  0.0000000  0 10G30G14G08G07G01G09G21G28G17G04
  -9859221.77248  -7636074.67546  22661364.807    22661364.7234   22661369.8624
       177.0004        179.0004
  -1881713.48347  -1444109.53545  23317676.130    23317676.9674   23317682.5804
       159.0004        161.0004
 -10980591.52849  -8537575.98347  22500855.294    22500855.3444   22500862.4254
       207.0004        206.0004
 -20095380.39649 -15647473.95047  21057313.083    21057313.4354   21057316.7794
       204.0004        204.0004
 -18137144.35248 -14102374.73847  21324548.084    21324548.3354   21324555.4654
       190.0004        191.0004
 -15480779.63849 -12030998.26847  21609777.930    21609778.1144   21609784.5554
       203.0004        203.0004
 -12667897.16248  -9856516.80846  21840533.442    21840532.5134   21840537.6384
       184.0004        185.0004
   -787876.68747   -603375.47645  23669536.578    23669535.3354   23669539.8754
       144.0004        148.0004
  -6478086.11948  -5008423.46546  23137279.830    23137280.7114   23137286.3574
       169.0004        171.0004
  -5727429.97947  -4175821.01046  23215639.206    23215640.0164   23215646.5114
       162.0004        163.0004
 21  2  2  1 44 30.0000000  0 10G30G14G08G07G01G09G21G28G17G04
  -9945691.07548  -7703453.36846  22644909.570    22644909.6904   22644916.7664
       180.0004        182.0004
  -1907329.38547  -1464069.96645  23312802.616    23312802.8124   23312806.6754
       159.0004        159.0004
 -10888490.64949  -8465809.07947  22518380.541    22518381.0994   22518388.7724
       206.0004        205.0004
 -20155946.63249 -15694668.43147  21045787.469    21045787.8234   21045791.3024
       204.0004        204.0004
 -18190758.67948 -14144152.14947  21314346.085    21314346.1664   21314353.4454
       191.0004        192.0004
 -15418867.13049 -11982754.76547  21621559.574    21621560.0134   21621566.1704
       203.0004        203.0004
 -12649267.12648  -9841999.90746  21844077.800    21844077.7264   21844082.8654
       185.0004        185.0004
   -802757.37447   -614970.79245  23666703.638    23666703.4704   23666707.8294
       146.0004        150.0004
  -6556023.26048  -5069153.69046  23122449.059    23122450.0934   23122455.3274
       170.0004        171.0004
  -5629670.54947  -4099644.85946  23234243.679    23234243.2504   23234249.9374
       161.0004        163.0004
 21  2  2  1 45  0.0000000  0 10G30G14G08G07G01G09G21G28G17G04
 -10032085.13548  -7770773.42246  22628469.535    22628470.3884   22628477.4764
       181.0004        182.0004
  -1932950.50547  -1484034.49745  23307926.419    23307926.4884   23307932.4294
       158.0004        160.0004
 -10796270.34249  -8393949.11047  22535929.475    22535929.5344   22535937.4474
       205.0004        204.0004
 -20216228.35549 -15741641.22847  21034316.237    21034316.9244   21034320.1674
       204.0004        205.0004
 -18243977.96848 -14185621.73947  21304217.609    21304218.6674   21304225.8064
       192.0004        193.0004
 -15356629.94349 -11934258.27547  21633402.726    21633403.0374   21633409.4374
       202.0004        202.0004
 -12630142.24148  -9827097.40946  21847717.526    21847716.7384   21847722.1384
       185.0004        185.0004
   -817631.03747   -626560.68245  23663873.527    23663874.0204   23663877.9404
       148.0004        151.0004
  -6633611.99848  -5129612.42246  23107685.033    23107685.5154   23107690.2754
       169.0004        170.0004
  -5531868.38547  -4023435.40946  23252854.718    23252855.2714   23252860.7334
       162.0004        163.0004
 21  2  2  1 45 30.0000000  0 10G30G14G08G07G01G09G21G28G17G04
 -10118403.80448  -7838034.70846  22612043.882    22612044.1464   22612050.9934
       181.0004        182.0004
  -1958580.17447  -1504005.64245  23303050.234    23303050.2524   23303055.2444
       158.0004        160.0004
 -10703935.62549  -8321999.97547  22553500.201    22553500.4464   22553508.2154
       204.0004        204.0004
 -20276224.73049 -15788391.64747  21022899.745    21022899.4834   21022903.3204
       205.0004        205.0004
 -18296801.38748 -14226782.83447  21294165.369    21294166.6214   21294174.1194
       193.0004        193.0004
 -15294073.12249 -11885512.70547  21645305.845    21645306.6394   21645313.8444
       201.0004        201.0004
 -12610524.58548  -9811810.90046  21851450.883    21851450.2594   21851454.4184
       184.0004        184.0004
   -832501.28647   -638147.85345  23661042.820    23661042.8074   23661047.3424
       148.0004        151.0004
  -6710853.19748  -5189800.30946  23092985.450    23092985.3534   23092991.1144
       168.0004        167.0004
  -5434028.59747  -3947196.61146  23271472.057    23271472.7814   23271478.9884
       161.0004        163.0004
 21  2  2  1 46  0.0000000  0 10G30G14G08G07G01G09G21G28G17G04
 -10204641.51348  -7905232.91946  22595634.000    22595633.8414   22595640.1744
       182.0004        182.0004
  -1984216.19947  -1523981.78445  23298171.374    23298171.3334   23298176.6494
       159.0004        161.0004
 -10611486.16349  -8249961.44147  22571093.389    22571092.9314   22571100.8094
       204.0004        205.0004
 -20335929.87549 -15834915.13347  21011537.824    21011538.1524   21011542.1154
       204.0004        205.0004
 -18349222.75348 -14267630.65347  21284190.342    21284191.4464   21284199.2784
       193.0004        194.0004
 -15231196.35249 -11836517.82047  21657271.574    21657272.0374   21657278.8744
       201.0004        201.0004
 -12590410.74448  -9796137.77546  21855278.107    21855277.8184   21855282.6464
       184.0004        184.0004
   -847366.64747   -649731.24145  23658214.555    23658215.0074   23658217.9174
       148.0004        152.0004
  -6787741.99848  -5249713.65546  23078353.995    23078355.1864   23078359.5084
       166.0004        169.0004
  -5336150.67947  -3870928.12945  23290097.448    23290097.9754   23290103.4154
       160.0004        162.0004
 21  2  2  1 46 30.0000000  0 10G30G14G08G07G01G09G21G28G17G04
 -10290797.71448  -7972367.62546  22579239.256    22579239.0384   22579245.9704
       181.0004        181.0004
  -2009861.51047  -1543965.14745  23293291.379    23293290.9994   23293295.2374
       158.0004        159.0004
 -10518926.22049  -8177836.82647  22588705.604    22588706.2994   22588714.4534
       204.0004        204.0004
 -20395342.76749 -15881210.90647  21000231.728    21000232.2414   21000236.0094
       205.0004        205.0004
 -18401240.93548 -14308164.30447  21274291.952    21274292.9844   21274299.8984
       194.0004        194.0004
 -15168004.34849 -11787277.30947  21669297.146    21669297.1864   21669304.2264
       201.0004        201.0004
 -12569802.28448  -9780079.22946  21859200.769    21859200.0134   21859204.4664
       185.0004        185.0004
   -862230.39547   -661313.41145  23655385.803    23655385.5234   23655390.5534
       150.0004        153.0004
  -6864279.09248  -5309352.92646  23063788.212    23063789.4944   23063793.0734
       166.0004        167.0004
  -5238239.38647  -3794633.63645  23308729.581    23308730.0334   23308736.1454
       161.0004        162.0004
 21  2  2  1 47  0.0000000  0 10G30G14G08G07G01G09G21G28G17G04
 -10376870.32948  -8039437.17646  22562859.838    22562859.5164   22562865.7814
       180.0004        180.0004
  -2035517.48147  -1563956.78445  23288408.557    23288408.1614   23288413.6584
       158.0004        160.0004
 -10426258.75749  -8105628.40947  22606340.048    22606340.4654   22606348.6284
       204.0004        203.0004
 -20454460.99549 -15927277.04147  20988982.133    20988982.2544   20988986.2854
       205.0004        205.0004
 -18452853.25348 -14348381.67847  21264470.607    21264470.9894   21264477.8584
       194.0004        194.0004
 -15104500.29249 -11737793.60847  21681380.836    21681381.0984   21681388.5934
       200.0004        200.0004
 -12548699.59048  -9763635.54446  21863215.916    21863215.4974   21863220.1354
       185.0004        185.0004
   -877094.14447   -672895.50145  23652557.335    23652557.3584   23652561.0574
       150.0004        153.0004
  -6940463.14148  -5368717.08646  23049292.039    23049292.4264   23049297.4014
       165.0004        168.0004
  -5140297.77047  -3718315.46746  23327366.034    23327366.4994   23327373.4044
       161.0004        163.0004
 21  2  2  1 47 30.0000000  0 10G30G14G08G07G01G09G21G28G17G04
 -10462856.19448  -8106439.14746  22546496.524    22546496.7104   22546503.7354
       178.0004        178.0004
  -2061184.31547  -1583956.91345  23283524.861    23283525.7634   23283528.7424
       159.0004        161.0004
 -10333485.80049  -8033337.80847  22623994.870    22623995.0994   22624003.0344
       203.0004        203.0004
 -20513280.91449 -15973110.73747  20977788.653    20977789.1564   20977792.9834
       204.0004        205.0004
 -18504055.99548 -14388279.90947  21254726.950    21254727.6034   21254734.7684
       194.0004        195.0004
 -15040686.33349 -11688068.45347  21693524.015    21693524.4194   21693531.6244
       200.0004        200.0004
 -12527101.71748  -9746806.02246  21867325.009    21867325.3644   21867329.9024
       185.0004        185.0004
   -891958.87847   -684478.41145  23649728.942    23649729.0064   23649733.5644
       152.0004        156.0004
  -7016291.76548  -5427804.30146  23034863.405    23034863.7934   23034866.8604
       168.0004        171.0004
  -5042327.83447  -3641975.26645  23346009.267    23346009.9164   23346017.2434
       161.0004        161.0004
 21  2  2  1 48  0.0000000  0 10G30G14G08G07G01G09G21G28G17G04
 -10548753.82848  -8173372.36846  22530150.570    22530151.2654   22530158.5914
       178.0004        178.0004
  -2086864.02847  -1603967.08245  23278637.924    23278637.9854   23278642.2394
       160.0004        162.0004
 -10240610.77749  -7960967.67647  22641668.056    22641668.3144   22641676.1704
       203.0004        202.0004
 -20571800.60949 -16018710.52047  20966653.098    20966653.3334   20966657.1824
       204.0004        205.0004
 -18554847.13648 -14427857.42747  21245061.341    21245061.9374   21245069.4274
       194.0004        194.0004
 -14976566.27949 -11638104.80447  21705726.335    21705726.7794   21705733.1224
       200.0004        200.0004
 -12505009.43948  -9729591.27546  21871529.770    21871529.1354   21871533.8864
       185.0004        185.0004
   -906827.04847   -696064.01845  23646899.913    23646899.7004   23646903.0294
       152.0004        154.0004
  -7091764.88748  -5486614.51346  23020500.992    23020501.1654   23020505.3234
       168.0004        169.0004
  -4944333.29947  -3565615.91545  23364657.710    23364658.2684   23364663.9624
       160.0004        162.0004
 21  2  2  1 48 30.0000000  0 10G30G14G08G07G01G09G21G28G17G04
 -10634559.54848  -8240233.96046  22513822.217    22513822.4344   22513829.5364
       177.0004        178.0004
  -2112556.30447  -1623987.01145  23273748.066    23273748.7504   23273753.5344
       160.0004        162.0004
 -10147635.22949  -7888519.17947  22659360.567    22659360.8814   22659368.8774
       203.0004        203.0004
 -20630015.89249 -16064073.06747  20955574.834    20955575.3824   20955579.2914
       205.0004        205.0004
 -18605222.45548 -14467110.90247  21235475.389    21235476.0864   21235483.1584
       194.0004        194.0004
 -14912141.73549 -11587903.85447  21717985.735    21717986.0344   21717992.5194
       199.0004        200.0004
 -12482421.39348  -9711990.17346  21875827.442    21875827.4224   21875832.0694
       185.0004        185.0004
   -921698.68247   -707652.25945  23644068.847    23644069.3074   23644073.7344
       151.0004        153.0004
  -7166879.51148  -5545145.34046  23006206.425    23006206.6164   23006209.9224
       168.0004        169.0004
  -4846315.68547  -3489238.55045  23383310.194    23383311.1104   23383316.4154
       160.0004        161.0004
 21  2  2  1 49  0.0000000  0 10G30G14G08G07G01G09G21G28G17G04
 -10720272.04448  -8307022.95146  22497511.804    22497511.8154   22497519.2124
       178.0004        179.0004
  -2138263.37547  -1644018.50946  23268856.895    23268857.7854   23268862.0694
       161.0004        164.0004
 -10054562.80849  -7815995.25147  22677072.811    22677071.6894   22677080.4694
       202.0004        203.0004
 -20687925.43649 -16109197.43147  20944555.411    20944555.6424   20944559.3534
       204.0004        205.0004
 -18655180.17948 -14506039.03147  21225968.748    21225969.5994   21225976.8174
       194.0004        194.0004
 -14847416.79849 -11537468.89047  21730302.849    21730302.9944   21730310.1294
       200.0004        201.0004
 -12459338.78248  -9694003.76146  21880220.588    21880219.8194   21880224.7974
       184.0004        185.0004
   -936576.40447   -719245.29345  23641239.322    23641237.7184   23641243.7224
       152.0004        155.0004
  -7241635.48148  -5603396.77546  22991982.088    22991982.2434   22991985.8224
       169.0004        171.0004
  -4748278.91547  -3412846.30545  23401966.487    23401966.1364   23401971.0304
       160.0004        160.0004
 21  2  2  1 49 30.0000000  0 10G30G14G08G07G01G09G21G28G17G04
 -10805889.93048  -8373738.18546  22481219.272    22481219.8004   22481226.3984
       179.0004        180.0004
  -2163987.24747  -1664063.05545  23263962.001    23263962.0304   23263967.0444
       162.0004        162.0004
  -9961397.20049  -7743398.67047  22694799.988    22694800.8124   22694809.4264
       202.0004        202.0004
 -20745527.47649 -16154082.12347  20933593.277    20933593.6514   20933598.1134
       204.0004        204.0004
 -18704718.44348 -14544640.24247  21216541.697    21216542.5104   21216550.0424
       193.0004        193.0004
 -14782395.35649 -11486802.82047  21742675.629    21742676.0444   21742683.1944
       200.0004        200.0004
 -12435762.55148  -9675632.64346  21884706.675    21884706.4294   21884711.2254
       184.0004        185.0004
   -951462.60247   -730844.91445  23638405.695    23638405.5934   23638409.1304
       151.0004        153.0004
  -7316032.32348  -5661368.31446  22977824.005    22977824.4854   22977827.9844
       168.0004        169.0004
  -4650226.74647  -3336442.00845  23420625.786    23420625.7054   23420630.2084
       159.0004        160.0004
 21  2  2  1 50  0.0000000  0 10G30G14G08G07G01G09G21G28G17G04
 -10891408.83948  -8440376.28246  22464945.080    22464944.7594   22464953.9134
       179.0004        179.0004
  -2189727.03647  -1684120.03445  23259062.446    23259063.8334   23259068.3694
       159.0004        158.0004
  -9868139.06649  -7670730.01347  22712546.577    22712546.7634   22712556.0374
       200.0004        200.0004
 -20802817.11449 -16198723.40847  20922692.033    20922692.1104   20922696.3404
       205.0004        205.0004
 -18753832.37948 -14582910.84747  21207194.868    21207196.0344   21207203.9824
       193.0004        192.0004
 -14717078.42049 -11435906.50547  21755105.227    21755105.6524   21755112.6794
       200.0004        201.0004
 -12411690.59448  -9656875.27946  21889287.793    21889287.0594   21889292.2374
       184.0004        184.0004
   -966356.75347   -742450.73745  23635571.041    23635570.3884   23635574.6924
       149.0004        152.0004
  -7390067.21948  -5719057.87446  22963736.161    22963736.4114   22963740.3254
       171.0004        173.0004
  -4552159.99747  -3260026.36845  23439285.913    23439287.5754   23439293.1584
       157.0004        158.0004
 21  2  2  1 50 30.0000000  0 10G30G14G08G07G01G09G21G28G17G04
 -10976826.61648  -8506935.56746  22448691.787    22448691.0834   22448699.0694
       178.0004        179.0004
  -2215483.98447  -1704190.36945  23254161.293    23254161.7954   23254166.0124
       158.0004        160.0004
  -9774791.59349  -7597991.71247  22730310.035    22730310.7054   22730319.1884
       201.0004        202.0004
 -20859791.91449 -16243119.34347  20911849.720    20911850.3544   20911854.0724
       205.0004        205.0004
 -18802519.40348 -14620848.77047  21197931.048    21197931.4134   21197939.0034
       193.0004        193.0004
 -14651469.18149 -11384782.42047  21767589.640    21767590.3774   21767597.2544
       199.0004        199.0004
 -12387123.56548  -9637732.11946  21893962.962    21893962.7374   21893967.2894
       184.0004        185.0004
   -981260.73247   -754064.21745  23632734.695    23632734.3884   23632738.3774
       149.0004        152.0004
  -7463738.92148  -5776464.35246  22949715.991    22949716.4964   22949720.6214
       171.0004        172.0004
  -4454081.67947  -3183601.69845  23457950.549    23457951.1414   23457956.2434
       157.0004        159.0004
 21  2  2  1 51  0.0000000  0 10G30G14G08G07G01G09G21G28G17G04
 -11062140.37548  -8573413.80546  22432457.276    22432457.1394   22432464.3384
       180.0004        182.0004
  -2241258.58447  -1724274.48546  23249257.802    23249257.8754   23249262.0734
       161.0004        165.0004
  -9681356.71149  -7525185.32047  22748090.815    22748090.9304   22748098.8164
       202.0004        202.0004
 -20916448.62249 -16287267.42847  20901069.075    20901069.3144   20901072.7754
       205.0004        206.0004
 -18850776.35948 -14658451.58847  21188747.548    21188748.1834   21188756.0384
       193.0004        194.0004
 -14585570.16349 -11333432.53847  21780129.393    21780130.1524   21780137.3834
       198.0004        198.0004
 -12362061.19248  -9618202.98246  21898732.067    21898731.4934   21898735.8694
       184.0004        184.0004
   -996175.55647   -765686.15545  23629896.681    23629896.6814   23629900.7184
       150.0004        153.0004
  -7537045.54048  -5833586.36246  22935766.981    22935766.9754   22935771.6124
       172.0004        173.0004
  -4355994.14947  -3107169.87045  23476615.976    23476616.5484   23476620.4824
       157.0004        158.0004
 21  2  2  1 51 30.0000000  0 10G30G14G08G07G01G09G21G28G17G04
 -11147348.73348  -8639809.94946  22416241.642    22416242.3304   22416248.8824
       181.0004        183.0004
  -2267053.04147  -1744374.05046  23244348.539    23244348.9084   23244353.7504
       163.0004        166.0004
  -9587837.98449  -7452313.56547  22765885.591    22765885.9234   22765894.5504
       200.0004        200.0004
 -20972785.73149 -16331166.48547  20890348.039    20890348.4534   20890352.4124
       206.0004        206.0004
 -18898601.22448 -14695717.71947  21179646.820    21179648.0414   21179655.1894
       194.0004        195.0004
 -14519385.39349 -11281860.00747  21792724.673    21792725.2864   21792732.1314
       198.0004        198.0004
 -12336504.40348  -9598288.59646  21903594.665    21903594.3924   21903599.3854
       184.0004        185.0004
  -1011103.81947   -777318.60045  23627056.394    23627056.4024   23627059.8324
       150.0004        152.0004
  -7609986.73448  -5890423.65446  22921885.306    22921886.2524   22921891.6954
       172.0004        172.0004
  -4257901.22747  -3030733.84145  23495281.642    23495282.2884   23495287.9124
       156.0004        157.0004
 21  2  2  1 52  0.0000000  0 10G30G14G08G07G01G09G21G28G17G04
 -11232447.88948  -8706120.94546  22400047.297    22400047.9184   22400055.6914
       182.0004        182.0004
  -2292866.93547  -1764488.72646  23239436.264    23239436.7904   23239441.6344
       163.0004        164.0004
  -9494236.83749  -7379377.60947  22783698.105    22783698.3644   22783706.3514
       199.0004        198.0004
 -21028799.07449 -16374813.23047  20879688.805    20879689.3464   20879693.2354
       206.0004        206.0004
 -18945989.94449 -14732643.96747  21170630.510    21170630.0634   21170637.3204
       195.0004        196.0004
 -14452916.45049 -11230066.00647  21805373.549    21805373.7174   21805380.3844
       198.0004        197.0004
 -12310452.04648  -9577988.04346  21908551.919    21908551.7774   21908556.8864
       184.0004        184.0004
  -1026045.45347   -788961.40745  23624214.284    23624213.8454   23624217.1924
       150.0004        153.0004
  -7682559.96248  -5946974.17846  22908075.298    22908076.6144   22908081.5954
       174.0004        176.0004
  -4159804.26747  -2954294.63545  23513950.360    23513950.0194   23513954.5844
       155.0004        157.0004
 21  2  2  1 52 30.0000000  0 10G30G14G08G07G01G09G21G28G17G04
 -11317436.98448  -8772346.22446  22383876.434    22383875.5234   22383881.4934
       182.0004        182.0004
  -2318702.92747  -1784620.64846  23234520.717    23234521.4104   23234525.9604
       164.0004        166.0004
  -9400557.67249  -7306380.86447  22801524.474    22801524.8344   22801533.5594
       197.0004        197.0004
 -21084487.37949 -16418206.72647  20869091.977    20869092.4134   20869096.3254
       205.0004        206.0004
 -18992941.46849 -14769229.57547  21161694.747    21161695.7904   21161703.2674
       196.0004        197.0004
 -14386167.95349 -11178054.19847  21818075.445    21818075.4474   21818082.5564
       197.0004        197.0004
 -12283905.88748  -9557302.70746  21913604.206    21913604.0384   21913608.1234
       184.0004        184.0004
  -1041003.59847   -800617.08145  23621366.500    23621366.6814   23621370.6434
       150.0004        153.0004
  -7754765.85348  -6003238.50646  22894335.498    22894336.0254   22894340.7854
       176.0004        177.0004
  -4061707.66147  -2877855.75745  23532617.774    23532616.9804   23532621.8944
       156.0004        158.0004
 21  2  2  1 53  0.0000000  0 10G30G14G08G07G01G09G21G28G17G04
 -11402312.82248  -8838483.23146  22367724.568    22367724.7234   22367730.9774
       182.0004        184.0004
  -2344561.18448  -1804769.93146  23229600.313    23229600.8614   23229605.3964
       166.0004        167.0004
  -9306802.16449  -7233324.63747  22819365.922    22819365.5674   22819374.2824
       196.0004        197.0004
 -21139847.31649 -16461344.34247  20858557.080    20858557.6034   20858561.5344
       206.0004        206.0004
 -19039451.99749 -14805471.54147  21152843.694    21152845.0334   21152852.8204
       196.0004        197.0004
 -14319142.07349 -11125826.24747  21830828.942    21830829.6864   21830836.5854
       197.0004        197.0004
 -12256865.25148  -9536232.07546  21918749.810    21918749.5514   21918754.6254
       184.0004        184.0004
  -1055978.91447   -812286.16345  23618516.544    23618515.9584   23618521.1524
       152.0004        155.0004
  -7826602.09648  -6059214.77446  22880665.430    22880665.0104   22880670.3574
       174.0004        174.0004
  -3963613.34647  -2801418.63545  23551283.172    23551283.1504   23551289.1234
       155.0004        157.0004
 21  2  2  1 53 30.0000000  0 10G30G14G08G07G01G09G21G28G17G04
 -11487073.46748  -8904530.50846  22351594.657    22351595.0084   22351601.0274
       183.0004        184.0004
  -2370443.23948  -1824937.75846  23224675.113    23224674.8574   23224679.7394
       166.0004        167.0004
  -9212972.87649  -7160210.90947  22837221.585    22837221.8464   22837229.2124
       198.0004        199.0004
 -21194876.72049 -16504224.40447  20848085.467    20848085.5274   20848089.9544
       206.0004        206.0004
 -19085519.43549 -14841368.24947  21144078.200    21144078.6354   21144085.6294
       196.0004        197.0004
 -14251842.37549 -11073384.94347  21843637.544    21843637.6124   21843643.3654
       197.0004        198.0004
 -12229330.73748  -9514776.61246  21923988.756    21923988.7304   21923994.2744
       184.0004        185.0004
  -1070973.47047   -823970.23245  23615663.915    23615664.4404   23615668.2814
       152.0004        154.0004
  -7898068.24548  -6114902.66746  22867065.219    22867065.6804   22867071.4674
       173.0004        175.0004
  -3865524.67247  -2724985.90945  23569948.969    23569948.0624   23569954.1864
       154.0004        155.0004
 21  2  2  1 54  0.0000000  0 10G30G14G08G07G01G09G21G28G17G04
 -11571716.36448  -8970486.02746  22335486.979    22335487.1474   22335494.1534
       184.0004        185.0004
  -2396350.12548  -1845124.97946  23219745.200    23219745.5284   23219748.8144
       167.0004        169.0004
  -9119073.12049  -7087042.29147  22855089.573    22855089.7154   22855097.9604
       199.0004        199.0004
 -21249572.64249 -16546844.64047  20837677.556    20837677.8754   20837681.3564
       206.0004        206.0004
 -19131141.00549 -14876917.54847  21135396.135    21135397.2144   21135404.5144
       197.0004        197.0004
 -14184271.78249 -11020732.56247  21856495.816    21856496.0084   21856501.5864
       197.0004        198.0004
 -12201302.76948  -9492936.65346  21929323.361    21929322.2534   21929326.7884
       184.0004        183.0004
  -1085988.80247   -835670.51545  23612806.588    23612806.3744   23612811.4034
       154.0004        158.0004
  -7969162.50948  -6170300.79846  22853537.803    22853538.1884   22853542.1964
       175.0004        176.0004
  -3767444.28647  -2648559.69245  23588614.296    23588614.0814   23588619.9614
       153.0004        155.0004
 21  2  2  1 54 30.0000000  0 10G30G14G08G07G01G09G21G28G17G04
 -11656238.27348  -9036347.25646  22319403.949    22319403.9344   22319410.1364
       185.0004        187.0004
  -2422281.88548  -1865331.51846  23214810.590    23214810.1004   23214815.4074
       166.0004        166.0004
  -9025104.20049  -7013819.74747  22872971.007    22872970.7964   22872979.5004
       198.0004        196.0004
 -21303931.48649 -16589202.17047  20827333.025    20827333.1114   20827337.5104
       206.0004        206.0004
 -19176313.09549 -14912116.56547  21126800.823    21126801.3474   21126809.0624
       197.0004        197.0004
 -14116432.43349 -10967870.72047  21869405.022    21869405.1684   21869410.8174
       197.0004        197.0004
 -12172780.52048  -9470711.49546  21934750.624    21934749.6714   21934755.3314
       184.0004        184.0004
  -1101024.98547   -847386.97745  23609945.145    23609945.6474   23609949.2364
       154.0004        155.0004
  -8039883.31748  -6225407.88146  22840079.689    22840080.2274   22840084.6294
       175.0004        177.0004
  -3669374.04547  -2572141.32245  23607274.889    23607275.3944   23607281.4704
       154.0004        157.0004
 21  2  2  1 55  0.0000000  0 10G30G14G08G07G01G09G21G28G17G04
 -11740636.10948  -9102111.79546  22303343.496    22303343.6104   22303350.2294
       185.0004        186.0004
  -2448238.92047  -1885557.76346  23209869.717    23209870.3364   23209875.2754
       164.0004        163.0004
  -8931068.29549  -6940545.02347  22890865.397    22890865.6494   22890873.9204
       196.0004        195.0004
 -21357950.14949 -16631294.64047  20817053.370    20817054.2254   20817058.0944
       206.0004        207.0004
 -19221032.39049 -14946962.76647  21118289.729    21118290.7154   21118298.6954
       197.0004        197.0004
 -14048326.74549 -10914801.35247  21882363.847    21882364.4494   21882371.0884
       196.0004        195.0004
 -12143764.13348  -9448101.32246  21940272.407    21940271.7794   21940277.0224
       183.0004        183.0004
  -1116083.18247   -859120.64645  23607079.614    23607079.2504   23607084.1464
       154.0004        156.0004
  -8110229.24848  -6280222.88046  22826692.898    22826693.9254   22826698.5794
       176.0004        177.0004
  -3571316.02947  -2495732.50745  23625934.319    23625934.5404   23625942.1024
       154.0004        155.0004
 21  2  2  1 55 30.0000000  0 10G30G14G08G07G01G09G21G28G17G04
 -11824907.99748  -9167778.16746  22287306.739    22287306.4754   22287313.3594
       185.0004        186.0004
  -2474222.83647  -1905804.95346  23204924.834    23204925.8784   23204931.0994
       162.0004        164.0004
  -8836968.48449  -6867220.48047  22908771.467    22908771.9634   22908780.3644
       195.0004        195.0004
 -21411626.58449 -16673120.40947  20806839.943    20806840.1154   20806843.8074
       207.0004        208.0004
 -19265296.79449 -14981454.48347  21109866.780    21109867.8854   21109875.9504
       198.0004        198.0004
 -13979958.32848 -10861527.24447  21895373.743    21895374.1554   21895381.8934
       194.0004        194.0004
 -12114254.33048  -9425106.64846  21945887.529    21945887.6364   21945892.3214
       183.0004        183.0004
  -1131165.61647   -870873.15945  23604209.182    23604209.4924   23604213.1654
       155.0004        157.0004
  -8180199.48248  -6334745.11246  22813377.944    22813378.7124   22813383.0944
       175.0004        175.0004
  -3473273.63247  -2419335.83845  23644589.976    23644591.4304   23644597.9474
       152.0004        154.0004
 21  2  2  1 56  0.0000000  0 10G30G14G08G07G01G09G21G28G17G04
 -11909049.89648  -9233343.30046  22271295.142    22271295.3844   22271302.3924
       186.0004        187.0004
  -2500233.01247  -1926072.60746  23199975.923    23199977.0144   23199980.8654
       164.0004        167.0004
  -8742805.84849  -6793847.01147  22926690.672    22926690.9684   22926699.2154
       195.0004        196.0004
 -21464956.35649 -16714676.08747  20796691.327    20796691.5614   20796695.6694
       207.0004        207.0004
 -19309102.15149 -15015588.53347  21101532.184    21101532.2334   21101540.0674
       198.0004        199.0004
 -13911328.63348 -10808049.58047  21908433.350    21908433.7044   21908441.1504
       193.0004        191.0004
 -12084249.84848  -9401726.53346  21951597.848    21951596.8504   21951601.6744
       184.0004        184.0004
  -1146271.81247   -882644.21745  23601336.033    23601335.5984   23601338.5064
       154.0004        156.0004
  -8249791.40348  -6388972.57246  22800135.205    22800135.6214   22800140.9404
       174.0004        174.0004
  -3375248.00447  -2342952.27645  23663244.653    23663245.0104   23663251.3044
       152.0004        154.0004
 21  2  2  1 56 30.0000000  0 10G30G14G08G07G01G09G21G28G17G04
 -11993062.88448  -9298807.97747  22255307.992    22255308.0274   22255314.9404
       187.0004        188.0004
  -2526274.03047  -1946364.29146  23195020.698    23195020.8084   23195025.8064
       164.0004        164.0004
  -8648586.48949  -6720429.32447  22944620.746    22944620.6144   22944628.3194
       195.0004        196.0004
 -21517940.29649 -16755962.27947  20786608.371    20786609.0474   20786612.6744
       207.0004        207.0004
 -19352449.37449 -15049365.58147  21093282.767    21093283.1004   21093291.3024
       198.0004        197.0004
 -13842444.29248 -10754373.49747  21921541.132    21921541.3724   21921548.6474
       191.0004        191.0004
 -12053754.40448  -9377963.83846  21957400.057    21957399.8304   21957405.0694
       183.0004        183.0004
  -1161406.95147   -894437.77745  23598455.252    23598454.7314   23598458.0404
       153.0004        155.0004
  -8319007.40048  -6442907.10746  22786964.070    22786964.1874   22786968.9644
       173.0004        174.0004
  -3277245.46647  -2266586.66545  23681894.667    23681894.9854   23681900.4064
       153.0004        156.0004
 21  2  2  1 57  0.0000000  0 10G30G14G08G07G01G09G21G28G17G04
 -12076943.08748  -9364169.16047  22239346.529    22239347.2524   22239353.3204
       188.0004        190.0004
  -2552345.45747  -1966679.67245  23190057.924    23190058.6754   23190064.6104
       161.0004        162.0004
  -8554311.80549  -6646968.54447  22962562.369    22962561.4154   22962568.1894
       196.0004        197.0004
 -21570574.48349 -16796975.93147  20776592.448    20776592.7414   20776597.1954
       207.0004        207.0004
 -19395334.42349 -15082782.49847  21085122.451    21085122.6484   21085129.6824
       197.0004        197.0004
 -13773306.94248 -10700500.24547  21934697.686    21934698.5914   21934705.4704
       191.0004        192.0004
 -12022767.29148  -9353818.02846  21963297.212    21963296.6054   21963300.9424
       183.0004        182.0004
  -1176571.16147   -906254.03345  23595569.031    23595569.0674   23595573.0134
       152.0004        155.0004
  -8387844.56848  -6496546.43646  22773864.137    22773865.0934   22773869.7244
       174.0004        174.0004
  -3179267.22247  -2190240.00345  23700539.393    23700539.3904   23700546.0234
       155.0004        159.0004
 21  2  2  1 57 30.0000000  0 10G30G14G08G07G01G09G21G28G17G04
 -12160688.25748  -9429425.13447  22223410.466    22223410.7714   22223417.2884
       189.0004        190.0004
  -2578448.43847  -1987019.64945  23185091.721    23185092.2924   23185097.2734
       160.0004        161.0004
  -8459984.11949  -6573466.44847  22980510.912    22980510.8854   22980517.9834
       196.0004        195.0004
 -21622856.36049 -16837715.05247  20766643.541    20766644.0004   20766648.6984
       207.0004        208.0004
 -19437754.90649 -15115837.40847  21077049.669    21077050.1504   21077057.7034
       197.0004        197.0004
 -13703919.87048 -10646432.40047  21947902.302    21947902.7594   21947910.3904
       193.0004        194.0004
 -11991288.96548  -9329289.44146  21969287.041    21969286.9354   21969291.6874
       182.0004        183.0004
  -1191765.98347   -918094.14745  23592678.114    23592678.0784   23592681.9784
       153.0004        156.0004
  -8456302.81448  -6549890.50046  22760837.456    22760838.3714   22760841.3634
       173.0004        173.0004
  -3081316.27047  -2113914.59545  23719178.592    23719178.9194   23719184.8124
       157.0004        159.0004
 21  2  2  1 58  0.0000000  0 10G30G14G08G07G01G09G21G28G17G04
 -12244293.78748  -9494572.30247  22207500.210    22207500.2304   22207507.4404
       189.0004        189.0004
  -2604581.87047  -2007383.39846  23180119.232    23180119.3324   23180123.3034
       160.0004        163.0004
  -8365604.11149  -6499923.59347  22998469.978    22998469.5294   22998478.5454
       195.0004        195.0004
 -21674781.69149 -16878176.36047  20756762.619    20756762.7804   20756766.8514
       207.0004        208.0004
 -19479706.15049 -15148526.69847  21069066.176    21069067.0754   21069074.4214
       197.0004        197.0004
 -13634283.99949 -10592170.68847  21961155.089    21961155.1414   21961161.4524
       195.0004        197.0004
 -11959317.86448  -9304376.89546  21975370.563    21975370.5844   21975375.3064
       183.0004        184.0004
  -1206990.93247   -929957.74445  23589780.874    23589780.2514   23589783.5854
       153.0004        156.0004
  -8524378.88248  -6602936.78546  22747883.190    22747882.6004   22747887.8154
       172.0004        173.0004
  -2983393.22947  -2037610.96045  23737812.662    23737812.7244   23737819.9164
       156.0004        158.0004
 21  2  2  1 58 30.0000000  0 10G30G14G08G07G01G09G21G28G17G04
 -12327758.02048  -9559609.37047  22191617.448    22191617.6184   22191624.2464
       189.0004        189.0004
  -2630747.54147  -2027772.25746  23175140.561    23175141.0224   23175145.8544
       163.0004        165.0004
  -8271175.33248  -6426342.77247  23016439.784    23016439.5264   23016447.0194
       194.0004        195.0004
 -21726347.98649 -16918357.90247  20746949.717    20746949.9654   20746954.1294
       207.0004        208.0004
 -19521186.39049 -15180848.96947  21061172.857    21061173.9514   21061181.2014
       197.0004        197.0004
 -13564403.18049 -10537718.11747  21974453.256    21974453.4384   21974459.0984
       197.0004        197.0004
 -11926855.22948  -9279081.34746  21981548.172    21981547.5744   21981553.4594
       183.0004        183.0004
  -1222247.84147   -941846.24445  23586877.227    23586877.2694   23586880.8154
       152.0004        154.0004
  -8592072.36648  -6655684.93446  22735000.049    22735001.4594   22735005.2794
       171.0004        173.0004
  -2885501.56147  -1961331.77145  23756440.947    23756440.7204   23756448.3994
       156.0004        157.0004
 21  2  2  1 59  0.0000000  0 10G30G14G08G07G01G09G21G28G17G04
 -12411078.38048  -9624534.33947  22175761.746    22175762.2224   22175768.4874
       188.0004        188.0004
  -2656946.37148  -2048186.91046  23170154.519    23170155.1474   23170159.6374
       165.0004        167.0004
  -8176699.81949  -6352725.49047  23034415.501    23034416.9814   23034425.6204
       195.0004        196.0004
 -21777552.94749 -16958257.88547  20737206.484    20737206.2574   20737210.3234
       207.0004        208.0004
 -19562193.03449 -15212802.19547  21053369.261    21053370.1344   21053378.1104
       196.0004        196.0004
 -13494280.46649 -10483077.02947  21987797.316    21987797.4834   21987803.0294
       198.0004        199.0004
 -11893901.34048  -9253402.98446  21987818.801    21987818.6364   21987824.4154
       182.0004        183.0004
  -1237538.24247   -953760.88345  23583967.241    23583967.1644   23583970.3914
       150.0004        151.0004
  -8659381.73848  -6708133.82246  22722193.234    22722193.5254   22722196.4234
       173.0004        174.0004
  -2787643.88847  -1885079.06145  23775061.985    23775062.8414   23775069.1154
       154.0004        156.0004
 21  2  2  1 59 30.0000000  0 10G30G14G08G07G01G09G21G28G17G04
 -12494252.28248  -9689345.17947  22159934.698    22159935.0454   22159941.8524
       188.0004        189.0004
  -2683179.16848  -2068628.03446  23165163.612    23165164.0154   23165167.5504
       167.0004        168.0004
  -8082180.10249  -6279073.77447  23052404.462    23052404.8554   23052411.5294
       196.0004        197.0004
 -21828393.50249 -16997873.90447  20727530.658    20727531.7264   20727535.8334
       207.0004        208.0004
 -19602723.48649 -15244384.36047  21045657.573    21045657.6904   21045665.0754
       196.0004        197.0004
 -13423918.79749 -10428249.76147  22001186.358    22001186.6544   22001192.4344
       198.0004        198.0004
 -11860456.91848  -9227342.39346  21994184.222    21994183.5114   21994187.6944
       183.0004        183.0004
  -1252863.51947   -965702.64645  23581050.319    23581049.7904   23581054.7054
       147.0004        150.0004
  -8726306.85648  -6760283.24146  22709457.039    22709456.9504   22709461.2894
       172.0004        174.0004
  -2689822.85647  -1808854.89645  23793676.568    23793677.2584   23793684.1224
       153.0004        155.0004
 21  2  2  2  0  0.0000000  0 10G30G14G08G07G01G09G21G28G17G04
 -12577278.54948  -9754040.95547  22144135.129    22144135.8254   22144142.4224
       188.0004        188.0004
  -2709448.19948  -2089097.34346  23160166.011    23160165.9114   23160168.8374
       169.0004        171.0004
  -7987619.97449  -6205390.54647  23070398.036    23070398.3244   23070406.0274
       196.0004        195.0004
 -21878868.39449 -17037204.98747  20717926.945    20717926.9694   20717930.7324
       208.0004        209.0004
 -19642776.51749 -15275594.49747  21038035.130    21038035.8844   21038043.4644
       196.0004        196.0004
 -13353322.56949 -10373239.70247  22014619.757    22014619.9934   22014626.5334
       197.0004        197.0004
 -11826523.34248  -9200900.62446  22000641.966    22000641.0904   22000644.9444
       183.0004        183.0004
  -1268226.21547   -977673.53645  23578127.339    23578127.2084   23578131.6644
       147.0004        151.0004
  -8792847.67548  -6812133.20446  22696796.006    22696796.2404   22696800.1154
       174.0004        175.0004
  -2592042.38647  -1732662.32145  23812283.818    23812284.1264   23812291.7604
       153.0004        156.0004
 21  2  2  2  0 30.0000000  0 10G30G14G08G07G01G09G21G28G17G04
 -12660153.44148  -9818618.78047  22128364.495    22128365.0934   22128372.2174
       188.0004        189.0004
  -2735753.16648  -2109594.68446  23155158.873    23155158.8574   23155163.2044
       169.0004        168.0004
  -7893021.07849  -6131677.13447  23088399.324    23088399.4014   23088408.3554
       195.0004        195.0004
 -21928974.14549 -17076248.42647  20708391.644    20708391.9224   20708395.4734
       208.0004        209.0004
 -19682348.47749 -15306429.77147  21030504.241    21030505.0444   21030512.8954
       196.0004        196.0004
 -13282493.61749 -10318048.30847  22028097.064    22028097.5014   22028104.9924
       195.0004        193.0004
 -11792100.65548  -9174077.73046  22007190.297    22007190.8764   22007196.4904
       183.0004        183.0004
  -1283626.88947   -989674.07645  23575196.432    23575196.6744   23575201.0974
       147.0004        150.0004
  -8859002.03248  -6863682.04446  22684205.711    22684206.4914   22684210.4164
       174.0004        174.0004
  -2494303.98347  -1656502.53345  23830882.283    23830883.3534   23830889.5394
       155.0004        158.0004
 21  2  2  2  1  0.0000000  0 10G30G14G08G07G01G09G21G28G17G04
 -12742873.46248  -9883075.94847  22112623.982    22112623.8854   22112630.1584
       188.0004        189.0004
  -2762093.99748  -2130120.01246  23150141.925    23150143.1324   23150150.4224
       165.0004        163.0004
  -7798384.36749  -6057934.25847  23106407.060    23106407.6124   23106417.2324
       195.0004        194.0004
 -21978706.98849 -17115001.29647  20698927.510    20698928.0694   20698932.1084
       208.0004        209.0004
 -19721435.86849 -15336887.47547  21023066.229    21023066.9814   21023075.0344
       196.0004        196.0004
 -13211434.06148 -10262677.22847  22041619.053    22041619.3674   22041627.4164
       193.0004        193.0004
 -11757188.23448  -9146873.25146  22013835.472    22013834.8354   22013839.3124
       183.0004        183.0004
  -1299065.75847  -1001704.35445  23572258.543    23572258.2844   23572262.0404
       144.0004        147.0004
  -8924768.14848  -6914928.35946  22671689.669    22671691.3294   22671695.2094
       172.0004        173.0004
  -2396609.31247  -1580376.84645  23849475.145    23849474.5234   23849480.1034
       157.0004        159.0004
 21  2  2  2  1 30.0000000  0 10G30G14G08G07G01G09G21G28G17G04
 -12825436.65748  -9947410.89647  22096912.123    22096912.7354   22096919.5724
       188.0004        189.0004
  -2788472.14147  -2150674.47946  23145125.143    23145126.6784   23145129.7464
       163.0004        163.0004
  -7703713.59248  -5984164.84547  23124423.708    23124423.5774   23124432.1494
       194.0004        194.0004
 -22028064.71849 -17153461.86747  20689535.587    20689535.9004   20689539.3414
       209.0004        209.0004
 -19760036.82049 -15366966.13047  21015720.196    21015720.7694   21015729.5454
       196.0004        196.0004
 -13140147.48648 -10207129.26247  22055184.335    22055184.8554   22055192.5894
       193.0004        192.0004
 -11721786.86848  -9119287.76046  22020572.398    22020571.6554   22020575.8774
       183.0004        183.0004
  -1314544.84447  -1013765.94745  23569313.704    23569313.3244   23569316.8874
       144.0004        149.0004
  -8990145.11748  -6965871.44646  22659250.901    22659250.6884   22659254.6934
       173.0004        174.0004
  -2298961.53947  -1504287.71245  23868056.379    23868057.0724   23868062.7944
       156.0004        158.0004
 21  2  2  2  2  0.0000000  0 10G30G14G08G07G01G09G21G28G17G04
 -12907842.09448 -10011622.92047  22081230.918    22081231.8214   22081238.4744
       188.0004        188.0004
  -2814890.29547  -2171260.01346  23140099.981    23140099.7154   23140104.2944
       164.0004        166.0004
  -7609012.26149  -5910371.59547  23142444.458    23142444.4624   23142453.9684
       195.0004        196.0004
 -22077046.55749 -17191629.54347  20680214.070    20680214.7634   20680218.4314
       209.0004        209.0004
 -19798150.52849 -15396665.10947  21008468.850    21008469.1804   21008476.4014
       196.0004        196.0004
 -13068638.60948 -10151408.06847  22068791.594    22068792.2824   22068799.6864
       191.0004        192.0004
 -11685898.94748  -9091323.13046  22027400.796    22027400.8154   22027405.3484
       183.0004        183.0004
  -1330067.09347  -1025861.18845  23566359.384    23566359.9724   23566363.9684
       147.0004        152.0004
  -9055134.40448  -7016512.43446  22646884.309    22646884.3214   22646888.2014
       174.0004        176.0004
  -2201365.02047  -1428238.48945  23886628.474    23886628.8334   23886635.2504
       154.0004        155.0004
 21  2  2  2  2 30.0000000  0 10G30G14G08G07G01G09G21G28G17G04
 -12990086.25648 -10075709.25546  22065579.935    22065580.1764   22065587.8254
       187.0004        187.0004
  -2841348.21148  -2191876.52746  23135065.931    23135065.2914   23135069.5114
       166.0004        167.0004
  -7514281.91548  -5836555.73147  23160468.554    23160470.3264   23160480.1094
       194.0004        195.0004
 -22125648.76749 -17229501.39247  20670966.261    20670966.3344   20670969.9724
       209.0004        210.0004
 -19835773.52449 -15425981.71947  21001308.657    21001309.4444   21001317.4214
       196.0004        197.0004
 -12996909.54248 -10095515.29547  22082443.367    22082443.7584   22082449.6384
       192.0004        194.0004
 -11649523.95548  -9062978.97846  22034322.486    22034322.5874   22034326.9564
       183.0004        183.0004
  -1345633.02847  -1037990.48845  23563397.481    23563396.8294   23563402.3084
       150.0004        153.0004
  -9119734.07948  -7066849.82846  22634591.461    22634591.9444   22634595.3784
       176.0004        179.0004
  -2103821.29447  -1352230.40445  23905189.778    23905190.2984   23905197.2004
       152.0004        154.0004
 21  2  2  2  3  0.0000000  0 10G30G14G08G07G01G09G21G28G17G04
 -13072164.93448 -10139666.67247  22049961.801    22049961.6554   22049968.4644
       188.0004        189.0004
  -2867845.15448  -2212523.50446  23130022.364    23130022.7234   23130026.3854
       165.0004        165.0004
  -7419523.37048  -5762717.92747  23178504.196    23178503.6064   23178511.3804
       194.0004        194.0004
 -22173867.18149 -17267074.19247  20661790.163    20661790.4894   20661794.4474
       209.0004        210.0004
 -19872901.80749 -15454912.85047  20994243.729    20994244.2474   20994251.8044
       197.0004        198.0004
 -12924961.69448 -10039452.05247  22096134.424    22096134.9804   22096140.8084
       193.0004        193.0004
 -11612661.58448  -9034255.04146  22041338.005    22041337.6354   22041341.6654
       183.0004        183.0004
  -1361242.16147  -1050153.48245  23560427.636    23560426.7704   23560431.1334
       149.0004        151.0004
  -9183941.26748  -7116881.41446  22622372.606    22622372.6254   22622377.1734
       177.0004        177.0004
  -2006331.40947  -1276264.27845  23923739.948    23923742.0714   23923746.2484
       149.0004        150.0004
 21  2  2  2  3 30.0000000  0 10G30G14G08G07G01G09G21G28G17G04
 -13154077.51448 -10203494.66547  22034373.690    22034374.6214   22034380.1874
       188.0004        188.0004
  -2894383.94247  -2233203.06946  23124970.210    23124971.0264   23124976.8494
       164.0004        165.0004
  -7324741.61548  -5688862.02147  23196540.739    23196540.8244   23196547.8574
       194.0004        194.0004
 -22221701.15649 -17304347.42547  20652687.318    20652687.7564   20652691.6234
       209.0004        210.0004
 -19909534.96049 -15483458.16147  20987272.414    20987273.3674   20987280.9244
       197.0004        197.0004
 -12852800.08348  -9983222.21147  22109866.113    22109866.2564   22109872.8904
       193.0004        193.0004
 -11575314.12448  -9005153.11746  22048445.385    22048444.4624   22048449.2214
       183.0004        183.0004
  -1376897.77547  -1062352.62245  23557448.432    23557448.1994   23557450.8574
       149.0004        152.0004
  -9247756.97148  -7166607.94246  22610227.586    22610228.5784   22610232.8464
       176.0004        177.0004
  -1908899.82647  -1200343.57345  23942282.130    23942282.7534   23942288.1644
       149.0004        153.0004
 21  2  2  2  4  0.0000000  0 10G30G14G08G07G01G09G21G28G17G04
 -13235820.47448 -10267190.48146  22018818.748    22018819.3834   22018825.6994
       187.0004        187.0004
  -2920964.43548  -2253915.13946  23119913.078    23119914.1414   23119918.2224
       165.0004        166.0004
  -7229937.38048  -5614988.61947  23214581.906    23214581.3694   23214587.9214
       193.0004        193.0004
 -22269147.26649 -17341318.42547  20643658.318    20643659.0864   20643663.1924
       209.0004        210.0004
 -19945669.59949 -15511615.01247  20980397.553    20980397.6944   20980405.2544
       198.0004        198.0004
 -12780426.73948  -9926827.40447  22123637.314    22123637.2344   22123644.8684
       191.0004        191.0004
 -11537480.91748  -8975672.69046  22055644.100    22055644.0934   22055647.9504
       182.0004        182.0004
  -1392600.26547  -1074588.32545  23554460.696    23554460.0254   23554462.9424
       148.0004        151.0004
  -9311180.09448  -7216028.53646  22598159.521    22598159.4724   22598165.1124
       177.0004        178.0004
  -1811528.24247  -1124469.62745  23960811.304    23960811.6764   23960818.6154
       150.0004        153.0004
 21  2  2  2  4 30.0000000  0 10G30G14G08G07G01G09G21G28G17G04
 -13317392.52848 -10330753.12147  22003296.527    22003296.4644   22003302.9114
       187.0004        188.0004
  -2947588.85147  -2274661.43446  23114847.484    23114847.7074   23114852.8024
       163.0004        163.0004
  -7135114.89448  -5541100.98347  23232626.726    23232625.4074   23232632.2364
       192.0004        192.0004
 -22316204.20049 -17377986.17947  20634704.300    20634704.6674   20634708.2994
       209.0004        210.0004
 -19981304.68949 -15539382.61047  20973614.305    20973615.4814   20973623.4524
       198.0004        198.0004
 -12707846.03648  -9870271.02547  22137447.807    22137448.4464   22137457.0024
       190.0004        191.0004
 -11499164.32948  -8945815.60946  22062935.720    22062935.2004   22062939.7444
       182.0004        182.0004
  -1408352.36847  -1086862.67645  23551461.700    23551461.2084   23551466.4484
       146.0004        150.0004
  -9374210.62848  -7265143.23746  22586164.922    22586165.3204   22586169.8444
       177.0004        176.0004
  -1714220.50247  -1048645.42845  23979328.341    23979328.8594   23979335.4914
       149.0004        151.0004
 21  2  2  2  5  0.0000000  0 11G30G14G08G07G01G09G21G19G28G17G04
 -13398789.02948 -10394178.95747  21987806.482    21987806.6544   21987813.8474
       188.0004        188.0004
  -2974255.93147  -2295440.97245  23109772.212    23109773.0574   23109777.5894
       162.0004        162.0004
  -7040274.06248  -5467199.04747  23250673.352    23250672.4604   23250680.4134
       192.0004        192.0004
 -22362867.04349 -17414346.83747  20625824.469    20625824.9744   20625828.7884
       210.0004        211.0004
 -20016435.79649 -15566757.49847  20966929.823    20966930.7534   20966938.0254
       198.0004        198.0004
 -12635059.01248  -9813553.87947  22151299.620    22151300.1284   22151307.4924
       190.0004        191.0004
 -11460363.16048  -8915580.92146  22070318.989    22070318.6474   22070323.4834
       182.0004        183.0004
   -410049.38456   -294736.08845  24848686.623                    24848691.9724
       130.0004        151.0004
  -1424153.26247  -1099175.05545  23548455.562    23548454.6344   23548460.5194
       147.0004        151.0004
  -9436845.71548  -7313949.77846  22574245.887    22574246.3764   22574250.4154
       176.0004        178.0004
  -1616977.05947   -972871.37045  23997833.362    23997833.4004   23997840.3084
       147.0004        149.0004
 21  2  2  2  5 30.0000000  0 11G30G14G08G07G01G09G21G19G28G17G04
 -13480008.14148 -10457466.57147  21972351.858    21972352.3394   21972357.9964
       189.0004        190.0004
  -3000967.27747  -2316254.98545  23104688.428    23104689.2704   23104694.7654
       161.0004        162.0004
  -6945417.76648  -5393285.04747  23268722.063    23268722.0374   23268731.1194
       191.0004        191.0004
 -22409134.26049 -17450399.20947  20617019.698    20617020.2744   20617024.6824
       210.0004        211.0004
 -20051061.38349 -15593738.46047  20960341.046    20960341.7484   20960349.0384
       198.0004        198.0004
 -12562069.48748  -9756678.91047  22165189.072    22165189.7794   22165196.4694
       190.0004        190.0004
 -11421078.66048  -8884969.61146  22077795.055    22077794.7334   22077799.4774
       182.0004        183.0004
   -501522.21147   -366013.53945  24831278.937    24831277.4224   24831283.5194
       148.0004        154.0004
  -1440004.93247  -1111526.97745  23545438.559    23545439.0634   23545443.0744
       149.0004        152.0004
  -9499085.41048  -7362448.21346  22562402.910    22562402.5204   22562406.8884
       178.0004        179.0004
  -1519801.29347   -897150.00745  24016326.400    24016325.8034   24016332.5714
       146.0004        149.0004
 21  2  2  2  6  0.0000000  0 11G30G14G08G07G01G09G21G19G28G17G04
 -13561047.60648 -10520614.20147  21956931.313    21956930.8164   21956937.3804
       190.0004        192.0004
  -3027724.23847  -2337104.54546  23099596.916    23099597.1664   23099602.4614
       162.0004        165.0004
  -6850548.81448  -5319361.19347  23286771.460    23286773.7644   23286784.1114
       190.0004        190.0004
 -22455003.68349 -17486141.61447  20608291.357    20608291.8564   20608295.9404
       210.0004        211.0004
 -20085179.51949 -15620323.99947  20953848.384    20953849.2014   20953856.5464
       198.0004        199.0004
 -12488880.83348  -9699648.79747  22179117.906    22179117.8494   22179124.4934
       190.0004        191.0004
 -11381312.59348  -8853983.04746  22085361.700    22085361.4194   22085366.3984
       182.0004        182.0004
   -592789.86747   -437131.10145  24813911.281    24813911.1214   24813915.7474
       148.0004        151.0004
  -1455908.94847  -1123919.71945  23542410.920    23542411.2534   23542415.8894
       150.0004        154.0004
  -9560929.27148  -7410638.22046  22550633.525    22550633.9094   22550638.4744
       178.0004        179.0004
  -1422696.08447   -821483.62645  24034804.157    24034804.9084   24034809.1284
       146.0004        149.0004
 21  2  2  2  6 30.0000000  0 11G30G14G08G07G01G09G21G19G28G17G04
 -13641903.21248 -10583618.60347  21941544.747    21941544.9944   21941551.2964
       192.0004        193.0004
  -3054525.58548  -2357988.77046  23094497.476    23094497.5444   23094503.4374
       165.0004        167.0004
  -6755668.84348  -5245428.80647  23304828.878    23304829.6424   23304839.0514
       189.0004        190.0004
 -22500471.09249 -17521570.80447  20599639.602    20599639.8624   20599643.5194
       210.0004        210.0004
 -20118786.27849 -15646511.11147  20947453.628    20947454.0674   20947461.0534
       198.0004        199.0004
 -12415494.49248  -9642464.66747  22193081.723    22193081.9074   22193089.6974
       190.0004        189.0004
 -11341063.18948  -8822619.90446  22093021.249    22093020.3564   22093025.3474
       181.0004        181.0004
   -683848.87447   -508086.12045  24796583.317    24796581.6534   24796586.5584
       145.0004        148.0004
  -1471865.11947  -1136353.11145  23539376.911    23539375.8564   23539380.6794
       151.0004        154.0004
  -9622375.05248  -7458518.06046  22538939.459    22538940.6434   22538945.7374
       178.0004        179.0004
  -1325662.34847   -745872.98545  24053269.836    24053269.3494   24053274.0704
       145.0004        149.0004
 21  2  2  2  7  0.0000000  0 11G30G14G08G07G01G09G21G19G28G17G04
 -13722575.25848 -10646479.93247  21926192.572    21926192.8624   21926200.1414
       192.0004        191.0004
  -3081375.20248  -2378910.54246  23089388.137    23089389.3924   23089393.4504
       166.0004        168.0004
  -6660782.04248  -5171491.03547  23322884.071    23322885.8584   23322895.2354
       188.0004        188.0004
 -22545536.88049 -17556687.00747  20591063.500    20591063.9204   20591068.1204
       210.0004        210.0004
 -20151882.27249 -15672300.19047  20941155.548    20941156.4844   20941163.7684
       199.0004        199.0004
 -12341916.39048  -9585131.08547  22207084.256    22207084.1794   22207090.7584
       190.0004        191.0004
 -11300334.40248  -8790883.17246  22100772.574    22100771.7624   22100774.9154
       181.0004        181.0004
   -774700.61847   -578879.56545  24779293.436    24779292.9284   24779298.4874
       144.0004        147.0004
  -1487877.75047  -1148830.47945  23536328.944    23536329.0064   23536333.6724
       153.0004        155.0004
  -9683424.30048  -7506088.89646  22527325.045    22527325.2984   22527328.5724
       180.0004        183.0004
  -1228705.47047   -670322.16945  24071720.509    24071719.9274   24071727.0204
       145.0004        148.0004
 21  2  2  2  7 30.0000000  0 11G30G14G08G07G01G09G21G19G28G17G04
 -13803058.95348 -10709194.49247  21910876.952    21910877.6164   21910883.5514
       191.0004        191.0004
  -3108271.81047  -2399868.92446  23084270.402    23084269.9764   23084275.0384
       164.0004        165.0004
  -6565888.85948  -5097548.33246  23340944.944    23340945.0574   23340952.5184
       187.0004        187.0004
 -22590196.31849 -17591486.56947  20582565.510    20582565.6344   20582569.7074
       210.0004        211.0004
 -20184463.11449 -15697687.84847  20934956.810    20934956.8714   20934964.1254
       200.0004        200.0004
 -12268147.43648  -9527648.78247  22221120.804    22221121.1294   22221128.7914
       190.0004        190.0004
 -11259125.52048  -8758772.34446  22108613.076    22108612.6724   22108617.6444
       181.0004        180.0004
   -865341.41347   -649508.70245  24762045.738    24762044.3314   24762050.0674
       141.0004        144.0004
  -1503945.93447  -1161351.12945  23533269.838    23533270.6834   23533275.0124
       150.0004        152.0004
  -9744075.15348  -7553349.28446  22515782.217    22515782.7834   22515787.3324
       181.0004        181.0004
  -1131825.74547   -594831.51845  24090156.945    24090155.8494   24090161.3554
       146.0004        149.0004
 21  2  2  2  8  0.0000000  0 11G30G14G08G07G01G09G21G19G28G17G04
 -13883352.29148 -10771760.72247  21895597.775    21895598.0974   21895604.9904
       192.0004        193.0004
  -3135216.70947  -2420864.94246  23079142.850    23079143.3194   23079147.9194
       164.0004        166.0004
  -6470992.32648  -5023602.97947  23359006.379    23359004.3824   23359012.0724
       188.0004        190.0004
 -22634447.33549 -17625967.87847  20574143.985    20574144.7854   20574148.6824
       210.0004        211.0004
 -20216527.22549 -15722672.86047  20928854.522    20928854.8034   20928861.9784
       200.0004        200.0004
 -12194191.29848  -9470020.61647  22235194.713    22235194.5484   22235201.8054
       190.0004        190.0004
 -11217437.70348  -8726288.31146  22116545.501    22116545.5854   22116550.1034
       180.0004        180.0004
   -955770.06247   -719972.48945  24744837.341    24744836.7454   24744841.7484
       142.0004        147.0004
  -1520071.43047  -1173916.43445  23530203.368    23530203.2844   23530207.2734
       147.0004        149.0004
  -9804327.15548  -7600298.89646  22504316.021    22504317.0164   22504322.2054
       182.0004        182.0004
  -1035026.42347   -519403.47545  24108574.585    24108575.4414   24108582.6164
       146.0004        149.0004
 21  2  2  2  8 30.0000000  0 11G30G14G08G07G01G09G21G19G28G17G04
 -13963451.70848 -10834175.83947  21880355.126    21880355.4424   21880363.1164
       193.0004        195.0004
  -3162209.71948  -2441898.46146  23074006.434    23074006.4574   23074011.1944
       165.0004        167.0004
  -6376094.02548  -4949656.29247  23377065.665    23377063.7274   23377069.4094
       189.0004        190.0004
 -22678286.36749 -17660128.15347  20565802.761    20565802.9054   20565806.4074
       210.0004        211.0004
 -20248071.42749 -15747252.74047  20922851.639    20922852.5264   20922859.3934
       200.0004        200.0004
 -12120050.04948  -9412248.20947  22249303.191    22249303.3424   22249310.4024
       189.0004        190.0004
 -11175270.58448  -8693430.79246  22124570.467    22124570.0184   22124574.1214
       180.0004        181.0004
  -1045984.40147   -790269.31645  24727671.996    24727671.3804   24727673.1584
       142.0004        146.0004
  -1536254.64947  -1186526.72645  23527122.844    23527122.9414   23527127.0824
       146.0004        150.0004
  -9864178.32748  -7646936.15346  22492928.110    22492928.3744   22492932.1934
       183.0004        183.0004
   -938308.97547   -444039.29445  24126979.999    24126980.9374   24126986.1694
       147.0004        151.0004
 21  2  2  2  9  0.0000000  0 11G30G14G08G07G01G09G21G19G28G17G04
 -14043355.90749 -10896438.87447  21865150.637    21865151.0244   21865157.6884
       195.0004        196.0004
  -3189253.06148  -2462971.21746  23068858.645    23068858.9984   23068865.2714
       165.0004        166.0004
  -6281197.03148  -4875710.61647  23395122.941    23395122.2064   23395127.3844
       190.0004        190.0004
 -22721712.59549 -17693966.81347  20557538.462    20557538.7524   20557542.7004
       210.0004        211.0004
 -20279094.96149 -15771426.94347  20916948.349    20916948.7894   20916955.8124
       200.0004        200.0004
 -12045728.15848  -9354335.08647  22263445.786    22263446.7844   22263453.0614
       189.0004        189.0004
 -11132626.19548  -8660201.41646  22132685.391    22132684.5604   22132689.2494
       180.0004        180.0004
  -1135984.02047   -860398.81845  24710546.060    24710545.2754   24710546.9534
       141.0004        146.0004
  -1552497.95547  -1199183.85045  23524031.993    23524031.7444   23524037.0544
       148.0004        152.0004
  -9923629.60848  -7693261.83346  22481614.777    22481614.7184   22481618.5454
       183.0004        183.0004
   -841677.28447   -368741.92545  24145370.526    24145369.7774   24145374.4874
       148.0004        152.0004
 21  2  2  2  9 30.0000000  0 11G30G14G08G07G01G09G21G19G28G17G04
 -14123061.05148 -10958546.75447  21849983.259    21849983.1434   21849989.9284
       194.0004        194.0004
  -3216346.09948  -2484082.65246  23063703.787    23063704.8994   23063709.7524
       166.0004        167.0004
  -6186302.70648  -4801766.97746  23413176.722    23413177.6354   23413184.4474
       188.0004        187.0004
 -22764722.22149 -17727480.79447  20549353.910    20549354.6464   20549358.4624
       210.0004        211.0004
 -20309594.34549 -15795192.67547  20911144.496    20911144.8214   20911152.2904
       200.0004        200.0004
 -11971227.35448  -9296282.48647  22277623.771    22277624.0884   22277631.2424
       189.0004        189.0004
 -11089504.65648  -8626600.19346  22140890.970    22140890.4234   22140895.0414
       179.0004        179.0004
  -1225766.10147   -930358.81445  24693460.439    24693459.6654   24693462.0484
       142.0004        146.0004
  -1568801.70047  -1211888.02945  23520929.816    23520931.0174   23520933.5784
       148.0004        152.0004
  -9982679.17248  -7739274.44846  22470377.140    22470377.5284   22470382.6974
       182.0004        182.0004
   -745132.55647   -293512.28645  24163741.722    24163741.3814   24163747.2904
       148.0004        151.0004
 21  2  2  2 10  0.0000000  0 11G30G14G08G07G01G09G21G19G28G17G04
 -14202563.21748 -11020496.50047  21834853.502    21834854.3414   21834860.3134
       193.0004        194.0004
  -3243488.44347  -2505232.50546  23058538.756    23058539.2714   23058544.3774
       164.0004        165.0004
  -6091411.92748  -4727826.12946  23431235.109    23431234.5934   23431242.7504
       187.0004        187.0004
 -22807311.40649 -17760667.17847  20541250.000    20541250.1894   20541253.7824
       210.0004        211.0004
 -20339566.23949 -15818547.39347  20905440.607    20905441.4074   20905448.6814
       200.0004        201.0004
 -11896549.42948  -9238091.91446  22291834.068    22291834.5144   22291840.1774
       187.0004        186.0004
 -11045906.01048  -8592627.21546  22149187.319    22149187.1764   22149192.2384
       179.0004        181.0004
  -1315327.76747  -1000147.05645  24676416.890    24676415.9764   24676418.3094
       141.0004        145.0004
  -1585165.75647  -1224639.23745  23517814.930    23517814.8094   23517819.1454
       148.0004        151.0004
 -10041325.09648  -7784972.56846  22459218.185    22459218.3524   22459222.6294
       182.0004        183.0004
   -648675.97247   -218351.35145  24182095.186    24182094.9834   24182101.4114
       147.0004        149.0004
 21  2  2  2 10 30.0000000  0 11G30G14G08G07G01G09G21G19G28G17G04
 -14281860.86048 -11082286.87747  21819764.545    21819764.6914   21819770.8794
       194.0004        195.0004
  -3270681.82248  -2526422.15346  23053362.800    23053364.1434   23053369.2434
       165.0004        168.0004
  -5996527.97748  -4653890.60546  23449290.851    23449291.0554   23449298.0514
       186.0004        186.0004
 -22849479.04949 -17793525.09047  20533225.626    20533225.8814   20533229.7634
       210.0004        211.0004
 -20369009.59849 -15841490.26147  20899837.643    20899838.4324   20899846.0444
       200.0004        200.0004
 -11821698.57648  -9179766.57046  22306077.508    22306077.2934   22306083.9404
       186.0004        186.0004
 -11001831.28648  -8558283.27646  22157573.250    22157574.3584   22157578.1224
       180.0004        179.0004
  -1404668.84947  -1069763.38045  24659414.058    24659413.2494   24659419.1904
       140.0004        145.0004
  -1601592.15647  -1237439.04645  23514689.725    23514689.9424   23514695.0364
       150.0004        154.0004
 -10099567.69148  -7830356.40646  22448133.777    22448134.4014   22448140.2044
       182.0004        181.0004
   -552311.09547   -143261.86745  24200433.693    24200433.6304   24200438.4854
       147.0004        150.0004
 21  2  2  2 11  0.0000000  0 11G30G14G08G07G01G09G21G19G28G17G04
 -14360950.87149 -11143915.46647  21804714.010    21804714.3174   21804720.5524
       195.0004        195.0004
  -3297926.53548  -2547651.80046  23048179.811    23048180.4124   23048185.0314
       167.0004        169.0004
  -5901653.15248  -4579962.19446  23467344.569    23467344.1114   23467352.7584
       185.0004        186.0004
 -22891221.87649 -17826051.97947  20525282.242    20525282.4094   20525286.3854
       210.0004        211.0004
 -20397921.84049 -15864019.28147  20894335.634    20894336.3984   20894344.0234
       200.0004        200.0004
 -11746677.28248  -9121308.44246  22320353.721    22320354.1304   22320360.3454
       185.0004        186.0004
 -10957281.51548  -8523569.16546  22166052.182    22166051.5894   22166055.9054
       179.0004        180.0004
  -1493786.96147  -1139206.03245  24642455.447    24642454.2244   24642458.6844
       137.0004        141.0004
  -1618081.94847  -1250288.25545  23511551.358    23511552.0404   23511555.1724
       150.0004        152.0004
 -10157406.03348  -7875425.24546  22437128.367    22437129.0814   22437132.1844
       181.0004        181.0004
   -456039.87047    -68245.40245  24218753.601    24218754.5734   24218758.7044
       147.0004        150.0004
 21  2  2  2 11 30.0000000  0 11G30G14G08G07G01G09G21G19G28G17G04
 -14439831.50549 -11205380.89247  21789704.059    21789703.6594   21789709.8874
       195.0004        196.0004
  -3325224.24448  -2568922.72046  23042984.867    23042985.3394   23042990.7764
       167.0004        169.0004
  -5806790.20848  -4506043.03546  23485394.734    23485395.2704   23485404.1694
       184.0004        184.0004
 -22932538.22949 -17858246.54447  20517419.802    20517420.2014   20517423.8474
       210.0004        211.0004
 -20426301.86849 -15886133.57447  20888935.065    20888935.5994   20888943.7374
       200.0004        200.0004
 -11671489.59648  -9062720.61746  22334660.939    22334661.3924   22334668.5904
       185.0004        185.0004
 -10912258.55748  -8488486.33546  22174620.013    22174619.6684   22174623.6674
       179.0004        180.0004
  -1582681.79147  -1208474.73745  24625540.930    24625539.8074   24625541.5304
       137.0004        142.0004
  -1634637.28547  -1263188.49245  23508400.562    23508400.3474   23508405.6034
       147.0004        150.0004
 -10214840.44748  -7920179.30746  22426198.501    22426198.7774   22426202.0434
       181.0004        182.0004
   -359865.67647      6695.49445  24237055.321    24237055.1444   24237059.5224
       148.0004        151.0004
 21  2  2  2 12  0.0000000  0 11G30G14G08G07G01G09G21G19G28G17G04
 -14518499.97249 -11266680.99247  21774732.875    21774733.1994   21774740.3804
       195.0004        196.0004
  -3352575.47348  -2590235.36946  23037779.843    23037780.4594   23037785.7114
       167.0004        168.0004
  -5711941.13948  -4432134.65647  23503443.999    23503445.4694   23503453.9564
       186.0004        188.0004
 -22973425.66849 -17890106.89647  20509639.009    20509639.4174   20509643.4864
       210.0004        211.0004
 -20454147.48449 -15907831.45647  20883636.673    20883636.9954   20883644.4734
       200.0004        200.0004
 -11596138.37448  -9004005.39446  22349000.279    22349000.9434   22349007.9274
       185.0004        186.0004
 -10866764.01848  -8453036.03646  22183277.569    22183276.8314   22183282.1574
       179.0004        180.0004
  -1671351.72947  -1277568.10345  24608664.811    24608664.0404   24608668.7464
       135.0004        140.0004
  -1651258.95947  -1276140.42945  23505238.835    23505238.4364   23505242.4504
       148.0004        152.0004
 -10271870.26748  -7964618.14646  22415347.237    22415347.3884   22415350.3014
       182.0004        183.0004
   -263790.80847     81559.00545  24255337.119    24255337.5534   24255342.8464
       148.0004        151.0004
 21  2  2  2 12 30.0000000  0 11G30G14G08G07G01G09G21G19G28G17G04
 -14596954.33749 -11327814.26147  21759804.468    21759804.3134   21759810.9414
       195.0004        196.0004
  -3379981.56948  -2611590.78146  23032565.558    23032565.8354   23032570.0684
       167.0004        167.0004
  -5617109.28548  -4358239.72947  23521490.573    23521491.4934   23521500.0264
       187.0004        188.0004
 -23013882.82949 -17921631.95047  20501940.102    20501940.6234   20501944.9234
       210.0004        211.0004
 -20481457.32749 -15929111.83847  20878439.234    20878439.7644   20878447.5424
       199.0004        199.0004
 -11520627.32648  -8945165.62146  22363370.080    22363370.1704   22363376.7274
       186.0004        187.0004
 -10820798.92248  -8417219.06846  22192024.130    22192023.7414   22192027.7684
       179.0004        180.0004
  -1759795.78247  -1346485.49445  24591836.514    24591834.6314   24591840.6254
       137.0004        143.0004
  -1667949.01247  -1289145.64845  23502062.850    23502061.7484   23502066.6714
       148.0004        152.0004
 -10328495.68648  -8008741.83446  22404570.824    22404571.7034   22404574.3794
       182.0004        183.0004
   -167818.38047    156342.67645  24273597.737    24273598.8824   24273606.6984
       147.0004        151.0004
 21  2  2  2 13  0.0000000  0 11G30G14G08G07G01G09G21G19G28G17G04
 -14675191.32349 -11388778.14947  21744916.121    21744916.2294   21744922.5614
       196.0004        196.0004
  -3407442.77948  -2632989.06946  23027338.000    23027338.6314   23027345.5374
       166.0004        168.0004
  -5522296.03048  -4284359.30047  23539534.028    23539535.0374   23539542.3274
       188.0004        188.0004
 -23053906.36749 -17952819.13547  20494324.136    20494324.5814   20494328.5214
       211.0004        212.0004
 -20508228.84049 -15949972.75747  20873344.012    20873344.9934   20873352.9494
       199.0004        199.0004
 -11444958.93748  -8886203.24946  22377768.789    22377768.9684   22377776.1114
       186.0004        187.0004
 -10774363.21448  -8381035.40346  22200860.162    22200859.9684   22200864.8134
       179.0004        180.0004
  -1848011.86847  -1415225.23045  24575050.438    24575050.0204   24575052.9874
       142.0004        148.0004
  -1684708.05847  -1302204.62745  23498872.545    23498871.7884   23498877.1354
       148.0004        151.0004
 -10384715.32448  -8052549.33746  22393872.684    22393873.4964   22393877.1624
       183.0004        183.0004
    -71950.16247    231045.14345  24291841.840    24291842.3084   24291848.3814
       147.0004        150.0004
 21  2  2  2 13 30.0000000  0 11G30G14G08G07G01G09G21G19G28G17G04
 -14753207.35449 -11449569.88847  21730069.409    21730069.9384   21730077.0634
       195.0004        195.0004
  -3434958.75148  -2654430.11146  23022102.550    23022104.0544   23022108.0784
       166.0004        168.0004
  -5427502.40348  -4210494.14547  23557573.014    23557574.1314   23557581.7444
       188.0004        189.0004
 -23093492.91549 -17983665.82847  20486791.123    20486791.5254   20486795.4844
       211.0004        212.0004
 -20534459.14449 -15970411.97647  20868353.571    20868354.0434   20868361.7324
       199.0004        200.0004
 -11369135.29248  -8827119.91746  22392198.340    22392198.7274   22392204.9874
       186.0004        186.0004
 -10727458.43048  -8344486.23346  22209785.663    22209785.4384   22209790.6584
       179.0004        179.0004
  -1935997.71047  -1483785.58345  24558307.408    24558306.4484   24558310.4374
       146.0004        151.0004
  -1701536.31647  -1315317.57645  23495671.745    23495670.8104   23495675.2644
       150.0004        154.0004
 -10440528.21248  -8096039.92246  22383252.179    22383252.0864   22383257.0254
       183.0004        182.0004
     23812.34247    305665.19445  24310064.330    24310065.7194   24310072.8194
       146.0004        149.0004
 21  2  2  2 14  0.0000000  0 11G30G14G08G07G01G09G21G19G28G17G04
 -14831000.99749 -11510188.28847  21715266.463    21715265.9794   21715272.7784
       195.0004        196.0004
  -3462531.40448  -2675915.32446  23016858.058    23016857.6074   23016861.9014
       167.0004        168.0004
  -5332731.85248  -4136647.02647  23575607.914    23575608.1994   23575615.7874
       188.0004        189.0004
 -23132641.59649 -18014171.28647  20479341.064    20479341.7464   20479345.7834
       211.0004        212.0004
 -20560147.48849 -15990428.85547  20863465.189    20863465.8424   20863473.1184
       199.0004        200.0004
 -11293160.67748  -8767918.91246  22406655.212    22406655.1144   22406661.7934
       185.0004        184.0004
 -10680085.63548  -8307572.34946  22218800.691    22218800.6734   22218805.5394
       179.0004        179.0004
  -2023752.89847  -1552166.24845  24541607.941    24541607.1424   24541611.9624
       149.0004        153.0004
  -1718436.26047  -1328486.39745  23492455.641    23492455.9074   23492459.6874
       154.0004        159.0004
 -10495934.92248  -8139213.96346  22372708.445    22372708.7014   22372712.9234
       182.0004        183.0004
    119465.50047    380200.03845  24328266.095    24328268.2474   24328274.3314
       145.0004        148.0004
 21  2  2  2 14 30.0000000  0 11G30G14G08G07G01G09G21G19G28G17G04
 -14908570.22549 -11570631.84947  21700505.795    21700505.1964   21700512.0774
       196.0004        196.0004
  -3490161.99748  -2697445.63246  23011598.429    23011598.7084   23011603.7104
       166.0004        166.0004
  -5237987.09448  -4062819.94946  23593636.702    23593637.0794   23593643.9924
       187.0004        186.0004
 -23171350.29549 -18044333.92448  20471975.210    20471975.6894   20471979.9614
       211.0004        213.0004
 -20585292.53649 -16010022.40047  20858680.610    20858681.0794   20858687.9604
       199.0004        199.0004
 -11217038.70648  -8708603.10846  22421140.443    22421140.8344   22421147.1434
       184.0004        184.0004
 -10632247.04348  -8270295.53646  22227904.017    22227904.1874   22227909.3554
       179.0004        180.0004
  -2111276.74647  -1620366.56345  24524952.255    24524951.8394   24524956.2924
       149.0004        152.0004
  -1735409.50647  -1341712.28345  23489226.845    23489226.4744   23489229.3284
       156.0004        159.0004
 -10550935.61348  -8182071.64846  22362242.456    22362242.9414   22362247.0824
       183.0004        183.0004
    215006.34247    454647.41545  24346446.676    24346449.3274   24346454.4234
       144.0004        145.0004
 21  2  2  2 15  0.0000000  0 11G30G14G08G07G01G09G21G19G28G17G04
 -14985911.12249 -11630897.50247  21685787.877    21685788.8804   21685795.0384
       197.0004        197.0004
  -3517850.05148  -2719020.73646  23006328.949    23006330.3044   23006334.4274
       165.0004        166.0004
  -5143269.42848  -3989014.01146  23611659.443    23611660.0514   23611668.9014
       185.0004        185.0004
 -23209615.52549 -18074151.00548  20464694.295    20464694.3604   20464698.1124
       212.0004        213.0004
 -20609891.22149 -16029190.20147  20853999.347    20854000.2104   20854007.6804
       199.0004        200.0004
 -11140771.20548  -8649173.89646  22435653.587    22435654.1544   22435660.6614
       183.0004        184.0004
 -10583942.74748  -8232655.82446  22237096.194    22237095.9994   22237100.6284
       179.0004        179.0004
  -2198566.50147  -1688384.52945  24508339.831    24508339.4274   24508345.6194
       149.0004        151.0004
  -1752456.20047  -1354995.40945  23485981.555    23485981.3594   23485984.8284
       156.0004        159.0004
 -10605528.49448  -8224611.55446  22351853.177    22351854.2304   22351857.8154
       183.0004        183.0004
    310433.70147    529006.31445  24364608.275    24364608.5924   24364613.1664
       141.0004        145.0004
 21  2  2  2 15 30.0000000  0 11G30G14G08G07G01G09G21G19G28G17G04
 -15063019.55549 -11690981.99147  21671114.917    21671114.5994   21671121.2864
       196.0004        196.0004
  -3545594.65148  -2740639.89446  23001050.260    23001051.4714   23001054.6774
       165.0004        166.0004
  -5048579.12748  -3915229.37646  23629677.598    23629678.6894   23629688.0324
       184.0004        184.0004
 -23247433.45849 -18103619.52347  20457496.974    20457497.3454   20457501.8354
       212.0004        212.0004
 -20633940.19449 -16047929.64847  20849422.656    20849423.3244   20849431.1844
       200.0004        200.0004
 -11064359.73648  -8589632.48346  22450195.494    22450194.9574   22450202.2144
       184.0004        185.0004
 -10535172.40448  -8194652.94846  22246376.749    22246376.2914   22246381.1794
       179.0004        179.0004
  -2285619.32947  -1756217.86745  24491774.513    24491774.9674   24491780.0704
       150.0004        153.0004
  -1769575.92147  -1368335.42045  23482723.482    23482724.6374   23482727.7844
       157.0004        160.0004
 -10659711.77348  -8266832.28046  22341542.175    22341542.7034   22341547.3664
       182.0004        182.0004
    405746.71347    603276.13845  24382744.102    24382745.3724   24382751.9464
       140.0004        144.0004
 21  2  2  2 16  0.0000000  0 11G30G14G08G07G01G09G21G19G28G17G04
 -15139894.58649 -11750884.60247  21656485.673    21656486.0164   21656492.5914
       195.0004        195.0004
  -3573398.15148  -2762304.95146  22995759.230    22995759.8784   22995763.4294
       165.0004        167.0004
  -4953920.17148  -3841469.15446  23647691.721    23647692.5294   23647699.6444
       184.0004        184.0004
 -23284803.45549 -18132738.99948  20450386.297    20450386.6244   20450390.3964
       212.0004        213.0004
 -20657439.28149 -16066240.60847  20844950.290    20844951.4974   20844959.5774
       199.0004        199.0004
 -10987809.01448  -8529982.56946  22464761.124    22464761.5034   22464768.7694
       184.0004        184.0004
 -10485938.58748  -8156288.92646  22255744.173    22255744.8464   22255749.5894
       178.0004        179.0004
  -2372435.42047  -1823866.71945  24475255.734    24475253.7254   24475258.2564
       148.0004        150.0004
  -1786771.53447  -1381734.57045  23479453.274    23479453.3684   23479455.7044
       157.0004        158.0004
 -10713486.68348  -8308734.81046  22331309.507    22331309.5644   22331313.8334
       181.0004        182.0004
    500941.35747    677453.72245  24400859.917    24400860.2334   24400865.6474
       140.0004        143.0004
 21  2  2  2 16 30.0000000  0 11G30G14G08G07G01G09G21G19G28G17G04
 -15216533.40149 -11810603.15647  21641900.551    21641901.8084   21641909.1964
       196.0004        196.0004
  -3601261.11848  -2784016.33146  22990456.321    22990457.0114   22990462.4294
       167.0004        168.0004
  -4859294.89848  -3767735.18146  23665698.942    23665698.9914   23665707.4704
       182.0004        182.0004
 -23321723.15249 -18161507.60648  20443360.238    20443360.9074   20443364.8814
       212.0004        213.0004
 -20680386.53549 -16084121.59047  20840584.448    20840585.0174   20840592.2544
       199.0004        199.0004
 -10911121.96548  -8470226.44346  22479354.354    22479354.7964   22479361.9084
       183.0004        184.0004
 -10436242.45548  -8117564.67446  22265201.813    22265201.9314   22265206.6784
       178.0004        179.0004
  -2459013.00647  -1891329.74345  24458779.818    24458779.1384   24458782.1904
       146.0004        149.0004
  -1804043.88947  -1395193.53545  23476165.453    23476164.7784   23476168.0944
       153.0004        153.0004
 -10766852.62848  -8350318.65946  22321154.177    22321154.5324   22321159.3644
       182.0004        182.0004
    596015.25747    751537.23945  24418951.196    24418952.5864   24418959.0454
       139.0004        143.0004
 21  2  2  2 17  0.0000000  0 11G30G14G08G07G01G09G21G19G28G17G04
 -15292933.57549 -11870135.75547  21627364.078    21627363.8094   21627370.0124
       197.0004        197.0004
  -3629184.38648  -2805774.68546  22985144.096    22985143.6384   22985149.2404
       168.0004        169.0004
  -4764705.18948  -3694028.91646  23683700.110    23683699.8264   23683707.0254
       182.0004        183.0004
 -23358190.64049 -18189923.82747  20436420.461    20436420.7624   20436425.0954
       212.0004        212.0004
 -20702780.43549 -16101571.35747  20836322.554    20836323.4944   20836330.4254
       199.0004        199.0004
 -10834301.82248  -8410366.59646  22493973.686    22493973.8494   22493981.1084
       183.0004        184.0004
 -10386085.46448  -8078481.29146  22274747.002    22274746.6854   22274751.7734
       179.0004        180.0004
  -2545351.25747  -1958606.24945  24442349.711    24442349.3224   24442354.6774
       148.0004        152.0004
  -1821394.35647  -1408713.38945  23472860.473    23472859.9734   23472866.3514
       149.0004        150.0004
 -10819809.33648  -8391583.61246  22311077.108    22311077.4084   22311081.4344
       183.0004        184.0004
    690966.05147    825524.79745  24437020.211    24437020.5904   24437026.0984
       138.0004        142.0004
 21  2  2  2 17 30.0000000  0 11G30G14G08G07G01G09G21G19G28G17G04
 -15369091.65049 -11929479.71747  21612870.784    21612870.8724   21612877.7264
       197.0004        196.0004
  -3657167.73548  -2827579.90146  22979818.557    22979819.5574   22979823.0284
       167.0004        168.0004
  -4670152.67648  -3620351.67646  23701693.623    23701691.6934   23701699.5954
       181.0004        180.0004
 -23394202.65349 -18217985.14548  20429567.775    20429568.1984   20429572.2454
       212.0004        213.0004
 -20724618.37749 -16118587.92847  20832168.515    20832168.4184   20832175.7694
       199.0004        200.0004
 -10757350.80148  -8350404.77646  22508617.047    22508616.8114   22508623.8474
       184.0004        185.0004
 -10335468.28748  -8039039.33646  22284378.819    22284378.9744   22284384.3874
       179.0004        180.0004
  -2631448.01247  -2025694.59445  24425966.393    24425966.3654   24425970.1754
       150.0004        153.0004
  -1838823.52447  -1422294.58145  23469542.972    23469543.5474   23469550.9614
       147.0004        150.0004
 -10872356.49048  -8432529.44546  22301077.844    22301078.2144   22301082.6314
       183.0004        184.0004
    785792.10647    899415.11845  24455067.625    24455066.9594   24455072.3284
       138.0004        143.0004
 21  2  2  2 18  0.0000000  0 11G30G14G08G07G01G09G21G19G28G17G04
 -15445005.88949 -11988633.68347  21598424.956    21598424.6364   21598431.8944
       196.0004        196.0004
  -3685212.74648  -2849433.17946  22974482.285    22974482.8814   22974486.3384
       168.0004        170.0004
  -4575640.16748  -3546705.59346  23719676.048    23719676.0114   23719685.0414
       180.0004        180.0004
 -23429757.86549 -18245690.53148  20422801.647    20422802.2014   20422806.3084
       212.0004        213.0004
 -20745899.54649 -16135170.65747  20828117.625    20828118.2994   20828125.9554
       199.0004        199.0004
 -10680272.93348  -8290344.10846  22523282.709    22523283.6174   22523291.2954
       183.0004        183.0004
 -10284393.36148  -7999240.70046  22294098.647    22294098.5394   22294103.4044
       179.0004        179.0004
  -2717302.64147  -2092594.30245  24409628.667    24409627.6094   24409632.0934
       149.0004        152.0004
  -1856333.42847  -1435938.67045  23466216.179    23466215.5754   23466218.8524
       150.0004        155.0004
 -10924494.35448  -8473156.35046  22291155.377    22291156.0234   22291161.1574
       183.0004        184.0004
    880490.13247    973205.69145  24473087.834    24473086.8634   24473093.4644
       136.0004        140.0004
 21  2  2  2 18 30.0000000  0 11G30G14G08G07G01G09G21G19G28G17G04
 -15520672.89849 -12047594.96947  21584025.354    21584026.1844   21584032.6104
       196.0004        197.0004
  -3713319.28348  -2871334.33846  22969132.707    22969133.7144   22969138.7874
       170.0004        171.0004
  -4481169.25948  -3473091.90646  23737649.396    23737652.0004   23737661.6944
       179.0004        180.0004
 -23464853.13849 -18273037.48448  20416123.569    20416124.0284   20416128.0324
       212.0004        213.0004
 -20766621.56949 -16151317.65847  20824173.839    20824174.8614   20824182.3444
       199.0004        199.0004
 -10603070.43448  -8230186.31246  22537974.981    22537975.7394   22537981.7614
       182.0004        183.0004
 -10232860.61048  -7959085.29046  22303904.277    22303904.3684   22303909.6444
       179.0004        179.0004
  -2802913.21047  -2159303.81945  24393338.836    24393337.9224   24393339.5134
       149.0004        152.0004
  -1873924.24547  -1449645.77745  23462869.002    23462868.2814   23462870.6354
       154.0004        157.0004
 -10976221.53748  -8513463.24046  22281312.797    22281312.8664   22281317.1884
       183.0004        185.0004
    975058.53647   1046895.28245  24491080.609    24491080.9814   24491089.6694
       137.0004        141.0004
 21  2  2  2 19  0.0000000  0 11G30G14G08G07G01G09G21G19G28G17G04
 -15596089.03949 -12106360.79947  21569675.078    21569674.8044   21569681.6604
       196.0004        197.0004
  -3741486.95948  -2893283.16746  22963773.234    22963773.6214   22963778.3344
       170.0004        170.0004
  -4386741.06248  -3399511.49346  23755620.566    23755621.2294   23755631.2014
       178.0004        179.0004
 -23499485.52249 -18300023.76548  20409532.999    20409533.5024   20409537.6194
       212.0004        213.0004
 -20786781.76749 -16167026.90747  20820337.663    20820338.5624   20820345.9844
       199.0004        199.0004
 -10525745.39848  -8169933.02946  22552690.360    22552690.1384   22552697.2904
       183.0004        185.0004
 -10180870.70748  -7918573.69646  22313797.723    22313797.3624   22313802.5344
       178.0004        179.0004
  -2888277.21947  -2225821.16045  24377094.105    24377093.3344   24377096.5684
       152.0004        156.0004
  -1891596.08847  -1463416.03645  23459503.738    23459503.4754   23459507.4834
       154.0004        156.0004
 -11027537.13048  -8553449.40046  22271548.200    22271548.7254   22271552.3474
       185.0004        187.0004
   1069496.09347   1120482.90945  24509052.269    24509052.6614   24509060.8734
       137.0004        142.0004
 21  2  2  2 19 30.0000000  0 11G30G14G08G07G01G09G21G19G28G17G04
 -15671251.88149 -12164929.24947  21555372.006    21555372.1534   21555378.5254
       197.0004        198.0004
  -3769716.63048  -2915280.29746  22958401.651    22958401.6874   22958406.0874
       170.0004        170.0004
  -4292357.64648  -3325966.02746  23773581.924    23773582.6984   23773591.7374
       178.0004        179.0004
 -23533652.86149 -18326647.66248  20403031.348    20403031.8304   20403035.8444
       212.0004        213.0004
 -20806378.72649 -16182297.26247  20816608.548    20816609.4684   20816617.3734
       199.0004        199.0004
 -10448301.06748  -8109586.79646  22567426.977    22567427.6474   22567434.4614
       184.0004        184.0004
 -10128424.75148  -7877706.70046  22323778.654    22323778.0954   22323783.0094
       179.0004        180.0004
  -2973393.44347  -2292145.46945  24360896.157    24360895.6854   24360900.1114
       154.0004        157.0004
  -1909350.52847  -1477250.67545  23456122.787    23456123.6934   23456129.5544
       151.0004        153.0004
 -11078440.84148  -8593114.62446  22261860.782    22261861.3024   22261865.6804
       185.0004        187.0004
   1163800.14347   1193966.45045  24526998.427    24526997.7824   24527005.2904
       139.0004        143.0004
 21  2  2  2 20  0.0000000  0 11G30G14G08G07G01G09G21G19G28G17G04
 -15746159.38649 -12223298.75647  21541118.238    21541118.3014   21541124.3684
       199.0004        199.0004
  -3798009.50548  -2937326.68046  22953017.553    22953018.1734   22953021.8334
       169.0004        170.0004
  -4198021.78048  -3252457.58546  23791534.268    23791535.0154   23791542.6544
       178.0004        180.0004
 -23567353.53649 -18352907.95048  20396618.705    20396618.9724   20396623.0044
       212.0004        214.0004
 -20825411.40449 -16197127.93547  20812986.564    20812987.2444   20812994.8764
       198.0004        198.0004
 -10370741.09348  -8049150.47246  22582185.525    22582186.7464   22582192.5964
       182.0004        182.0004
 -10075525.09448  -7836486.20546  22333844.476    22333844.2434   22333849.2644
       178.0004        178.0004
  -3058261.42947  -2358276.33645  24344746.405    24344745.8084   24344750.1614
       153.0004        155.0004
  -1927189.29747  -1491151.00445  23452730.312    23452730.2954   23452733.8684
       149.0004        151.0004
 -11128933.31648  -8632459.41846  22252252.939    22252252.7274   22252258.2274
       186.0004        185.0004
   1257967.82547   1267343.75745  24544917.092    24544918.8094   24544925.1434
       138.0004        142.0004
 21  2  2  2 20 30.0000000  0 11G30G14G08G07G01G09G21G19G28G17G04
 -15820808.61149 -12281466.97647  21526912.089    21526912.2234   21526919.3194
       199.0004        199.0004
  -3826365.82548  -2959422.50546  22947621.406    22947622.1784   22947625.1894
       169.0004        170.0004
  -4103735.22948  -3178987.57246  23809475.750    23809477.1374   23809486.4884
       178.0004        179.0004
 -23600585.16349 -18378802.72748  20390294.497    20390294.8504   20390299.0104
       212.0004        213.0004
 -20843877.89849 -16211517.40747  20809472.425    20809473.4084   20809480.8694
       198.0004        199.0004
 -10293068.17248  -7988626.12646  22596966.309    22596967.0214   22596973.5944
       181.0004        182.0004
 -10022173.47148  -7794913.51246  22343997.127    22343997.1904   22344002.4704
       178.0004        179.0004
  -3142879.40947  -2424212.39645  24328644.281    24328643.2264   24328647.3914
       153.0004        155.0004
  -1945112.99047  -1505117.50845  23449321.021    23449320.4084   23449324.0084
       151.0004        155.0004
 -11179014.18548  -8671483.47746  22242721.867    22242722.8774   22242727.4224
       184.0004        185.0004
   1351997.20147   1340613.24645  24562812.436    24562812.3484   24562820.8384
       139.0004        144.0004
 21  2  2  2 21  0.0000000  0 11G30G14G08G07G01G09G21G19G28G17G04
 -15895197.76549 -12339432.55647  21512755.827    21512756.5394   21512762.9984
       199.0004        199.0004
  -3854787.05748  -2981568.92146  22942212.695    22942213.1414   22942217.6834
       169.0004        170.0004
  -4009500.81348  -3105558.16546  23827409.534    23827410.0494   23827417.8954
       178.0004        178.0004
 -23633346.48149 -18404331.03548  20384060.627    20384060.9164   20384064.7724
       212.0004        213.0004
 -20861777.52349 -16225465.16947  20806066.904    20806067.7364   20806075.0874
       199.0004        200.0004
 -10215286.21548  -7928016.83046  22611768.203    22611768.6324   22611774.8734
       182.0004        184.0004
  -9968371.11148  -7752989.59346  22354235.146    22354235.3914   22354239.8044
       178.0004        179.0004
  -3227246.93247  -2489953.29945  24312589.215    24312587.8824   24312593.8454
       154.0004        157.0004
  -1963123.41747  -1519151.60445  23445892.866    23445892.9474   23445897.6124
       154.0004        157.0004
 -11228683.77748  -8710187.04346  22233270.433    22233270.6964   22233276.0664
       184.0004        186.0004
   1445885.13547   1413772.54045  24580677.635    24580678.4754   24580684.4604
       140.0004        144.0004
