     2.11           OBSERVATION DATA    G (GPS)             RINEX VERSION / TYPE
teqc  2018Jun8                          20210131 18:53:27UTCPGM / RUN BY / DATE
Linux2.6.32-573.12.1.el6.x86_64|x86_64|gcc|Win64-MinGW64|=+ COMMENT
BIT 2 OF LLI FLAGS DATA COLLECTED UNDER A/S CONDITION       COMMENT
-Unknown-                                                   MARKER NAME
CRNO                                                        MARKER NUMBER
-Unknown-           -Unknown-                               OBSERVER / AGENCY
-Unknown-           ASHTECH             -Unknown-           REC # / TYPE / VERS
-Unknown-           -Unknown-                               ANT # / TYPE
   408079.7292 -6158374.6664  1605162.5568                  APPROX POSITION XYZ
        0.0000        0.0000        0.0000                  ANTENNA: DELTA H/E/N
     1     1                                                WAVELENGTH FACT L1/2
     7    L1    L2    C1    P1    P2    S1    S2            # / TYPES OF OBSERV
    30.0000                                                 INTERVAL
Forced Modulo Decimation to 30 seconds                      COMMENT
 SNR is mapped to RINEX snr flag value [1-9]                COMMENT
  L1: 1 -> 1;  90 -> 5; 210 -> 9                            COMMENT
  L2: 1 -> 1; 150 -> 5; 250 -> 9                            COMMENT
pseudorange smoothing corrections not applied               COMMENT
  2021     2     2     0     0   30.0000000     GPS         TIME OF FIRST OBS
                                                            END OF HEADER
 21  2  2  0  0 30.0000000  0  8G21G22G08G03G04G16G09G27
  -7908855.00147  -5999025.70045  23332028.769    23332027.9054   23332034.2354
       135.0004        140.0004
  -3731662.96347  -2228203.28345  24261628.896    24261628.8144   24261634.0244
       142.0004        146.0004
 -23141513.91049 -18003114.25247  20242928.845    20242929.5844   20242937.3914
       211.0004        211.0004
  -4144783.12747  -3196026.39645  23507001.150    23507001.5224   23507010.2974
       156.0004        159.0004
 -22157847.54049 -17254563.44548  20222746.449    20222746.8324   20222752.4684
       216.0004        215.0004
  -8177938.03447  -6338686.11845  23316718.289    23316720.4254   23316724.5194
       148.0004        151.0004
 -12779259.22249  -9937725.72647  21727478.403    21727478.7934   21727485.1334
       197.0004        197.0004
 -19950973.21049 -15525365.76847  21073306.632    21073306.7724   21073314.1754
       202.0004        202.0004
 21  2  2  0  1  0.0000000  0  8G21G22G08G03G04G16G09G27
  -7960009.10047  -6038885.87945  23322294.731    23322294.9514   23322300.7654
       138.0004        144.0004
  -3675591.77347  -2184511.51645  24272300.907    24272299.7544   24272304.1094
       145.0004        151.0004
 -23165987.12849 -18022184.27147  20238272.549    20238272.7614   20238280.4044
       211.0004        211.0004
  -4080455.31347  -3145900.83545  23519243.875    23519244.1804   23519251.2314
       159.0004        162.0004
 -22161955.56049 -17257764.49048  20221964.357    20221964.8694   20221970.7234
       216.0004        215.0004
  -8092250.31547  -6271916.47445  23333029.184    23333027.3554   23333028.7874
       147.0004        150.0004
 -12848748.35949  -9991873.09547  21714254.133    21714255.2924   21714261.7704
       197.0004        197.0004
 -19903376.10649 -15488277.10047  21082364.459    21082364.2104   21082371.3774
       202.0004        202.0004
 21  2  2  0  1 30.0000000  0  8G21G22G08G03G04G16G09G27
  -8011220.67347  -6078790.85645  23312547.751    23312548.3014   23312554.3494
       138.0004        143.0004
  -3619699.56947  -2140959.21545  24282935.533    24282935.0944   24282941.0724
       147.0004        152.0004
 -23189868.99849 -18040793.50947  20233727.226    20233727.8414   20233735.8964
       210.0004        211.0004
  -4016172.14347  -3095810.02645  23531476.016    23531477.0654   23531482.8754
       160.0004        162.0004
 -22165496.51849 -17260523.67548  20221290.479    20221290.7044   20221296.9144
       216.0004        215.0004
  -8006629.03147  -6205198.61045  23349318.090    23349318.9044   23349321.3774
       147.0004        149.0004
 -12917835.17149 -10045706.94647  21701107.520    21701108.0394   21701115.5554
       197.0004        197.0004
 -19855217.18149 -15450750.65247  21091528.115    21091528.3664   21091535.5264
       202.0004        202.0004
 21  2  2  0  2  0.0000000  0  9G21G22G08G07G03G04G16G09G27
  -8062485.79247  -6118737.58145  23302794.330    23302794.0824   23302799.1974
       137.0004        142.0004
  -3563987.22547  -2097547.07645  24293536.987    24293536.1524   24293542.9104
       147.0004        151.0004
 -23213157.47149 -18058940.36247  20229296.668    20229296.6944   20229304.4364
       211.0004        212.0004
    -86107.20854    -45698.87943  24555305.195
        74.0004         74.0004
  -3951935.20847  -3045755.25445  23543699.201    23543700.4694   23543707.5904
       159.0004        161.0004
 -22168468.85449 -17262839.78448  20220724.727    20220725.3384   20220731.1604
       216.0004        215.0004
  -7921074.88347  -6138533.00045  23365594.730    23365597.0584   23365604.1564
       145.0004        148.0004
 -12986516.25649 -10099224.66747  21688038.994    21688038.6314   21688045.5864
       197.0004        197.0004
 -19806497.15649 -15412786.99047  21100799.449    21100800.0824   21100806.8424
       202.0004        203.0004
 21  2  2  0  2 30.0000000  0  9G21G22G08G07G03G04G16G09G27
  -8113801.01347  -6158723.39645  23293029.508    23293029.2104   23293034.4594
       137.0004        142.0004
  -3508454.65447  -2054275.01245  24304104.725    24304104.2894   24304109.7194
       148.0004        151.0004
 -23235850.00849 -18076622.84647  20224978.066    20224978.2824   20224986.1324
       211.0004        211.0004
   -145613.08244    -92066.77945  24543980.049
        74.0004        148.0004
  -3887745.44947  -2995737.28045  23555913.603    23555913.3314   23555923.0894
       159.0004        160.0004
 -22170870.39149 -17264711.11248  20220268.382    20220268.6324   20220274.4474
       216.0004        215.0004
  -7835588.29647  -6071920.10345  23381868.509    23381868.2774   23381871.9634
       146.0004        150.0004
 -13054787.53949 -10152423.06147  21675046.394    21675046.5054   21675053.6774
       196.0004        196.0004
 -19757216.15849 -15374386.20747  21110177.817    21110177.6044   21110184.9694
       202.0004        202.0004
 21  2  2  0  3  0.0000000  0  9G21G22G08G07G03G04G16G09G27
  -8165167.82747  -6198749.38445  23283253.086    23283252.8694   23283260.0734
       138.0004        143.0004
  -3453107.69247  -2011147.51945  24314638.148    24314636.2624   24314642.2314
       149.0004        152.0004
 -23257949.25149 -18093843.00847  20220772.122    20220772.8014   20220780.3064
       210.0004        211.0004
   -205291.20945   -138569.18645  24532625.338                    24532629.8634
        85.0004        151.0004
  -3823609.48247  -2945761.21645  23568117.440    23568118.1234   23568126.9174
       156.0004        157.0004
 -22172704.72849 -17266140.45248  20219918.772    20219919.3794   20219925.5264
       216.0004        216.0004
  -7750174.96447  -6005364.27345  23398125.012    23398123.1954   23398123.8944
       148.0004        151.0004
 -13122650.75249 -10205303.45747  21662132.214    21662132.9814   21662139.4584
       196.0004        196.0004
 -19707380.04849 -15335552.84947  21119661.234    21119661.3154   21119668.3404
       202.0004        202.0004
 21  2  2  0  3 30.0000000  0  9G21G22G08G07G03G04G16G09G27
  -8216580.72747  -6238811.26245  23273470.026    23273469.5804   23273478.0684
       140.0004        145.0004
  -3397945.43547  -1968164.02745  24325135.347    24325134.7334   24325139.4254
       148.0004        152.0004
 -23279452.12149 -18110598.48447  20216681.038    20216681.1864   20216688.6224
       211.0004        211.0004
   -265138.69747   -185203.55645  24521236.365    24521236.4064   24521241.5294
       145.0004        154.0004
  -3759527.08447  -2895826.91945  23580311.067    23580311.7804   23580323.1324
       156.0004        159.0004
 -22173968.55249 -17267125.25748  20219678.495    20219678.7024   20219684.7984
       217.0004        215.0004
  -7664833.74647  -5938864.61945  23414359.634    23414360.0494   23414364.3884
       148.0004        151.0004
 -13190100.61649 -10257861.80447  21649297.458    21649297.9324   21649303.9144
       196.0004        196.0004
 -19656987.81649 -15296286.17147  21129250.322    21129250.4174   21129257.1524
       201.0004        201.0004
 21  2  2  0  4  0.0000000  0  9G21G22G08G07G03G04G16G09G27
  -8268038.89447  -6278908.43145  23263678.180    23263678.3834   23263683.9684
       141.0004        146.0004
  -3342969.85947  -1925325.96845  24335596.987    24335595.9954   24335601.6624
       148.0004        152.0004
 -23300358.13049 -18126888.86647  20212702.302    20212702.5524   20212710.5944
       211.0004        212.0004
   -325156.02547   -231970.26745  24509816.334    24509816.5184   24509819.8034
       149.0004        153.0004
  -3695501.51647  -2845936.86145  23592496.466    23592497.5014   23592505.5534
       158.0004        162.0004
 -22174662.11549 -17267665.70848  20219546.158    20219546.7784   20219552.7374
       216.0004        215.0004
  -7579566.78447  -5872422.83345  23430586.027    23430585.8704   23430589.9614
       147.0004        151.0004
 -13257135.48249 -10310096.74947  21636540.688    21636540.8924   21636548.1104
       196.0004        196.0004
 -19606041.95449 -15256588.09547  21138944.578    21138944.9154   21138951.3964
       201.0004        200.0004
 21  2  2  0  4 30.0000000  0  9G21G22G08G07G03G04G16G09G27
  -8319538.71247  -6319038.09045  23253877.510    23253876.9084   23253884.9224
       143.0004        148.0004
  -3288182.52447  -1882634.63645  24346022.589    24346021.2834   24346027.6834
       147.0004        150.0004
 -23320665.63649 -18142712.88447  20208838.177    20208838.5004   20208846.1354
       211.0004        212.0004
   -385342.01147   -278868.39545  24498363.024    24498363.3334   24498366.3804
       150.0004        153.0004
  -3631534.60247  -2796092.54446  23604671.260    23604671.7734   23604677.1684
       160.0004        163.0004
 -22174784.35449 -17267760.96048  20219523.872    20219523.8584   20219529.2584
       216.0004        215.0004
  -7494375.32147  -5806039.85845  23446796.990    23446796.7624   23446801.0144
       145.0004        148.0004
 -13323752.34249 -10362005.97847  21623864.595    21623864.7774   21623871.8674
       196.0004        197.0004
 -19554543.69049 -15216459.56047  21148744.134    21148744.6464   21148751.8934
       201.0004        201.0004
 21  2  2  0  5  0.0000000  0  9G21G22G08G07G03G04G16G09G27
  -8371078.50147  -6359198.86845  23244069.605    23244069.3984   23244076.4444
       144.0004        148.0004
  -3233585.46447  -1840091.53045  24356410.047    24356409.5964   24356417.8814
       146.0004        149.0004
 -23340374.32849 -18158070.29747  20205087.506    20205087.5824   20205095.4884
       211.0004        211.0004
   -445697.15147   -325898.31645  24486877.331    24486877.1364   24486882.7264
       152.0004        155.0004
  -3567629.47947  -2746296.35145  23616831.376    23616832.0914   23616838.4354
       160.0004        161.0004
 -22174335.36949 -17267411.10148  20219608.705    20219609.1284   20219614.8604
       217.0004        215.0004
  -7409261.30847  -5739717.26245  23462994.255    23462993.4794   23462997.5504
       145.0004        149.0004
 -13389949.27849 -10413588.00047  21611266.130    21611266.7034   21611274.6744
       196.0004        196.0004
 -19502495.37649 -15175902.42547  21158648.733    21158649.3174   21158656.1254
       201.0004        201.0004
 21  2  2  0  5 30.0000000  0  9G21G22G08G07G03G04G16G09G27
  -8422654.99647  -6399388.25545  23234254.917    23234254.8404   23234261.6824
       143.0004        148.0004
  -3179178.93147  -1797696.90245  24366762.760    24366763.0234   24366769.9884
       147.0004        150.0004
 -23359482.64349 -18172959.86147  20201451.025    20201451.5084   20201459.2104
       211.0004        211.0004
   -506220.10147   -373058.99045  24475360.173    24475359.7534   24475365.0404
       155.0004        158.0004
  -3503787.71947  -2696549.52545  23628978.872    23628978.5474   23628986.7054
       157.0004        156.0004
 -22173313.89749 -17266615.13348  20219803.437    20219803.7374   20219809.2704
       217.0004        215.0004
  -7324225.56047  -5673455.62545  23479175.038    23479175.7304   23479180.0004
       143.0004        146.0004
 -13455723.12349 -10464840.31447  21598750.965    21598751.2674   21598757.9714
       196.0004        197.0004
 -19449898.04049 -15134917.45647  21168658.781    21168658.2104   21168665.0934
       200.0004        200.0004
 21  2  2  0  6  0.0000000  0  9G21G22G08G07G03G04G16G09G27
  -8474265.83747  -6439604.41145  23224434.452    23224433.7244   23224440.2994
       145.0004        149.0004
  -3124964.77347  -1755452.18745  24377080.817    24377079.9694   24377085.5084
       146.0004        149.0004
 -23377989.77649 -18187380.97847  20197930.128    20197930.0964   20197937.3614
       211.0004        212.0004
   -566910.71147   -420350.31345  24463810.366    24463811.0654   24463816.0114
       157.0004        160.0004
  -3440011.92047  -2646854.14045  23641113.255    23641114.6574   23641123.5504
       154.0004        155.0004
 -22171719.72049 -17265372.91448  20220106.449    20220106.7824   20220112.7044
       217.0004        215.0004
  -7239270.13347  -5607256.55945  23495340.602    23495340.5684   23495346.5784
       143.0004        147.0004
 -13521071.61449 -10515761.21347  21586315.259    21586315.6084   21586322.4594
       196.0004        197.0004
 -19396753.72549 -15093506.29247  21178770.952    21178771.0854   21178777.5184
       200.0004        200.0004
 21  2  2  0  6 30.0000000  0  9G21G22G08G07G03G04G16G09G27
  -8525909.06847  -6479845.78345  23214606.694    23214605.8714   23214611.3094
       145.0004        149.0004
  -3070945.23547  -1713359.11645  24387360.033    24387359.9274   24387366.6184
       148.0004        152.0004
 -23395895.19449 -18201333.21347  20194522.115    20194522.4694   20194530.3724
       211.0004        212.0004
   -627768.96547   -467772.29245  24452230.339    24452229.9934   24452235.0224
       157.0004        159.0004
  -3376304.90147  -2597212.34045  23653237.379    23653238.6294   23653247.8864
       154.0004        158.0004
 -22169552.81249 -17263684.40148  20220518.388    20220518.8914   20220525.0884
       216.0004        215.0004
  -7154396.76247  -5541121.46045  23511491.835    23511493.3924   23511496.2144
       142.0004        145.0004
 -13585992.78549 -10566349.12147  21573961.027    21573961.3494   21573968.4274
       196.0004        196.0004
 -19343064.66649 -15051670.63247  21188988.141    21188987.7324   21188994.2894
       200.0004        200.0004
 21  2  2  0  7  0.0000000  0  9G21G22G08G07G03G04G16G09G27
  -8577581.66447  -6520110.02445  23204775.499    23204774.0704   23204778.2104
       147.0004        150.0004
  -3017121.88847  -1671418.95445  24397604.362    24397603.6904   24397608.3204
       147.0004        149.0004
 -23413198.46049 -18214816.26547  20191230.127    20191230.0974   20191237.2484
       212.0004        212.0004
   -688794.77747   -515324.80445  24440616.278    24440617.7304   24440621.5974
       158.0004        160.0004
  -3312669.41147  -2547626.24445  23665347.680    23665348.1314   23665356.6404
       156.0004        158.0004
 -22166813.07949 -17261549.54948  20221039.871    20221040.4664   20221046.3904
       216.0004        215.0004
  -7069607.18147  -5475051.69745  23527628.719    23527629.0194   23527630.6574
       142.0004        146.0004
 -13650484.46249 -10616602.37547  21561688.827    21561688.6044   21561695.8024
       196.0004        197.0004
 -19288833.00749 -15009412.18847  21199308.089    21199307.4874   21199314.2274
       200.0004        200.0004
 21  2  2  0  7 30.0000000  0  9G21G22G08G07G03G04G16G09G27
  -8629282.85547  -6560396.57045  23194935.596    23194935.5444   23194941.1384
       148.0004        151.0004
  -2963497.07747  -1629633.47945  24407807.827    24407807.2754   24407813.6044
       148.0004        153.0004
 -23429899.80349 -18227830.27947  20188051.464    20188051.7604   20188059.3144
       212.0004        212.0004
   -749988.89347   -563008.46845  24428970.756    24428972.1344   24428976.4814
       158.0004        161.0004
  -3249108.65047  -2498098.35645  23677441.938    23677442.3754   23677452.0514
       154.0004        156.0004
 -22163501.04049 -17258968.74148  20221670.740    20221670.6924   20221676.6604
       217.0004        215.0004
  -6984903.71247  -5409048.98245  23543743.777    23543744.4764   23543750.5244
       141.0004        146.0004
 -13714545.12749 -10666519.76347  21549497.671    21549498.0244   21549506.1524
       196.0004        198.0004
 -19234061.50449 -14966733.08247  21209729.486    21209730.1904   21209737.4104
       200.0004        200.0004
 21  2  2  0  8  0.0000000  0  9G21G22G08G07G03G04G16G09G27
  -8681008.85647  -6600702.40345  23185090.665    23185090.2774   23185098.6954
       148.0004        152.0004
  -2910071.01547  -1588002.88445  24417974.620    24417974.0824   24417979.4944
       147.0004        150.0004
 -23445996.95149 -18240373.49147  20184987.847    20184988.4144   20184996.4274
       212.0004        212.0004
   -811349.00847   -610821.48745  24417294.579    24417295.4784   24417300.4104
       158.0004        161.0004
  -3185623.51047  -2448629.41545  23689523.085    23689523.1864   23689531.8934
       153.0004        156.0004
 -22159614.87149 -17255940.56048  20222410.022    20222410.4014   20222415.9464
       216.0004        215.0004
  -6900286.29147  -5343113.30945  23559848.259    23559848.9114   23559852.9384
       140.0004        144.0004
 -13778170.95349 -10716098.32247  21537390.855    21537391.1794   21537398.3224
       197.0004        199.0004
 -19178750.61849 -14923633.67747  21220254.807    21220255.3904   21220262.5214
       199.0004        199.0004
 21  2  2  0  8 30.0000000  0  9G21G22G08G07G03G04G16G09G27
  -8732757.48147  -6641025.90345  23175243.601    23175244.6104   23175249.3874
       149.0004        152.0004
  -2856845.83347  -1546528.80645  24428103.190    24428101.3904   24428109.0314
       145.0004        148.0004
 -23461489.89849 -18252445.88147  20182040.124    20182040.1534   20182047.9094
       212.0004        212.0004
   -872875.88647   -658764.46645  24405585.352    24405586.8764   24405592.5534
       158.0004        160.0004
  -3122217.22347  -2399221.94145  23701590.765    23701590.5974   23701597.2184
       154.0004        157.0004
 -22155155.11049 -17252465.41848  20223258.823    20223259.0344   20223264.5154
       216.0004        215.0004
  -6815757.51247  -5277246.73345  23575931.946    23575931.8334   23575937.5154
       138.0004        142.0004
 -13841360.38249 -10765336.82047  21525366.721    21525367.0814   21525373.4594
       199.0004        199.0004
 -19122903.06549 -14880116.08247  21230882.862    21230882.9514   21230890.1004
       199.0004        200.0004
 21  2  2  0  9  0.0000000  0  9G21G22G08G07G03G04G16G09G27
  -8784526.72747  -6681365.46845  23165393.582    23165393.3964   23165398.1364
       149.0004        152.0004
  -2803823.60947  -1505212.89945  24438190.349    24438190.8514   24438198.6214
       143.0004        146.0004
 -23476378.24549 -18264047.17147  20179206.646    20179206.8354   20179214.5644
       211.0004        212.0004
   -934569.07347   -706837.04245  24393848.189    24393848.5404   24393852.9764
       159.0004        162.0004
  -3058892.59047  -2349878.08145  23713637.273    23713638.4634   23713647.9584
       153.0004        156.0004
 -22150121.83849 -17248543.38848  20224216.264    20224216.8084   20224222.3674
       216.0004        215.0004
  -6731319.09847  -5211450.56645  23592000.282    23592000.5714   23592005.9014
       140.0004        144.0004
 -13904111.45849 -10814233.75147  21513425.464    21513426.0574   21513431.8434
       199.0004        200.0004
 -19066521.22349 -14836182.16547  21241612.266    21241612.3174   21241619.3324
       200.0004        200.0004
 21  2  2  0  9 30.0000000  0  9G21G22G08G07G03G04G16G09G27
  -8836313.53247  -6721718.72845  23155539.899    23155538.7534   23155543.7024
       151.0004        154.0004
  -2751005.28547  -1464055.87445  24448246.281    24448244.3714   24448249.0644
       144.0004        148.0004
 -23490660.89049 -18275176.48647  20176488.152    20176488.7444   20176496.5834
       211.0004        212.0004
   -996427.97947   -755038.72845  24382076.381    24382076.3384   24382081.1704
       159.0004        160.0004
  -2995651.51047  -2300599.34345  23725673.958    23725674.7984   23725681.4854
       155.0004        158.0004
 -22144514.46049 -17244174.01048  20225283.360    20225283.9014   20225289.6264
       216.0004        215.0004
  -6646971.89647  -5145725.48745  23608053.617    23608051.9744   23608057.0844
       141.0004        146.0004
 -13966421.47049 -10862787.00547  21501569.129    21501568.6894   21501575.1984
       200.0004        200.0004
 -19009606.68449 -14791833.16647  21252442.230    21252442.4314   21252449.9394
       199.0004        199.0004
 21  2  2  0 10  0.0000000  0 10G21G22G08G07G01G03G04G16G09G27
  -8888117.50847  -6762085.34245  23145680.979    23145680.0534   23145686.6444
       152.0004        156.0004
  -2698394.07047  -1423060.20345  24458253.610    24458254.3374   24458261.0844
       143.0004        148.0004
 -23504339.58849 -18285835.19448  20173885.755    20173886.1474   20173893.9784
       212.0004        213.0004
  -1058453.96047   -803370.62745  24370272.555    24370272.5654   24370278.0974
       157.0004        158.0004
  -2805270.63654  -2164559.19943                                  24580721.8684
        74.0004         74.0004
  -2932498.39747  -2251389.10145  23737691.644    23737691.4264   23737700.3694
       155.0004        157.0004
 -22138334.66549 -17239358.58948  20226459.214    20226459.6804   20226465.4604
       216.0004        214.0004
  -6562719.40247  -5080074.21445  23624085.430    23624085.3304   23624090.0814
       139.0004        144.0004
 -14028290.01349 -10910996.25547  21489795.140    21489795.1084   21489802.1974
       200.0004        201.0004
 -18952163.35449 -14747072.12047  21263373.546    21263373.8534   21263380.7964
       199.0004        199.0004
 21  2  2  0 10 30.0000000  0 10G21G22G08G07G01G03G04G16G09G27
  -8939934.01047  -6802461.71845  23135820.297    23135819.4964   23135824.4204
       153.0004        156.0004
  -2645989.67247  -1382225.69045  24468226.973    24468225.5804   24468233.2344
       143.0004        146.0004
 -23517411.03949 -18296020.72348  20171398.349    20171398.5754   20171406.9284
       212.0004        213.0004
  -1120644.48947   -851830.75445  24358438.124    24358438.5294   24358442.6744
       156.0004        159.0004
  -2805270.63644  -2164559.19944                                  24580721.8684
        74.0004        108.0004
  -2869433.51747  -2202247.65245  23749691.885    23749693.2204   23749701.3064
       155.0004        157.0004
 -22131580.39349 -17234095.52648  20227744.498    20227744.9714   20227750.6684
       216.0004        214.0004
  -6478561.11347  -5014496.34845  23640101.846    23640101.9124   23640104.4384
       142.0004        146.0004
 -14089712.86249 -10958858.21847  21478105.721    21478106.6084   21478113.5184
       200.0004        200.0004
 -18894191.38449 -14701899.14047  21274405.565    21274405.5894   21274412.4004
       199.0004        200.0004
 21  2  2  0 11  0.0000000  0 10G21G22G08G07G01G03G04G16G09G27
  -8991760.79747  -6842846.12745  23125956.545    23125957.2384   23125963.4584
       154.0004        156.0004
  -2593793.63447  -1341553.57045  24478160.000    24478159.2194   24478165.3654
       141.0004        144.0004
 -23529875.41849 -18305733.20848  20169026.070    20169026.6424   20169034.3824
       212.0004        213.0004
  -1182999.79247   -900419.27545  24346572.758    24346573.4864   24346578.1044
       158.0004        162.0004
  -1258744.90344   -951722.67744  24581811.530
        74.0004        109.0004
  -2806459.66747  -2153177.14245  23761676.046    23761675.5684   23761683.7284
       155.0004        158.0004
 -22124251.80149 -17228384.93648  20229139.371    20229139.8924   20229145.5384
       216.0004        215.0004
  -6394498.86547  -4948993.31945  23656094.841    23656096.1024   23656102.1114
       140.0004        144.0004
 -14150688.15549 -11006371.42147  21466503.699    21466503.8984   21466510.5234
       201.0004        202.0004
 -18835693.13549 -14656316.07447  21285536.967    21285537.1104   21285544.4724
       199.0004        200.0004
 21  2  2  0 11 30.0000000  0 10G21G22G08G07G01G03G04G16G09G27
  -9043595.00047  -6883236.30745  23116093.482    23116094.3194   23116099.4634
       153.0004        155.0004
  -2541807.36747  -1301044.89645  24488051.583    24488052.9464   24488058.7304
       139.0004        143.0004
 -23541732.04149 -18314972.11748  20166770.798    20166770.7794   20166778.5034
       212.0004        213.0004
  -1245518.95447   -949135.45746  24334675.065    24334675.6774   24334679.9554
       161.0004        163.0004
  -1285362.17944   -750067.981 3                                  24576760.205
        74.0004         74.000
  -2743578.94647  -2104179.16845  23773641.661    23773642.0644   23773651.1114
       155.0004        158.0004
 -22116348.50249 -17222226.51948  20230643.515    20230643.6344   20230649.5614
       216.0004        215.0004
  -6310533.92147  -4883566.05945  23672074.937    23672075.1744   23672079.8374
       141.0004        145.0004
 -14211213.26849 -11053533.84947  21454986.020    21454986.1644   21454993.2994
       201.0004        202.0004
 -18776670.41149 -14610324.32847  21296768.841    21296768.9544   21296776.0624
       199.0004        199.0004
 21  2  2  0 12  0.0000000  0 10G21G22G08G07G01G03G04G16G09G27
  -9095434.70247  -6923630.77545  23106227.906    23106226.9454   23106234.7554
       151.0004        152.0004
  -2490032.65047  -1260701.04045  24497907.995    24497905.1764   24497911.4704
       140.0004        145.0004
 -23552980.52149 -18323737.14148  20164629.840    20164630.0664   20164637.7934
       212.0004        213.0004
  -1308201.68347   -997979.08345  24322746.125    24322746.6624   24322753.1084
       160.0004        161.0004
  -1374489.46144   -819519.329 4                                  24559777.816
        74.0004        115.000
  -2680793.83547  -2055255.68445  23785590.083    23785589.9914   23785597.8384
       156.0004        160.0004
 -22107870.68949 -17215620.42748  20232256.611    20232256.9304   20232262.7334
       216.0004        215.0004
  -6226667.68147  -4818215.76745  23688034.828    23688033.7084   23688038.8834
       140.0004        144.0004
 -14271286.29049 -11100343.98647  21443554.577    21443554.5964   21443561.5274
       201.0004        202.0004
 -18717125.58949 -14563925.74947  21308099.986    21308099.9564   21308106.6974
       199.0004        199.0004
 21  2  2  0 12 30.0000000  0 10G21G22G08G07G01G03G04G16G09G27
  -9147278.76247  -6964028.66945  23096364.024    23096363.0494   23096367.5614
       151.0004        154.0004
  -2438472.38947  -1220524.33945  24507717.923    24507717.8314   24507723.3274
       142.0004        146.0004
 -23563622.25049 -18332029.39248  20162604.799    20162605.1884   20162612.5154
       212.0004        213.0004
  -1371048.81047  -1046950.86445  24310788.720    24310788.4944   24310793.2114
       160.0004        162.0004
  -1437246.96144   -868423.17044  24547843.832
        74.0004        110.0004
  -2618108.40548  -2006409.91846  23797517.917    23797518.5614   23797527.2534
       168.0004        174.0004
 -22098819.93549 -17208567.89948  20233978.736    20233979.0174   20233985.2104
       216.0004        214.0004
  -6142903.24547  -4752944.79345  23703973.946    23703974.0114   23703976.8674
       139.0004        142.0004
 -14330906.56549 -11146801.34247  21432208.879    21432209.4834   21432216.1164
       201.0004        202.0004
 -18657062.44849 -14517123.30548  21319528.862    21319529.5404   21319536.8634
       212.0004        215.0004
 21  2  2  0 13  0.0000000  0 10G21G22G08G07G01G03G04G16G09G27
  -9199123.65147  -7004427.20245  23086496.890    23086496.7434   23086502.8264
       151.0004        153.0004
  -2387127.06147  -1180515.09445  24517489.159    24517489.5474   24517495.7934
       143.0004        147.0004
 -23573655.70649 -18339847.65048  20160696.100    20160696.1234   20160703.6604
       212.0004        214.0004
  -1434059.48847  -1096050.07945  24298798.075    24298798.2214   24298802.1474
       159.0004        161.0004
  -1495289.76644   -687981.966 3                                  24536960.770
        74.0004         74.000
  -2555524.12548  -1957642.95346  23809427.031    23809428.0984   23809437.0604
       173.0004        175.0004
 -22089195.38349 -17201068.25148  20235810.217    20235810.5744   20235816.5184
       215.0004        214.0004
  -6059241.28647  -4687753.65145  23719894.075    23719893.8554   23719896.7274
       137.0004        141.0004
 -14390071.14649 -11192903.59847  21420950.044    21420950.5644   21420957.8154
       202.0004        202.0004
 -18596482.31649 -14469917.99848  21331056.861    21331057.6244   21331064.2364
       216.0004        214.0004
 21  2  2  0 13 30.0000000  0 10G21G22G08G07G01G03G04G16G09G27
  -9250966.32747  -7044823.98745  23076630.944    23076631.4894   23076637.2174
       152.0004        155.0004
  -2335997.48147  -1140673.94845  24527215.940    24527216.0724   24527222.7974
       141.0004        144.0004
 -23583080.09749 -18347191.31648  20158902.164    20158902.2954   20158910.2524
       212.0004        213.0004
  -1497232.65947  -1145275.88245  24286775.618    24286776.4834   24286780.6614
       158.0004        160.0004
  -1557615.42644   -736548.37844  24524936.948
        74.0004        105.0004
  -2493042.85848  -1908956.23047  23821317.235    23821317.5014   23821325.7434
       184.0004        190.0004
 -22078996.55049 -17193121.10848  20237750.758    20237751.1584   20237757.2594
       215.0004        214.0004
  -5975682.77147  -4622643.09145  23735795.613    23735794.2414   23735800.3274
       136.0004        142.0004
 -14448777.30749 -11238648.64647  21409778.874    21409779.1564   21409785.5854
       202.0004        202.0004
 -18535386.86049 -14422311.13148  21342683.427    21342683.8514   21342690.4754
       224.0004        228.0004
 21  2  2  0 14  0.0000000  0 10G21G22G08G07G01G03G04G16G09G27
  -9302805.08847  -7085217.72745  23066766.766    23066766.6354   23066774.3864
       154.0004        157.0004
  -2285086.10347  -1101002.85945  24536906.314    24536905.2024   24536911.9624
       138.0004        143.0004
 -23591895.36549 -18354060.34047  20157224.438    20157224.7014   20157232.3884
       212.0004        212.0004
  -1560568.35247  -1194628.34245  24274722.538    24274723.2814   24274728.1954
       157.0004        158.0004
  -1598989.69744   -768789.045 4                                  24517001.067
        74.0004        110.000
  -2430667.46548  -1860352.05347  23833187.011    23833187.4484   23833195.3424
       188.0004        190.0004
 -22068224.08749 -17184726.98448  20239801.201    20239801.5114   20239807.2884
       215.0004        214.0004
  -5892229.76347  -4557614.83545  23751673.378    23751674.9934   23751679.5544
       135.0004        141.0004
 -14507023.52849 -11284035.30447  21398694.811    21398694.9834   21398701.3094
       201.0004        202.0004
 -18473778.87549 -14374304.90148  21354407.450    21354407.5394   21354414.3514
       227.0004        228.0004
 21  2  2  0 14 30.0000000  0 10G21G22G08G07G01G03G04G16G09G27
  -9354637.63747  -7125606.64045  23056903.344    23056903.1944   23056908.5854
       153.0004        155.0004
  -2234394.31347  -1061502.86145  24546552.079    24546551.1614   24546557.5104
       138.0004        143.0004
 -23600101.67049 -18360454.84347  20155662.986    20155663.0394   20155670.8604
       212.0004        212.0004
  -1624066.12747  -1244107.08845  24262639.731    24262639.8524   24262643.8274
       156.0004        158.0004
  -1679062.59044   -603506.41043  24501825.677
        74.0004         74.0004
  -2368400.50748  -1811832.36047  23845036.094    23845036.3584   23845044.4064
       189.0004        189.0004
 -22056878.30849 -17175886.11848  20241960.139    20241960.3954   20241966.4274
       215.0004        214.0004
  -5808883.33647  -4492669.54445  23767536.558    23767536.3194   23767541.1914
       136.0004        142.0004
 -14564807.86649 -11329062.05547  21387698.744    21387699.0924   21387705.4104
       201.0004        201.0004
 -18411660.85149 -14325901.23848  21366228.151    21366228.2794   21366234.5164
       228.0004        228.0004
 21  2  2  0 15  0.0000000  0 10G21G22G08G07G01G03G04G16G09G27
  -9406461.11547  -7165988.51745  23047042.421    23047041.4384   23047048.0704
       152.0004        154.0004
  -2183923.34547  -1022174.94345  24556157.889    24556156.5154   24556162.1784
       138.0004        144.0004
 -23607698.67749 -18366374.58748  20154217.819    20154217.8264   20154225.1534
       212.0004        213.0004
  -1687725.41347  -1293711.70445  24250526.162    24250526.5764   24250530.5944
       157.0004        161.0004
  -1739165.97244   -650338.621 4                                  24490443.774
        74.0004        109.000
  -2306244.23848  -1763398.90247  23856863.410    23856864.2854   23856872.8254
       188.0004        188.0004
 -22044959.16349 -17166598.48548  20244228.008    20244228.4894   20244234.3744
       215.0004        213.0004
  -5725644.95947  -4427808.48245  23783377.186    23783375.5814   23783379.7204
       138.0004        144.0004
 -14622128.06249 -11373727.15447  21376791.053    21376791.4334   21376797.7414
       200.0004        201.0004
 -18349034.88149 -14277101.78748  21378145.316    21378145.3404   21378152.2884
       228.0004        227.0004
 21  2  2  0 15 30.0000000  0 10G21G22G08G07G01G03G04G16G09G27
  -9458266.58147  -7206356.30645  23037182.815    23037183.3634   23037189.1164
       151.0004        153.0004
  -2133667.58847   -983014.72645  24565717.317    24565719.0784   24565725.5354
       135.0004        140.0004
 -23614679.67849 -18371814.30647  20152888.699    20152889.0024   20152896.3894
       212.0004        212.0004
  -1751539.24047  -1343436.72845  24238383.246    24238383.2494   24238387.4414
       158.0004        160.0004
  -1801569.60844   -698962.61544  24478512.977
        74.0004        112.0004
  -2244194.40048  -1715048.40246  23868670.291    23868671.2474   23868680.1864
       186.0004        186.0004
 -22032460.29849 -17156859.10348  20246606.490    20246607.0094   20246612.8424
       215.0004        213.0004
  -5642509.61347  -4363027.69245  23799194.650    23799195.3014   23799198.2994
       138.0004        143.0004
 -14678975.56849 -11418023.89547  21365973.376    21365974.1144   21365980.3624
       201.0004        202.0004
 -18285896.75749 -14227903.23848  21390159.884    21390160.1764   21390167.1044
       228.0004        228.0004
 21  2  2  0 16  0.0000000  0 10G21G22G08G07G01G03G04G16G09G27
  -9510059.72047  -7246714.50945  23027326.563    23027328.4564   23027333.9274
       150.0004        154.0004
  -2083637.85446   -944030.66045  24575241.166    24575239.6754   24575247.1024
       134.0004        139.0004
 -23621052.24249 -18376779.92448  20151675.626    20151676.4324   20151683.8064
       212.0004        213.0004
  -1815515.10947  -1393288.02845  24226208.038    24226208.7384   24226214.0594
       157.0004        159.0004
  -1863217.57644   -517362.56943  24466781.611
        74.0004         74.0004
  -2182261.74448  -1666789.20946  23880456.258    23880457.0924   23880465.2684
       185.0004        185.0004
 -22019390.35449 -17146674.73248  20249093.771    20249094.3014   20249099.9694
       215.0004        213.0004
  -5559486.94547  -4298334.69845  23814995.835    23814995.7014   23814997.9924
       140.0004        146.0004
 -14735356.70449 -11461957.23447  21355245.299    21355245.3624   21355251.4184
       202.0004        202.0004
 -18222257.16749 -14178313.93448  21402269.398    21402270.2984   21402277.0384
       228.0004        227.0004
 21  2  2  0 16 30.0000000  0 10G21G22G08G07G01G03G04G16G09G27
  -9561841.71947  -7287064.02245  23017474.285    23017474.1184   23017478.8964
       151.0004        154.0004
  -2033838.72047   -905226.31045  24584716.351    24584715.8504   24584723.4754
       135.0004        141.0004
 -23626820.84349 -18381274.92248  20150578.970    20150578.9344   20150586.2314
       212.0004        213.0004
  -1879656.80147  -1443268.53845  24214003.136    24214004.1444   24214007.1494
       156.0004        159.0004
  -1910663.66844   -554333.273 4                                  24457769.237
        74.0004        116.000
  -2120452.28848  -1618626.02146  23892217.927    23892218.9284   23892226.9304
       182.0004        182.0004
 -22005753.22449 -17136048.39748  20251689.130    20251689.3804   20251695.1314
       215.0004        214.0004
  -5476582.14147  -4233733.58045  23830773.211    23830772.5574   23830775.4984
       142.0004        147.0004
 -14791273.15749 -11505528.48647  21344604.598    21344604.8034   21344611.2664
       203.0004        204.0004
 -18158122.22349 -14128338.64348  21414474.623    21414474.7624   21414481.2344
       227.0004        226.0004
 21  2  2  0 17  0.0000000  0 10G21G22G08G07G01G03G04G16G09G27
  -9613601.71947  -7327396.37745  23007625.891    23007624.0674   23007629.9764
       151.0004        154.0004
  -1984262.80347   -866595.83545  24594152.013    24594150.4394   24594158.4674
       136.0004        143.0004
 -23631976.15349 -18385292.03348  20149597.357    20149597.6754   20149605.1614
       212.0004        213.0004
  -1943955.17247  -1493371.13845  24201767.451    24201767.9104   24201772.3694
       156.0004        159.0004
  -1979000.13844   -607581.978 5                                  24444757.778
        74.0004        141.000
  -2058760.03848  -1570554.12446  23903957.186    23903958.5134   23903967.3114
       182.0004        183.0004
 -21991540.83649 -17124973.81448  20254393.219    20254393.6214   20254399.5704
       214.0004        213.0004
  -5393788.06247  -4169218.70545  23846526.567    23846526.4394   23846531.3144
       142.0004        146.0004
 -14846714.56049 -11548729.57847  21334053.565    21334054.2414   21334061.1384
       203.0004        203.0004
 -18093485.87649 -14077972.65148  21426774.667    21426774.6414   21426781.2894
       226.0004        226.0004
 21  2  2  0 17 30.0000000  0 10G21G22G08G07G01G03G04G16G09G27
  -9665326.92947  -7367701.65345  22997780.588    22997779.7284   22997786.5674
       150.0004        153.0004
  -1934901.84947   -828132.85645  24603544.947    24603544.5704   24603549.8054
       137.0004        142.0004
 -23636508.13749 -18388823.42948  20148735.241    20148735.3524   20148742.9484
       212.0004        213.0004
  -2008399.57847  -1543587.50045  24189503.627    24189504.0904   24189510.2224
       157.0004        159.0004
  -2049722.95046   -662690.29545  24431289.154                    24431300.1904
       126.0004        139.0004
  -1997176.92348  -1522567.29646  23915676.693    23915677.2194   23915685.7244
       181.0004        182.0004
 -21976743.15649 -17113443.15948  20257208.909    20257209.6164   20257215.5664
       214.0004        213.0004
  -5311095.87447  -4104783.23945  23862260.378    23862261.0914   23862264.5074
       139.0004        144.0004
 -14901668.61849 -11591550.91847  21323596.465    21323596.7604   21323603.5294
       203.0004        203.0004
 -18028340.22449 -14027209.80148  21439171.124    21439171.3594   21439178.2394
       226.0004        226.0004
 21  2  2  0 18  0.0000000  0 10G21G22G08G07G01G03G04G16G09G27
  -9717030.68847  -7407990.22445  22987941.699    22987941.6304   22987947.1544
       149.0004        152.0004
  -1885772.79347   -789850.60245  24612895.144    24612893.8834   24612899.9894
       140.0004        146.0004
 -23640432.59049 -18391881.44048  20147988.274    20147988.6904   20147996.1464
       213.0004        214.0004
  -2073005.13647  -1593929.46045  24177210.003    24177210.3614   24177214.6304
       156.0004        158.0004
  -2112400.05647   -711529.27245  24419363.138    24419365.0984   24419374.8204
       135.0004        143.0004
  -1935721.12848  -1474679.71446  23927370.772    23927371.2224   23927380.3034
       179.0004        179.0004
 -21961376.39249 -17101469.07348  20260133.338    20260133.6304   20260139.7264
       214.0004        213.0004
  -5228522.55747  -4040440.38645  23877975.320    23877975.9284   23877980.0984
       140.0004        144.0004
 -14956149.23549 -11634003.35147  21313229.144    21313229.6954   21313235.9644
       203.0004        203.0004
 -17962703.51449 -13976064.31248  21451661.859    21451661.8834   21451668.7104
       226.0004        226.0004
 21  2  2  0 18 30.0000000  0 10G21G22G08G07G01G03G04G16G09G27
  -9768707.99247  -7448258.16145  22978109.574    22978109.0954   22978112.6094
       150.0004        153.0004
  -1836875.55247   -751749.04245  24622199.297    24622197.9634   24622204.0594
       141.0004        145.0004
 -23643748.33249 -18394465.11848  20147357.257    20147357.6244   20147365.0624
       213.0004        213.0004
  -2137769.37047  -1644395.04545  24164885.800    24164885.5814   24164889.9644
       153.0004        154.0004
  -2175333.34547   -760567.92245  24407386.278    24407387.9304   24407398.6014
       139.0004        144.0004
  -1874393.34248  -1426891.84446  23939041.151    23939042.2744   23939050.6424
       179.0004        180.0004
 -21945439.26549 -17089050.53248  20263166.118    20263166.5884   20263172.6894
       214.0004        213.0004
  -5146068.00347  -3976190.10645  23893664.531    23893664.6064   23893670.2184
       139.0004        143.0004
 -15010152.80549 -11676084.04547  21302952.756    21302953.0544   21302958.9624
       203.0004        203.0004
 -17896576.60449 -13924536.83348  21464244.751    21464244.9224   21464252.6614
       226.0004        226.0004
 21  2  2  0 19  0.0000000  0 10G21G22G08G07G01G03G04G16G09G27
  -9820356.63147  -7488503.78845  22968281.575    22968279.9394   22968284.7034
       149.0004        152.0004
  -1788210.49947   -713828.36645  24631457.785    24631457.9144   24631465.6484
       138.0004        142.0004
 -23646453.75449 -18396573.21648  20146842.591    20146842.8704   20146850.1804
       213.0004        213.0004
  -2202691.15747  -1694983.45345  24152531.478    24152532.0614   24152535.6424
       151.0004        152.0004
  -2238520.60147   -809804.47445  24395358.017    24395361.3554   24395375.5234
       136.0004        140.0004
  -1813195.28148  -1379205.05146  23950688.462    23950689.1154   23950697.5884
       182.0004        185.0004
 -21928931.50449 -17076187.34648  20266307.233    20266307.7524   20266313.7254
       214.0004        213.0004
  -5063732.76347  -3912032.78045  23909334.319    23909333.6424   23909338.9504
       139.0004        143.0004
 -15063676.78549 -11717791.04347  21292767.052    21292768.2564   21292773.7764
       203.0004        203.0004
 -17829961.30249 -13872628.79648  21476920.761    21476921.3684   21476928.7414
       225.0004        225.0004
 21  2  2  0 19 30.0000000  0 10G21G22G08G07G01G03G04G16G09G27
  -9871973.04547  -7528724.28345  22958456.836    22958455.9254   22958462.1424
       148.0004        151.0004
  -1739777.90947   -676088.79845  24640673.729    24640675.3424   24640681.8974
       135.0004        141.0004
 -23648548.00949 -18398205.08548  20146444.251    20146444.2134   20146451.6934
       213.0004        213.0004
  -2267769.04147  -1745693.46945  24140146.082    24140147.6714   24140151.1664
       150.0004        153.0004
  -2301958.63747   -859236.41745  24383288.659    24383288.3014   24383301.3244
       135.0004        140.0004
  -1752127.88348  -1331620.08846  23962307.091    23962308.7624   23962318.3294
       183.0004        183.0004
 -21911852.26749 -17062878.85348  20269557.398    20269557.9844   20269563.9324
       214.0004        213.0004
  -4981516.78147  -3847968.39145  23924978.279    23924978.5074   23924983.3494
       138.0004        141.0004
 -15116717.99549 -11759121.85547  21282674.641    21282674.9954   21282680.8444
       204.0004        205.0004
 -17762858.77049 -13820341.09748  21489690.524    21489690.6714   21489697.6594
       225.0004        224.0004
 21  2  2  0 20  0.0000000  0 10G21G22G08G07G01G03G04G16G09G27
  -9923553.87047  -7568917.03945  22948641.351    22948639.4114   22948647.5224
       147.0004        150.0004
  -1691578.67647   -638531.11645  24649847.262    24649846.6704   24649853.3624
       135.0004        141.0004
 -23650031.19749 -18399360.79748  20146161.820    20146162.1794   20146169.4654
       213.0004        213.0004
  -2333001.95147  -1796524.26745  24127733.822    24127734.1584   24127739.5524
       152.0004        155.0004
  -2365645.64747   -908862.42845  24371170.826    24371172.1694   24371183.0254
       137.0004        143.0004
  -1691193.10848  -1284138.48846  23973902.152    23973903.4174   23973913.1134
       179.0004        178.0004
 -21894201.68849 -17049125.15847  20272916.379    20272916.6454   20272922.5744
       214.0004        212.0004
  -4899421.30347  -3783997.84045  23940601.282    23940600.4224   23940606.8784
       138.0004        142.0004
 -15169274.25649 -11800074.77847  21272673.863    21272673.3904   21272680.1774
       204.0004        204.0004
 -17695271.20249 -13767675.44948  21502551.731    21502551.8094   21502559.3064
       224.0004        224.0004
 21  2  2  0 20 30.0000000  0 10G21G22G08G07G01G03G04G16G09G27
  -9975096.55047  -7609080.10645  22938835.095    22938833.1834   22938837.0784
       148.0004        152.0004
  -1643614.48147   -601156.58245  24658974.263    24658974.7334   24658981.1464
       137.0004        143.0004
 -23650903.42049 -18400040.44448  20145995.540    20145995.9874   20146003.2414
       213.0004        213.0004
  -2398389.63247  -1847475.67045  24115289.718    24115290.3854   24115296.5594
       153.0004        157.0004
  -2429580.03947   -958681.20045  24359004.680    24359005.6294   24359016.3144
       138.0004        144.0004
  -1630393.48748  -1236762.18746  23985472.850    23985473.8244   23985482.2674
       177.0004        177.0004
 -21875980.45349 -17034926.80848  20276383.837    20276384.3044   20276389.9394
       214.0004        213.0004
  -4817447.65247  -3720122.29945  23956200.416    23956200.0314   23956204.6434
       139.0004        144.0004
 -15221343.93749 -11840648.55347  21262763.931    21262764.0144   21262771.4934
       203.0004        202.0004
 -17627201.37849 -13714634.03148  21515503.553    21515504.9114   21515512.3074
       224.0004        224.0004
 21  2  2  0 21  0.0000000  0 10G21G22G08G07G01G03G04G16G09G27
 -10026598.67547  -7649211.55245  22929034.160    22929032.8604   22929037.9294
       149.0004        152.0004
  -1595886.71647   -563966.29145  24668058.259    24668058.0104   24668064.6604
       140.0004        146.0004
 -23651165.10449 -18400244.34048  20145945.820    20145946.0254   20145953.3064
       213.0004        213.0004
  -2463931.52547  -1898547.25045  24102818.893    24102819.2184   24102824.7684
       155.0004        158.0004
  -2493760.29147  -1008691.53845  24346789.659    24346789.7294   24346800.9274
       135.0004        139.0004
  -1569731.40648  -1189493.04746  23997018.361    23997018.5734   23997024.8974
       176.0004        177.0004
 -21857189.21449 -17020284.28248  20279959.506    20279959.8664   20279966.1634
       214.0004        213.0004
  -4735597.35747  -3656342.88045  23971776.437    23971776.2774   23971778.4384
       140.0004        144.0004
 -15272925.29249 -11880841.80447  21252946.340    21252947.3394   21252956.0104
       201.0004        201.0004
 -17558651.87649 -13661218.83448  21528549.957    21528549.9134   21528556.9714
       223.0004        223.0004
 21  2  2  0 21 30.0000000  0 10G21G22G08G07G01G03G04G16G09G27
 -10078058.46947  -7689310.00945  22919240.700    22919240.4474   22919246.3854
       149.0004        152.0004
  -1548396.99347   -526961.46045  24677095.113    24677094.2324   24677101.7294
       139.0004        144.0004
 -23650816.54449 -18399972.71748  20146012.323    20146012.7304   20146019.7584
       212.0004        213.0004
  -2529627.01147  -1949738.51145  24090315.793    24090317.1114   24090322.4024
       155.0004        156.0004
  -2558184.76446  -1058892.19645  24334530.392    24334532.1894   24334543.6884
       134.0004        140.0004
  -1509209.33748  -1142333.00546  24008533.462    24008534.1284   24008543.7894
       176.0004        177.0004
 -21837828.69449 -17005198.16947  20283644.124    20283644.4434   20283650.0524
       214.0004        212.0004
  -4653871.82047  -3592660.60945  23987328.125    23987328.1174   23987331.0494
       139.0004        144.0004
 -15324016.73149 -11920653.29747  21243223.973    21243224.5424   21243233.6264
       200.0004        200.0004
 -17489625.48149 -13607432.02448  21541685.097    21541685.5534   21541692.4794
       223.0004        223.0004
 21  2  2  0 22  0.0000000  0 10G21G22G08G07G01G03G04G16G09G27
 -10129472.13147  -7729372.54545  22909455.593    22909456.0854   22909461.7494
       150.0004        154.0004
  -1501145.39347   -490142.21145  24686088.710    24686086.4664   24686092.3604
       137.0004        142.0004
 -23649857.06149 -18399225.05048  20146195.065    20146195.1034   20146202.1484
       212.0004        213.0004
  -2595474.95447  -2001048.56845  24077787.372    24077787.5774   24077791.1084
       156.0004        159.0004
  -2622850.94546  -1109281.25945  24322225.413    24322226.7684   24322236.6504
       132.0004        138.0004
  -1448828.66548  -1095283.15146  24020023.856    24020024.8464   24020033.9644
       178.0004        179.0004
 -21817898.67649 -16989668.28447  20287436.798    20287437.1584   20287442.6214
       214.0004        212.0004
  -4572271.49647  -3529075.96645  24002855.994    24002855.4614   24002859.9004
       140.0004        145.0004
 -15374615.59049 -11960080.96847  21233596.638    21233596.9504   21233604.9214
       201.0004        202.0004
 -17420123.97749 -13553274.99248  21554911.108    21554911.0004   21554918.2764
       224.0004        224.0004
 21  2  2  0 22 30.0000000  0 10G21G22G08G07G01G03G04G16G09G27
 -10180838.04847  -7769397.86645  22899681.260    22899681.8794   22899687.6194
       151.0004        154.0004
  -1454134.27747   -453510.36945  24695033.577    24695032.0144   24695039.1354
       141.0004        146.0004
 -23648287.61449 -18398002.08748  20146493.482    20146493.5124   20146500.7334
       212.0004        213.0004
  -2661475.07147  -2052477.21145  24065227.878    24065228.6634   24065232.3364
       157.0004        159.0004
  -2687757.88146  -1159857.93245  24309871.847    24309872.3454   24309883.6034
       129.0004        135.0004
  -1388592.58748  -1048345.98546  24031486.803    24031487.3024   24031495.4604
       177.0004        178.0004
 -21797400.65749 -16973695.80247  20291336.830    20291337.3124   20291343.5084
       214.0004        212.0004
  -4490798.38947  -3465590.43445  24018359.005    24018358.9394   24018365.4284
       140.0004        144.0004
 -15424721.06349 -11999124.18847  21224061.908    21224062.8184   21224069.9714
       202.0004        204.0004
 -17350150.83149 -13498750.45948  21568225.899    21568225.8584   21568233.3204
       223.0004        222.0004
 21  2  2  0 23  0.0000000  0 10G21G22G08G07G01G03G04G16G09G27
 -10232151.81147  -7809382.54545  22889918.015    22889917.4754   22889922.2854
       151.0004        155.0004
  -1407364.15047   -417066.23145  24703933.045    24703932.1444   24703940.6074
       142.0004        146.0004
 -23646107.02149 -18396302.90548  20146908.512    20146908.4944   20146915.5674
       212.0004        213.0004
  -2727625.93647  -2104023.28545  24052638.797    24052639.7274   24052644.8204
       156.0004        158.0004
  -2752902.51246  -1210619.74145  24297476.115    24297476.5204   24297488.3154
       129.0004        137.0004
  -1328501.92448  -1001522.12246  24042922.043    24042922.2414   24042930.0424
       177.0004        177.0004
 -21776333.82049 -16957280.08847  20295345.590    20295346.0964   20295352.0184
       213.0004        212.0004
  -4409452.48347  -3402204.03745  24033837.868    24033838.7074   24033843.8814
       140.0004        145.0004
 -15474329.92649 -12037780.44347  21214623.213    21214623.4764   21214629.8144
       204.0004        206.0004
 -17279707.21749 -13443859.32648  21581629.983    21581631.0584   21581638.4104
       222.0004        222.0004
 21  2  2  0 23 30.0000000  0 10G21G22G08G07G01G03G04G16G09G27
 -10283412.10347  -7849325.57645  22880163.661    22880161.7644   22880166.4914
       151.0004        153.0004
  -1360836.18547   -380810.80845  24712785.526    24712783.8404   24712792.0914
       138.0004        141.0004
 -23643316.66249 -18394128.59448  20147439.397    20147439.6574   20147446.8734
       212.0004        213.0004
  -2793927.54347  -2155686.83645  24040023.085    24040022.7944   24040028.7384
       157.0004        160.0004
  -2818283.41847  -1261565.63845  24285036.026    24285037.5674   24285047.1634
       137.0004        145.0004
  -1268559.42448   -954813.68446  24054328.012    24054329.1154   24054337.8614
       177.0004        179.0004
 -21754699.42049 -16940422.12847  20299462.692    20299463.2794   20299469.0384
       213.0004        212.0004
  -4328235.49847  -3338918.07945  24049295.119    24049295.8874   24049298.9104
       139.0004        144.0004
 -15523441.04949 -12076048.85647  21205277.599    21205278.3804   21205284.1514
       205.0004        207.0004
 -17208796.33549 -13388604.09948  21595125.337    21595125.4494   21595132.5634
       223.0004        223.0004
 21  2  2  0 24  0.0000000  0 10G21G22G08G07G01G03G04G16G09G27
 -10334615.96947  -7889224.62145  22870416.762    22870417.8894   22870424.3794
       151.0004        155.0004
  -1314551.79747   -344745.24545  24721595.296    24721594.1064   24721602.0034
       137.0004        142.0004
 -23639917.06649 -18391479.53748  20148086.089    20148086.3204   20148093.9384
       212.0004        213.0004
  -2860379.28247  -2207467.40545  24027377.620    24027376.7284   24027382.5784
       156.0004        157.0004
  -2883899.39447  -1312694.77545  24272547.352    24272548.4894   24272559.1044
       135.0004        138.0004
  -1208767.62648   -908222.68246  24065705.514    24065706.4084   24065716.5334
       178.0004        180.0004
 -21732498.39949 -16923122.62647  20303688.187    20303688.2744   20303694.1524
       213.0004        212.0004
  -4247148.96947  -3275733.80745  24064723.333    24064723.6224   24064729.0954
       138.0004        141.0004
 -15572052.97249 -12113928.28047  21196028.530    21196028.4374   21196033.7654
       207.0004        208.0004
 -17137421.11149 -13332987.03148  21608706.695    21608707.4024   21608714.6254
       222.0004        222.0004
 21  2  2  0 24 30.0000000  0 10G21G22G08G07G01G03G04G16G09G27
 -10385760.25647  -7929077.27345  22860684.790    22860684.9714   22860691.2654
       153.0004        156.0004
  -1268511.63047   -308870.00645  24730357.498    24730356.3684   24730362.0654
       137.0004        143.0004
 -23635907.26249 -18388354.99848  20148848.867    20148849.3684   20148856.9974
       212.0004        213.0004
  -2926979.60147  -2259363.73545  24014701.784    24014703.5674   24014708.3574
       154.0004        157.0004
  -2949747.51346  -1364004.70745  24260016.579    24260019.5154   24260029.9464
       132.0004        139.0004
  -1149127.80048   -861750.11646  24077056.021    24077056.8354   24077065.1724
       181.0004        182.0004
 -21709730.53149 -16905381.42847  20308020.415    20308020.8044   20308026.2704
       213.0004        212.0004
  -4166193.04147  -3212651.27045  24080128.978    24080127.9574   24080133.3384
       136.0004        142.0004
 -15620163.08349 -12151416.67147  21186872.821    21186872.8564   21186878.7104
       207.0004        208.0004
 -17065583.20949 -13277009.44548  21622377.043    21622377.4254   21622384.9924
       222.0004        221.0004
 21  2  2  0 25  0.0000000  0 10G21G22G08G07G01G03G04G16G09G27
 -10436842.95047  -7968881.90345  22850965.182    22850964.7164   22850970.9274
       154.0004        157.0004
  -1222717.37947   -273186.34445  24739071.263    24739069.9524   24739076.3514
       137.0004        143.0004
 -23631288.16849 -18384755.68848  20149727.804    20149728.2204   20149736.0014
       212.0004        213.0004
  -2993728.25647  -2311375.63845  24002001.278    24002002.2694   24002006.8354
       155.0004        158.0004
  -3015826.46646  -1415494.57245  24247443.187    24247444.1944   24247453.7834
       132.0004        138.0004
  -1089642.48548   -815397.93346  24088375.169    24088375.4734   24088385.3474
       181.0004        181.0004
 -21686396.91349 -16887199.38447  20312460.457    20312460.7414   20312466.6444
       213.0004        211.0004
  -4085369.19947  -3149671.68845  24095508.671    24095508.9414   24095513.5734
       136.0004        141.0004
 -15667770.04049 -12188513.00347  21177812.897    21177812.9604   21177819.0264
       206.0004        205.0004
 -16993285.72749 -13220673.74148  21636135.647    21636135.6224   21636142.6234
       221.0004        221.0004
 21  2  2  0 25 30.0000000  0 10G21G22G08G07G01G03G04G16G09G27
 -10487861.27947  -8008636.40745  22841257.586    22841257.5024   22841261.9844
       154.0004        157.0004
  -1177169.86347   -237694.96145  24747738.884    24747737.9854   24747744.9084
       139.0004        144.0004
 -23626060.11849 -18380681.87148  20150722.642    20150723.1314   20150730.7324
       212.0004        213.0004
  -3060624.25647  -2363502.37845  23989271.733    23989271.4694   23989275.9524
       155.0004        157.0004
  -3082133.93946  -1467162.53745  24234823.162    24234824.8084   24234836.6074
       134.0004        140.0004
  -1030313.64248   -769167.67846  24099664.695    24099665.2384   24099674.3574
       178.0004        179.0004
 -21662498.04749 -16868576.89147  20317007.690    20317008.3944   20317014.4514
       213.0004        212.0004
  -4004678.52547  -3086795.83345  24110866.037    24110865.0394   24110867.5044
       136.0004        142.0004
 -15714871.94749 -12225215.78047  21168847.581    21168848.1454   21168855.5644
       204.0004        202.0004
 -16920531.01549 -13163981.76448  21649980.588    21649980.4544   21649987.2344
       222.0004        221.0004
 21  2  2  0 26  0.0000000  0 10G21G22G08G07G01G03G04G16G09G27
 -10538813.09947  -8048339.08445  22831561.063    22831561.4274   22831566.7064
       154.0004        156.0004
  -1131871.51547   -202397.68545  24756359.205    24756357.7174   24756365.2024
       138.0004        143.0004
 -23620224.49049 -18376134.62148  20151833.385    20151833.6814   20151841.2674
       212.0004        213.0004
  -3127667.32947  -2415743.70745  23976512.585    23976513.3864   23976516.1504
       154.0004        155.0004
  -3148669.43047  -1519008.15145  24222164.748    24222164.4724   24222175.0954
       137.0004        143.0004
   -971144.48748   -723061.85446  24110925.657    24110925.9894   24110934.4554
       178.0004        179.0004
 -21638035.80749 -16849515.41747  20321663.410    20321663.4714   20321669.6064
       213.0004        211.0004
  -3924123.34747  -3024025.56745  24126194.758    24126195.1274   24126197.8084
       137.0004        144.0004
 -15761468.26249 -12261524.58547  21159979.955    21159980.3624   21159989.0544
       202.0004        202.0004
 -16847322.92749 -13106936.49648  21663910.347    21663910.9964   21663918.4714
       221.0004        220.0004
 21  2  2  0 26 30.0000000  0 10G21G22G08G07G01G03G04G16G09G27
 -10589694.88747  -8087987.18045  22821880.278    22821878.6634   22821883.5554
       153.0004        156.0004
  -1086821.96847   -167294.32545  24764930.685    24764930.1554   24764938.3274
       140.0004        145.0004
 -23613780.21149 -18371113.09648  20153059.524    20153060.0814   20153067.3444
       212.0004        213.0004
  -3194856.29947  -2468098.72545  23963728.075    23963728.5074   23963732.0664
       153.0004        157.0004
  -3215429.84647  -1571029.03545  24209460.073    24209459.5954   24209470.6004
       137.0004        142.0004
   -912136.07048   -677081.27646  24122153.691    24122154.6474   24122160.8554
       176.0004        176.0004
 -21613009.94149 -16830014.74647  20326425.314    20326425.6224   20326431.7284
       212.0004        211.0004
  -3843703.62047  -2961360.86945  24141498.481    24141497.2284   24141501.1874
       138.0004        143.0004
 -15807556.26749 -12297437.30547  21151209.849    21151210.3774   21151218.6394
       202.0004        203.0004
 -16773663.00449 -13049539.16948  21677927.747    21677928.1124   21677935.1944
       220.0004        220.0004
 21  2  2  0 27  0.0000000  0 10G21G22G08G07G01G03G04G16G09G27
 -10640504.48747  -8127579.01445  22812210.788    22812210.2094   22812215.4284
       154.0004        158.0004
  -1042022.67747   -132385.94245  24773455.894    24773454.8894   24773464.0104
       138.0004        142.0004
 -23606728.66649 -18365618.36748  20154401.566    20154401.8824   20154409.5284
       213.0004        214.0004
  -3262190.63047  -2520567.00745  23950915.902    23950916.1474   23950919.1434
       156.0004        160.0004
  -3282413.24347  -1623223.66245  24196712.976    24196715.3494   24196722.9334
       138.0004        143.0004
   -853290.52248   -631227.60446  24133351.887    24133352.4564   24133360.1394
       177.0004        178.0004
 -21587421.14949 -16810075.43047  20331294.814    20331295.2574   20331300.9244
       212.0004        210.0004
  -3763420.24047  -2898802.37045  24156773.637    24156774.4124   24156778.4304
       135.0004        141.0004
 -15853134.20549 -12332952.57147  21142537.773    21142537.8284   21142545.7174
       203.0004        204.0004
 -16699553.92049 -12991791.82148  21692030.447    21692030.6314   21692037.8644
       220.0004        221.0004
 21  2  2  0 27 30.0000000  0  9G21G08G07G01G03G04G16G09G27
 -10691237.55647  -8167111.22745  22802556.562    22802556.1174   22802561.7414
       155.0004        158.0004
 -23599068.19949 -18359649.16248  20155859.618    20155859.7444   20155867.0054
       213.0004        214.0004
  -3329668.00947  -2573146.73945  23938074.371    23938075.0144   23938080.8104
       158.0004        162.0004
  -3349616.42547  -1675589.54745  24183924.814    24183926.0464   24183935.6704
       137.0004        142.0004
   -794608.55548   -585501.42446  24144517.990    24144518.8514   24144528.2284
       178.0004        179.0004
 -21561269.00549 -16789697.14047  20336271.643    20336271.9914   20336277.5574
       212.0004        210.0004
  -3683273.13647  -2836350.07845  24172026.699    24172025.6224   24172032.8144
       136.0004        143.0004
 -15898199.23549 -12368068.17747  21133962.534    21133962.6204   21133969.8484
       204.0004        204.0004
 -16624997.01349 -12933695.53648  21706218.558    21706218.3174   21706225.5464
       220.0004        220.0004
 21  2  2  0 28  0.0000000  0  9G21G08G07G01G03G04G16G09G27
 -10741891.74247  -8206581.98845  22792914.607    22792915.1774   22792920.0564
       154.0004        154.0004
 -23590800.32049 -18353206.64648  20157432.983    20157433.0554   20157440.1344
       213.0004        213.0004
  -3397287.99947  -2625837.59345  23925204.891    23925206.4304   23925211.6954
       159.0004        161.0004
  -3417037.84047  -1728125.46545  24171092.605    24171095.9834   24171104.4584
       138.0004        143.0004
   -736092.79148   -539904.75546  24155653.585    24155654.3834   24155663.1744
       179.0004        180.0004
 -21534554.75449 -16768880.84147  20341355.018    20341355.3454   20341360.9694
       212.0004        210.0004
  -3603263.65946  -2774005.08445  24187252.420    24187251.6904   24187254.5514
       134.0004        140.0004
 -15942750.13549 -12402783.15147  21125485.640    21125485.6154   21125492.1264
       204.0004        206.0004
 -16549995.42649 -12875252.73348  21720490.140    21720490.6524   21720497.9054
       220.0004        220.0004
 21  2  2  0 28 30.0000000  0  9G21G08G07G01G03G04G16G09G27
 -10792465.97247  -8245990.45145  22783292.783    22783292.3224   22783296.7954
       153.0004        157.0004
 -23581926.66849 -18346292.10048  20159121.164    20159121.5084   20159129.0904
       212.0004        213.0004
  -3465050.91747  -2678639.85945  23912312.287    23912312.2324   23912316.4704
       159.0004        161.0004
  -3484676.89147  -1780830.98345  24158224.479    24158223.6424   24158234.0034
       140.0004        145.0004
   -677746.59148   -494440.16646  24166756.246    24166756.8984   24166765.6514
       178.0004        178.0004
 -21507280.61349 -16747628.26247  20346545.087    20346545.5984   20346551.1214
       211.0004        210.0004
  -3523394.29047  -2711769.18545  24202451.489    24202449.8794   24202455.2594
       135.0004        143.0004
 -15986786.64449 -12437097.31247  21117105.495    21117106.1854   21117112.2364
       206.0004        207.0004
 -16474553.21649 -12816466.59348  21734846.202    21734846.7654   21734854.3034
       220.0004        220.0004
 21  2  2  0 29  0.0000000  0  9G21G08G07G01G03G04G16G09G27
 -10842957.66847  -8285334.58845  22773684.579    22773684.1064   22773689.0554
       156.0004        159.0004
 -23572448.32849 -18338906.37048  20160925.084    20160925.2444   20160932.6114
       213.0004        213.0004
  -3532956.60047  -2731553.37145  23899390.662    23899390.2504   23899393.8084
       159.0004        161.0004
  -3552532.17247  -1833704.98245  24145310.902    24145311.2844   24145322.0764
       143.0004        148.0004
   -619572.56248   -449109.78346  24177826.860    24177827.2734   24177835.5204
       177.0004        178.0004
 -21479447.90949 -16725940.44547  20351841.233    20351841.7114   20351847.3694
       211.0004        210.0004
  -3443666.26547  -2649643.52145  24217623.866    24217624.1644   24217625.6214
       138.0004        144.0004
 -16030307.71249 -12471009.82847  21108823.537    21108824.0074   21108830.3374
       206.0004        207.0004
 -16398673.49149 -12757339.54048  21749285.845    21749286.1754   21749293.2964
       219.0004        219.0004
 21  2  2  0 29 30.0000000  0  9G21G08G07G01G03G04G16G09G27
 -10893364.47147  -8324612.57545  22764091.922    22764092.4074   22764097.4884
       157.0004        158.0004
 -23562365.67749 -18331049.75048  20162843.651    20162843.7634   20162851.2114
       212.0004        213.0004
  -3601003.96147  -2784577.28345  23886439.830    23886441.0284   23886444.8694
       160.0004        162.0004
  -3620601.49347  -1886745.81845  24132355.782    24132356.6934   24132367.5774
       143.0004        147.0004
   -561572.28148   -403914.78246  24188864.068    24188864.5204   24188873.9824
       178.0004        179.0004
 -21451057.35749 -16703817.94847  20357244.147    20357244.4844   20357250.4184
       211.0004        211.0004
  -3364080.71547  -2587628.79745  24232765.681    24232765.4974   24232772.0564
       139.0004        144.0004
 -16073311.49049 -12504519.26847  21100640.244    21100640.5194   21100646.9424
       207.0004        208.0004
 -16322358.83549 -12697873.57248  21763808.242    21763808.5514   21763815.8314
       219.0004        219.0004
 21  2  2  0 30  0.0000000  0  9G21G08G07G01G03G04G16G09G27
 -10943681.87347  -8363820.91445  22754518.161    22754516.9874   22754522.3314
       157.0004        160.0004
 -23551677.66249 -18322721.41048  20164877.453    20164877.5624   20164885.0314
       212.0004        213.0004
  -3669190.70947  -2837709.78246  23873465.731    23873465.9674   23873469.6914
       162.0004        164.0004
  -3688881.34547  -1939950.73745  24119360.881    24119363.2254   24119374.6734
       142.0004        146.0004
   -503746.54248   -358855.76846  24199866.231    24199867.9584   24199877.2574
       179.0004        179.0004
 -21422108.44949 -16681260.35947  20362752.721    20362753.1154   20362759.1574
       211.0004        210.0004
  -3284637.02547  -2525724.63545  24247885.193    24247884.2284   24247891.4084
       140.0004        146.0004
 -16115795.07749 -12537623.36847  21092555.579    21092556.2664   21092562.9014
       208.0004        208.0004
 -16245610.54449 -12638069.70648  21778413.044    21778413.4154   21778420.9694
       219.0004        220.0004
 21  2  2  0 30 30.0000000  0  9G21G08G07G01G03G04G16G09G27
 -10993907.64847  -8402957.85345  22744959.836    22744959.2964   22744964.9304
       157.0004        158.0004
 -23540385.90449 -18313922.61648  20167025.831    20167026.2294   20167033.6384
       212.0004        213.0004
  -3737516.34647  -2890950.50846  23860463.149    23860464.1794   23860467.4734
       161.0004        163.0004
  -3757370.20547  -1993318.51445  24106330.078    24106331.2984   24106341.9274
       143.0004        148.0004
   -446097.84448   -313934.72546  24210838.712    24210839.2834   24210846.7964
       179.0004        181.0004
 -21392602.77349 -16658268.92747  20368367.841    20368368.1164   20368373.5154
       211.0004        210.0004
  -3205336.81447  -2463932.27245  24262973.419    24262973.8654   24262978.2704
       139.0004        143.0004
 -16157757.55149 -12570321.38847  21084570.907    21084570.9194   21084577.7834
       208.0004        208.0004
 -16168431.92449 -12577930.51948  21793100.039    21793099.8734   21793106.7144
       219.0004        218.0004
 21  2  2  0 31  0.0000000  0  9G21G08G07G01G03G04G16G09G27
 -11044040.49747  -8442022.38345  22735418.367    22735419.5834   22735423.4584
       156.0004        159.0004
 -23528491.76149 -18304654.45048  20169289.710    20169289.9934   20169297.3784
       212.0004        213.0004
  -3805981.05447  -2944299.62946  23847435.830    23847436.1744   23847440.1084
       161.0004        163.0004
  -3826066.97747  -2046848.29145  24093257.597    24093258.6264   24093268.5654
       145.0004        149.0004
   -388629.07948   -269153.90146  24221774.500    24221774.7844   24221783.3314
       181.0004        182.0004
 -21362542.11449 -16634845.05347  20374087.785    20374088.2324   20374094.1084
       211.0004        209.0004
  -3126182.00047  -2402253.16745  24278037.359    24278037.5254   24278040.6604
       136.0004        142.0004
 -16199198.21449 -12602612.82447  21076684.697    21076685.1804   21076691.8624
       208.0004        208.0004
 -16090826.54749 -12517458.80648  21807867.715    21807867.9054   21807874.2074
       219.0004        218.0004
 21  2  2  0 31 30.0000000  0  9G21G08G07G01G03G04G16G09G27
 -11094076.47747  -8481011.41545  22725897.178    22725897.3844   22725901.4624
       156.0004        159.0004
 -23515994.87849 -18294916.61148  20171667.618    20171667.9274   20171675.2334
       212.0004        213.0004
  -3874583.11547  -2997755.76446  23834380.457    23834381.0944   23834385.3664
       162.0004        165.0004
  -3894968.68847  -2100537.74545  24080146.529    24080147.1534   24080156.7484
       147.0004        150.0004
   -331341.32948   -224514.13946  24232675.070    24232675.8124   24232684.4844
       180.0004        179.0004
 -21331926.62949 -16610988.83247  20379913.600    20379914.0584   20379920.4074
       211.0004        209.0004
  -3047172.47347  -2340687.32945  24293072.144    24293072.1234   24293074.7444
       135.0004        140.0004
 -16240114.70749 -12634495.80147  21068898.701    21068899.3364   21068905.3444
       208.0004        209.0004
 -16012796.33449 -12456656.03848  21822716.450    21822716.5034   21822723.2564
       218.0004        217.0004
 21  2  2  0 32  0.0000000  0  9G21G08G07G01G03G04G16G09G27
 -11144012.74347  -8519922.74245  22716394.400    22716394.5074   22716401.7974
       156.0004        159.0004
 -23502896.34349 -18284709.94548  20174160.019    20174160.4364   20174167.8934
       212.0004        213.0004
  -3943321.77447  -3051318.32746  23821298.866    23821299.8664   23821305.0834
       163.0004        165.0004
  -3964073.42347  -2154385.42345  24066996.365    24066996.5594   24067005.5174
       146.0004        149.0004
   -274236.65348   -180017.02046  24243540.631    24243541.4624   24243550.9814
       175.0004        174.0004
 -21300757.38049 -16586701.10347  20385845.264    20385845.5274   20385851.5534
       210.0004        209.0004
  -2968309.29247  -2279235.50345  24308080.408    24308082.2524   24308080.5224
       135.0004        140.0004
 -16280505.64649 -12665969.25847  21061212.871    21061212.9374   21061219.7334
       209.0004        209.0004
 -15934344.06149 -12395524.38848  21837645.681    21837645.5314   21837652.6484
       218.0004        218.0004
 21  2  2  0 32 30.0000000  0  9G21G08G07G01G03G04G16G09G27
 -11193846.48347  -8558754.21745  22706911.505    22706910.5944   22706918.1174
       156.0004        158.0004
 -23489196.80649 -18274034.97447  20176766.725    20176767.1074   20176774.5964
       212.0004        212.0004
  -4012195.73447  -3104986.32246  23808193.734    23808194.0754   23808198.5024
       163.0004        165.0004
  -4033378.90447  -2208389.54245  24053808.098    24053808.8934   24053815.8854
       144.0004        147.0004
   -217316.84948   -135663.95946  24254372.780    24254373.6704   24254382.4554
       173.0004        174.0004
 -21269035.31149 -16561982.62047  20391881.702    20391882.2404   20391888.0874
       210.0004        209.0004
  -2889593.46247  -2217898.48145  24323057.625    24323058.1694   24323064.6954
       139.0004        144.0004
 -16320369.44849 -12697031.97147  21053626.789    21053627.2994   21053633.8514
       209.0004        210.0004
 -15855472.39849 -12334065.96048  21852653.504    21852654.5544   21852661.3434
       219.0004        218.0004
 21  2  2  0 33  0.0000000  0  9G21G08G07G01G03G04G16G09G27
 -11243575.58447  -8597504.10245  22697449.534    22697448.5014   22697452.3834
       156.0004        158.0004
 -23474897.18949 -18262892.39747  20179488.318    20179488.5564   20179495.8414
       212.0004        212.0004
  -4081203.69247  -3158758.74446  23795062.054    23795062.6814   23795065.5124
       164.0004        164.0004
  -4102883.01647  -2262548.46345  24040582.230    24040582.7374   24040591.2144
       145.0004        148.0004
   -160583.90048    -91456.47546  24265171.099    24265171.2764   24265178.3624
       175.0004        177.0004
 -21236761.48149 -16536834.18047  20398023.711    20398024.1124   20398029.4184
       210.0004        209.0004
  -2811025.64247  -2156676.86145  24338008.262    24338009.1344   24338013.6004
       135.0004        139.0004
 -16359704.71749 -12727682.82647  21046142.350    21046141.9764   21046148.4824
       210.0004        210.0004
 -15776184.13249 -12272282.89748  21867742.642    21867742.5674   21867748.8774
       218.0004        217.0004
 21  2  2  0 33 30.0000000  0  9G21G08G07G01G03G04G16G09G27
 -11293198.20147  -8636171.06045  22688006.739    22688006.3284   22688010.0174
       157.0004        160.0004
 -23459998.65349 -18251283.14547  20182323.228    20182323.7024   20182330.8824
       212.0004        212.0004
  -4150346.57847  -3212636.30245  23781903.369    23781904.8124   23781908.0954
       161.0004        162.0004
  -4172584.80947  -2316861.37645  24027317.012    24027317.6024   24027326.2424
       143.0004        148.0004
   -104040.91648    -47397.03146  24275929.688    24275930.3434   24275938.6334
       176.0004        177.0004
 -21203938.16849 -16511257.58047  20404268.949    20404269.3764   20404275.4184
       210.0004        208.0004
  -2732607.42746  -2095571.72845  24352932.149    24352933.0264   24352935.2374
       131.0004        137.0004
 -16398511.16949 -12757921.62347  21038756.826    21038757.1954   21038763.9294
       209.0004        210.0004
 -15696483.23049 -12210178.29448  21882908.539    21882908.9014   21882915.6844
       218.0004        218.0004
 21  2  2  0 34  0.0000000  0  9G21G08G07G01G03G04G16G09G27
 -11342709.86647  -8674751.54545  22678584.834    22678584.1204   22678588.8684
       158.0004        161.0004
 -23444501.35649 -18239207.31648  20185272.372    20185272.4744   20185280.1734
       212.0004        213.0004
  -4219621.54747  -3266616.76946  23768721.684    23768722.1904   23768725.8974
       162.0004        164.0004
  -4242480.67347  -2371325.48445  24014018.272    24014018.7054   24014025.2704
       146.0004        151.0004
    -47688.23248     -3485.91146  24286652.207    24286653.1484   24286661.4634
       174.0004        174.0004
 -21170564.98449 -16485252.50147  20410619.804    20410620.1944   20410626.6234
       210.0004        209.0004
  -2654338.75046  -2034583.10245  24367826.040    24367825.7154   24367832.9964
       132.0004        140.0004
 -16436785.98149 -12787746.14947  21031472.917    21031473.3544   21031479.9214
       208.0004        208.0004
 -15616370.96949 -12147753.15348  21898153.760    21898153.8734   21898160.3344
       218.0004        218.0004
 21  2  2  0 34 30.0000000  0  9G21G08G07G01G03G04G16G09G27
 -11392108.80547  -8713244.19845  22669183.330    22669183.3484   22669188.4234
       157.0004        159.0004
 -23428406.42649 -18226665.80748  20188334.914    20188335.2324   20188342.7634
       212.0004        213.0004
  -4289028.78647  -3320700.35046  23755514.893    23755514.4154   23755518.4824
       164.0004        167.0004
  -4312569.50847  -2425939.98345  24000678.709    24000678.9294   24000687.4854
       145.0004        149.0004
      8471.25848     40274.65346  24297338.070    24297339.0944   24297349.4784
       173.0004        173.0004
 -21136644.02749 -16458820.59947  20417075.251    20417075.8314   20417080.8894
       210.0004        209.0004
  -2576221.39046  -1973712.47545  24382691.985    24382691.4324   24382697.5194
       131.0004        138.0004
 -16474528.69149 -12817156.05547  21024290.603    21024291.2684   21024298.1404
       208.0004        209.0004
 -15535851.06849 -12085010.38648  21913475.934    21913476.6244   21913482.3224
       218.0004        217.0004
 21  2  2  0 35  0.0000000  0  9G21G08G07G01G03G04G16G09G27
 -11441391.45447  -8751646.22945  22659806.129    22659804.9914   22659810.8374
       156.0004        157.0004
 -23411714.37049 -18213659.00448  20191512.023    20191512.1144   20191519.2514
       212.0004        213.0004
  -4358566.05747  -3374885.22046  23742280.292    23742282.4164   23742286.1264
       164.0004        166.0004
  -4382848.22247  -2480702.43545  23987306.795    23987305.6254   23987315.7324
       145.0004        148.0004
     64436.55048     83883.96746  24307991.025    24307990.9674   24307999.1404
       174.0004        176.0004
 -21102175.59149 -16431962.08147  20423633.731    20423634.6584   20423640.0214
       209.0004        208.0004
  -2498255.11746  -1912959.54045  24397530.441    24397526.9234   24397528.3384
       128.0004        136.0004
 -16511737.06749 -12846149.60747  21017210.510    21017210.9274   21017217.7074
       209.0004        209.0004
 -15454925.54449 -12021951.53648  21928875.521    21928876.0374   21928882.3574
       217.0004        216.0004
 21  2  2  0 35 30.0000000  0  9G21G08G07G01G03G04G16G09G27
 -11490555.91747  -8789956.17145  22650449.425    22650448.6024   22650454.5074
       155.0004        157.0004
 -23394426.59649 -18200187.99448  20194801.302    20194801.4234   20194809.0684
       212.0004        213.0004
  -4428233.42247  -3429171.46446  23729022.418    23729024.2554   23729028.2984
       162.0004        164.0004
  -4453315.29447  -2535611.69045  23973897.192    23973897.5694   23973905.9264
       145.0004        149.0004
    120205.02448    127339.90146  24318601.217    24318602.1254   24318611.5254
       173.0004        174.0004
 -21067161.53949 -16404678.40747  20430297.150    20430297.7894   20430303.1914
       209.0004        208.0004
  -2420441.60346  -1852325.62545  24412336.249    24412336.1954   24412337.4414
       128.0004        137.0004
 -16548410.54849 -12874726.34347  21010231.626    21010231.9484   21010238.8764
       209.0004        209.0004
 -15373597.85149 -11958579.30548  21944351.738    21944352.1444   21944358.7334
       217.0004        216.0004
 21  2  2  0 36  0.0000000  0  9G21G08G07G01G03G04G16G09G27
 -11539596.05547  -8828169.22245  22641118.006    22641117.6714   22641122.0924
       155.0004        159.0004
 -23376540.60349 -18186250.83447  20198204.802    20198204.8544   20198212.4284
       212.0004        212.0004
  -4498026.10947  -3483555.33845  23715741.503    23715742.3514   23715747.3924
       161.0004        162.0004
  -4523965.26047  -2590663.44445  23960451.282    23960452.3634   23960460.1224
       143.0004        147.0004
    175778.20048    170643.65446  24329177.929    24329178.0494   24329186.8064
       172.0004        173.0004
 -21031599.86349 -16376968.00847  20437064.272    20437064.4684   20437070.2864
       209.0004        208.0004
  -2342778.52746  -1791808.96445  24427114.600    24427114.7964   24427119.3134
       131.0004        139.0004
 -16584544.44849 -12902882.61247  21003355.680    21003356.1774   21003362.8784
       209.0004        210.0004
 -15291867.52949 -11894893.33348  21959905.157    21959905.4354   21959911.2714
       217.0004        216.0004
 21  2  2  0 36 30.0000000  0  9G21G08G07G01G03G04G16G09G27
 -11588512.89847  -8866286.20645  22631811.079    22631810.4374   22631814.0764
       157.0004        160.0004
 -23358062.00249 -18171851.91147  20201721.183    20201721.4114   20201728.8324
       212.0004        212.0004
  -4567947.13047  -3538039.23246  23702438.091    23702437.6724   23702443.2544
       163.0004        167.0004
  -4594799.83147  -2645859.04845  23946971.850    23946973.7894   23946981.4274
       146.0004        150.0004
    231150.32748    213790.69946  24339714.544    24339715.3594   24339723.4984
       171.0004        172.0004
 -20995495.43449 -16348834.68747  20443934.128    20443934.9974   20443940.8624
       209.0004        208.0004
  -2265270.04246  -1731412.78845  24441864.409    24441860.9614   24441867.0924
       130.0004        136.0004
 -16620141.36649 -12930620.47247  20996581.985    20996582.3524   20996589.0944
       210.0004        211.0004
 -15209741.22549 -11830898.81048  21975532.993    21975532.9374   21975539.4094
       216.0004        215.0004
 21  2  2  0 37  0.0000000  0  9G21G08G07G01G03G04G16G09G27
 -11637304.77347  -8904305.83145  22622523.935    22622523.2294   22622529.3164
       156.0004        157.0004
 -23338992.18049 -18156992.30747  20205350.408    20205350.4564   20205357.7254
       212.0004        212.0004
  -4637996.57048  -3592623.20646  23689108.058    23689108.0774   23689112.8574
       166.0004        168.0004
  -4665817.79147  -2701197.55945  23933459.079    23933458.4144   23933465.6874
       146.0004        149.0004
    286318.55748    256778.88746  24350210.695    24350212.3244   24350221.8084
       171.0004        172.0004
 -20958850.72749 -16320280.38547  20450908.493    20450908.6454   20450914.5234
       209.0004        208.0004
  -2187918.17346  -1671138.64045  24456584.478    24456583.2694   24456587.9234
       127.0004        135.0004
 -16655201.14549 -12957939.79147  20989909.502    20989910.4904   20989917.5084
       210.0004        210.0004
 -15127222.88949 -11766598.81948  21991235.005    21991235.8424   21991242.1044
       215.0004        215.0004
 21  2  2  0 37 30.0000000  0  9G21G08G07G01G03G04G16G09G27
 -11685966.94847  -8942224.35745  22613262.567    22613263.1014   22613268.4544
       155.0004        157.0004
 -23319330.28349 -18141671.33347  20209091.352    20209091.5994   20209099.0274
       212.0004        212.0004
  -4708171.64248  -3647305.07846  23675754.773    23675754.3674   23675758.5384
       166.0004        166.0004
  -4737015.42347  -2756676.08445  23919909.850    23919909.8554   23919919.1544
       146.0004        150.0004
    341282.60648    299607.96446  24360671.264    24360672.2704   24360680.8664
       171.0004        173.0004
 -20921665.43649 -16291304.83447  20457984.465    20457984.8574   20457990.2954
       209.0004        208.0004
  -2110722.13046  -1610985.84945  24471270.963    24471272.0674   24471275.5164
       125.0004        134.0004
 -16689720.93349 -12984838.33147  20983341.963    20983342.3074   20983348.6324
       211.0004        212.0004
 -15044313.78149 -11701994.31648  22007013.124    22007012.8324   22007019.1254
       215.0004        215.0004
 21  2  2  0 38  0.0000000  0  9G21G08G07G01G03G04G16G09G27
 -11734496.96947  -8980039.92645  22604029.095    22604028.8924   22604034.1464
       154.0004        157.0004
 -23299077.19849 -18125889.70847  20212945.027    20212945.5304   20212953.3034
       211.0004        212.0004
  -4778470.76347  -3702083.60145  23662375.537    23662375.7224   23662379.4134
       163.0004        161.0004
  -4808389.80947  -2812292.32345  23906325.859    23906326.8714   23906336.0864
       144.0004        147.0004
    396041.24048    342276.97746  24371090.932    24371092.5284   24371099.8174
       172.0004        173.0004
 -20883940.23049 -16261908.58447  20465163.858    20465163.8004   20465169.1224
       209.0004        208.0004
  -2033682.21746  -1550954.77245  24485930.439    24485931.3024   24485937.9374
       123.0004        132.0004
 -16723698.91949 -13011314.68747  20976875.633    20976875.9754   20976883.0354
       211.0004        211.0004
 -14961016.15349 -11637087.07948  22022863.851    22022863.5584   22022870.3834
       215.0004        215.0004
 21  2  2  0 38 30.0000000  0  9G21G08G07G01G03G04G16G09G27
 -11782892.07047  -9017750.37945  22594820.626    22594819.8014   22594824.4084
       155.0004        159.0004
 -23278234.31849 -18109648.48047  20216911.922    20216912.1494   20216919.4664
       211.0004        212.0004
  -4848893.20547  -3756958.19446  23648974.302    23648974.7614   23648979.9384
       161.0004        164.0004
  -4879939.14747  -2868044.94145  23892712.155    23892711.2384   23892719.7064
       142.0004        146.0004
    450592.40248    384784.33846  24381471.820    24381473.1274   24381483.0754
       173.0004        175.0004
 -20845676.85949 -16232092.96647  20472444.123    20472444.3934   20472450.8034
       209.0004        208.0004
  -1956799.55646  -1491046.24245  24500562.271    24500563.8274   24500566.8094
       124.0004        133.0004
 -16757134.31849 -13037368.23847  20970512.973    20970513.3764   20970520.1584
       211.0004        211.0004
 -14877333.26249 -11571879.63448  22038787.189    22038787.6944   22038794.8134
       214.0004        214.0004
 21  2  2  0 39  0.0000000  0  9G21G08G07G01G03G04G16G09G27
 -11831149.32647  -9055353.38645  22585636.689    22585636.4134   22585641.9214
       157.0004        159.0004
 -23256802.44049 -18092948.30147  20220989.965    20220990.2314   20220997.9734
       211.0004        212.0004
  -4919437.60947  -3811927.84246  23635551.558    23635552.1924   23635555.3434
       163.0004        165.0004
  -4951661.00347  -2923931.95545  23879063.687    23879063.2734   23879071.2324
       141.0004        145.0004
    504934.20948    427128.54346  24391812.980    24391813.6844   24391824.9014
       176.0004        177.0004
 -20806876.56749 -16201858.97647  20479827.048    20479827.9704   20479833.9594
       209.0004        207.0004
  -1880074.68446  -1431260.61345  24515166.231    24515164.5994   24515165.9444
       126.0004        135.0004
 -16790025.87749 -13062998.02147  20964253.710    20964254.0314   20964261.0254
       210.0004        211.0004
 -14793267.88049 -11506374.14548  22054784.158    22054784.9524   22054791.8044
       214.0004        214.0004
 21  2  2  0 39 30.0000000  0  9G21G08G07G01G03G04G16G09G27
 -11879267.24447  -9092847.84445  22576479.753    22576479.7504   22576485.4034
       157.0004        160.0004
 -23234784.84149 -18075791.72447  20225179.717    20225179.8454   20225187.6784
       211.0004        212.0004
  -4990104.85947  -3866993.19246  23622103.336    23622103.4794   23622108.0784
       163.0004        164.0004
  -5023554.88647  -2979953.02645  23865381.719    23865382.9004   23865390.8274
       142.0004        147.0004
    559063.24948    469306.93046  24402113.462    24402114.7234   24402123.9644
       175.0004        175.0004
 -20767542.48149 -16171209.04047  20487312.649    20487313.1554   20487319.1384
       209.0004        207.0004
  -1803510.07146  -1371599.85045  24529732.623    24529734.2624   24529740.7274
       124.0004        133.0004
 -16822374.17949 -13088204.49347  20958098.369    20958098.6954   20958105.4784
       210.0004        211.0004
 -14708824.61049 -11440574.19448  22070854.019    22070854.2094   22070860.8234
       213.0004        213.0004
 21  2  2  0 40  0.0000000  0  9G21G08G07G01G03G04G16G09G27
 -11927242.31647  -9130230.99145  22567352.638    22567351.5784   22567354.4294
       159.0004        160.0004
 -23212180.47349 -18058177.91747  20229480.787    20229481.1894   20229489.1114
       211.0004        211.0004
  -5060891.78947  -3922151.80246  23608633.521    23608634.4184   23608637.0464
       163.0004        165.0004
  -5095616.80847  -3036105.04445  23851667.749    23851668.7494   23851679.2834
       142.0004        146.0004
    612979.52548    511319.52046  24412373.958    24412375.5814   24412382.9924
       171.0004        171.0004
 -20727674.26449 -16140142.90247  20494899.110    20494899.5914   20494905.6544
       208.0004        207.0004
  -1727104.91046  -1312063.38845  24544273.295    24544273.3294   24544276.5954
       128.0004        136.0004
 -16854176.38549 -13112985.43047  20952046.435    20952046.8464   20952053.3274
       211.0004        212.0004
 -14624004.67149 -11374480.73247  22086994.257    22086994.6734   22087001.5604
       212.0004        212.0004
 21  2  2  0 40 30.0000000  0  9G21G08G07G01G03G04G16G09G27
 -11975071.67847  -9167500.59145  22558249.749    22558249.7894   22558253.5114
       159.0004        161.0004
 -23188991.54649 -18040108.62847  20233893.782    20233894.1264   20233901.5704
       210.0004        211.0004
  -5131797.69947  -3977403.17246  23595140.542    23595140.4934   23595144.3684
       164.0004        165.0004
  -5167844.98947  -3092386.59145  23837921.344    23837923.6104   23837933.9644
       139.0004        143.0004
    666680.66948    553164.48446  24422593.414    24422593.1904   24422602.1224
       169.0004        169.0004
 -20687273.83149 -16108662.06447  20502588.101    20502588.3354   20502593.6844
       208.0004        207.0004
  -1650859.87746  -1252651.73345  24558782.220    24558780.5224   24558786.3194
       129.0004        136.0004
 -16885431.88149 -13137340.37747  20946099.032    20946099.5604   20946105.8374
       211.0004        212.0004
 -14538811.37349 -11308096.35347  22103205.991    22103206.0144   22103213.2784
       212.0004        211.0004
 21  2  2  0 41  0.0000000  0  9G21G08G07G01G03G04G16G09G27
 -12022752.11547  -9204654.16445  22549175.704    22549175.4734   22549180.7264
       159.0004        161.0004
 -23165218.43849 -18021584.12047  20238418.143    20238418.0574   20238425.6584
       211.0004        211.0004
  -5202821.39347  -4032746.28246  23581623.892    23581624.0084   23581629.0724
       163.0004        165.0004
  -5240236.51747  -3148795.45745  23824144.741    23824146.8834   23824156.9654
       138.0004        143.0004
    720165.48248    594840.93246  24432770.882    24432771.7444   24432779.3374
       169.0004        171.0004
 -20646342.11949 -16076767.22747  20510375.814    20510376.4694   20510382.6554
       208.0004        207.0004
  -1574775.29546  -1193365.03345  24573258.376    24573259.0204   24573266.5034
       127.0004        134.0004
 -16916139.09149 -13161268.08347  20940255.855    20940256.2744   20940262.2784
       211.0004        211.0004
 -14453247.12449 -11241422.91147  22119487.316    22119488.3284   22119496.2434
       211.0004        212.0004
 21  2  2  0 41 30.0000000  0  9G21G08G07G01G03G04G16G09G27
 -12070280.55847  -9241689.25745  22540131.316    22540131.2564   22540136.4424
       160.0004        162.0004
 -23140861.27349 -18002604.49647  20243052.945    20243053.0544   20243060.9134
       211.0004        211.0004
  -5273960.76947  -4088179.51046  23568087.441    23568087.5224   23568092.2154
       163.0004        165.0004
  -5312788.46847  -3205329.32545  23810341.251    23810342.8584   23810351.5374
       141.0004        147.0004
    773432.88548    636347.94446  24442907.603    24442908.4644   24442916.9694
       172.0004        174.0004
 -20604879.95449 -16044459.04347  20518265.878    20518266.6574   20518272.8434
       208.0004        206.0004
  -1498851.16346  -1134203.41445  24587707.534    24587708.2164   24587713.0074
       129.0004        136.0004
 -16946296.35949 -13184767.24247  20934517.143    20934517.4414   20934523.2524
       211.0004        210.0004
 -14367314.26349 -11174462.23747  22135840.706    22135841.2124   22135848.8434
       211.0004        212.0004
 21  2  2  0 42  0.0000000  0  9G21G08G07G01G03G04G16G09G27
 -12117655.52047  -9278604.80746  22531117.129    22531116.2224   22531120.8964
       161.0004        163.0004
 -23115923.62649 -17983172.55447  20247797.947    20247798.2254   20247806.2794
       211.0004        211.0004
  -5345216.40348  -4143703.35246  23554526.594    23554527.9624   23554532.2144
       165.0004        168.0004
  -5385500.10447  -3261987.62945  23796506.789    23796506.6734   23796514.1404
       143.0004        147.0004
    826479.83148    677683.15746  24453002.781    24453003.2114   24453011.3964
       174.0004        175.0004
 -20562890.39749 -16011739.91747  20526256.714    20526257.3534   20526262.9574
       208.0004        206.0004
  -1423090.08746  -1075168.80645  24602124.954    24602123.8344   24602129.1354
       127.0004        134.0004
 -16975904.22549 -13207838.29947  20928882.387    20928882.9184   20928889.2524
       210.0004        210.0004
 -14281017.20649 -11107217.77347  22152262.748    22152263.1184   22152270.2374
       211.0004        212.0004
 21  2  2  0 42 30.0000000  0  9G21G08G07G01G03G04G16G09G27
 -12164873.65447  -9315398.10946  22522133.104    22522131.7714   22522135.4984
       162.0004        163.0004
 -23090406.07349 -17963288.73947  20252654.163    20252654.3694   20252661.6074
       210.0004        211.0004
  -5416586.46348  -4199316.39446  23540946.718    23540947.3844   23540951.2744
       167.0004        169.0004
  -5458368.70647  -3318768.23945  23782638.077    23782639.2264   23782648.2234
       144.0004        148.0004
    879304.60748    718845.25446  24463055.257    24463055.0784   24463064.7734
       173.0004        173.0004
 -20520374.58349 -15978610.71047  20534347.265    20534347.2814   20534353.8344
       207.0004        206.0004
  -1347492.18646  -1016261.37745  24616509.485    24616511.6784   24616514.5854
       126.0004        133.0004
 -17004961.24249 -13230480.12947  20923353.260    20923353.6224   20923360.2264
       211.0004        211.0004
 -14194358.50649 -11039691.51247  22168753.841    22168754.0114   22168760.6974
       211.0004        212.0004
 21  2  2  0 43  0.0000000  0  9G21G08G07G01G03G04G16G09G27
 -12211932.80847  -9352067.57546  22513177.792    22513176.9654   22513179.5834
       162.0004        164.0004
 -23064310.51849 -17942954.54147  20257619.776    20257620.1704   20257627.5814
       210.0004        210.0004
  -5488070.06448  -4255017.89446  23527342.428    23527343.9434   23527348.6544
       167.0004        168.0004
  -5531392.22647  -3375669.59145  23768740.465    23768742.4094   23768752.3354
       143.0004        146.0004
    931905.37448    759832.76946  24473063.295    24473063.8994   24473074.2474
       171.0004        171.0004
 -20477334.38749 -15945072.91247  20542537.489    20542537.9344   20542543.8924
       207.0004        206.0004
  -1272058.25746   -957481.76045  24630863.129    24630865.4384   24630867.7664
       126.0004        133.0004
 -17033466.81349 -13252692.26947  20917928.899    20917928.6734   20917935.5614
       210.0004        211.0004
 -14107341.42549 -10971886.00247  22185311.109    22185312.1784   22185319.6114
       211.0004        211.0004
 21  2  2  0 43 30.0000000  0  9G21G08G07G01G03G04G16G09G27
 -12258828.20147  -9388609.41346  22504252.736    22504252.8994   22504256.6524
       162.0004        164.0004
 -23037636.22049 -17922169.37147  20262696.106    20262696.3764   20262703.2864
       210.0004        211.0004
  -5559664.32548  -4310805.61046  23513718.759    23513719.7974   23513723.9544
       167.0004        168.0004
  -5604566.44747  -3432688.37245  23754816.812    23754818.0264   23754827.4714
       143.0004        147.0004
    984282.26148    800645.84246  24483030.880    24483031.5994   24483040.7054
       169.0004        170.0004
 -20433769.57249 -15911126.30847  20550827.973    20550828.1694   20550834.2144
       207.0004        206.0004
  -1196787.15946   -898828.96945  24645189.577    24645189.3244   24645192.1534
       126.0004        134.0004
 -17061418.23549 -13274472.60547  20912609.256    20912609.8284   20912616.5334
       210.0004        211.0004
 -14019967.08749 -10903802.10947  22201938.704    22201939.1314   22201946.0484
       211.0004        211.0004
 21  2  2  0 44  0.0000000  0  9G21G08G07G01G03G04G16G09G27
 -12305558.91447  -9425022.91146  22495357.764    22495357.8254   22495364.4974
       162.0004        163.0004
 -23010386.04549 -17900935.46347  20267880.851    20267881.4404   20267888.9084
       210.0004        211.0004
  -5631369.17448  -4366679.48546  23500074.852    23500075.3154   23500079.7424
       168.0004        170.0004
  -5677890.51547  -3489823.91345  23740864.390    23740865.6394   23740874.3304
       145.0004        148.0004
   1036432.08848    841282.00146  24492955.627    24492956.0594   24492963.4704
       169.0004        170.0004
 -20389683.19149 -15876773.29247  20559216.918    20559217.5864   20559223.6084
       207.0004        206.0004
  -1121680.99046   -840304.65645  24659480.633    24659480.9004   24659487.1084
       127.0004        134.0004
 -17088816.02849 -13295821.54047  20907396.273    20907396.3614   20907402.7764
       210.0004        211.0004
 -13932239.94249 -10835443.29247  22218632.902    22218633.3244   22218639.8224
       211.0004        211.0004
 21  2  2  0 44 30.0000000  0  9G21G08G07G01G03G04G16G09G27
 -12352122.68447  -9461306.34246  22486497.748    22486497.8964   22486503.8434
       163.0004        165.0004
 -22982561.64349 -17879254.10747  20273175.690    20273176.4434   20273184.0024
       210.0004        211.0004
  -5703184.35548  -4422639.35846  23486408.833    23486409.6184   23486412.8344
       169.0004        171.0004
  -5751362.54747  -3547074.73745  23726881.619    23726883.3204   23726893.5494
       145.0004        149.0004
   1088352.70548    881739.55146  24502835.239    24502835.6574   24502844.2564
       169.0004        170.0004
 -20345077.37449 -15842015.51347  20567705.170    20567705.6434   20567712.1364
       207.0004        206.0004
  -1046741.03846   -781909.92145  24673743.276    24673742.2724   24673747.7194
       130.0004        139.0004
 -17115659.80249 -13316738.77247  20902287.636    20902288.0434   20902295.0054
       210.0004        211.0004
 -13844163.38549 -10766812.22447  22235393.528    22235393.8164   22235400.0164
       211.0004        210.0004
 21  2  2  0 45  0.0000000  0  9G21G08G07G01G03G04G16G09G27
 -12398516.07347  -9497457.00846  22477670.599    22477669.7284   22477676.4054
       164.0004        166.0004
 -22954163.99449 -17857126.06947  20278580.250    20278580.4824   20278587.7334
       210.0004        211.0004
  -5775107.98148  -4478683.73846  23472722.422    23472722.4024   23472726.2984
       169.0004        170.0004
  -5824979.52347  -3604438.50445  23712873.768    23712875.6814   23712884.8744
       147.0004        151.0004
   1140043.00448    922017.65546  24512670.081    24512671.6704   24512681.6854
       169.0004        171.0004
 -20299953.15449 -15806853.79447  20576291.569    20576292.2634   20576298.1724
       206.0004        205.0004
   -971966.94546   -723644.43945  24687972.385    24687972.2234   24687977.9144
       134.0004        141.0004
 -17141948.14549 -13337223.20047  20897285.038    20897285.7294   20897292.5244
       211.0004        212.0004
 -13755739.83249 -10697910.75047  22252220.124    22252219.9654   22252227.1284
       211.0004        211.0004
 21  2  2  0 45 30.0000000  0  9G21G08G07G01G03G04G16G09G27
 -12444736.22747  -9533472.70746  22468874.429    22468875.1754   22468879.7254
       164.0004        165.0004
 -22925195.26949 -17834553.03747  20284092.284    20284092.6034   20284100.5064
       210.0004        211.0004
  -5847138.84948  -4534811.68146  23459014.770    23459015.6604   23459019.7244
       169.0004        171.0004
  -5898739.28947  -3661913.57845  23698837.438    23698838.0564   23698848.1694
       147.0004        150.0004
   1191501.21748    962114.89346  24522464.924    24522465.1984   24522474.4914
       169.0004        171.0004
 -20254312.36649 -15771289.55147  20584977.826    20584977.7754   20584983.4284
       206.0004        205.0004
   -897359.68346   -665508.90745  24702167.632    24702168.5764   24702173.1104
       133.0004        139.0004
 -17167680.29749 -13357274.24347  20892389.075    20892389.2364   20892395.8854
       211.0004        212.0004
 -13666972.43449 -10628741.36047  22269111.687    22269111.9124   22269118.9714
       211.0004        211.0004
 21  2  2  0 46  0.0000000  0  8G21G08G07G01G03G04G09G27
 -12490778.83147  -9569350.02646  22460112.587    22460113.7094   22460117.0294
       163.0004        164.0004
 -22895654.52249 -17811534.26347  20289713.738    20289714.2074   20289721.8614
       211.0004        211.0004
  -5919273.58748  -4591020.54746  23445287.483    23445287.4264   23445293.0774
       169.0004        169.0004
  -5972637.67547  -3719496.65245  23684776.878    23684776.3064   23684786.0914
       148.0004        152.0004
   1242727.40548   1002031.31846  24532212.478    24532212.5714   24532221.3364
       168.0004        169.0004
 -20208155.06049 -15735322.83247  20593760.245    20593760.7424   20593766.6794
       205.0004        203.0004
 -17192853.85549 -13376890.01447  20887598.508    20887598.9184   20887605.1614
       211.0004        212.0004
 -13577862.45949 -10559305.02547  22286068.094    22286069.1464   22286076.0994
       211.0004        210.0004
 21  2  2  0 46 30.0000000  0  8G21G08G07G01G03G04G09G27
 -12536642.28847  -9605087.76146  22451385.565    22451385.8244   22451390.3644
       163.0004        164.0004
 -22865544.40049 -17788071.82647  20295444.052    20295444.7024   20295451.6334
       211.0004        212.0004
  -5991512.29948  -4647310.41346  23431539.772    23431541.1264   23431546.8544
       168.0004        170.0004
  -6046673.21847  -3777186.59545  23670686.834    23670687.7684   23670696.4494
       148.0004        151.0004
   1293718.86448   1041764.84346  24541915.592    24541916.2354   24541925.0944
       168.0004        170.0004
 -20161483.87149 -15698955.67147  20602641.258    20602641.9164   20602648.5114
       205.0004        204.0004
 -17217468.93149 -13396070.59647  20882914.332    20882914.5634   20882921.2374
       211.0004        211.0004
 -13488413.86949 -10489604.82047  22303090.947    22303090.9234   22303097.4264
       211.0004        211.0004
 21  2  2  0 47  0.0000000  0  8G21G08G07G01G03G04G09G27
 -12582325.01348  -9640684.64546  22442692.635    22442692.5534   22442698.3464
       165.0004        167.0004
 -22834867.80449 -17764167.97647  20301282.035    20301282.0864   20301289.2254
       211.0004        211.0004
  -6063854.62048  -4703681.01546  23417775.712    23417776.1474   23417780.1394
       170.0004        173.0004
  -6120844.52447  -3834982.36445  23656573.811    23656574.2794   23656582.1854
       148.0004        151.0004
   1344473.08448   1081313.50546  24551573.636    24551574.2334   24551584.4294
       170.0004        172.0004
 -20114301.55649 -15662190.23547  20611620.543    20611621.0094   20611627.1504
       205.0004        204.0004
 -17241525.86449 -13414816.26147  20878336.048    20878336.7064   20878343.2214
       210.0004        210.0004
 -13398630.66549 -10419643.88647  22320175.393    22320176.0404   22320182.7144
       211.0004        210.0004
 21  2  2  0 47 30.0000000  0  8G21G08G07G01G03G04G09G27
 -12627824.18747  -9676138.51546  22434034.352    22434033.0854   22434039.8214
       164.0004        166.0004
 -22803626.01749 -17739823.71147  20307226.611    20307226.6994   20307233.7354
       211.0004        211.0004
  -6136299.53748  -4760131.59246  23403989.916    23403990.2364   23403994.5724
       174.0004        175.0004
  -6195149.34547  -3892882.17645  23642434.438    23642434.9904   23642442.4104
       149.0004        153.0004
   1394988.20148   1120675.83146  24561185.758    24561185.8514   24561196.1184
       168.0004        168.0004
 -20066610.05649 -15625028.03247  20620695.885    20620696.2234   20620701.9324
       205.0004        203.0004
 -17265024.08249 -13433126.56247  20873865.188    20873865.5534   20873871.2634
       211.0004        212.0004
 -13308516.01049 -10349424.67147  22337322.844    22337323.9964   22337331.0434
       210.0004        210.0004
 21  2  2  0 48  0.0000000  0  8G21G08G07G01G03G04G09G27
 -12673136.95747  -9711447.15346  22425411.590    22425411.6154   22425415.5744
       164.0004        165.0004
 -22771820.81749 -17715040.43747  20313278.856    20313279.0624   20313286.3294
       210.0004        211.0004
  -6208845.72848  -4816661.06446  23390183.472    23390185.0194   23390188.9534
       173.0004        173.0004
  -6269585.18947  -3950884.06345  23628269.861    23628270.0504   23628277.0654
       150.0004        154.0004
   1445262.70448   1159850.68846  24570751.976    24570753.1304   24570762.2214
       166.0004        167.0004
 -20018411.11049 -15587470.42047  20629867.538    20629867.8814   20629874.0114
       205.0004        203.0004
 -17287962.81349 -13451000.90247  20869499.842    20869500.3004   20869506.5454
       211.0004        212.0004
 -13218072.85249 -10278949.50047  22354534.723    22354534.7064   22354540.9074
       210.0004        209.0004
 21  2  2  0 48 30.0000000  0  8G21G08G07G01G03G04G09G27
 -12718260.34648  -9746608.22746  22416826.451    22416825.3304   22416829.7364
       165.0004        166.0004
 -22739453.56749 -17689819.20347  20319437.828    20319438.5914   20319445.7974
       210.0004        211.0004
  -6281491.09748  -4873267.84646  23376362.186    23376361.6354   23376364.9394
       173.0004        175.0004
  -6344149.18347  -4008985.81645  23614080.763    23614080.5364   23614088.4104
       150.0004        154.0004
   1495295.36948   1198837.07646  24580275.344    24580275.3284   24580283.6434
       168.0004        170.0004
 -19969706.14449 -15549518.51247  20639135.629    20639136.5684   20639142.4504
       205.0004        203.0004
 -17310341.04749 -13468438.49147  20865241.230    20865241.6934   20865248.3434
       211.0004        212.0004
 -13127303.85849 -10208220.40947  22371806.927    22371807.4444   22371813.3114
       209.0004        208.0004
 21  2  2  0 49  0.0000000  0  8G21G08G07G01G03G04G09G27
 -12763192.89948  -9781620.60146  22408275.464    22408274.6354   22408279.4454
       165.0004        167.0004
 -22706526.54749 -17664161.77347  20325704.354    20325704.6314   20325711.6024
       210.0004        211.0004
  -6354236.01648  -4929952.18446  23362517.513    23362517.2534   23362521.8674
       172.0004        171.0004
  -6418840.01647  -4067186.37445  23599867.772    23599867.4414   23599874.6394
       152.0004        157.0004
   1545083.42648   1237632.88346  24589749.622    24589749.7984   24589758.0274
       170.0004        172.0004
 -19920498.15749 -15511174.63347  20648500.117    20648500.4894   20648506.3324
       205.0004        203.0004
 -17332159.30749 -13485439.73447  20861089.206    20861089.6674   20861096.4034
       211.0004        211.0004
 -13036213.16849 -10137240.64247  22389141.180    22389141.5944   22389147.7954
       209.0004        208.0004
 21  2  2  0 49 30.0000000  0  8G21G08G07G01G03G04G09G27
 -12807929.86648  -9816480.54246  22399762.214    22399761.6424   22399766.9804
       165.0004        167.0004
 -22673039.80449 -17638068.18847  20332076.302    20332076.7804   20332083.8134
       210.0004        211.0004
  -6427076.79748  -4986711.21446  23348656.090    23348656.5304   23348660.6314
       170.0004        170.0004
  -6493653.03047  -4125482.17245  23585631.876    23585631.7684   23585639.2174
       154.0004        157.0004
   1594627.52348   1276238.60746  24599176.550    24599177.4974   24599186.5604
       170.0004        172.0004
 -19870786.85749 -15472438.55147  20657959.610    20657960.0614   20657966.3874
       205.0004        203.0004
 -17353414.81349 -13502002.46147  20857044.511    20857044.6964   20857051.6264
       211.0004        212.0004
 -12944801.66749 -10066010.88947  22406535.703    22406536.3924   22406543.1254
       208.0004        207.0004
 21  2  2  0 50  0.0000000  0  8G21G08G07G01G03G04G09G27
 -12852468.22748  -9851185.73746  22391286.788    22391286.0504   22391290.7234
       166.0004        167.0004
 -22638994.52949 -17611539.39747  20338554.393    20338554.9884   20338563.2034
       210.0004        210.0004
  -6500011.71748  -5043543.61146  23334776.794    23334778.2264   23334781.5824
       170.0004        171.0004
  -6568585.59647  -4183871.11445  23571370.556    23571372.0324   23571379.0124
       154.0004        156.0004
   1643926.29948   1314653.18546  24608557.525    24608558.1364   24608567.8934
       169.0004        170.0004
 -19820573.87449 -15433311.56747  20667514.401    20667515.1284   20667521.2444
       204.0004        203.0004
 -17374106.69449 -13518126.01347  20853106.769    20853107.3404   20853113.9924
       211.0004        212.0004
 -12853072.10549  -9994533.31347  22423991.122    22423992.0974   22423998.7534
       208.0004        207.0004
 21  2  2  0 50 30.0000000  0  8G21G08G07G01G03G04G09G27
 -12896805.71348  -9885734.40146  22382848.627    22382848.6924   22382852.6684
       165.0004        166.0004
 -22604393.42749 -17584577.49547  20345138.623    20345139.6014   20345146.8804
       210.0004        211.0004
  -6573040.07448  -5100448.81546  23320879.988    23320881.4794   23320885.0104
       171.0004        173.0004
  -6643635.77647  -4242351.72245  23557089.307    23557089.4044   23557097.1964
       153.0004        154.0004
   1692977.51248   1352874.82346  24617892.625    24617893.3814   24617901.6954
       170.0004        171.0004
 -19769861.76149 -15393795.64347  20677165.251    20677165.1014   20677171.3404
       203.0004        202.0004
 -17394235.16749 -13533810.54148  20849276.784    20849276.9834   20849283.9884
       212.0004        213.0004
 -12761028.21749  -9922810.80047  22441507.160    22441507.3814   22441513.8634
       208.0004        207.0004
 21  2  2  0 51  0.0000000  0  8G21G08G07G01G03G04G09G27
 -12940939.44648  -9920124.29046  22374450.595    22374449.4954   22374455.2454
       165.0004        166.0004
 -22569237.33249 -17557183.11447  20351829.315    20351829.0914   20351837.0584
       210.0004        211.0004
  -6646160.29748  -5157425.56946  23306965.446    23306967.1014   23306970.9224
       172.0004        173.0004
  -6718800.81647  -4300921.80745  23542785.818    23542786.3064   23542794.9604
       152.0004        156.0004
   1741779.92548   1390902.59046  24627178.950    24627179.2904   24627188.9154
       170.0004        171.0004
 -19718652.20049 -15353892.08547  20686909.989    20686910.2884   20686916.2224
       203.0004        202.0004
 -17413799.38549 -13549055.38148  20845553.381    20845553.9114   20845561.2784
       212.0004        213.0004
 -12668672.78849  -9850845.52547  22459082.070    22459082.0854   22459088.6944
       208.0004        207.0004
 21  2  2  0 51 30.0000000  0  8G21G08G07G01G03G04G09G27
 -12984867.43948  -9954353.88946  22366092.003    22366091.0114   22366095.1844
       165.0004        167.0004
 -22533528.69149 -17529358.18447  20358624.188    20358624.1274   20358632.2924
       210.0004        211.0004
  -6719371.52448  -5214473.28046  23293033.960    23293034.8704   23293038.2744
       171.0004        170.0004
  -6794078.61147  -4359579.78045  23528460.743    23528461.1204   23528470.1014
       153.0004        156.0004
   1790331.61248   1428735.00746  24636416.957    24636417.9174   24636427.7324
       168.0004        168.0004
 -19666947.49249 -15313602.71747  20696749.323    20696749.4494   20696755.2834
       203.0004        202.0004
 -17432799.22849 -13563860.45048  20841938.254    20841938.6314   20841945.6074
       212.0004        213.0004
 -12576009.22649  -9778640.15147  22476715.678    22476715.8224   22476721.7444
       207.0004        207.0004
 21  2  2  0 52  0.0000000  0  8G21G08G07G01G03G04G09G27
 -13028586.45948  -9988420.65246  22357772.318    22357772.1494   22357775.1944
       166.0004        168.0004
 -22497269.15749 -17501104.00447  20365524.046    20365524.4444   20365532.0794
       210.0004        211.0004
  -6792672.18348  -5271590.69846  23279085.749    23279086.8624   23279089.4004
       170.0004        172.0004
  -6869466.31847  -4418323.37545  23514115.054    23514115.9234   23514124.8384
       154.0004        157.0004
   1838631.39248   1466371.12046  24645609.032    24645610.4564   24645618.9744
       168.0004        169.0004
 -19614749.32949 -15272928.83347  20706681.670    20706682.0104   20706688.2854
       203.0004        201.0004
 -17451233.94349 -13578225.18148  20838429.921    20838430.5994   20838437.6694
       212.0004        213.0004
 -12483040.28649  -9706196.82247  22494407.554    22494407.2974   22494414.3494
       207.0004        208.0004
 21  2  2  0 52 30.0000000  0  8G21G08G07G01G03G04G09G27
 -13072094.91648 -10022323.32946  22349492.802    22349491.4134   22349498.0964
       165.0004        167.0004
 -22460461.61249 -17472422.79647  20372528.686    20372528.9364   20372536.1264
       210.0004        211.0004
  -6866061.04948  -5328776.80046  23265120.290    23265120.4654   23265126.1624
       172.0004        174.0004
  -6944962.55247  -4477151.57145  23499748.965    23499749.2034   23499757.8544
       155.0004        158.0004
   1886676.58748   1503808.85546  24654751.938    24654753.0644   24654763.2624
       169.0004        172.0004
 -19562060.80749 -15231872.85547  20716708.316    20716708.9034   20716714.9924
       203.0004        202.0004
 -17469104.17149 -13592150.04748  20835029.744    20835030.0954   20835036.7284
       213.0004        213.0004
 -12389770.13849  -9633518.78847  22512155.776    22512155.8114   22512162.6304
       207.0004        207.0004
 21  2  2  0 53  0.0000000  0  8G21G08G07G01G03G04G09G27
 -13115389.10148 -10056059.03246  22341254.162    22341253.5174   22341258.5814
       166.0004        168.0004
 -22423106.78349 -17443315.12547  20379636.864    20379636.9534   20379644.5824
       210.0004        210.0004
  -6939537.06448  -5386030.83446  23251137.960    23251138.6714   23251141.9454
       172.0004        171.0004
  -7020563.74047  -4536061.55345  23485361.597    23485362.2874   23485370.4754
       155.0004        156.0004
   1934466.65948   1541047.79146  24663846.214    24663847.0784   24663856.4964
       170.0004        171.0004
 -19508882.94249 -15190435.56347  20726828.181    20726828.5634   20726834.5094
       203.0004        202.0004
 -17486408.55349 -13605633.97447  20831736.341    20831736.8694   20831743.5274
       212.0004        212.0004
 -12296200.85549  -9560607.65647  22529960.066    22529961.2364   22529968.1444
       207.0004        206.0004
 21  2  2  0 53 30.0000000  0  8G21G08G07G01G03G04G09G27
 -13158465.61648 -10089625.13746  22333057.915    22333056.7174   22333062.2574
       167.0004        168.0004
 -22385205.55649 -17413781.69047  20386849.707    20386849.4484   20386857.1234
       210.0004        211.0004
  -7013097.42348  -5443350.59246  23237139.474    23237139.8594   23237144.5894
       169.0004        169.0004
  -7096266.52947  -4595050.68845  23470954.400    23470955.5424   23470964.3684
       153.0004        155.0004
   1982001.06248   1578087.49246  24672891.455    24672892.3554   24672901.8674
       169.0004        169.0004
 -19455216.91649 -15148617.88547  20737040.626    20737040.7004   20737046.5504
       203.0004        202.0004
 -17503145.79449 -13618675.98648  20828551.929    20828552.2444   20828558.8084
       212.0004        213.0004
 -12202334.54349  -9487465.07947  22547822.694    22547822.9904   22547830.0244
       205.0004        205.0004
 21  2  2  0 54  0.0000000  0  8G21G08G07G01G03G04G09G27
 -13201322.69748 -10123020.23646  22324901.547    22324899.8924   22324905.4944
       166.0004        166.0004
 -22346760.86349 -17383824.77647  20394164.974    20394165.1904   20394172.4744
       210.0004        210.0004
  -7086741.25448  -5500735.37946  23223127.526    23223127.1094   23223131.7054
       170.0004        173.0004
  -7172069.00247  -4654117.48445  23456529.644    23456531.3054   23456540.8994
       155.0004        158.0004
   2029277.52348   1614926.23546  24681887.346    24681888.3514   24681896.7564
       166.0004        167.0004
 -19401065.50949 -15106421.99247  20747344.688    20747345.0454   20747351.4524
       202.0004        201.0004
 -17519316.30849 -13631276.38948  20825475.150    20825475.2024   20825481.8174
       213.0004        213.0004
 -12108175.08749  -9414094.08047  22565740.096    22565741.2304   22565747.9474
       204.0004        204.0004
 21  2  2  0 54 30.0000000  0  8G21G08G07G01G03G04G09G27
 -13243957.42348 -10156242.08746  22316788.787    22316788.7344   22316793.2174
       165.0004        165.0004
 -22307774.78849 -17353446.01547  20401583.393    20401583.9414   20401591.2304
       209.0004        210.0004
  -7160467.47048  -5558184.37546  23209096.284    23209097.0324   23209101.0194
       171.0004        172.0004
  -7247969.04047  -4713260.33045  23442088.287    23442088.5674   23442097.4754
       155.0004        157.0004
   2076294.13548   1651562.50846  24690834.978    24690835.6074   24690845.5244
       168.0004        170.0004
 -19346431.23049 -15063849.83847  20757742.016    20757741.7684   20757747.4014
       202.0004        201.0004
 -17534920.18649 -13643435.26347  20822504.484    20822505.4724   20822512.2654
       212.0004        212.0004
 -12013725.99249  -9340497.39147  22583713.659    22583714.0394   22583721.1704
       204.0004        204.0004
 21  2  2  0 55  0.0000000  0  8G21G08G07G01G03G04G09G27
 -13286367.58848 -10189288.97846  22308719.449    22308719.2564   22308721.8404
       166.0004        168.0004
 -22268249.44449 -17322647.04647  20409105.228    20409105.4034   20409112.8784
       210.0004        210.0004
  -7234274.95248  -5615696.69746  23195050.421    23195052.4504   23195056.4694
       170.0004        171.0004
  -7323964.13647  -4772477.23145  23427626.013    23427626.7664   23427636.1634
       154.0004        157.0004
   2123049.41048   1687995.11046  24699733.570    24699733.8324   24699743.9734
       171.0004        173.0004
 -19291316.27549 -15020903.14347  20768229.489    20768229.9504   20768235.6214
       202.0004        201.0004
 -17549957.21249 -13655152.44247  20819644.088    20819644.0114   20819650.9334
       212.0004        212.0004
 -11918990.41149  -9266677.46447  22601741.155    22601741.1564   22601748.9204
       203.0004        203.0004
 21  2  2  0 55 30.0000000  0  8G21G08G07G01G03G04G09G27
 -13328550.39947 -10222158.69246  22300690.127    22300688.7534   22300693.6794
       164.0004        163.0004
 -22228186.36449 -17291429.05447  20416728.780    20416729.1944   20416736.6154
       210.0004        210.0004
  -7308161.52248  -5673270.63446  23180991.269    23180992.3734   23180996.4384
       172.0004        174.0004
  -7400051.21747  -4831765.80045  23413146.489    23413147.8884   23413156.0644
       154.0004        156.0004
   2169542.38448   1724223.32846  24708580.127    24708580.2444   24708590.6964
       169.0004        169.0004
 -19235722.21449 -14977583.09847  20778808.179    20778808.5314   20778815.2064
       202.0004        200.0004
 -17564426.56849 -13666427.26948  20816890.075    20816890.4964   20816897.4234
       212.0004        213.0004
 -11823970.85949  -9192636.25547  22619822.663    22619823.3474   22619830.5254
       203.0004        202.0004
 21  2  2  0 56  0.0000000  0  8G21G08G07G01G03G04G09G27
 -13370503.11647 -10254849.05346  22292703.886    22292704.9374   22292712.1464
       161.0004        163.0004
 -22187587.34449 -17259793.45147  20424454.717    20424455.0944   20424462.2954
       210.0004        210.0004
  -7382125.90948  -5730905.19446  23166915.628    23166916.9554   23166921.6264
       172.0004        171.0004
  -7476227.66847  -4891124.02345  23398651.511    23398651.5684   23398659.2064
       153.0004        155.0004
   2215771.70348   1760246.12446  24717377.359    24717377.2484   24717387.4654
       167.0004        168.0004
 -19179651.18249 -14933891.38947  20789478.260    20789478.7754   20789484.7834
       201.0004        200.0004
 -17578328.03549 -13677259.58448  20814245.376    20814245.2414   20814252.3684
       212.0004        213.0004
 -11728670.42549  -9118376.18147  22637959.170    22637958.5594   22637965.6924
       203.0004        204.0004
 21  2  2  0 56 30.0000000  0  8G21G08G07G01G03G04G09G27
 -13412222.99048 -10287358.02346  22284771.084    22284770.1634   22284772.0334
       165.0004        170.0004
 -22146454.46549 -17227741.84047  20432282.157    20432282.1274   20432289.5234
       210.0004        210.0004
  -7456166.62848  -5788599.26446  23152827.247    23152827.4544   23152831.4344
       170.0004        171.0004
  -7552490.99347  -4950549.94945  23384137.069    23384138.7844   23384148.1384
       152.0004        153.0004
   2261735.72648   1796062.13846  24726125.045    24726125.6594   24726134.6944
       170.0004        172.0004
 -19123105.42249 -14889829.76247  20800238.953    20800239.4514   20800244.7794
       202.0004        200.0004
 -17591661.51749 -13687649.30647  20811706.988    20811707.7074   20811714.8754
       212.0004        212.0004
 -11633092.29949  -9043899.73147  22656145.652    22656146.0254   22656153.5534
       202.0004        202.0004
 21  2  2  0 57  0.0000000  0  8G21G08G07G01G03G04G09G27
 -13453707.62848 -10319683.73546  22276876.055    22276876.1804   22276878.3614
       169.0004        171.0004
 -22104790.23149 -17195276.20547  20440210.384    20440210.6544   20440218.0934
       210.0004        210.0004
  -7530282.21648  -5846351.64846  23138722.771    23138723.6874   23138728.8564
       171.0004        172.0004
  -7628838.69247  -5010041.62145  23369611.110    23369611.2294   23369619.2194
       152.0004        155.0004
   2307432.91848   1831670.22846  24734821.360    24734821.7534   24734829.0664
       171.0004        171.0004
 -19066087.26749 -14845400.04947  20811089.015    20811089.4924   20811095.0114
       201.0004        200.0004
 -17604426.91049 -13697596.37648  20809278.115    20809278.7724   20809285.4984
       212.0004        213.0004
 -11537239.66349  -8969209.37747  22674386.729    22674386.2574   22674393.3244
       202.0004        202.0004
 21  2  2  0 57 30.0000000  0  8G21G08G07G01G03G04G09G27
 -13494954.67748 -10351824.28946  22269024.096    22269024.3384   22269028.9464
       168.0004        167.0004
 -22062596.39449 -17162397.89347  20448239.905    20448239.9984   20448247.3334
       210.0004        210.0004
  -7604471.63648  -5904161.56146  23124604.696    23124606.3654   23124610.6904
       171.0004        172.0004
  -7705268.28347  -5069597.09045  23355067.459    23355067.2524   23355075.9334
       153.0004        155.0004
   2352861.79348   1867069.25946  24743463.373    24743464.4034   24743473.9814
       168.0004        168.0004
 -19008599.06949 -14800604.06047  20822028.157    20822028.8644   20822034.9674
       201.0004        200.0004
 -17616624.26149 -13707100.81748  20806957.434    20806957.9284   20806964.8024
       213.0004        214.0004
 -11441115.76049  -8894307.64347  22692676.526    22692677.7794   22692685.2514
       201.0004        201.0004
 21  2  2  0 58  0.0000000  0  8G21G08G07G01G03G04G09G27
 -13535959.50347 -10383776.06946  22261219.701    22261219.9464   22261227.2034
       164.0004        164.0004
 -22019873.32549 -17129107.18647  20456369.600    20456369.9154   20456377.4564
       209.0004        210.0004
  -7678731.29048  -5962026.22346  23110474.602    23110475.4254   23110478.2794
       172.0004        174.0004
  -7781775.39647  -5129212.96145  23340507.342    23340507.7224   23340517.0364
       153.0004        155.0004
   2398022.61648   1902259.41546  24752059.041    24752059.4404   24752068.9954
       167.0004        169.0004
 -18950641.26649 -14755442.15547  20833057.197    20833058.0274   20833063.9224
       201.0004        199.0004
 -17628251.65049 -13716161.13448  20804744.947    20804745.5644   20804751.8414
       213.0004        214.0004
 -11344721.89749  -8819195.53947  22711020.136    22711021.4514   22711027.9454
       201.0004        202.0004
 21  2  2  0 58 30.0000000  0  8G21G08G07G01G03G04G09G27
 -13576720.85747 -10415538.15446  22253464.494    22253464.2334   22253469.2514
       164.0004        166.0004
 -21976624.93349 -17095407.13947  20464599.592    20464599.8064   20464606.9104
       209.0004        209.0004
  -7753061.10148  -6019945.54646  23096330.799    23096331.1084   23096334.7714
       173.0004        175.0004
  -7858358.71247  -5188888.22645  23325934.783    23325935.0624   23325942.0104
       152.0004        154.0004
   2442912.68848   1937238.60046  24760601.787    24760601.8174   24760611.9794
       169.0004        170.0004
 -18892217.48249 -14709917.13747  20844176.204    20844176.0954   20844181.7994
       202.0004        200.0004
 -17639310.33949 -13724778.30248  20802640.865    20802641.2254   20802647.5054
       213.0004        213.0004
 -11248062.62849  -8743876.62347  22729415.158    22729415.4594   22729422.0074
       202.0004        203.0004
 21  2  2  0 59  0.0000000  0  8G21G08G07G01G03G04G09G27
 -13617236.65848 -10447108.88246  22245754.950    22245754.4004   22245760.4154
       165.0004        168.0004
 -21932853.55949 -17061299.56947  20472928.931    20472929.1714   20472936.8634
       209.0004        209.0004
  -7827460.16448  -6077918.81746  23082171.328    23082171.5974   23082176.1414
       173.0004        174.0004
  -7935016.12347  -5248621.24445  23311347.082    23311348.1004   23311355.7374
       151.0004        154.0004
   2487530.14148   1972005.36946  24769089.795    24769091.1394   24769102.8054
       169.0004        170.0004
 -18833330.49149 -14664031.17547  20855380.991    20855381.3674   20855387.9314
       202.0004        200.0004
 -17649800.82549 -13732952.70648  20800644.240    20800644.6544   20800650.9084
       213.0004        213.0004
 -11151141.49649  -8668353.67747  22747859.295    22747858.9304   22747864.9884
       202.0004        202.0004
 21  2  2  0 59 30.0000000  0  8G21G08G07G01G03G04G09G27
 -13657502.68248 -10478484.98846  22238092.685    22238093.0774   22238097.1694
       166.0004        169.0004
 -21888559.43649 -17026784.65747  20481358.043    20481358.0354   20481365.3494
       209.0004        209.0004
  -7901925.32248  -6135943.59746  23068001.595    23068002.6424   23068006.6314
       175.0004        177.0004
  -8011743.31647  -5308408.61145  23296746.280    23296746.4864   23296754.5194
       152.0004        154.0004
   2531875.24348   2006559.88346  24777530.924    24777531.1534   24777540.0574
       169.0004        170.0004
 -18773980.89449 -14617784.74247  20866674.753    20866675.3614   20866681.2124
       201.0004        199.0004
 -17659721.36349 -13740682.99648  20798756.158    20798756.7544   20798763.5544
       212.0004        213.0004
 -11053959.94049  -8592627.79247  22766351.917    22766351.4034   22766357.8594
       201.0004        200.0004
 21  2  2  1  0  0.0000000  0  8G21G08G07G01G03G04G09G27
 -13697517.45748 -10509665.34946  22230480.041    22230478.7394   22230482.3714
       169.0004        172.0004
 -21843746.01449 -16991865.11247  20489885.790    20489885.7704   20489893.3714
       208.0004        209.0004
  -7976455.87748  -6194019.33546  23053818.372    23053819.7404   23053824.2574
       176.0004        178.0004
  -8088538.48247  -5368248.96345  23282131.457    23282132.5204   23282141.4054
       152.0004        156.0004
   2575945.76948   2040900.44246  24785916.559    24785917.0234   24785926.4404
       168.0004        169.0004
 -18714171.89349 -14571180.33547  20878056.245    20878056.5464   20878062.7164
       201.0004        199.0004
 -17669072.81449 -13747969.85148  20796976.811    20796977.1964   20796984.2034
       213.0004        214.0004
 -10956521.93049  -8516702.07847  22784893.740    22784893.6644   22784899.4614
       200.0004        199.0004
 21  2  2  1  0 30.0000000  0  7G21G08G07G01G04G09G27
 -13737272.54548 -10540643.34446  22222912.973    22222912.8774   22222917.7874
       170.0004        171.0004
 -21798409.66549 -16956538.07247  20498513.207    20498513.2974   20498520.4704
       209.0004        209.0004
  -8051044.22848  -6252140.11946  23039626.032    23039626.1534   23039630.2724
       178.0004        179.0004
  -8165393.36447  -5428135.83045  23267506.918    23267507.6734   23267515.8874
       153.0004        155.0004
 -18653900.21649 -14524215.39547  20889525.644    20889526.1724   20889532.1524
       201.0004        200.0004
 -17677849.61949 -13754808.92548  20795307.146    20795307.5194   20795313.7564
       213.0004        214.0004
 -10858824.95349  -8440574.56847  22803484.716    22803484.8054   22803491.0604
       200.0004        201.0004
 21  2  2  1  1  0.0000000  0  7G21G08G07G01G04G09G27
 -13776770.75848 -10571421.16646  22215396.932    22215396.8014   22215402.8494
       169.0004        170.0004
 -21752557.10449 -16920808.80547  20507238.610    20507238.8174   20507245.7394
       209.0004        210.0004
  -8125693.99648  -6310308.76846  23025420.352    23025419.9404   23025424.2764
       177.0004        177.0004
  -8242310.27847  -5488071.04345  23252870.167    23252871.1834   23252878.8554
       153.0004        156.0004
 -18593173.15149 -14476895.61647  20901082.325    20901082.2454   20901087.6474
       201.0004        199.0004
 -17686056.80349 -13761204.13948  20793744.740    20793745.1504   20793752.1264
       213.0004        213.0004
 -10760877.13849  -8364251.61247  22822122.690    22822123.5344   22822129.5304
       200.0004        200.0004
 21  2  2  1  1 30.0000000  0  7G21G08G07G01G04G09G27
 -13816011.38548 -10601998.26646  22207930.186    22207929.6234   22207934.1784
       169.0004        168.0004
 -21706194.19349 -16884681.86047  20516060.956    20516061.3114   20516068.4654
       209.0004        210.0004
  -8200406.31048  -6368526.16046  23011204.156    23011203.5444   23011206.8984
       177.0004        179.0004
  -8319288.92847  -5548054.35045  23238221.477    23238222.6254   23238230.9494
       155.0004        158.0004
 -18531995.50949 -14429224.73047  20912723.733    20912724.1684   20912729.9644
       201.0004        200.0004
 -17693696.93849 -13767157.49648  20792290.872    20792291.5134   20792298.3034
       213.0004        214.0004
 -10662683.98549  -8287737.46047  22840809.694    22840809.7434   22840815.1774
       201.0004        201.0004
 21  2  2  1  2  0.0000000  0  7G21G08G07G01G04G09G27
 -13854992.38748 -10632373.07346  22200511.909    22200511.0264   22200515.4974
       168.0004        169.0004
 -21659321.92949 -16848158.00447  20524980.400    20524980.8374   20524987.9744
       208.0004        208.0004
  -8275179.10348  -6426790.65246  22996973.624    22996974.4844   22996979.7024
       178.0004        180.0004
  -8396326.13447  -5608083.31145  23223561.576    23223562.6144   23223570.7844
       155.0004        158.0004
 -18470369.15749 -14381204.20247  20924450.548    20924450.8904   20924457.0344
       201.0004        199.0004
 -17700769.55849 -13772668.62648  20790945.701    20790945.6204   20790952.5774
       213.0004        214.0004
 -10564248.10249  -8211034.18247  22859542.216    22859541.3294   22859547.7534
       202.0004        203.0004
 21  2  2  1  2 30.0000000  0  7G21G08G07G01G04G09G27
 -13893709.33148 -10662542.12746  22193143.583    22193143.6454   22193148.5244
       166.0004        167.0004
 -21611941.55949 -16811238.22847  20533995.809    20533996.5664   20534003.9664
       208.0004        208.0004
  -8350009.63848  -6485100.15946  22982734.416    22982734.5884   22982738.8624
       180.0004        180.0004
  -8473418.30147  -5668155.08145  23208892.590    23208893.3134   23208901.1114
       157.0004        160.0004
 -18408295.55949 -14332835.17047  20936262.414    20936263.2534   20936268.4964
       201.0004        199.0004
 -17707273.89449 -13777736.94848  20789707.670    20789707.8314   20789714.6804
       214.0004        214.0004
 -10465571.68449  -8134143.47747  22878317.422    22878318.7864   22878325.6894
       202.0004        202.0004
 21  2  2  1  3  0.0000000  0  7G21G08G07G01G04G09G27
 -13932159.27848 -10692503.10446  22185825.999    22185826.4024   22185832.5204
       167.0004        168.0004
 -21564054.34049 -16773923.49647  20543109.047    20543109.3254   20543116.7674
       208.0004        208.0004
  -8424895.60448  -6543452.85846  22968483.718    22968484.7314   22968488.2234
       179.0004        179.0004
  -8550561.74447  -5728266.83945  23194212.531    23194213.1574   23194220.3044
       158.0004        159.0004
 -18345776.19549 -14284118.79347  20948159.919    20948160.7114   20948166.1024
       201.0004        199.0004
 -17713209.21649 -13782361.87348  20788577.923    20788578.3764   20788585.1094
       214.0004        214.0004
 -10366656.94349  -8057067.04947  22897140.585    22897141.1024   22897147.8514
       202.0004        201.0004
 21  2  2  1  3 30.0000000  0  7G21G08G07G01G04G09G27
 -13970339.18048 -10722253.66646  22178560.553    22178561.3154   22178566.9644
       168.0004        170.0004
 -21515662.78049 -16736215.79247  20552317.773    20552318.0694   20552325.1654
       208.0004        208.0004
  -8499834.89248  -6601847.13246  22954223.345    22954223.7064   22954228.8914
       180.0004        181.0004
  -8627753.41947  -5788416.15745  23179523.736    23179524.3884   23179532.3934
       158.0004        161.0004
 -18282813.18849 -14235056.72847  20960141.456    20960142.0324   20960147.4494
       201.0004        199.0004
 -17718575.35749 -13786543.29448  20787556.649    20787557.2234   20787563.9814
       213.0004        213.0004
 -10267506.58549  -7979807.05047  22916007.854    22916008.8344   22916015.9604
       202.0004        201.0004
 21  2  2  1  4  0.0000000  0  7G21G08G07G01G04G09G27
 -14008246.60848 -10751791.89846  22171347.897    22171348.2214   22171353.9334
       169.0004        171.0004
 -21466768.71949 -16698116.51747  20561622.193    20561622.8144   20561629.5374
       208.0004        208.0004
  -8574826.05548  -6660281.80346  22939952.686    22939953.6574   22939958.5184
       180.0004        181.0004
  -8704990.67547  -5848600.99745  23164825.116    23164825.7354   23164834.3434
       159.0004        162.0004
 -18219409.01449 -14185650.88347  20972206.201    20972207.0234   20972213.3804
       200.0004        199.0004
 -17723372.58649 -13790281.39848  20786643.849    20786644.5194   20786651.1534
       213.0004        214.0004
 -10168123.81449  -7902365.92447  22934920.665    22934920.9664   22934927.6964
       200.0004        200.0004
 21  2  2  1  4 30.0000000  0  7G21G08G07G01G04G09G27
 -14045878.60248 -10781115.52146  22164187.776    22164187.2814   22164192.0944
       171.0004        173.0004
 -21417374.70949 -16659627.66747  20571022.429    20571022.3544   20571028.8204
       208.0004        209.0004
  -8649867.09648  -6718755.34746  22925673.836    22925674.8314   22925677.8454
       181.0004        182.0004
  -8782270.78247  -5908819.22446  23150120.434    23150120.6694   23150128.9174
       161.0004        163.0004
 -18155566.21449 -14135903.25847  20984355.637    20984355.8934   20984361.9434
       200.0004        199.0004
 -17727601.24049 -13793576.45848  20785839.636    20785839.7854   20785846.7784
       214.0004        215.0004
 -10068511.78249  -7824746.16747  22953875.875    22953875.9974   22953882.7344
       199.0004        199.0004
 21  2  2  1  5  0.0000000  0  7G21G08G07G01G04G09G27
 -14083233.88748 -10810223.52746  22157078.838    22157079.1364   22157083.4884
       171.0004        172.0004
 -21367483.53849 -16620751.41147  20580516.218    20580516.1944   20580522.8854
       208.0004        208.0004
  -8724956.98248  -6777266.93946  22911383.512    22911384.0854   22911387.9674
       180.0004        180.0004
  -8859591.37347  -5969068.99346  23135406.262    23135406.5584   23135414.7174
       161.0004        163.0004
 -18091287.56349 -14085816.00247  20996587.608    20996587.5184   20996593.7484
       200.0004        198.0004
 -17731261.90349 -13796428.91748  20785142.713    20785143.1404   20785150.1494
       214.0004        214.0004
  -9968673.94349  -7746950.44847  22972875.352    22972874.8234   22972881.2674
       199.0004        199.0004
 21  2  2  1  5 30.0000000  0  7G21G08G07G01G04G09G27
 -14120308.56748 -10839112.89446  22150024.783    22150024.5034   22150027.4924
       172.0004        172.0004
 -21317096.44149 -16581488.73647  20590103.973    20590104.0074   20590111.0034
       207.0004        207.0004
  -8800093.01648  -6835814.50246  22897085.989    22897086.4474   22897090.9704
       180.0004        181.0004
  -8936948.47447  -6029347.23745  23120685.251    23120685.5104   23120693.8374
       160.0004        161.0004
 -18026574.38149 -14035390.16847  21008901.759    21008902.1284   21008908.3494
       199.0004        198.0004
 -17734353.70149 -13798838.12448  20784554.701    20784554.8604   20784561.6194
       214.0004        214.0004
  -9868612.22649  -7668980.30147  22991915.758    22991916.2194   22991923.0054
       200.0004        201.0004
 21  2  2  1  6  0.0000000  0  7G21G08G07G01G04G09G27
 -14157100.89048 -10867782.24746  22143023.500    22143022.7594   22143028.2774
       173.0004        173.0004
 -21266217.09749 -16541842.49547  20599784.887    20599785.2424   20599793.0254
       206.0004        206.0004
  -8875274.51148  -6894397.48446  22882780.076    22882780.3284   22882783.8214
       181.0004        182.0004
  -9014340.54447  -6089652.70045  23105956.785    23105958.2844   23105966.4824
       159.0004        160.0004
 -17961430.41849 -13984628.63647  21021298.345    21021298.4184   21021304.7204
       199.0004        198.0004
 -17736878.19649 -13800805.27048  20784074.374    20784074.5694   20784080.9484
       214.0004        214.0004
  -9768330.88149  -7590838.99547  23010998.038    23010999.0844   23011005.4944
       199.0004        198.0004
 21  2  2  1  6 30.0000000  0  7G21G08G07G01G04G09G27
 -14193608.36248 -10896229.60646  22136075.427    22136075.5834   22136080.5184
       173.0004        173.0004
 -21214847.29649 -16501814.08147  20609560.585    20609560.9694   20609568.1024
       206.0004        206.0004
  -8950499.25548  -6953014.16946  22868464.996    22868464.6274   22868469.2784
       181.0004        181.0004
  -9091764.48847  -6149983.03946  23091225.277    23091225.3204   23091232.9464
       160.0004        163.0004
 -17895857.85249 -13933533.14147  21033775.780    21033776.6784   21033782.9564
       199.0004        198.0004
 -17738835.45649 -13802330.42448  20783702.220    20783702.4204   20783708.4604
       214.0004        214.0004
  -9667832.73549  -7512528.75347  23030122.046    23030122.6384   23030129.7894
       197.0004        196.0004
 21  2  2  1  7  0.0000000  0  7G21G08G07G01G04G09G27
 -14229828.24148 -10924452.90746  22129182.765    22129182.3144   22129188.2554
       172.0004        173.0004
 -21162989.16649 -16461405.15247  20619428.968    20619429.1024   20619436.7384
       206.0004        207.0004
  -9025765.76848  -7011663.40146  22854142.316    22854142.1544   22854147.0344
       179.0004        179.0004
  -9169217.06547  -6210335.69146  23076486.879    23076486.6774   23076494.7584
       161.0004        164.0004
 -17829858.84549 -13882105.35547  21046336.028    21046336.4734   21046342.1834
       199.0004        198.0004
 -17740225.43949 -13803413.54648  20783437.201    20783437.3844   20783444.1694
       214.0004        214.0004
  -9567120.44249  -7434051.64947  23049288.547    23049288.5534   23049294.7674
       196.0004        196.0004
 21  2  2  1  7 30.0000000  0  7G21G08G07G01G04G09G27
 -14265757.77548 -10952449.93546  22122346.636    22122345.5104   22122351.3614
       171.0004        172.0004
 -21110645.43349 -16420617.80847  20629389.964    20629390.4374   20629397.5474
       207.0004        208.0004
  -9101071.98148  -7070343.55046  22839812.625    22839812.7654   22839817.0724
       179.0004        180.0004
  -9246695.54447  -6270708.50046  23061743.117    23061743.6144   23061750.8234
       162.0004        164.0004
 -17763435.92849 -13830347.24847  21058975.201    21058975.9684   21058981.3754
       199.0004        197.0004
 -17741048.52349 -13804054.90648  20783280.312    20783281.1014   20783287.6924
       214.0004        215.0004
  -9466197.15649  -7355410.11647  23068493.327    23068492.9344   23068500.0284
       196.0004        196.0004
 21  2  2  1  8  0.0000000  0  7G21G08G07G01G04G09G27
 -14301394.55548 -10980218.83646  22115564.045    22115563.7084   22115568.5484
       170.0004        171.0004
 -21057818.04849 -16379453.60747  20639442.936    20639443.3584   20639450.5754
       207.0004        208.0004
  -9176415.60848  -7129052.86646  22825474.424    22825475.1014   22825479.0614
       180.0004        180.0004
  -9324196.42747  -6331098.76646  23046994.838    23046995.7584   23047003.6654
       163.0004        165.0004
 -17696591.03949 -13778260.32147  21071696.421    21071696.6604   21071702.2494
       199.0004        198.0004
 -17741304.51549 -13804254.39148  20783232.241    20783232.7714   20783239.0274
       215.0004        216.0004
  -9365065.26549  -7276606.05947  23087736.822    23087737.3024   23087744.8824
       195.0004        195.0004
 21  2  2  1  8 30.0000000  0  7G21G08G07G01G04G09G27
 -14336735.00248 -11007756.83246  22108839.619    22108840.3654   22108843.0694
       171.0004        172.0004
 -21004508.12349 -16337913.40047  20649587.768    20649587.5454   20649594.6754
       207.0004        207.0004
  -9251794.03248  -7187789.28646  22811130.501    22811131.0014   22811134.6814
       180.0004        181.0004
  -9401716.42347  -6391503.92146  23032242.737    23032243.5614   23032251.6474
       162.0004        163.0004
 -17629326.17849 -13725846.15147  21084496.214    21084496.3004   21084501.6674
       199.0004        197.0004
 -17740993.39349 -13804011.96648  20783291.256    20783291.7424   20783298.4644
       215.0004        215.0004
  -9263727.36249  -7197641.48047  23107020.485    23107021.7504   23107029.0574
       195.0004        196.0004
 21  2  2  1  9  0.0000000  0  7G21G08G07G01G04G09G27
 -14371776.73348 -11035062.06846  22102170.874    22102170.3404   22102174.3994
       172.0004        173.0004
 -20950718.97649 -16295999.78747  20659822.446    20659822.8004   20659830.0034
       206.0004        206.0004
  -9327205.90448  -7246551.77846  22796780.768    22796781.2734   22796783.9934
       180.0004        181.0004
  -9479252.77147  -6451921.83146  23017487.227    23017488.4234   23017495.8884
       162.0004        163.0004
 -17561644.13749 -13673106.90547  21097375.264    21097375.5714   21097381.7194
       198.0004        197.0004
 -17740115.77549 -13803328.11448  20783457.892    20783458.2024   20783465.2704
       215.0004        215.0004
  -9162186.67348  -7118518.87747  23126342.814    23126343.9204   23126350.8204
       194.0004        193.0004
 21  2  2  1  9 30.0000000  0  7G21G08G07G01G04G09G27
 -14406518.75248 -11062133.76246  22095558.811    22095559.3264   22095564.9474
       171.0004        172.0004
 -20896453.89949 -16253715.30847  20670148.480    20670148.6474   20670156.7114
       205.0004        205.0004
  -9402650.70848  -7305339.94546  22782422.985    22782423.3654   22782427.6604
       179.0004        179.0004
  -9556803.71647  -6512351.12346  23002729.467    23002730.7854   23002739.0974
       162.0004        164.0004
 -17493548.51049 -13620045.39647  21110333.031    21110333.5864   21110340.0904
       198.0004        197.0004
 -17738673.20649 -13802204.05148  20783732.774    20783733.1474   20783739.5394
       215.0004        216.0004
  -9060447.29248  -7039241.43847  23145704.149    23145704.7634   23145711.4664
       193.0004        193.0004
 21  2  2  1 10  0.0000000  0  7G21G08G07G01G04G09G27
 -14440957.76148 -11088969.32746  22089006.032    22089006.1294   22089010.2464
       171.0004        173.0004
 -20841714.83749 -16211061.49447  20680564.243    20680565.0184   20680573.5144
       205.0004        206.0004
  -9478125.59648  -7364151.53346  22768060.615    22768060.1494   22768065.2944
       178.0004        179.0004
  -9634365.67547  -6572788.97946  22987971.501    22987971.8124   22987979.7004
       162.0004        164.0004
 -17425041.23549 -13566663.12447  21123370.314    21123370.2664   21123376.4894
       197.0004        196.0004
 -17736665.50149 -13800639.60848  20784115.162    20784115.1044   20784122.2014
       215.0004        216.0004
  -8958511.58748  -6959811.02247  23165101.922    23165102.4874   23165109.9814
       193.0004        194.0004
 21  2  2  1 10 30.0000000  0  7G21G08G07G01G04G09G27
 -14475092.23848 -11115567.62246  22082511.680    22082510.0034   22082515.8064
       171.0004        173.0004
 -20786505.04749 -16168040.87247  20691071.392    20691071.8134   20691079.5434
       206.0004        207.0004
  -9553629.81048  -7422985.95546  22753693.085    22753693.2614   22753697.7894
       178.0004        179.0004
  -9711936.47947  -6633233.73246  22973209.694    22973210.6334   22973218.4444
       162.0004        163.0004
 -17356125.60449 -13512962.62847  21136483.475    21136484.3644   21136490.9244
       197.0004        196.0004
 -17734093.94549 -13798635.80248  20784604.130    20784604.2984   20784611.0754
       215.0004        215.0004
  -8856383.30048  -6880230.53347  23184535.691    23184536.7754   23184544.0564
       193.0004        193.0004
 21  2  2  1 11  0.0000000  0  7G21G08G07G01G04G09G27
 -14508918.73248 -11141925.91146  22076073.816    22076073.1264   22076078.6544
       172.0004        174.0004
 -20730825.95549 -16124654.56647  20701667.619    20701667.8354   20701674.7384
       206.0004        207.0004
  -9629160.51648  -7481841.04146  22739320.396    22739320.6244   22739324.5924
       179.0004        179.0004
  -9789512.45247  -6693682.52045  22958448.359    22958448.2974   22958456.5094
       161.0004        162.0004
 -17286803.43549 -13458945.36447  21149675.519    21149675.7404   21149681.7874
       197.0004        196.0004
 -17730958.29849 -13796192.43848  20785200.653    20785201.1334   20785207.9724
       215.0004        215.0004
  -8754064.70048  -6800501.78147  23204007.175    23204006.5904   23204014.7534
       192.0004        191.0004
 21  2  2  1 11 30.0000000  0  7G21G08G07G01G04G09G27
 -14542434.33848 -11168041.95146  22069695.406    22069695.5574   22069700.5884
       173.0004        175.0004
 -20674679.81549 -16080904.31647  20712351.602    20712351.9734   20712359.1474
       207.0004        207.0004
  -9704715.11448  -7540714.74146  22724941.656    22724941.9294   22724946.8594
       178.0004        178.0004
  -9867090.10347  -6754132.62545  22943684.818    22943685.4344   22943692.9734
       160.0004        161.0004
 -17217076.81049 -13404612.94147  21162944.802    21162944.8534   21162950.8264
       197.0004        196.0004
 -17727258.56449 -13793309.54048  20785904.856    20785905.0014   20785911.5474
       214.0004        215.0004
  -8651558.22248  -6720626.62747  23223514.546    23223514.1104   23223520.9944
       191.0004        192.0004
 21  2  2  1 12  0.0000000  0  7G21G08G07G01G04G09G27
 -14575636.82348 -11193914.01146  22063377.740    22063376.8314   22063382.5364
       174.0004        176.0004
 -20618069.66149 -16036792.52147  20723123.675    20723124.3054   20723131.8314
       206.0004        206.0004
  -9780292.66748  -7599606.35046  22710559.526    22710560.3174   22710565.1024
       178.0004        180.0004
  -9944667.09747  -6814582.21145  22928920.884    22928923.1294   22928929.5424
       160.0004        161.0004
 -17146948.89549 -13349967.83347  21176288.835    21176289.5904   21176295.9334
       197.0004        196.0004
 -17722995.99149 -13789988.07148  20786716.048    20786716.4744   20786722.7154
       214.0004        215.0004
  -8548867.47148  -6640607.86947  23243054.543    23243055.1414   23243062.2454
       191.0004        191.0004
 21  2  2  1 12 30.0000000  0  7G21G08G07G01G04G09G27
 -14608522.94248 -11219539.55946  22057119.535    22057119.4934   22057124.2194
       175.0004        177.0004
 -20560996.52549 -15992319.95047  20733984.387    20733984.3934   20733991.9524
       205.0004        204.0004
  -9855890.21348  -7658513.51946  22696174.999    22696174.7324   22696179.1854
       180.0004        180.0004
 -10022239.40147  -6875028.13345  22914160.937    22914161.2944   22914169.0394
       161.0004        162.0004
 -17076421.27449 -13295011.24947  21189710.256    21189710.6934   21189716.9314
       197.0004        196.0004
 -17718170.04049 -13786227.58948  20787633.898    20787634.2694   20787641.3934
       214.0004        214.0004
  -8445994.38848  -6560447.03047  23262630.312    23262630.7284   23262638.7584
       190.0004        190.0004
 21  2  2  1 13  0.0000000  0  7G21G08G07G01G04G09G27
 -14641092.24048 -11244918.23946  22050921.824    22050921.8144   22050926.2774
       175.0004        175.0004
 -20503464.59449 -15947489.88847  20744932.904    20744932.7934   20744940.0014
       204.0004        205.0004
  -9931506.72248  -7717435.47146  22681785.044    22681785.2514   22681789.9454
       181.0004        181.0004
 -10099805.12847  -6935468.93546  22899401.826    22899402.0394   22899409.6524
       162.0004        164.0004
 -17005497.64149 -13239746.10747  21203206.533    21203206.9684   21203212.8154
       197.0004        197.0004
 -17712782.50049 -13782029.51048  20788659.765    20788659.9554   20788666.5404
       214.0004        215.0004
  -8342943.01448  -6480147.25647  23282240.715    23282240.8264   23282247.9114
       190.0004        190.0004
 21  2  2  1 13 30.0000000  0  7G21G08G07G01G04G09G27
 -14673341.60548 -11270047.60846  22044785.109    22044785.3314   22044789.0524
       175.0004        176.0004
 -20445476.08949 -15902304.03747  20755967.330    20755967.4854   20755975.1334
       205.0004        205.0004
 -10007140.43948  -7776370.83146  22667391.957    22667392.4794   22667397.0774
       180.0004        181.0004
 -10177361.45147  -6995902.41345  22884642.479    22884642.3834   22884650.1594
       161.0004        161.0004
 -16934180.78249 -13184174.54247  21216777.625    21216778.1284   21216784.0634
       197.0004        196.0004
 -17706834.15649 -13777394.44948  20789791.812    20789791.8244   20789798.4764
       215.0004        215.0004
  -8239716.47748  -6399711.00947  23301883.453    23301883.8754   23301891.7474
       190.0004        190.0004
 21  2  2  1 14  0.0000000  0  7G21G08G07G01G04G09G27
 -14705267.85848 -11294925.18546  22038710.077    22038709.7904   22038715.0234
       175.0004        175.0004
 -20387033.42049 -15856764.28047  20767088.321    20767088.5894   20767096.1294
       205.0004        205.0004
 -10082788.60048  -7835317.42846  22652996.569    22652997.3324   22653000.8154
       180.0004        180.0004
 -10254904.70647  -7056325.69645  22869885.969    22869887.1034   22869894.7514
       160.0004        162.0004
 -16862472.65349 -13128298.07047  21230422.599    21230423.1384   21230429.7124
       197.0004        195.0004
 -17700325.04749 -13772322.41048  20791030.152    20791030.2564   20791037.2594
       214.0004        214.0004
  -8136317.09148  -6319140.08147  23321560.928    23321560.5924   23321567.9414
       190.0004        192.0004
 21  2  2  1 14 30.0000000  0  7G21G08G07G01G04G09G27
 -14736869.80848 -11319550.06546  22032696.878    22032695.7554   22032700.0964
       174.0004        175.0004
 -20328140.30349 -15810873.54147  20778295.885    20778295.8274   20778303.3434
       205.0004        205.0004
 -10158450.89448  -7894275.06246  22638598.552    22638599.0494   22638603.4774
       180.0004        181.0004
 -10332432.96547  -7116737.30146  22855133.640    22855133.7914   22855141.5734
       162.0004        163.0004
 -16790377.00749 -13072119.65047  21244142.844    21244143.2224   21244148.9464
       196.0004        195.0004
 -17693256.93349 -13766814.79548  20792374.890    20792375.4734   20792381.8814
       214.0004        214.0004
  -8032748.94548  -6238437.63847  23341269.130    23341268.9094   23341275.9414
       190.0004        189.0004
 21  2  2  1 15  0.0000000  0  7G21G08G07G01G04G09G27
 -14768144.30948 -11343919.79446  22026745.276    22026744.8544   22026749.5564
       174.0004        175.0004
 -20268797.85649 -15764632.66647  20789588.191    20789588.5944   20789595.9964
       205.0004        205.0004
 -10234124.08148  -7953241.15046  22624198.266    22624199.0414   22624203.9674
       181.0004        182.0004
 -10409942.38747  -7177134.23146  22840383.157    22840383.6254   22840392.1284
       162.0004        163.0004
 -16717895.64749 -13015640.67547  21257934.958    21257935.3264   21257941.4174
       195.0004        193.0004
 -17685629.69249 -13760871.48748  20793826.599    20793827.1774   20793833.2544
       214.0004        214.0004
  -7929014.05548  -6157605.26547  23361009.494    23361009.1044   23361017.1074
       191.0004        192.0004
 21  2  2  1 15 30.0000000  0  7G21G08G07G01G04G09G27
 -14799088.85048 -11368032.41746  22020856.254    22020855.7004   22020860.5454
       174.0004        175.0004
 -20209008.94849 -15718043.90747  20800965.408    20800965.7174   20800973.4244
       204.0004        204.0004
 -10309806.15548  -8012214.20746  22609797.249    22609797.6684   22609801.4114
       182.0004        183.0004
 -10487429.84747  -7237514.05346  22825638.750    22825639.1004   22825646.8954
       162.0004        164.0004
 -16645031.17049 -12958863.16347  21271801.119    21271801.0334   21271807.4864
       195.0004        194.0004
 -17677444.02449 -13754493.04948  20795384.154    20795384.3924   20795390.9274
       214.0004        214.0004
  -7825115.39248  -6076645.28347  23380781.468    23380781.3024   23380787.5174
       193.0004        193.0004
 21  2  2  1 16  0.0000000  0  7G21G08G07G01G04G09G27
 -14829702.28248 -11391887.01546  22015031.230    22015030.3994   22015035.0834
       173.0004        175.0004
 -20148777.35149 -15671110.19347  20812427.198    20812427.1234   20812435.0864
       204.0004        204.0004
 -10385496.23548  -8071193.49646  22595394.765    22595394.7954   22595397.2904
       183.0004        183.0004
 -10564893.63347  -7297875.42346  22810897.913    22810897.4754   22810905.8224
       162.0004        164.0004
 -16571787.50749 -12901790.18947  21285737.709    21285738.4994   21285745.2874
       195.0004        194.0004
 -17668701.92749 -13747681.02048  20797047.598    20797047.9324   20797054.5324
       214.0004        214.0004
  -7721057.03148  -5995560.86247  23400582.341    23400582.2204   23400589.5234
       193.0004        193.0004
 21  2  2  1 16 30.0000000  0  7G21G08G07G01G04G09G27
 -14859981.49348 -11415481.20346  22009268.423    22009267.4624   22009272.6524
       173.0004        174.0004
 -20088104.86449 -15623832.93647  20823972.828    20823972.7364   20823980.6414
       203.0004        204.0004
 -10461191.65348  -8130176.93046  22580989.385    22580990.1354   22580994.4944
       183.0004        184.0004
 -10642329.75047  -7358215.22246  22796162.392    22796162.3194   22796170.5864
       163.0004        165.0004
 -16498166.52449 -12844423.19647  21299748.323    21299748.4304   21299755.2314
       195.0004        194.0004
 -17659403.42349 -13740435.43848  20798817.429    20798817.4964   20798824.2674
       214.0004        215.0004
  -7616841.18948  -5914353.70747  23420413.594    23420413.2384   23420420.9964
       192.0004        192.0004
 21  2  2  1 17  0.0000000  0  7G21G08G07G01G04G09G27
 -14889923.60148 -11438812.71046  22003570.280    22003569.8734   22003575.8554
       174.0004        174.0004
 -20026993.61349 -15576213.78247  20835601.495    20835601.7414   20835609.9684
       203.0004        204.0004
 -10536889.83948  -8189162.51046  22566584.572    22566585.3164   22566589.7094
       185.0004        185.0004
 -10719734.71147  -7418530.74646  22781431.526    22781432.4464   22781440.7354
       164.0004        167.0004
 -16424170.37349 -12786763.86447  21313830.135    21313830.0644   21313836.3484
       196.0004        195.0004
 -17649548.80949 -13732756.52348  20800692.599    20800692.6974   20800700.0144
       214.0004        215.0004
  -7512470.16148  -5833025.65547  23440274.079    23440274.6864   23440282.2894
       192.0004        192.0004
 21  2  2  1 17 30.0000000  0  7G21G08G07G01G04G09G27
 -14919525.84148 -11461879.39046  21997936.724    21997936.8814   21997942.0804
       172.0004        171.0004
 -19965445.84149 -15528254.47247  20847313.071    20847313.5304   20847321.4684
       203.0004        203.0004
 -10612588.46648  -8248148.43646  22552179.190    22552180.0404   22552184.2104
       185.0004        185.0004
 -10797105.15148  -7478819.37146  22766709.603    22766709.2794   22766717.4734
       166.0004        168.0004
 -16349801.53149 -12728814.11947  21327981.325    21327981.6964   21327988.0914
       196.0004        194.0004
 -17639138.64449 -13724644.70248  20802673.132    20802673.6114   20802680.7914
       214.0004        215.0004
  -7407946.72248  -5751578.79447  23460163.828    23460164.4964   23460172.4054
       192.0004        193.0004
 21  2  2  1 18  0.0000000  0  8G21G08G07G01G04G09G30G27
 -14948786.72848 -11484680.07746  21992368.754    21992369.1244   21992372.2874
       171.0004        172.0004
 -19903465.59049 -15479958.17647  20859106.897    20859108.0054   20859115.7204
       202.0004        203.0004
 -10688286.33948  -8307133.79846  22537775.386    22537775.5584   22537778.9484
       185.0004        185.0004
 -10874438.95748  -7539079.46546  22751993.559    22751993.2704   22752001.5494
       167.0004        169.0004
 -16275063.62349 -12670576.79347  21342203.121    21342203.4744   21342210.1824
       196.0004        194.0004
 -17628174.76549 -13716101.43448  20804760.120    20804760.2554   20804766.4924
       214.0004        215.0004
  -1469097.87454  -1116651.483 4                                  24430104.188
        74.0004        109.000
  -7303274.60648  -5670016.13147  23480083.114    23480083.0214   23480090.5544
       191.0004        190.0004
 21  2  2  1 18 30.0000000  0  8G21G08G07G01G04G09G30G27
 -14977704.97748 -11507213.75746  21986865.972    21986865.6334   21986871.3404
       172.0004        173.0004
 -19841055.27749 -15431326.75747  20870983.951    20870984.6304   20870992.2624
       202.0004        203.0004
 -10763982.02448  -8366117.44046  22523370.115    22523370.5114   22523373.8974
       185.0004        186.0004
 -10951733.54748  -7599309.00246  22737284.599    22737285.2594   22737292.4314
       167.0004        169.0004
 -16199959.87249 -12612054.40947  21356495.900    21356495.9184   21356501.8834
       196.0004        195.0004
 -17616658.58649 -13707127.79848  20806951.211    20806951.5354   20806958.2894
       214.0004        214.0004
  -1550324.93944   -901002.598 3                                  24414589.935
        74.0004         74.000
  -7198457.29348  -5588340.29347  23500029.949    23500029.8634   23500036.6434
       192.0004        192.0004
 21  2  2  1 19  0.0000000  0  8G21G08G07G01G04G09G30G27
 -15006277.83848 -11529478.31646  21981429.033    21981428.8714   21981433.3524
       172.0004        173.0004
 -19778217.48849 -15382362.25247  20882942.509    20882942.4664   20882950.1434
       202.0004        202.0004
 -10839673.38048  -8425097.71247  22508966.423    22508967.2844   22508972.0594
       186.0004        188.0004
 -11028985.49648  -7659505.30546  22722584.583    22722584.9404   22722591.9834
       168.0004        170.0004
 -16124492.70849 -12553248.84047  21370855.854    21370856.3764   21370862.4234
       195.0004        193.0004
 -17604590.70149 -13697724.25448  20809247.283    20809247.6704   20809254.6954
       214.0004        214.0004
  -1637187.61246   -968687.69045  24398039.929                    24398046.3994
       126.0004        146.0004
  -7093497.30948  -5506553.32847  23520004.033    23520003.5044   23520009.1974
       191.0004        190.0004
 21  2  2  1 19 30.0000000  0  8G21G08G07G01G04G09G30G27
 -15034503.30548 -11551472.16046  21976058.564    21976057.3964   21976062.8444
       173.0004        175.0004
 -19714955.85149 -15333067.45247  20894980.778    20894980.8564   20894987.8944
       202.0004        202.0004
 -10915358.35048  -8484073.01146  22494565.145    22494565.2414   22494568.2674
       186.0004        186.0004
 -11106192.30548  -7719666.41646  22707890.680    22707891.3924   22707901.2714
       168.0004        169.0004
 -16048665.42748 -12494162.64447  21385285.357    21385285.5964   21385291.9834
       194.0004        193.0004
 -17591972.65149 -13687892.00048  20811649.164    20811649.2814   20811656.0344
       214.0004        215.0004
  -1720036.54747  -1033245.27945  24382274.665    24382274.7264   24382281.9904
       139.0004        145.0004
  -6988398.23148  -5424657.94447  23540003.355    23540002.4804   23540008.8994
       190.0004        190.0004
 21  2  2  1 20  0.0000000  0  8G21G08G07G01G04G09G30G27
 -15062378.26348 -11573192.90446  21970753.056    21970753.5204   21970758.7974
       174.0004        175.0004
 -19651271.91049 -15283443.60247  20907098.773    20907099.1114   20907106.7154
       202.0004        202.0004
 -10991034.10748  -8543041.12846  22480163.853    22480164.5404   22480168.3824
       186.0004        187.0004
 -11183349.89548  -7779789.18946  22693208.133    22693208.9204   22693217.9794
       168.0004        169.0004
 -15972479.85548 -12434797.27747  21399782.626    21399783.1524   21399790.0244
       193.0004        192.0004
 -17578804.42349 -13677631.05448  20814154.403    20814154.8904   20814162.0204
       214.0004        215.0004
  -1803003.08147  -1097894.52945  24366487.882    24366486.6494   24366493.8524
       140.0004        144.0004
  -6883161.84948  -5342655.58947  23560028.507    23560028.9794   23560034.9664
       191.0004        191.0004
 21  2  2  1 20 30.0000000  0  8G21G08G07G01G04G09G30G27
 -15089899.87648 -11594638.31146  21965515.634    21965515.8834   21965521.1154
       174.0004        175.0004
 -19587167.88349 -15233492.40347  20919296.803    20919297.3654   20919305.6784
       201.0004        201.0004
 -11066698.68348  -8602000.53547  22465765.474    22465766.0054   22465769.6154
       187.0004        188.0004
 -11260454.87948  -7839870.97446  22678536.641    22678536.5364   22678544.1824
       168.0004        170.0004
 -15895938.40648 -12375154.59847  21414348.412    21414348.6814   21414355.0684
       193.0004        191.0004
 -17565086.71949 -13666941.93648  20816765.114    20816765.5294   20816772.2684
       214.0004        215.0004
  -1886085.62547  -1162634.11945  24350674.105    24350675.4354   24350683.0314
       139.0004        144.0004
  -6777790.81048  -5260548.29147  23580080.004    23580080.4484   23580086.9344
       191.0004        193.0004
 21  2  2  1 21  0.0000000  0  8G21G08G07G01G04G09G30G27
 -15117064.30548 -11615805.37946  21960345.486    21960345.8634   21960351.8954
       174.0004        175.0004
 -19522644.96449 -15183214.79747  20931576.255    20931576.0814   20931584.2084
       201.0004        201.0004
 -11142347.75948  -8660947.87247  22451370.060    22451370.5134   22451373.7004
       188.0004        188.0004
 -11337502.32248  -7899907.92046  22663874.752    22663875.2584   22663882.0484
       169.0004        170.0004
 -15819042.09348 -12315235.40047  21428981.449    21428981.8774   21428987.8524
       193.0004        191.0004
 -17550818.84549 -13655824.11448  20819479.806    20819480.4104   20819487.5444
       214.0004        215.0004
  -1969281.27547  -1227461.86045  24334841.604    24334842.6224   24334850.3044
       139.0004        144.0004
  -6672286.21848  -5178336.93147  23600156.504    23600156.3374   23600163.0544
       190.0004        189.0004
 21  2  2  1 21 30.0000000  0  8G21G08G07G01G04G09G30G27
 -15143869.26248 -11636692.35646  21955246.687    21955245.7084   21955251.2404
       175.0004        177.0004
 -19457705.26549 -15132612.43447  20943933.336    20943933.7994   20943941.1114
       201.0004        201.0004
 -11217979.10748  -8719881.40846  22436977.363    22436977.8834   22436982.0574
       187.0004        186.0004
 -11414489.05548  -7959897.57746  22649223.855    22649224.4844   22649232.0674
       169.0004        170.0004
 -15741793.69348 -12255041.84847  21443680.691    21443681.3834   21443687.8974
       193.0004        191.0004
 -17536001.80049 -13644278.37448  20822299.949    20822300.5344   20822306.8554
       214.0004        215.0004
  -2052588.70647  -1292376.73145  24318990.722    24318990.7084   24318997.6104
       141.0004        146.0004
  -6566650.95948  -5096023.74246  23620256.528    23620257.9014   23620265.6024
       187.0004        187.0004
 21  2  2  1 22  0.0000000  0  8G21G08G07G01G04G09G30G27
 -15170314.39948 -11657298.95646  21950214.777    21950213.5904   21950218.5044
       176.0004        177.0004
 -19392353.84449 -15081689.24247  20956369.307    20956369.3724   20956377.3654
       201.0004        201.0004
 -11293592.33848  -8778800.80947  22422589.329    22422589.3524   22422594.1754
       188.0004        188.0004
 -11491413.65348  -8019838.79846  22634587.232    22634587.1614   22634595.1584
       170.0004        171.0004
 -15664197.55348 -12194577.33447  21458446.856    21458447.7074   21458453.9914
       192.0004        191.0004
 -17520638.26449 -13632306.79748  20825223.111    20825223.5204   20825230.2104
       214.0004        214.0004
  -2136008.25247  -1357378.96845  24303118.265    24303117.8674   24303123.4554
       143.0004        148.0004
  -6460889.41848  -5013612.17846  23640384.102    23640384.7344   23640390.6524
       186.0004        186.0004
 21  2  2  1 22 30.0000000  0  8G21G08G07G01G04G09G30G27
 -15196398.98848 -11677624.58846  21945250.177    21945250.2244   21945254.1704
       176.0004        177.0004
 -19326594.69849 -15030448.34347  20968883.426    20968883.5114   20968891.2134
       201.0004        202.0004
 -11369187.08148  -8837705.77147  22408204.266    22408204.2644   22408209.1574
       188.0004        188.0004
 -11568274.72348  -8079730.51646  22619960.984    22619961.4554   22619968.6234
       171.0004        172.0004
 -15586258.29548 -12133845.44447  21473279.680    21473279.4454   21473285.4814
       193.0004        192.0004
 -17504731.16049 -13619911.64348  20828250.248    20828250.6204   20828257.5754
       213.0004        214.0004
  -2219540.53847  -1422469.05145  24287222.131    24287221.4544   24287229.1234
       145.0004        149.0004
  -6355006.36648  -4931105.90646  23660534.084    23660533.8874   23660539.2404
       185.0004        185.0004
 21  2  2  1 23  0.0000000  0  8G21G08G07G01G04G09G30G27
 -15222120.12348 -11697667.02346  21940356.363    21940355.7424   21940360.1054
       177.0004        177.0004
 -19260430.38149 -14978891.72947  20981473.702    20981473.7154   20981481.6764
       201.0004        201.0004
 -11444760.46548  -8896594.12046  22393822.694    22393822.8864   22393826.5264
       187.0004        187.0004
 -11645068.62648  -8139569.90146  22605346.619    22605347.4424   22605355.2494
       171.0004        172.0004
 -15507978.27048 -12072848.03247  21488174.996    21488175.6694   21488181.5474
       193.0004        192.0004
 -17488281.11349 -13607093.43348  20831380.917    20831381.2614   20831387.9214
       214.0004        215.0004
  -2303183.74547  -1487645.53045  24271305.486    24271304.5984   24271313.5224
       148.0004        153.0004
  -6249004.07448  -4848506.74446  23680705.764    23680705.4864   23680710.9334
       186.0004        187.0004
 21  2  2  1 23 30.0000000  0  8G21G08G07G01G04G09G30G27
 -15247474.92148 -11717423.99846  21935531.127    21935530.9034   21935535.9234
       177.0004        177.0004
 -19193862.57149 -14927020.69847  20994140.061    20994140.6704   20994149.2054
       200.0004        200.0004
 -11520309.44648  -8955463.44946  22379446.837    22379446.7724   22379450.4134
       187.0004        187.0004
 -11721790.92048  -8199353.47346  22590746.132    22590747.4914   22590756.1264
       170.0004        171.0004
 -15429358.96348 -12011586.24447  21503136.026    21503136.0894   21503141.9844
       193.0004        191.0004
 -17471287.97549 -13593852.02748  20834614.603    20834614.6854   20834621.7294
       214.0004        215.0004
  -2386935.26447  -1552906.44445  24255368.354    24255367.8454   24255375.1724
       151.0004        154.0004
  -6142884.11748  -4765815.86247  23700899.597    23700899.6394   23700906.4184
       188.0004        189.0004
 21  2  2  1 24  0.0000000  0  8G21G08G07G01G04G09G30G27
 -15272461.79748 -11736894.30346  21930776.134    21930775.4554   21930780.5324
       177.0004        177.0004
 -19126894.49649 -14874837.78247  21006883.358    21006884.1584   21006892.7624
       199.0004        199.0004
 -11595832.68648  -9014312.73046  22365074.773    22365075.0714   22365078.4874
       187.0004        187.0004
 -11798439.46048  -8259079.59946  22576160.215    22576160.8784   22576169.4624
       170.0004        171.0004
 -15350404.26848 -11950063.11747  21518160.471    21518161.0044   21518166.6694
       192.0004        191.0004
 -17453753.99649 -13580189.18748  20837950.854    20837951.4984   20837958.3254
       214.0004        215.0004
  -2470794.92647  -1618251.63645  24239410.303    24239409.8854   24239416.0444
       151.0004        154.0004
  -6036650.34148  -4683036.30947  23721116.646    23721115.6854   23721121.1404
       189.0004        188.0004
 21  2  2  1 24 30.0000000  0  8G21G08G07G01G04G09G30G27
 -15297078.00848 -11756075.75246  21926091.133    21926091.0754   21926096.5624
       177.0004        177.0004
 -19059528.10249 -14822344.49347  21019704.191    21019704.0344   21019711.6104
       199.0004        199.0004
 -11671326.88848  -9073139.38646  22350708.574    22350708.9884   22350712.7724
       187.0004        186.0004
 -11875010.25048  -8318745.12646  22561590.963    22561590.5054   22561598.0344
       169.0004        170.0004
 -15271116.09148 -11888280.13247  21533248.010    21533248.1264   21533255.0534
       192.0004        191.0004
 -17435679.49249 -13566105.17048  20841390.849    20841391.4024   20841397.6714
       215.0004        215.0004
  -2554760.52847  -1683679.37845  24223431.418    24223430.7964   24223438.3044
       150.0004        153.0004
  -5930304.76948  -4600169.64647  23741352.980    23741352.0754   23741358.3824
       189.0004        190.0004
 21  2  2  1 25  0.0000000  0  8G21G08G07G01G04G09G30G27
 -15321320.49548 -11774965.99446  21921478.718    21921478.5064   21921483.5004
       177.0004        178.0004
 -18991765.64349 -14769542.56647  21032599.223    21032599.4354   21032606.7744
       199.0004        200.0004
 -11746789.20048  -9131941.18746  22336348.256    22336349.1234   22336352.3734
       186.0004        186.0004
 -11951499.27848  -8378346.95246  22547034.356    22547034.8324   22547043.1844
       169.0004        169.0004
 -15191496.47048 -11826238.87947  21548399.728    21548400.0134   21548406.1744
       192.0004        191.0004
 -17417064.86749 -13551600.27348  20844933.044    20844932.9914   20844939.7234
       214.0004        214.0004
  -2638829.93447  -1749187.98245  24207432.857    24207432.7844   24207439.2824
       151.0004        152.0004
  -5823849.38548  -4517217.40046  23761610.348    23761609.2354   23761616.3094
       188.0004        186.0004
 21  2  2  1 25 30.0000000  0  8G21G08G07G01G04G09G30G27
 -15345187.30348 -11793563.49146  21916937.212    21916936.7434   21916941.0654
       177.0004        179.0004
 -18923610.26749 -14716434.47047  21045567.592    21045567.9734   21045576.3854
       199.0004        200.0004
 -11822218.15848  -9190716.99346  22321994.405    22321995.0194   22321999.5704
       186.0004        187.0004
 -12027903.86648  -8437882.97646  22532494.863    22532495.9864   22532503.8244
       168.0004        170.0004
 -15111548.76148 -11763941.96747  21563613.409    21563613.8814   21563619.7154
       193.0004        192.0004
 -17397911.91449 -13536675.90148  20848577.374    20848577.9344   20848584.4514
       214.0004        214.0004
  -2723002.26947  -1814776.81145  24191415.228    24191415.8184   24191423.0044
       152.0004        155.0004
  -5717287.47948  -4434182.16146  23781886.377    23781886.8774   23781893.6954
       186.0004        186.0004
 21  2  2  1 26  0.0000000  0  8G21G08G07G01G04G09G30G27
 -15368676.27948 -11811866.58446  21912467.312    21912466.8604   21912471.4104
       178.0004        177.0004
 -18855064.56649 -14663022.23247  21058611.103    21058611.9144   21058620.2404
       199.0004        199.0004
 -11897611.21448  -9249464.81047  22307646.974    22307648.2064   22307652.4174
       187.0004        189.0004
 -12104220.65148  -8497350.57446  22517971.129    22517972.3834   22517981.8064
       169.0004        170.0004
 -15031275.56848 -11701391.44147  21578888.902    21578888.8174   21578894.8744
       192.0004        191.0004
 -17378221.64949 -13521332.83648  20852324.396    20852324.3924   20852331.3534
       214.0004        214.0004
  -2807276.03247  -1880444.66045  24175378.824    24175378.7484   24175386.9234
       154.0004        157.0004
  -5610621.67148  -4351065.97346  23802184.513    23802185.0494   23802190.8694
       185.0004        184.0004
 21  2  2  1 26 30.0000000  0  8G21G08G07G01G04G09G30G27
 -15391786.39048 -11829874.46146  21908068.778    21908068.8174   21908073.7354
       177.0004        178.0004
 -18786132.23949 -14609308.73647  21071729.131    21071729.6544   21071737.5414
       198.0004        198.0004
 -11972966.99148  -9308183.59947  22293309.292    22293308.8154   22293312.3964
       188.0004        188.0004
 -12180447.26948  -8556747.92346  22503467.314    22503468.1534   22503475.5824
       169.0004        171.0004
 -14950680.64548 -11638590.21547  21594225.249    21594225.9124   21594231.0044
       192.0004        191.0004
 -17357996.25649 -13505572.79948  20856173.191    20856173.5574   20856180.0654
       214.0004        214.0004
  -2891650.67547  -1946191.12345  24159323.461    24159323.8154   24159331.0914
       155.0004        157.0004
  -5503855.61348  -4267871.62746  23822500.982    23822501.7524   23822507.8794
       182.0004        183.0004
 21  2  2  1 27  0.0000000  0  8G21G08G07G01G04G09G30G27
 -15414515.62248 -11847585.55046  21903744.659    21903743.7504   21903748.4674
       178.0004        179.0004
 -18716816.27149 -14555296.29947  21084919.949    21084920.0354   21084927.7954
       198.0004        198.0004
 -12048283.24248  -9366871.59746  22278976.778    22278976.4814   22278980.0334
       187.0004        187.0004
 -12256580.87248  -8616072.78646  22488979.416    22488979.9484   22488987.8554
       169.0004        170.0004
 -14869767.10748 -11575540.70647  21609622.825    21609623.0174   21609628.5374
       191.0004        190.0004
 -17337237.35549 -13489397.04548  20860122.905    20860123.5514   20860130.5204
       214.0004        214.0004
  -2976125.19347  -2012015.42045  24143248.445    24143248.7764   24143255.8924
       156.0004        158.0004
  -5396992.35548  -4184601.61446  23842836.932    23842837.5634   23842843.5154
       183.0004        184.0004
 21  2  2  1 27 30.0000000  0  8G21G08G07G01G04G09G30G27
 -15436861.74548 -11864998.09846  21899490.864    21899491.6334   21899496.8534
       179.0004        179.0004
 -18647119.42649 -14500987.06647  21098182.569    21098182.9604   21098190.4654
       198.0004        199.0004
 -12123558.06948  -9425527.30346  22264650.377    22264651.5834   22264656.3004
       187.0004        187.0004
 -12332618.03048  -8675322.49746  22474509.946    22474510.5544   22474518.4314
       170.0004        171.0004
 -14788537.71048 -11512245.07647  21625079.562    21625080.2434   21625086.4974
       191.0004        189.0004
 -17315946.15749 -13472806.50848  20864175.169    20864175.5664   20864182.4364
       214.0004        214.0004
  -3060698.02647  -2077916.32145  24127154.338    24127154.9264   24127162.2964
       156.0004        158.0004
  -5290034.63148  -4101257.89346  23863191.885    23863191.0964   23863197.3174
       184.0004        184.0004
 21  2  2  1 28  0.0000000  0  8G21G08G07G01G04G09G30G27
 -15458822.42248 -11882110.30246  21895313.012    21895312.2864   21895317.6204
       178.0004        179.0004
 -18577044.53049 -14446383.24047  21111517.617    21111517.8974   21111524.9914
       198.0004        198.0004
 -12198788.70548  -9484148.57547  22250336.022    22250336.1744   22250339.9244
       187.0004        188.0004
 -12408555.45348  -8734494.48946  22460059.244    22460060.6404   22460067.0394
       170.0004        172.0004
 -14706995.19248 -11448705.45047  21640597.385    21640597.2894   21640603.3004
       191.0004        190.0004
 -17294123.87149 -13455802.13448  20868327.495    20868327.7064   20868334.6384
       213.0004        214.0004
  -3145367.62347  -2143892.62045  24111041.894    24111042.1094   24111050.0844
       155.0004        157.0004
  -5182984.98748  -4017842.62146  23883562.214    23883562.5994   23883567.8804
       185.0004        186.0004
 21  2  2  1 28 30.0000000  0  8G21G08G07G01G04G09G30G27
 -15480395.62748 -11898920.57146  21891207.233    21891207.1654   21891211.6354
       178.0004        178.0004
 -18506593.93049 -14391486.66547  21124924.091    21124924.0424   21124931.4974
       197.0004        198.0004
 -12273972.44748  -9542733.30347  22236028.861    22236029.1794   22236033.2674
       188.0004        188.0004
 -12484389.52848  -8793585.96846  22445629.191    22445629.3824   22445635.4824
       170.0004        170.0004
 -14625142.08448 -11384923.81347  21656173.288    21656173.2524   21656180.0304
       191.0004        190.0004
 -17271771.56149 -13438384.75448  20872581.378    20872581.7894   20872588.1914
       213.0004        214.0004
  -3230132.22947  -2209942.94545  24094912.554    24094912.9224   24094919.1024
       155.0004        157.0004
  -5075845.87348  -3934357.60646  23903948.497    23903949.2024   23903957.1774
       185.0004        184.0004
 21  2  2  1 29  0.0000000  0  8G21G08G07G01G04G09G30G27
 -15501580.02848 -11915427.88946  21887175.329    21887175.4754   21887180.8384
       177.0004        177.0004
 -18435770.79849 -14336299.80947  21138400.023    21138400.8534   21138409.0304
       197.0004        197.0004
 -12349107.94048  -9601280.42147  22221730.427    22221730.6944   22221735.3214
       188.0004        188.0004
 -12560117.82048  -8852595.01346  22431218.882    22431219.3674   22431226.7034
       171.0004        173.0004
 -14542982.00248 -11320902.99347  21671807.968    21671808.1494   21671813.8814
       191.0004        191.0004
 -17248891.40249 -13420556.07348  20876935.120    20876935.5874   20876942.3324
       214.0004        214.0004
  -3314991.26547  -2276066.87145  24078764.515    24078765.0314   24078771.1414
       155.0004        157.0004
  -4968620.82448  -3850805.62646  23924352.147    23924352.7394   23924359.8344
       182.0004        181.0004
 21  2  2  1 29 30.0000000  0  8G21G08G07G01G04G09G30G27
 -15522373.11048 -11931630.28046  21883217.948    21883218.9074   21883224.0754
       177.0004        177.0004
 -18364578.33349 -14280825.15947  21151947.730    21151947.6574   21151956.5724
       196.0004        196.0004
 -12424192.74648  -9659788.03947  22207442.452    22207442.7674   22207447.1384
       189.0004        190.0004
 -12635736.93048  -8911518.97746  22416829.478    22416829.0484   22416837.1274
       172.0004        173.0004
 -14460517.65448 -11256645.06347  21687500.117    21687500.5904   21687506.6214
       191.0004        190.0004
 -17225484.60249 -13402317.00948  20881389.694    20881389.9604   20881396.5024
       214.0004        214.0004
  -3399942.98547  -2342262.97945  24062598.292    24062598.3404   24062605.1964
       156.0004        158.0004
  -4861312.30048  -3767188.61846  23944772.460    23944773.0524   23944780.7454
       180.0004        180.0004
 21  2  2  1 30  0.0000000  0  8G21G08G07G01G04G09G30G27
 -15542773.16148 -11947526.43246  21879337.372    21879337.2644   21879341.6814
       177.0004        178.0004
 -18293019.20249 -14225064.81847  21165564.709    21165565.7814   21165573.5374
       196.0004        197.0004
 -12499224.50148  -9718254.35847  22193164.369    22193165.4924   22193169.5354
       190.0004        191.0004
 -12711243.61148  -8970355.33046  22402459.952    22402459.7824   22402468.3454
       171.0004        172.0004
 -14377751.91348 -11192152.28247  21703249.494    21703250.2214   21703257.1724
       191.0004        190.0004
 -17201552.63449 -13383668.73848  20885943.437    20885943.6454   20885950.3734
       213.0004        214.0004
  -3484986.01647  -2408530.22945  24046413.826    24046414.3694   24046422.0884
       156.0004        159.0004
  -4753923.18748  -3683508.79046  23965209.410    23965209.1784   23965216.4984
       181.0004        182.0004
 21  2  2  1 30 30.0000000  0  8G21G08G07G01G04G09G30G27
 -15562776.69248 -11963113.58546  21875530.312    21875529.9434   21875535.7464
       178.0004        179.0004
 -18221094.95849 -14169019.95747  21179252.776    21179252.6544   21179260.4934
       197.0004        197.0004
 -12574199.51448  -9776676.44447  22178898.061    22178897.8454   22178901.2964
       190.0004        190.0004
 -12786633.20648  -9029100.44446  22388112.607    22388113.6064   22388122.2084
       170.0004        172.0004
 -14294686.32048 -11127425.85847  21719056.575    21719057.4704   21719063.3854
       191.0004        190.0004
 -17177095.66649 -13364611.36848  20890597.021    20890597.4294   20890604.7914
       213.0004        213.0004
  -3570117.51747  -2474866.46046  24030214.247    24030215.8794   24030222.8604
       159.0004        163.0004
  -4646454.78948  -3599767.22546  23985657.798    23985658.9914   23985666.2264
       177.0004        176.0004
 21  2  2  1 31  0.0000000  0  8G21G08G07G01G04G09G30G27
 -15582382.03548 -11978390.46346  21871801.556    21871800.0444   21871805.0324
       178.0004        179.0004
 -18148808.51249 -14112692.85147  21193008.909    21193008.6624   21193016.2134
       197.0004        198.0004
 -12649115.45448  -9835052.50547  22164641.726    22164642.1634   22164645.9314
       190.0004        190.0004
 -12861902.85948  -9087752.10646  22373790.298    22373791.1654   22373798.6674
       172.0004        174.0004
 -14211324.14048 -11062468.30847  21734920.299    21734920.3584   21734927.4134
       190.0004        189.0004
 -17152115.48049 -13345146.28848  20895350.576    20895351.2104   20895358.1494
       213.0004        213.0004
  -3655336.40947  -2541270.79045  24013998.858    24013999.3194   24014006.2584
       160.0004        162.0004
  -4538910.12348  -3515966.19846  24006122.953    24006124.0894   24006130.5904
       177.0004        177.0004
 21  2  2  1 31 30.0000000  0  8G21G08G07G01G04G09G30G27
 -15601588.45548 -11993356.50146  21868146.116    21868145.2494   21868150.0724
       179.0004        179.0004
 -18076163.91549 -14056086.67347  21206831.491    21206831.7744   21206840.0484
       196.0004        197.0004
 -12723971.71748  -9893382.05547  22150396.329    22150397.0974   22150400.6544
       189.0004        188.0004
 -12937050.47148  -9146308.67146  22359489.975    22359491.3244   22359498.7894
       173.0004        174.0004
 -14127669.45348 -10997282.84447  21750838.886    21750839.3834   21750846.0674
       190.0004        189.0004
 -17126614.82149 -13325275.65348  20900203.484    20900203.7624   20900210.6514
       212.0004        213.0004
  -3740642.30547  -2607742.90145  23997765.564    23997765.8484   23997772.0334
       158.0004        159.0004
  -4431293.18948  -3432108.87046  24026602.533    24026602.8194   24026610.7844
       174.0004        175.0004
 21  2  2  1 32  0.0000000  0  8G21G08G07G01G04G09G30G27
 -15620394.34648 -12008010.42546  21864566.430    21864565.5164   21864570.8704
       178.0004        179.0004
 -18003164.54449 -13999204.04447  21220721.470    21220722.5114   21220731.7304
       195.0004        196.0004
 -12798765.98248  -9951663.28147  22136163.667    22136164.2784   22136168.2764
       190.0004        191.0004
 -13012073.10548  -9204767.84746  22345214.302    22345214.9524   22345222.8674
       174.0004        175.0004
 -14043725.50748 -10931871.98747  21766813.327    21766813.1934   21766819.7354
       189.0004        188.0004
 -17100595.50549 -13305000.86348  20905154.466    20905155.0014   20905162.2024
       213.0004        213.0004
  -3826034.11047  -2674281.95545  23981516.412    23981515.4924   23981522.2244
       154.0004        155.0004
  -4323606.89048  -3348197.48846  24047093.286    24047094.2824   24047101.7374
       175.0004        176.0004
 21  2  2  1 32 30.0000000  0  8G21G08G07G01G04G09G30G27
 -15638798.03948 -12022350.95346  21861063.734    21861064.1314   21861068.4964
       178.0004        178.0004
 -17929813.86849 -13942047.68347  21234680.648    21234680.8604   21234689.9104
       195.0004        195.0004
 -12873496.14448 -10009894.58047  22121943.451    22121943.4344   22121947.8984
       191.0004        192.0004
 -13086968.02348  -9263127.50446  22330963.282    22330962.6464   22330970.0564
       174.0004        177.0004
 -13959495.66248 -10866238.35847  21782841.744    21782841.8574   21782847.7814
       188.0004        188.0004
 -17074059.61949 -13284323.56148  20910204.445    20910204.5874   20910211.8304
       213.0004        213.0004
  -3911510.83647  -2740887.22045  23965251.033    23965250.1554   23965257.5644
       152.0004        154.0004
  -4215854.43848  -3264234.56746  24067598.993    24067599.0514   24067607.3454
       176.0004        177.0004
 21  2  2  1 33  0.0000000  0  8G21G08G07G01G04G09G30G27
 -15656797.20048 -12036376.25346  21857638.483    21857638.5874   21857643.7704
       177.0004        178.0004
 -17856113.94949 -13884619.18647  21248706.643    21248706.4704   21248713.9914
       196.0004        197.0004
 -12948159.62448 -10068073.91147  22107735.357    22107735.6304   22107739.6384
       191.0004        191.0004
 -13161731.29248  -9321384.56846  22316734.534    22316735.2264   22316743.3074
       174.0004        175.0004
 -13874982.25348 -10800383.75246  21798924.285    21798924.7634   21798930.0614
       188.0004        187.0004
 -17047008.16449 -13263244.51448  20915352.401    20915352.7064   20915359.6114
       213.0004        214.0004
  -3997070.26147  -2807556.89745  23948969.528    23948969.5304   23948976.3264
       153.0004        157.0004
  -4108038.02748  -3180221.80146  24088116.579    24088116.4884   24088122.9854
       176.0004        176.0004
 21  2  2  1 33 30.0000000  0  8G21G08G07G01G04G09G30G27
 -15674388.47848 -12050083.73346  21854292.510    21854291.5934   21854296.2424
       178.0004        179.0004
 -17782066.35649 -13826919.76347  21262796.973    21262797.3264   21262804.4314
       195.0004        195.0004
 -13022752.65448 -10126198.34847  22093541.248    22093541.0464   22093544.6984
       192.0004        191.0004
 -13236358.30948  -9379535.49746  22302532.641    22302533.4104   22302541.9544
       174.0004        173.0004
 -13790186.80848 -10734309.38346  21815059.807    21815060.4784   21815066.7174
       188.0004        187.0004
 -17019441.41049 -13241763.92748  20920597.916    20920598.0944   20920605.3094
       213.0004        213.0004
  -4082709.56647  -2874288.78745  23932671.250    23932671.2014   23932679.7104
       154.0004        156.0004
  -4000158.83048  -3096160.07746  24108644.121    24108644.7154   24108653.0284
       176.0004        177.0004
 21  2  2  1 34  0.0000000  0  8G21G08G07G01G04G09G30G27
 -15691570.03648 -12063471.95246  21851023.104    21851022.4454   21851026.8914
       179.0004        179.0004
 -17707673.66249 -13768951.42447  21276952.578    21276953.1644   21276961.0084
       195.0004        195.0004
 -13097272.46448 -10184265.73947  22079360.273    22079360.8384   22079364.7864
       192.0004        192.0004
 -13310845.68848  -9437577.58846  22288360.023    22288360.2314   22288367.8724
       174.0004        174.0004
 -13705112.22548 -10668017.50246  21831248.619    21831249.5604   21831255.5714
       187.0004        186.0004
 -16991360.79449 -13219882.93148  20925941.071    20925941.6724   20925948.5334
       212.0004        213.0004
  -4168427.02047  -2941081.56345  23916359.908    23916360.5184   23916367.3874
       153.0004        156.0004
  -3892219.40448  -3012051.44846  24129184.561    24129185.5854   24129192.2114
       176.0004        177.0004
 21  2  2  1 34 30.0000000  0  8G21G08G07G01G04G09G30G27
 -15708340.85048 -12076540.11346  21847831.309    21847830.1024   21847835.4924
       179.0004        179.0004
 -17632939.63748 -13710717.12247  21291174.190    21291174.6584   21291182.4814
       194.0004        195.0004
 -13171717.74048 -10242275.04247  22065193.044    22065194.3954   22065197.7104
       192.0004        192.0004
 -13385191.09648  -9495509.04846  22274212.195    22274212.2604   22274220.6754
       174.0004        176.0004
 -13619762.27148 -10601511.04746  21847490.976    21847491.4894   21847497.1264
       187.0004        187.0004
 -16962769.02549 -13197603.63848  20931382.418    20931382.5264   20931389.3774
       212.0004        213.0004
  -4254222.05547  -3007934.82645  23900034.654    23900034.2054   23900041.0334
       155.0004        159.0004
  -3784223.49248  -2927898.81346  24149735.385    24149737.1764   24149744.2704
       177.0004        179.0004
 21  2  2  1 35  0.0000000  0  8G21G08G07G01G04G09G30G27
 -15724700.45848 -12089287.85346  21844718.076    21844717.6334   21844722.2994
       179.0004        179.0004
 -17557868.78048 -13652220.35347  21305459.777    21305460.7104   21305468.5454
       194.0004        195.0004
 -13246087.18648 -10300225.26147  22051040.830    22051042.1304   22051046.1094
       192.0004        193.0004
 -13459392.59048  -9553328.37246  22260091.877    22260091.9534   22260100.6114
       175.0004        177.0004
 -13534141.26248 -10534793.40046  21863783.906    21863783.9534   21863789.8104
       187.0004        186.0004
 -16933669.07249 -13174928.35948  20936919.764    20936920.3244   20936927.2044
       212.0004        213.0004
  -4340094.48247  -3074848.40945  23883694.655    23883694.0564   23883700.3064
       157.0004        159.0004
  -3676174.95948  -2843705.17346  24170297.166    24170297.4524   24170304.1214
       176.0004        177.0004
 21  2  2  1 35 30.0000000  0  8G21G08G07G01G04G09G30G27
 -15740645.86848 -12101712.83346  21841683.988    21841683.1134   21841687.8134
       180.0004        180.0004
 -17482462.80948 -13593462.46047  21319809.458    21319809.8904   21319817.3714
       194.0004        194.0004
 -13320377.57248 -10358113.88947  22036904.758    22036905.4274   22036908.9394
       193.0004        194.0004
 -13533445.77648  -9611032.14646  22245999.435    22245999.7724   22246007.6944
       175.0004        176.0004
 -13448251.06948 -10467865.98046  21880127.775    21880128.5944   21880134.0324
       186.0004        185.0004
 -16904061.54849 -13151857.56548  20942554.177    20942554.5764   20942561.6154
       212.0004        213.0004
  -4426041.59347  -3141820.16645  23867338.739    23867338.1874   23867344.8494
       156.0004        158.0004
  -3568075.36748  -2759471.76546  24190867.801    24190868.4294   24190875.4984
       178.0004        180.0004
 21  2  2  1 36  0.0000000  0  8G21G08G07G01G04G09G30G27
 -15756174.70648 -12113813.22746  21838728.985    21838728.7764   21838733.4754
       180.0004        182.0004
 -17406724.25948 -13534445.40647  21334221.567    21334222.1514   21334229.9864
       194.0004        195.0004
 -13394586.04248 -10415938.68247  22022783.041    22022783.1944   22022786.8684
       193.0004        192.0004
 -13607346.99248  -9668617.49746  22231937.237    22231937.6874   22231944.2284
       175.0004        177.0004
 -13362094.24948 -10400730.80846  21896522.319    21896522.9534   21896528.9584
       185.0004        185.0004
 -16873947.78049 -13128392.29747  20948284.479    20948285.0764   20948291.4404
       212.0004        212.0004
  -4512061.44447  -3208848.60845  23850969.898    23850968.9024   23850976.5184
       154.0004        155.0004
  -3459927.00148  -2675200.34046  24211448.210    24211448.8834   24211454.5374
       179.0004        180.0004
 21  2  2  1 36 30.0000000  0  8G21G08G07G01G04G09G30G27
 -15771285.46448 -12125587.84246  21835852.466    21835852.6174   21835857.6634
       180.0004        179.0004
 -17330656.33049 -13475171.69947  21348697.714    21348697.2474   21348705.8764
       195.0004        196.0004
 -13468710.21948 -10473697.78147  22008676.758    22008677.5104   22008682.4394
       192.0004        192.0004
 -13681093.06748  -9726081.94246  22217904.331    22217904.6054   22217911.5014
       175.0004        177.0004
 -13275673.85048 -10333390.24746  21912968.639    21912969.5614   21912974.9934
       186.0004        185.0004
 -16843329.66349 -13104534.03647  20954111.033    20954111.2404   20954117.9884
       212.0004        212.0004
  -4598152.53047  -3275932.57045  23834586.869    23834586.4464   23834593.8514
       152.0004        154.0004
  -3351732.64848  -2590893.07146  24232036.094    24232037.5324   24232043.9694
       180.0004        181.0004
 21  2  2  1 37  0.0000000  0  8G21G08G07G01G04G09G30G27
 -15785976.54248 -12137035.42846  21833057.523    21833056.6414   21833062.0444
       179.0004        180.0004
 -17254261.68248 -13415643.40947  21363233.929    21363234.6034   21363243.0824
       194.0004        194.0004
 -13542747.79848 -10531389.39047  21994588.932    21994588.8834   21994593.1914
       192.0004        193.0004
 -13754680.85548  -9783423.06046  22203900.670    22203900.3634   22203908.9344
       176.0004        177.0004
 -13188992.95248 -10265846.69946  21929463.648    21929463.7334   21929469.7634
       185.0004        185.0004
 -16812209.06949 -13080284.23048  20960032.907    20960033.3674   20960040.4634
       212.0004        213.0004
  -4684313.34547  -3343070.85745  23818190.408    23818190.4214   23818197.6414
       152.0004        155.0004
  -3243494.99148  -2506552.03046  24252634.110    24252634.8914   24252640.8444
       180.0004        181.0004
 21  2  2  1 37 30.0000000  0  8G21G08G07G01G04G09G30G27
 -15800246.11048 -12148154.57046  21830340.790    21830341.5884   21830346.6044
       180.0004        179.0004
 -17177543.74348 -13355863.21347  21377833.418    21377833.6384   21377841.9754
       193.0004        194.0004
 -13616696.37548 -10589011.65847  21980516.918    21980517.3724   21980520.5574
       193.0004        194.0004
 -13828107.23848  -9840638.42546  22189927.654    22189927.5904   22189936.5644
       177.0004        178.0004
 -13102054.74748 -10198102.64446  21946006.929    21946007.4524   21946013.6494
       185.0004        184.0004
 -16780588.02049 -13055644.45247  20966050.083    20966050.4104   20966057.9414
       212.0004        212.0004
  -4770542.52847  -3410262.39445  23801780.298    23801781.1104   23801789.3904
       153.0004        155.0004
  -3135216.81848  -2422179.47546  24273238.921    24273239.5194   24273246.0754
       183.0004        185.0004
 21  2  2  1 38  0.0000000  0  8G21G08G07G01G04G09G30G27
 -15814092.23348 -12158943.75446  21827706.589    21827707.1114   21827711.0184
       179.0004        180.0004
 -17100504.43548 -13295832.56947  21392494.275    21392494.3524   21392502.0474
       194.0004        194.0004
 -13690552.93148 -10646562.20847  21966461.569    21966462.6884   21966466.4764
       193.0004        193.0004
 -13901368.17448  -9897724.83446  22175986.308    22175987.2734   22175994.2114
       178.0004        179.0004
 -13014861.45348 -10130159.81546  21962599.256    21962600.1574   21962606.3954
       186.0004        185.0004
 -16748467.61949 -13030615.58047  20972162.495    20972162.9654   20972169.7864
       212.0004        211.0004
  -4856837.72747  -3477505.38345  23785360.624    23785360.0764   23785367.5474
       155.0004        158.0004
  -3026900.11848  -2337776.87946  24293851.018    24293851.0584   24293856.9964
       181.0004        180.0004
 21  2  2  1 38 30.0000000  0  8G21G08G07G01G04G09G30G27
 -15827513.81148 -12169402.12246  21825153.838    21825153.0934   21825156.8224
       179.0004        180.0004
 -17023147.59648 -13235554.51647  21407214.080    21407214.6224   21407222.0584
       194.0004        194.0004
 -13764315.91348 -10704039.85747  21952425.765    21952426.3584   21952429.9464
       192.0004        193.0004
 -13974461.33748  -9954680.52746  22162075.640    22162077.2484   22162085.8364
       177.0004        178.0004
 -12927416.96448 -10062021.27146  21979239.714    21979240.0454   21979246.6124
       186.0004        185.0004
 -16715850.59449 -13005199.72547  20978368.699    20978369.5764   20978376.7564
       211.0004        212.0004
  -4943198.18847  -3544799.26845  23768927.665    23768926.8084   23768933.2264
       156.0004        159.0004
  -2918548.38348  -2253346.94346  24314470.201    24314470.5854   24314474.5254
       178.0004        177.0004
 21  2  2  1 39  0.0000000  0  8G21G08G07G01G04G09G30G27
 -15840509.17748 -12179528.37646  21822679.837    21822679.5534   21822683.6664
       179.0004        181.0004
 -16945476.07948 -13175031.24947  21421993.760    21421994.6274   21422002.9954
       193.0004        193.0004
 -13837982.69848 -10761442.53847  21938407.570    21938407.7364   21938411.7554
       193.0004        193.0004
 -14047383.23048 -10011502.75746  22148198.909    22148200.3924   22148208.5074
       176.0004        177.0004
 -12839724.06348  -9993689.14846  21995927.184    21995927.5754   21995933.6514
       185.0004        184.0004
 -16682738.65849 -12979398.21547  20984669.950    20984670.9714   20984677.4734
       211.0004        212.0004
  -5029622.11247  -3612142.55545  23752480.201    23752480.3344   23752488.1024
       157.0004        159.0004
  -2810163.92948  -2168891.52146  24335094.559    24335094.4954   24335101.2294
       176.0004        175.0004
 21  2  2  1 39 30.0000000  0  8G21G08G07G01G04G09G30G27
 -15853076.00348 -12189320.71346  21820288.961    21820287.8244   21820292.7324
       179.0004        179.0004
 -16867492.38348 -13114264.74647  21436834.756    21436834.5244   21436842.7874
       193.0004        193.0004
 -13911550.33448 -10818767.97047  21924407.792    21924408.4684   21924413.0184
       194.0004        195.0004
 -14120130.24648 -10068188.75346  22134356.473    22134357.5224   22134365.6564
       176.0004        177.0004
 -12751785.44748  -9925165.56646  22012660.916    22012661.5174   22012668.0664
       185.0004        185.0004
 -16649133.33349 -12953212.26347  20991065.488    20991065.2484   20991072.6514
       211.0004        211.0004
  -5116107.59447  -3679533.79945  23736022.490    23736022.2404   23736030.1764
       157.0004        160.0004
  -2701749.11748  -2084412.45446  24355726.492    24355726.1474   24355730.7244
       174.0004        175.0004
 21  2  2  1 40  0.0000000  0  8G21G08G07G01G04G09G30G27
 -15865212.85748 -12198777.98546  21817979.860    21817978.5194   21817984.1624
       180.0004        181.0004
 -16789199.48748 -13053257.29047  21451732.124    21451732.7254   21451741.3404
       192.0004        192.0004
 -13985016.46849 -10876014.29947  21910428.613    21910428.6744   21910432.7014
       195.0004        196.0004
 -14192699.10548 -10124735.89746  22120547.641    22120548.8734   22120556.5334
       177.0004        178.0004
 -12663604.10348  -9856452.84946  22029440.884    22029442.0414   22029448.7004
       185.0004        185.0004
 -16615036.54849 -12926643.35047  20997552.662    20997552.9644   20997561.2164
       210.0004        211.0004
  -5202652.86447  -3746971.65445  23719553.490    23719553.5794   23719561.1394
       157.0004        158.0004
  -2593306.54448  -1999911.73546  24376361.903    24376361.7854   24376366.7924
       174.0004        174.0004
 21  2  2  1 40 30.0000000  0  8G21G08G07G01G04G09G30G27
 -15876918.61848 -12207899.34146  21815751.922    21815751.0654   21815756.5874
       180.0004        181.0004
 -16710601.02648 -12992011.73647  21466689.443    21466689.7004   21466698.1214
       192.0004        193.0004
 -14058379.39449 -10933180.20947  21896467.345    21896468.0274   21896471.9324
       196.0004        196.0004
 -14265087.32748 -10181142.28646  22106773.684    22106773.4984   22106780.7354
       178.0004        180.0004
 -12575183.77248  -9787553.89146  22046267.898    22046268.5044   22046273.5944
       185.0004        184.0004
 -16580451.08849 -12899693.63547  21004134.988    21004135.3494   21004142.0624
       210.0004        210.0004
  -5289257.07247  -3814455.45545  23703075.151    23703074.0984   23703081.0494
       156.0004        157.0004
  -2484839.39848  -1915391.94146  24397001.146    24397001.9704   24397008.1604
       174.0004        175.0004
 21  2  2  1 41  0.0000000  0  8G21G08G07G01G04G09G30G27
 -15888192.47548 -12216684.15346  21813606.659    21813606.4604   21813611.3174
       181.0004        182.0004
 -16631700.31148 -12930530.65147  21481703.865    21481703.7914   21481712.2974
       192.0004        193.0004
 -14131636.77449 -10990263.87247  21882526.667    21882527.0864   21882531.9304
       195.0004        195.0004
 -14337291.87848 -10237405.54846  22093032.248    22093033.2864   22093041.5204
       178.0004        180.0004
 -12486527.74748  -9718471.27946  22063138.363    22063138.8234   22063144.2954
       184.0004        183.0004
 -16545379.10649 -12872364.82547  21010809.062    21010809.0514   21010816.4274
       210.0004        211.0004
  -5375918.88447  -3881984.09945  23686582.871    23686582.6674   23686589.8454
       156.0004        158.0004
  -2376350.80048  -1830855.39846  24417645.598    24417646.5464   24417651.8804
       173.0004        172.0004
 21  2  2  1 41 30.0000000  0  9G21G08G07G01G04G17G09G30G27
 -15899030.55348 -12225129.41846  21811544.009    21811543.8614   21811548.3034
       181.0004        180.0004
 -16552498.33648 -12868814.82947  21496776.165    21496776.2254   21496784.1914
       192.0004        192.0004
 -14204784.29249 -11047261.94547  21868607.571    21868607.7614   21868611.9684
       195.0004        195.0004
 -14409307.55948 -10293521.64946  22079329.550    22079329.8764   22079337.7164
       179.0004        179.0004
 -12397637.19048  -9649205.92746  22080052.568    22080053.7294   22080060.4194
       184.0004        184.0004
  -1395828.16256  -1060219.81545  24228189.258                    24228196.7214
       133.0004        145.0004
 -16509820.75349 -12844657.02547  21017575.892    21017576.0454   21017582.9734
       211.0004        211.0004
  -5462634.68947  -3949554.84345  23670080.765    23670081.1574   23670088.0564
       156.0004        159.0004
  -2267841.27248  -1746302.51346  24438295.003    24438295.4534   24438301.7304
       171.0004        171.0004
 21  2  2  1 42  0.0000000  0  9G21G08G07G01G04G17G09G30G27
 -15909431.88648 -12233234.35646  21809564.737    21809564.6454   21809568.4714
       181.0004        181.0004
 -16472999.15648 -12806867.43347  21511903.563    21511903.9624   21511912.0744
       191.0004        191.0004
 -14277820.08049 -11104172.93547  21854708.485    21854709.1544   21854713.3994
       195.0004        195.0004
 -14481131.73848 -10349488.54646  22065661.813    22065662.3844   22065670.1914
       179.0004        180.0004
 -12308515.71348  -9579760.63046  22097012.978    22097012.7944   22097019.2514
       183.0004        183.0004
  -1492177.03647  -1135296.72745  24209856.433    24209854.4684   24209860.2174
       140.0004        147.0004
 -16473778.68549 -12816572.29247  21024433.914    21024434.2854   21024441.4614
       210.0004        211.0004
  -5549403.47247  -4017166.88945  23653569.710    23653570.2264   23653576.7374
       157.0004        161.0004
  -2159313.96748  -1661735.85846  24458946.185    24458947.1074   24458954.0504
       169.0004        170.0004
 21  2  2  1 42 30.0000000  0  9G21G08G07G01G04G17G09G30G27
 -15919398.07548 -12241000.20646  21807667.767    21807667.3884   21807671.5634
       180.0004        179.0004
 -16393208.07248 -12744692.56347  21527087.361    21527088.1434   21527095.4374
       190.0004        191.0004
 -14350744.64649 -11160997.26447  21840831.580    21840832.6784   21840836.6624
       195.0004        196.0004
 -14552764.09448 -10405305.95246  22052030.040    22052030.5924   22052037.6714
       179.0004        179.0004
 -12219169.21148  -9510139.99746  22114014.188    22114015.0374   22114021.9214
       183.0004        183.0004
  -1588302.20347  -1210199.28545  24191561.650    24191563.4434   24191569.1774
       141.0004        145.0004
 -16437257.79449 -12788114.46547  21031384.153    21031384.4614   21031390.9004
       210.0004        211.0004
  -5636226.40847  -4084821.11545  23637047.016    23637046.8514   23637054.8344
       159.0004        161.0004
  -2050774.41948  -1577159.59246  24479600.160    24479601.7684   24479607.4844
       171.0004        173.0004
 21  2  2  1 43  0.0000000  0  9G21G08G07G01G04G17G09G30G27
 -15928924.89848 -12248423.71346  21805855.759    21805854.9194   21805858.3304
       179.0004        179.0004
 -16313125.53248 -12682290.57647  21542326.927    21542327.2024   21542334.5694
       190.0004        191.0004
 -14423552.84549 -11217730.94047  21826976.979    21826977.4524   21826981.4244
       195.0004        195.0004
 -14624198.63948 -10460969.22146  22038435.328    22038436.1574   22038444.3854
       178.0004        178.0004
 -12129598.11348  -9440344.34846  22131059.562    22131059.3514   22131066.0244
       183.0004        183.0004
  -1684198.32847  -1284923.41045  24173313.347    24173313.6234   24173320.7694
       142.0004        146.0004
 -16400257.54949 -12759283.11147  21038425.193    21038425.1864   21038431.7944
       210.0004        211.0004
  -5723099.19747  -4152514.17345  23620515.777    23620515.5624   23620522.7114
       158.0004        159.0004
  -1942222.57648  -1492573.78546  24500256.888    24500258.0834   24500264.9614
       169.0004        170.0004
 21  2  2  1 43 30.0000000  0  9G21G08G07G01G04G17G09G30G27
 -15938010.52148 -12255503.42146  21804125.486    21804125.9094   21804128.0074
       178.0004        178.0004
 -16232754.37748 -12619663.69947  21557621.173    21557621.3964   21557629.1694
       190.0004        190.0004
 -14496241.92549 -11274371.77647  21813145.095    21813145.4044   21813149.7554
       195.0004        196.0004
 -14695431.92548 -10516475.66846  22024880.747    22024880.9204   22024889.6784
       178.0004        178.0004
 -12039805.19148  -9370375.84046  22148146.865    22148147.0644   22148153.2404
       184.0004        184.0004
  -1779863.70647  -1359467.74045  24155109.176    24155110.1134   24155114.5964
       143.0004        147.0004
 -16362779.71849 -12730079.60947  21045556.807    21045557.3724   21045564.0654
       211.0004        212.0004
  -5810019.85047  -4220244.55245  23603974.890    23603974.7744   23603982.6834
       158.0004        160.0004
  -1833660.58448  -1407980.07846  24520916.320    24520917.6264   24520923.1274
       170.0004        170.0004
 21  2  2  1 44  0.0000000  0  9G21G08G07G01G04G17G09G30G27
 -15946652.98048 -12262237.81046  21802482.289    21802481.6244   21802484.4614
       178.0004        178.0004
 -16152096.63248 -12556813.51547  21572969.491    21572970.3444   21572978.0724
       190.0004        191.0004
 -14568808.54449 -11330917.19547  21799335.633    21799336.7444   21799340.7744
       195.0004        196.0004
 -14766459.99548 -10571822.19646  22011363.381    22011364.8064   22011373.4894
       178.0004        180.0004
 -11949792.84248  -9300236.35046  22165275.164    22165275.2684   22165282.4064
       183.0004        182.0004
  -1875295.30347  -1433829.89445  24136950.144    24136949.8454   24136955.0824
       144.0004        147.0004
 -16324825.88549 -12700505.20047  21052778.674    21052779.3074   21052786.6934
       211.0004        211.0004
  -5896986.01547  -4288010.35645  23587426.130    23587427.0014   23587434.5744
       159.0004        162.0004
  -1725090.45048  -1323379.95846  24541575.610    24541576.9064   24541584.2394
       171.0004        172.0004
 21  2  2  1 44 30.0000000  0  9G21G08G07G01G04G17G09G30G27
 -15954850.90748 -12268625.79646  21800922.242    21800921.6644   21800925.0524
       179.0004        180.0004
 -16071155.86348 -12493742.78847  21588372.161    21588372.6864   21588380.9004
       190.0004        190.0004
 -14641250.24049 -11387365.26347  21785550.265    21785551.6054   21785555.4114
       196.0004        197.0004
 -14837279.60248 -10627006.30046  21997887.688    21997889.5784   21997896.0404
       179.0004        181.0004
 -11859564.02948  -9229928.19746  22182445.023    22182445.5854   22182452.2314
       182.0004        181.0004
  -1970490.76147  -1508008.06445  24118834.044    24118834.6314   24118838.9584
       143.0004        147.0004
 -16286398.02749 -12670561.40947  21060091.633    21060092.0914   21060098.9594
       211.0004        212.0004
  -5983995.88247  -4355810.24946  23570869.789    23570868.7984   23570876.3124
       160.0004        163.0004
  -1616514.66448  -1238775.51046  24562236.548    24562237.9244   24562244.9834
       167.0004        168.0004
 21  2  2  1 45  0.0000000  0  8G21G08G07G01G04G17G09G30
 -15962602.37948 -12274665.89946  21799446.138    21799445.7114   21799451.5584
       180.0004        181.0004
 -15989934.17548 -12430453.16147  21603828.380    21603829.0914   21603836.2194
       190.0004        190.0004
 -14713564.39549 -11443713.94847  21771790.126    21771790.3994   21771794.1184
       196.0004        196.0004
 -14907887.24248 -10682025.22446  21984452.305    21984452.8414   21984460.1664
       179.0004        180.0004
 -11769121.62148  -9159453.60846  22199657.194    22199656.4084   22199662.7604
       182.0004        182.0004
  -2065447.87247  -1582000.53645  24100764.373    24100765.3574   24100768.9834
       144.0004        147.0004
 -16247498.07649 -12640249.76447  21067494.276    21067494.4004   21067501.5254
       211.0004        211.0004
  -6071047.62647  -4423642.75445  23554303.736    23554304.2674   23554310.5964
       160.0004        162.0004
 21  2  2  1 45 30.0000000  0  8G21G08G07G01G04G17G09G30
 -15969906.12348 -12280357.12246  21798056.136    21798056.1024   21798061.8004
       181.0004        182.0004
 -15908434.67548 -12366947.04947  21619337.527    21619338.1324   21619344.5374
       190.0004        191.0004
 -14785748.18549 -11499961.06247  21758053.110    21758053.8944   21758057.8094
       195.0004        195.0004
 -14978279.54948 -10736876.36246  21971056.887    21971057.2394   21971064.8164
       180.0004        180.0004
 -11678468.59548  -9088814.89746  22216906.776    22216907.2584   22216912.9254
       183.0004        182.0004
  -2160164.77447  -1655805.81445  24082740.271    24082739.7724   24082746.2634
       144.0004        148.0004
 -16208128.16849 -12609571.92047  21074985.740    21074986.0474   21074993.1944
       211.0004        211.0004
  -6158139.35047  -4491506.43646  23537730.928    23537730.8724   23537738.1364
       162.0004        164.0004
 21  2  2  1 46  0.0000000  0  8G21G08G07G01G04G17G09G30
 -15976762.17948 -12285699.48846  21796752.111    21796751.7974   21796756.5824
       182.0004        182.0004
 -15826661.94548 -12303228.03247  21634898.742    21634898.6444   21634905.6894
       190.0004        190.0004
 -14857800.69049 -11556105.87747  21744341.617    21744342.7904   21744346.5464
       195.0004        196.0004
 -15048454.66648 -10791558.24046  21957702.119    21957703.6614   21957711.7304
       179.0004        181.0004
 -11587609.38948  -9018015.51746  22234196.531    22234196.9254   22234203.9134
       182.0004        181.0004
  -2254640.49247  -1729423.18045  24064762.330    24064762.8524   24064767.2194
       146.0004        150.0004
 -16168291.85849 -12578530.64047  21082565.192    21082565.9754   21082573.7864
       209.0004        209.0004
  -6245270.72347  -4559401.00846  23521151.274    23521150.8294   23521157.4914
       163.0004        165.0004
 21  2  2  1 46 30.0000000  0  8G21G08G07G01G04G17G09G30
 -15983169.43948 -12290692.14046  21795532.975    21795532.5354   21795537.6724
       182.0004        183.0004
 -15744619.23348 -12239298.63047  21650510.939    21650510.9934   21650518.0774
       189.0004        190.0004
 -14929719.70749 -11612146.65547  21730656.673    21730657.4504   21730661.2514
       196.0004        196.0004
 -15118409.86148 -10846068.76846  21944391.458    21944392.0364   21944399.1284
       180.0004        182.0004
 -11496547.54148  -8947058.23746  22251525.299    22251525.5024   22251532.0834
       181.0004        179.0004
  -2348873.44547  -1802851.38745  24046829.252    24046829.4384   24046834.9844
       149.0004        152.0004
 -16127991.89749 -12547128.07247  21090235.833    21090235.9504   21090242.2884
       209.0004        210.0004
  -6332440.50647  -4627325.48146  23504563.283    23504563.0494   23504569.8964
       164.0004        165.0004
 21  2  2  1 47  0.0000000  0  8G21G08G07G01G04G17G09G30
 -15989125.79248 -12295333.45446  21794400.307    21794399.4774   21794403.7784
       182.0004        182.0004
 -15662308.57348 -12175160.47147  21666173.935    21666174.4104   21666180.9354
       189.0004        189.0004
 -15001501.36149 -11668080.41347  21716997.164    21716997.6944   21717001.7364
       196.0004        196.0004
 -15188140.65048 -10900404.44146  21931121.785    21931121.5594   21931129.6614
       180.0004        181.0004
 -11405284.85248  -8875944.45646  22268892.004    22268892.5494   22268897.6464
       179.0004        178.0004
  -2442860.22147  -1876087.74145  24028944.132    24028944.4284   24028950.7054
       150.0004        154.0004
 -16087229.26649 -12515365.00047  21097992.419    21097992.7874   21097999.6984
       210.0004        211.0004
  -6419645.67148  -4695277.55946  23487968.501    23487968.4134   23487975.1674
       165.0004        166.0004
 21  2  2  1 47 30.0000000  0  8G21G08G07G01G04G17G09G30
 -15994628.81848 -12299621.52046  21793352.122    21793351.7234   21793356.3744
       182.0004        181.0004
 -15579732.23248 -12110815.26447  21681887.210    21681888.1934   21681894.7074
       189.0004        189.0004
 -15073142.72249 -11723904.84647  21703364.083    21703364.9284   21703369.0184
       197.0004        197.0004
 -15257643.14948 -10954562.23946  21917895.425    21917896.7864   21917904.5384
       181.0004        181.0004
 -11313823.76448  -8804676.09446  22286295.898    22286296.2074   22286303.2234
       179.0004        178.0004
  -2536598.28447  -1949130.28045  24011106.960    24011107.0294   24011113.3204
       154.0004        158.0004
 -16046005.57849 -12483242.65747  21105836.428    21105837.1274   21105844.0214
       210.0004        211.0004
  -6506883.84448  -4763255.35846  23471367.256    23471367.1834   23471373.8314
       165.0004        166.0004
 21  2  2  1 48  0.0000000  0  8G21G08G07G01G04G17G09G30
 -15999678.29348 -12303556.18846  21792389.845    21792390.5374   21792394.6944
       181.0004        180.0004
 -15496893.58748 -12046265.66947  21697651.444    21697651.3774   21697659.0564
       189.0004        190.0004
 -15144641.82049 -11779618.42447  21689759.513    21689759.7834   21689762.6644
       197.0004        197.0004
 -15326914.75648 -11008540.09446  21904714.191    21904714.8134   21904722.6674
       182.0004        183.0004
 -11222168.01848  -8733256.03546  22303736.446    22303737.0994   22303744.2304
       177.0004        176.0004
  -2630086.54647  -2021978.17245  23993316.639    23993317.4764   23993322.1784
       157.0004        159.0004
 -16004323.76849 -12450763.32547  21113768.551    21113768.8764   21113775.4094
       210.0004        209.0004
  -6594153.83748  -4831257.94346  23454759.149    23454759.4854   23454767.0674
       165.0004        165.0004
 21  2  2  1 48 30.0000000  0  8G21G08G07G01G04G17G09G30
 -16004271.66048 -12307135.44646  21791516.619    21791517.0994   21791519.7284
       181.0004        181.0004
 -15413795.19849 -11981513.68947  21713464.706    21713464.5664   21713472.5514
       206.0004        208.0004
 -15215995.19449 -11835218.45647  21676180.457    21676180.8104   21676184.8814
       197.0004        197.0004
 -15395951.18948 -11062334.70246  21891576.022    21891576.4524   21891585.5094
       182.0004        183.0004
 -11130319.64448  -8661685.88146  22321216.642    22321216.3164   22321223.0504
       177.0004        178.0004
  -2723321.48247  -2094628.71645  23975574.384    23975575.4824   23975580.6884
       156.0004        157.0004
 -15962185.06849 -12417927.99047  21121787.760    21121788.1704   21121794.4954
       209.0004        210.0004
  -6681452.84447  -4899283.14345  23438146.145    23438146.6964   23438153.8104
       162.0004        162.0004
 21  2  2  1 49  0.0000000  0  8G21G08G07G01G04G17G09G30
 -16008408.06048 -12310358.59846  21790729.454    21790729.3304   21790733.7844
       181.0004        182.0004
 -15330440.09449 -11916561.66347  21729326.529    21729326.7404   21729334.1304
       209.0004        207.0004
 -15287200.59949 -11890703.18647  21662629.916    21662631.0384   21662635.3344
       197.0004        198.0004
 -15464749.67348 -11115943.90646  21878484.565    21878484.6564   21878492.9174
       182.0004        183.0004
 -11038282.11248  -8589968.34146  22338730.180    22338730.8334   22338736.5474
       178.0004        178.0004
  -2816301.46647  -2167080.58045  23957881.236    23957880.7964   23957886.8264
       153.0004        155.0004
 -15919592.23149 -12384738.76747  21129892.950    21129893.1264   21129899.6724
       210.0004        211.0004
  -6768779.54747  -4967329.91145  23421528.170    23421528.5434   23421535.7434
       160.0004        161.0004
 21  2  2  1 49 30.0000000  0  8G21G08G07G01G04G17G09G30
 -16012087.27848 -12313225.51546  21790029.353    21790029.0104   21790034.0834
       182.0004        183.0004
 -15246831.94849 -11851412.45548  21745236.645    21745236.5844   21745243.9984
       218.0004        221.0004
 -15358256.01549 -11946071.03747  21649109.110    21649109.8434   21649113.1904
       197.0004        198.0004
 -15533307.65648 -11169365.71546  21865438.481    21865438.8314   21865446.5624
       182.0004        183.0004
 -10946059.23448  -8518106.36646  22356279.417    22356280.4844   22356285.2114
       177.0004        176.0004
  -2909025.40347  -2239332.92245  23940236.015    23940236.2424   23940241.0354
       153.0004        155.0004
 -15876548.34049 -12351198.07347  21138083.274    21138083.6734   21138091.2824
       210.0004        210.0004
  -6856132.86647  -5035397.43146  23404906.905    23404907.1944   23404914.1714
       161.0004        164.0004
 21  2  2  1 50  0.0000000  0  8G21G08G07G01G04G17G09G30
 -16015308.34648 -12315735.44046  21789416.581    21789416.5194   21789421.3694
       183.0004        184.0004
 -15162973.85149 -11786068.48448  21761193.570    21761194.2574   21761201.4414
       220.0004        220.0004
 -15429159.55449 -12001320.53647  21635616.654    21635616.9004   21635620.4174
       197.0004        197.0004
 -15601622.32848 -11222597.91646  21852438.563    21852439.4484   21852446.7224
       181.0004        182.0004
 -10853654.52748  -8446102.70546  22373863.294    22373863.4644   22373869.8774
       176.0004        176.0004
  -3001491.73847  -2311384.54245  23922641.018    23922641.2904   23922645.9894
       155.0004        158.0004
 -15833056.14849 -12317308.06347  21146359.859    21146360.5824   21146366.9814
       210.0004        210.0004
  -6943511.32547  -5103484.52546  23388280.289    23388279.9054   23388287.2234
       164.0004        166.0004
 21  2  2  1 50 30.0000000  0  8G21G08G07G01G04G17G09G30
 -16018070.09748 -12317887.46246  21788891.437    21788891.0814   21788896.7794
       184.0004        185.0004
 -15078869.68249 -11720532.78048  21777199.009    21777199.0424   21777206.0984
       221.0004        221.0004
 -15499908.49949 -12056449.58547  21622152.832    21622153.8204   21622157.8444
       197.0004        198.0004
 -15669690.40448 -11275637.96446  21839485.586    21839486.3684   21839494.4384
       182.0004        183.0004
 -10761070.93948  -8373959.65546  22391480.883    22391482.0274   22391488.0654
       176.0004        176.0004
  -3093698.28147  -2383233.70945  23905094.861    23905095.2014   23905099.5314
       156.0004        158.0004
 -15789117.87449 -12283070.45747  21154721.419    21154721.6374   21154728.1544
       210.0004        211.0004
  -7030913.03047  -5171589.77046  23371647.945    23371648.3524   23371653.4864
       164.0004        163.0004
 21  2  2  1 51  0.0000000  0  8G21G08G07G01G04G17G09G30
 -16020370.76048 -12319680.16346  21788454.041    21788453.8174   21788459.9474
       186.0004        187.0004
 -14994521.18949 -11654806.66948  21793249.485    21793249.8524   21793256.9954
       222.0004        221.0004
 -15570499.52349 -12111455.56647  21608720.059    21608720.7364   21608724.9224
       198.0004        198.0004
 -15737507.99748 -11328482.82546  21826579.803    21826580.5724   21826589.2574
       182.0004        183.0004
 -10668310.87948  -8301679.10846  22409133.898    22409134.1494   22409140.4054
       177.0004        177.0004
  -3185642.44547  -2454878.42245  23887597.275    23887597.7594   23887602.0164
       154.0004        156.0004
 -15744735.35949 -12248486.67647  21163166.635    21163167.1124   21163174.1864
       210.0004        211.0004
  -7118335.57947  -5239711.24446  23355010.995    23355011.2374   23355019.3024
       161.0004        163.0004
 21  2  2  1 51 30.0000000  0  8G21G08G07G01G04G17G09G30
 -16022208.45148 -12321112.12947  21788104.914    21788103.5874   21788110.7754
       187.0004        188.0004
 -14909930.54149 -11588891.89248  21809347.648    21809347.3254   21809354.0294
       221.0004        220.0004
 -15640929.33649 -12166335.94747  21595317.761    21595318.0884   21595322.2514
       197.0004        197.0004
 -15805071.21248 -11381129.48546  21813723.536    21813724.4324   21813731.9824
       182.0004        184.0004
 -10575376.76948  -8229262.93546  22426818.311    22426818.7024   22426825.0964
       176.0004        176.0004
  -3277321.52047  -2526316.56945  23870150.606    23870151.1164   23870156.7234
       156.0004        159.0004
 -15699910.32749 -12213558.09547  21171696.528    21171697.0084   21171703.8444
       209.0004        209.0004
  -7205776.40947  -5307846.92246  23338372.204    23338371.9434   23338379.2244
       161.0004        163.0004
 21  2  2  1 52  0.0000000  0  8G21G08G07G01G04G17G09G30
 -16023582.72548 -12322182.97746  21787842.319    21787841.5464   21787848.7454
       187.0004        187.0004
 -14825101.78349 -11522791.56348  21825489.777    21825489.6864   21825496.6334
       221.0004        220.0004
 -15711196.19949 -12221089.33947  21581946.377    21581947.1324   21581951.2044
       198.0004        199.0004
 -15872377.44048 -11433575.88546  21800915.614    21800915.4874   21800924.6834
       183.0004        185.0004
 -10482272.22748  -8156713.95646  22444535.585    22444536.3494   22444542.2154
       176.0004        176.0004
  -3368733.91447  -2597546.86745  23852755.088    23852755.4824   23852762.2474
       155.0004        157.0004
 -15654645.77649 -12178287.01647  21180310.123    21180310.3574   21180317.3314
       209.0004        208.0004
  -7293234.23147  -5375995.85446  23321730.222    23321729.3964   23321736.9074
       164.0004        166.0004
 21  2  2  1 52 30.0000000  0  8G21G08G07G01G04G17G09G30
 -16024491.43248 -12322891.04046  21787668.958    21787668.5304   21787676.0564
       187.0004        187.0004
 -14740036.91349 -11456507.25948  21841676.283    21841676.3824   21841684.0424
       220.0004        220.0004
 -15781296.33849 -12275712.81947  21568607.077    21568607.6794   21568611.8064
       199.0004        199.0004
 -15939422.47348 -11485818.76546  21788156.921    21788157.8274   21788166.0274
       184.0004        184.0004
 -10388999.41648  -8084033.84646  22462283.974    22462285.0244   22462290.6734
       176.0004        176.0004
  -3459877.37247  -2668567.57345  23835411.050    23835412.0724   23835416.2444
       152.0004        154.0004
 -15608943.04849 -12142674.51247  21189006.792    21189007.4894   21189014.5134
       209.0004        210.0004
  -7380706.24747  -5444155.84046  23305083.686    23305084.4474   23305091.5094
       164.0004        165.0004
 21  2  2  1 53  0.0000000  0  8G21G08G07G01G04G17G09G30
 -16024934.07648 -12323235.93646  21787585.248    21787584.9444   21787591.0084
       186.0004        186.0004
 -14654738.96849 -11390041.33548  21857908.134    21857908.2624   21857915.5904
       220.0004        219.0004
 -15851227.81849 -12330204.87747  21555299.893    21555300.2844   21555304.1004
       199.0004        198.0004
 -16006203.78048 -11537856.12946  21775448.668    21775448.9354   21775457.6784
       184.0004        184.0004
 -10295562.06648  -8011225.52546  22480065.857    22480066.3134   22480071.4204
       176.0004        177.0004
  -3550749.96447  -2739377.26545  23818118.926    23818119.5894   23818124.3314
       152.0004        155.0004
 -15562805.45449 -12106723.14747  21197787.030    21197787.3104   21197793.6304
       209.0004        208.0004
  -7468191.25748  -5512325.96746  23288436.440    23288436.8784   23288443.5914
       165.0004        166.0004
 21  2  2  1 53 30.0000000  0  8G21G08G07G01G04G17G09G30
 -16024909.24948 -12323216.57046  21787589.369    21787589.3674   21787595.3594
       185.0004        185.0004
 -14569211.08549 -11323396.24248  21874183.369    21874183.8384   21874190.8694
       219.0004        219.0004
 -15920987.39249 -12384562.99847  21542025.175    21542025.7354   21542029.3934
       199.0004        200.0004
 -16072717.57748 -11589685.05746  21762791.773    21762792.5134   21762800.9324
       184.0004        184.0004
 -10201962.64148  -7938290.93246  22497876.745    22497876.7454   22497883.1814
       177.0004        177.0004
  -3641349.64047  -2809974.29345  23800879.237    23800879.3414   23800885.6244
       155.0004        159.0004
 -15516234.73449 -12070434.28747  21206648.645    21206649.2444   21206656.3304
       208.0004        209.0004
  -7555686.77947  -5580504.27546  23271784.133    23271784.9804   23271792.6754
       164.0004        164.0004
 21  2  2  1 54  0.0000000  0  8G21G08G07G01G04G17G09G30
 -16024415.74548 -12322832.01546  21787682.863    21787682.8594   21787688.2594
       184.0004        184.0004
 -14483455.58249 -11256573.76648  21890502.011    21890502.3864   21890509.6144
       219.0004        218.0004
 -15990572.44349 -12438785.10747  21528782.861    21528783.1124   21528787.5254
       199.0004        199.0004
 -16138960.30448 -11641302.75546  21750187.446    21750187.6424   21750194.8124
       184.0004        186.0004
 -10108203.90848  -7865232.20046  22515718.251    22515718.7964   22515725.2024
       177.0004        177.0004
  -3731674.08847  -2880356.85445  23783689.760    23783690.2184   23783697.4994
       156.0004        158.0004
 -15469233.13649 -12033809.66647  21215592.299    21215593.0564   21215600.5944
       209.0004        209.0004
  -7643190.56948  -5648689.03446  23255134.990    23255134.5984   23255142.3054
       165.0004        169.0004
 21  2  2  1 54 30.0000000  0  8G21G08G07G01G04G17G09G30
 -16023453.71748 -12322082.35846  21787865.896    21787865.9194   21787871.6114
       184.0004        183.0004
 -14397476.77049 -11189577.28948  21906863.727    21906863.8334   21906871.0874
       219.0004        219.0004
 -16059981.53549 -12492870.10347  21515574.620    21515575.4614   21515579.7294
       199.0004        199.0004
 -16204930.08948 -11692707.76946  21737632.969    21737632.8804   21737641.3304
       184.0004        184.0004
 -10014290.20848  -7792052.70646  22533589.645    22533590.4634   22533595.7254
       177.0004        178.0004
  -3821722.35747  -2950524.24145  23766554.333    23766555.3674   23766561.1064
       155.0004        158.0004
 -15421804.47049 -11996852.24847  21224618.503    21224618.5724   21224625.4204
       208.0004        209.0004
  -7730702.01348  -5716879.73046  23238482.049    23238482.0674   23238489.8654
       168.0004        169.0004
 21  2  2  1 55  0.0000000  0  8G21G08G07G01G04G17G09G30
 -16022021.87148 -12320966.62946  21788138.951    21788138.8994   21788143.6004
       183.0004        182.0004
 -14311276.94849 -11122408.60748  21923267.498    21923267.5294   21923274.5604
       219.0004        219.0004
 -16129211.61749 -12546815.62347  21502401.288    21502401.4714   21502406.1774
       200.0004        200.0004
 -16270623.33448 -11743897.30046  21725131.327    21725132.4054   21725140.1584
       184.0004        185.0004
  -9920224.25748  -7718754.57446  22551489.763    22551489.9274   22551495.9884
       177.0004        177.0004
  -3911492.44247  -3020474.92545  23749472.780    23749473.1264   23749477.6744
       155.0004        157.0004
 -15373950.78649 -11959563.68247  21233724.739    21233724.9664   21233731.7124
       208.0004        209.0004
  -7818218.91348  -5785074.69146  23221826.808    23221826.3194   23221834.7104
       166.0004        166.0004
 21  2  2  1 55 30.0000000  0  8G21G08G07G01G04G17G09G30
 -16020118.94648 -12319483.82346  21788501.026    21788500.5884   21788505.4254
       182.0004        182.0004
 -14224858.94349 -11055069.90048  21939711.907    21939712.1304   21939719.0374
       220.0004        219.0004
 -16198259.52749 -12600619.18947  21489261.014    21489261.8824   21489266.0644
       200.0004        200.0004
 -16336036.35748 -11794868.47346  21712684.581    21712684.9404   21712692.3344
       185.0004        186.0004
  -9826008.59648  -7645339.78446  22569418.816    22569418.7854   22569424.2094
       176.0004        175.0004
  -4000981.86747  -3090206.90445  23732442.781    23732443.2254   23732448.2544
       154.0004        156.0004
 -15325674.20849 -11921945.56247  21242911.751    21242911.5924   21242918.7804
       208.0004        209.0004
  -7905738.76848  -5853271.98646  23205173.232    23205173.3324   23205180.7844
       166.0004        167.0004
 21  2  2  1 56  0.0000000  0  8G21G08G07G01G04G17G09G30
 -16017743.27948 -12317632.64146  21788954.718    21788953.3684   21788956.8604
       181.0004        181.0004
 -14138225.68049 -10987563.45648  21956197.170    21956197.5944   21956204.2734
       219.0004        217.0004
 -16267122.51949 -12654278.65647  21476158.027    21476158.3994   21476162.1744
       200.0004        200.0004
 -16401165.61248 -11845618.53946  21700291.222    21700291.3974   21700299.2494
       185.0004        186.0004
  -9731645.95148  -7571810.44346  22587375.313    22587375.0074   22587382.2544
       175.0004        175.0004
  -4090188.64647  -3159718.66545  23715466.167    23715467.4494   23715472.6014
       153.0004        155.0004
 -15276976.86549 -11883999.58047  21252178.607    21252178.8414   21252185.6644
       208.0004        209.0004
  -7993259.29848  -5921469.77846  23188518.186    23188518.6154   23188525.8514
       168.0004        171.0004
 21  2  2  1 56 30.0000000  0  8G21G08G07G01G04G17G09G30
 -16014893.67848 -12315412.16946  21789495.980    21789495.5974   21789499.2024
       181.0004        180.0004
 -14051379.22749 -10919890.89548  21972723.504    21972724.2004   21972730.3944
       218.0004        216.0004
 -16335797.15849 -12707791.36947  21463090.075    21463089.7354   21463093.4484
       200.0004        200.0004
 -16466007.49448 -11896144.67246  21687951.479    21687951.6784   21687959.6814
       186.0004        186.0004
  -9637138.97148  -7498168.65646  22605359.135    22605359.1024   22605365.4624
       176.0004        176.0004
  -4179110.33447  -3229008.30645  23698546.420    23698546.8964   23698550.6554
       154.0004        157.0004
 -15227860.94049 -11845727.44347  21261525.314    21261525.3624   21261531.7884
       208.0004        207.0004
  -8080778.19848  -5989666.32446  23171864.805    23171864.7844   23171871.6594
       169.0004        170.0004
 21  2  2  1 57  0.0000000  0  8G21G08G07G01G04G17G09G30
 -16011569.75948 -12312822.09046  21790128.136    21790128.5664   21790130.8144
       180.0004        180.0004
 -13964323.23249 -10852055.05848  21989290.648    21989290.2814   21989297.0694
       217.0004        217.0004
 -16404281.27949 -12761155.61547  21450056.382    21450056.9754   21450061.4314
       199.0004        199.0004
 -16530559.14048 -11946444.63846  21675666.660    21675668.2694   21675676.0174
       185.0004        185.0004
  -9542491.04648  -7424417.02946  22623369.818    22623369.3464   22623376.3424
       175.0004        176.0004
  -4267744.84447  -3298074.15245  23681679.729    23681680.8574   23681685.0144
       158.0004        161.0004
 -15178329.31949 -11807131.37847  21270950.376    21270950.8614   21270957.3464
       208.0004        208.0004
  -8168293.78648  -6057860.29546  23155211.006    23155211.1274   23155217.8084
       170.0004        172.0004
 21  2  2  1 57 30.0000000  0  8G21G08G07G01G04G17G09G30
 -16007771.96348 -12309862.77546  21790850.716    21790850.6084   21790853.4314
       180.0004        179.0004
 -13877061.66649 -10784059.04448  22005895.895    22005895.5854   22005902.6844
       218.0004        217.0004
 -16472573.70449 -12814370.49247  21437061.290    21437061.9504   21437065.9764
       199.0004        200.0004
 -16594818.68848 -11996517.00246  21663439.783    21663440.6734   21663447.8664
       185.0004        186.0004
  -9447706.40248  -7350558.87646  22641406.381    22641407.4394   22641413.6774
       175.0004        176.0004
  -4356092.22247  -3366916.29545  23664867.633    23664867.8954   23664872.6794
       157.0004        158.0004
 -15128385.89249 -11768214.42047  21280454.361    21280454.5554   21280461.2694
       207.0004        207.0004
  -8255805.36948  -6126051.12046  23138558.633    23138558.2424   23138565.1584
       171.0004        172.0004
 21  2  2  1 58  0.0000000  0  8G21G08G07G01G04G17G09G30
 -16003498.85648 -12306533.07146  21791663.646    21791663.6984   21791667.1194
       180.0004        180.0004
 -13789597.35249 -10715905.04148  22022538.895    22022539.1454   22022546.5274
       218.0004        217.0004
 -16540671.12249 -12867433.41047  21424103.079    21424103.3054   21424107.6484
       200.0004        200.0004
 -16658782.44148 -12046358.89146  21651268.032    21651268.4414   21651276.4454
       186.0004        187.0004
  -9352787.72948  -7276596.29046  22659469.526    22659469.9954   22659476.3664
       175.0004        175.0004
  -4444150.28247  -3435532.99545  23648111.330    23648111.6654   23648114.2494
       155.0004        157.0004
 -15078032.77749 -11728978.23947  21290035.449    21290036.0324   21290043.0624
       206.0004        207.0004
  -8343310.51548  -6194236.92346  23121906.297    23121906.3844   23121913.3504
       171.0004        172.0004
 21  2  2  1 58 30.0000000  0  8G21G08G07G01G04G17G09G30
 -15998748.56148 -12302831.54046  21792567.570    21792567.4414   21792571.3854
       180.0004        180.0004
 -13701932.47049 -10647594.74348  22039221.662    22039221.4534   22039228.7484
       218.0004        217.0004
 -16608569.91649 -12920341.55647  21411181.957    21411182.5384   21411186.9854
       200.0004        201.0004
 -16722446.33548 -12095967.08946  21639151.836    21639152.7504   21639160.8634
       186.0004        185.0004
  -9257737.12248  -7202530.89346  22677556.583    22677557.4424   22677564.4284
       175.0004        173.0004
  -4531916.05647  -3503921.95545  23631409.930    23631410.4444   23631414.5144
       156.0004        159.0004
 -15027271.65249 -11689424.09947  21299695.232    21299695.4024   21299702.6714
       206.0004        207.0004
  -8430806.32148  -6262415.46146  23105256.881    23105256.7214   23105263.7754
       171.0004        171.0004
 21  2  2  1 59  0.0000000  0  8G21G08G07G01G04G17G09G30
 -15993520.29248 -12298757.57746  21793561.630    21793562.5294   21793565.5864
       180.0004        179.0004
 -13614068.81949 -10579129.57648  22055941.766    22055941.7074   22055948.3154
       217.0004        217.0004
 -16676267.26749 -12973092.75247  21398299.437    21398299.7904   21398304.1614
       200.0004        200.0004
 -16785806.79548 -12145338.88446  21627095.483    21627096.6144   21627103.6934
       186.0004        186.0004
  -9162557.27048  -7128364.79746  22695669.224    22695669.2564   22695675.3144
       173.0004        173.0004
  -4619387.11847  -3572081.27245  23614763.026    23614764.1084   23614770.4614
       157.0004        160.0004
 -14976104.79149 -11649553.83647  21309432.102    21309432.7724   21309439.4214
       206.0004        207.0004
  -8518290.45648  -6330584.92646  23088608.141    23088608.2994   23088615.0014
       169.0004        169.0004
 21  2  2  1 59 30.0000000  0  8G21G08G07G01G04G17G09G30
 -15987812.13548 -12294309.64646  21794647.990    21794648.4484   21794652.3064
       180.0004        181.0004
 -13526008.86649 -10510511.42648  22072698.544    22072698.7754   22072705.4354
       217.0004        216.0004
 -16743759.56549 -13025684.14847  21385456.061    21385456.8814   21385460.5464
       200.0004        201.0004
 -16848859.97448 -12194471.20746  21615097.439    21615097.7654   21615105.3954
       186.0004        187.0004
  -9067250.48048  -7054099.77446  22713805.254    22713805.6044   22713811.9084
       173.0004        174.0004
  -4706561.22747  -3640009.15845  23598175.404    23598176.0974   23598181.7224
       157.0004        159.0004
 -14924534.12849 -11609368.90147  21319245.658    21319246.1774   21319253.0464
       206.0004        206.0004
  -8605760.15248  -6398743.14746  23071963.394    23071963.8994   23071970.3254
       168.0004        169.0004
 21  2  2  2  0  0.0000000  0  8G21G08G07G01G04G17G09G30
 -15981624.15148 -12289487.83546  21795826.391    21795826.7004   21795830.5974
       180.0004        181.0004
 -13437756.72049 -10441743.52348  22089492.166    22089492.3784   22089499.9084
       216.0004        216.0004
 -16811045.19649 -13078114.51547  21372653.043    21372652.6264   21372656.8434
       201.0004        201.0004
 -16911603.57848 -12243362.32247  21603157.049    21603158.0014   21603165.9394
       187.0004        188.0004
  -8971820.63148  -6979738.86646  22731964.467    22731965.0124   22731972.3054
       172.0004        172.0004
  -4793437.50347  -3707704.97545  23581643.776    23581644.4284   23581649.7154
       157.0004        159.0004
 -14872563.15449 -11568872.04647  21329135.491    21329136.0584   21329142.7734
       206.0004        207.0004
  -8693214.24148  -6466889.17246  23055322.067    23055321.6634   23055329.4564
       170.0004        171.0004
 21  2  2  2  0 30.0000000  0  8G21G08G07G01G04G17G09G30
 -15974955.55848 -12284291.50846  21797096.089    21797094.7524   21797100.0214
       181.0004        182.0004
 -13349314.84949 -10372827.78448  22106322.157    22106322.4374   22106329.5624
       217.0004        216.0004
 -16878121.12049 -13130381.45547  21359887.857    21359888.2364   21359892.8474
       201.0004        201.0004
 -16974034.00148 -12292009.38547  21591278.008    21591278.7614   21591284.7674
       188.0004        188.0004
  -8876270.31448  -6905284.11146  22750147.653    22750148.0364   22750153.7144
       170.0004        170.0004
  -4880013.77247  -3775167.00845  23565167.741    23565168.7144   23565173.9974
       156.0004        157.0004
 -14820194.12449 -11528065.01147  21339101.740    21339101.7654   21339108.1054
       206.0004        207.0004
  -8780650.28148  -6535021.13246  23038683.412    23038683.8054   23038689.8584
       170.0004        172.0004
 21  2  2  2  1  0.0000000  0  8G21G08G07G01G04G17G09G30
 -15967806.20748 -12278720.57946  21798456.027    21798455.6854   21798460.7004
       182.0004        182.0004
 -13260686.86149 -10303767.02048  22123187.757    22123187.7004   22123195.0124
       216.0004        216.0004
 -16944985.29649 -13182483.41347  21347164.016    21347164.8904   21347169.1104
       201.0004        202.0004
 -17036148.75048 -12340410.47647  21579457.940    21579458.4234   21579464.9844
       188.0004        189.0004
  -8780603.26848  -6830738.38046  22768352.360    22768352.9894   22768358.0894
       168.0004        168.0004
  -4966288.51347  -3842394.09145  23548751.031    23548751.2974   23548756.2554
       154.0004        156.0004
 -14767430.35649 -11486950.38547  21349141.592    21349142.3874   21349149.0374
       206.0004        206.0004
  -8868066.85648  -6603137.95046  23022049.443    23022049.2664   23022056.1154
       171.0004        173.0004
 21  2  2  2  1 30.0000000  0  8G21G08G07G01G04G17G09G30
 -15960176.15448 -12272775.06946  21799908.105    21799908.3054   21799912.2914
       183.0004        182.0004
 -13171876.10849 -10234563.84148  22140088.095    22140088.1454   22140094.8784
       216.0004        216.0004
 -17011635.36149 -13234418.53447  21334482.272    21334482.2554   21334485.9804
       202.0004        202.0004
 -17097945.20848 -12388563.55246  21567697.538    21567697.8544   21567705.1874
       188.0004        187.0004
  -8684822.99948  -6756104.40846  22786579.466    22786580.4834   22786584.5564
       168.0004        170.0004
  -5052260.70147  -3909385.40945  23532391.184    23532391.7584   23532394.8544
       154.0004        156.0004
 -14714275.06549 -11445530.68347  21359256.388    21359257.0214   21359264.0554
       205.0004        205.0004
  -8955462.39848  -6671238.38246  23005418.458    23005418.0884   23005424.6404
       172.0004        174.0004
 21  2  2  2  2  0.0000000  0  8G21G08G07G01G04G17G09G30
 -15952063.14748 -12266453.22746  21801451.853    21801451.3454   21801456.5894
       183.0004        183.0004
 -13082884.67349 -10165219.86648  22157022.213    22157022.4064   22157029.2514
       215.0004        214.0004
 -17078067.57349 -13286183.88047  21321839.410    21321840.0194   21321844.2094
       202.0004        202.0004
 -17159419.15248 -12436465.31147  21555998.939    21555999.5164   21556007.7804
       187.0004        188.0004
  -8588931.48248  -6681383.74946  22804826.257    22804826.9794   22804832.8384
       169.0004        171.0004
  -5137927.65947  -3976138.91245  23516089.024    23516089.5704   23516093.5234
       154.0004        157.0004
 -14660729.81249 -11403807.11247  21369446.538    21369446.6104   21369453.0114
       205.0004        205.0004
  -9042833.80648  -6739320.01146  22988791.120    22988791.2214   22988798.2824
       172.0004        171.0004
 21  2  2  2  2 30.0000000  0  9G21G28G08G07G01G04G17G09G30
 -15943466.34148 -12259754.41146  21803087.745    21803087.2944   21803092.8244
       183.0004        184.0004
  -1323582.11156  -1020194.30645  23728754.859                    23728756.4354
       118.0004        134.0004
 -12993714.60549 -10095736.70848  22173990.696    22173990.9284   22173997.9094
       215.0004        215.0004
 -17144278.64449 -13337776.92247  21309239.889    21309240.5964   21309244.4494
       202.0004        202.0004
 -17220566.84548 -12484112.85047  21544364.445    21544364.8954   21544372.0684
       188.0004        188.0004
  -8492931.10548  -6606578.30146  22823095.186    22823094.7314   22823100.7554
       169.0004        170.0004
  -5223287.10147  -4042652.74245  23499847.685    23499847.3774   23499851.6754
       155.0004        157.0004
 -14606796.74249 -11361781.35347  21379709.955    21379710.1144   21379716.9214
       205.0004        205.0004
  -9130178.42848  -6807380.75946  22972169.863    22972170.5454   22972178.1144
       171.0004        172.0004
 21  2  2  2  3  0.0000000  0  9G21G28G08G07G01G04G17G09G30
 -15934385.23848 -12252678.22546  21804815.845    21804815.4334   21804820.4154
       184.0004        185.0004
  -1338883.56946  -1032117.42845  23725839.854    23725841.1554   23725852.5394
       132.0004        140.0004
 -12904369.27749 -10026116.97648  22190992.527    22190992.8774   22190999.7634
       215.0004        214.0004
 -17210266.69649 -13389196.19247  21296683.601    21296683.7644   21296687.9274
       202.0004        203.0004
 -17281385.67548 -12531504.15346  21532790.647    21532790.2744   21532798.0684
       187.0004        187.0004
  -8396825.40848  -6531690.77746  22841382.760    22841383.2304   22841389.0694
       168.0004        169.0004
  -5308337.43947  -4108925.75545  23483662.756    23483662.7534   23483666.9064
       157.0004        161.0004
 -14552479.14149 -11319455.96247  21390045.609    21390045.7154   21390052.7564
       205.0004        205.0004
  -9217494.64148  -6875419.35246  22955553.397    22955552.5974   22955562.4534
       171.0004        171.0004
 21  2  2  2  3 30.0000000  0  9G21G28G08G07G01G04G17G09G30
 -15924820.91148 -12245225.49446  21806635.436    21806634.9094   21806640.9214
       184.0004        184.0004
  -1354149.44746  -1044012.95145  23722936.153    23722935.5424   23722944.6844
       134.0004        141.0004
 -12814852.83549  -9956363.90648  22208027.545    22208027.4114   22208034.0784
       214.0004        214.0004
 -17276030.12749 -13440440.42147  21284168.364    21284169.1264   21284173.8564
       202.0004        203.0004
 -17341873.90848 -12578637.82346  21521278.649    21521279.2764   21521287.7774
       186.0004        186.0004
  -8300618.71448  -6456724.55546  22859690.451    22859691.3404   22859697.0524
       168.0004        168.0004
  -5393078.47347  -4174957.73645  23467534.546    23467536.3574   23467541.4124
       159.0004        162.0004
 -14497781.05349 -11276834.08147  21400453.733    21400454.5084   21400461.6144
       204.0004        205.0004
  -9304781.72448  -6943435.24246  22938942.889    22938943.9064   22938950.7344
       168.0004        167.0004
 21  2  2  2  4  0.0000000  0  9G21G28G08G07G01G04G17G09G30
 -15914772.92248 -12237395.88446  21808547.531    21808547.6204   21808553.2624
       184.0004        184.0004
  -1369381.33447  -1055881.98345  23720038.700    23720037.5824   23720044.9984
       135.0004        141.0004
 -12725168.48149  -9886479.99648  22225093.121    22225093.1634   22225100.7394
       214.0004        213.0004
 -17341566.16649 -13491507.45747  21271697.465    21271697.9074   21271702.1934
       202.0004        202.0004
 -17402028.31148 -12625511.34246  21509831.273    21509832.2124   21509841.1004
       186.0004        187.0004
  -8204313.93448  -6381681.87746  22878016.729    22878017.1574   22878023.5884
       168.0004        170.0004
  -5477508.53447  -4240747.35646  23451468.092    23451469.1224   23451475.8924
       161.0004        164.0004
 -14442705.10849 -11233917.77447  21410935.246    21410935.1974   21410942.6454
       205.0004        205.0004
  -9392037.45548  -7011426.71546  22922338.664    22922338.8544   22922347.5254
       168.0004        170.0004
 21  2  2  2  4 30.0000000  0  9G21G28G08G07G01G04G17G09G30
 -15904239.78848 -12229188.22846  21810552.366    21810551.8624   21810557.2084
       184.0004        185.0004
  -1384580.04047  -1067725.10845  23717146.631    23717146.6444   23717150.5984
       135.0004        141.0004
 -12635317.88449  -9816466.55048  22242191.114    22242191.4724   22242198.7804
       214.0004        214.0004
 -17406871.43849 -13542394.67947  21259270.406    21259270.4854   21259274.7874
       202.0004        202.0004
 -17461845.14748 -12672121.84547  21498450.097    21498450.8524   21498458.7114
       188.0004        190.0004
  -8107913.49548  -6306564.66546  22896361.339    22896361.7284   22896368.8154
       169.0004        169.0004
  -5561625.27247  -4306292.83546  23435462.293    23435463.3324   23435468.6174
       163.0004        165.0004
 -14387253.51849 -11190708.75047  21421487.192    21421487.5024   21421494.2734
       205.0004        205.0004
  -9479259.18248  -7079391.67946  22905742.776    22905742.4764   22905749.5544
       169.0004        171.0004
 21  2  2  2  5  0.0000000  0  9G21G28G08G07G01G04G17G09G30
 -15893220.32548 -12220601.63246  21812649.509    21812649.0664   21812653.6764
       184.0004        184.0004
  -1399746.97046  -1079543.50145  23714260.121    23714260.1724   23714263.7064
       134.0004        139.0004
 -12545304.25149  -9746326.07548  22259319.909    22259320.4094   22259327.7224
       214.0004        213.0004
 -17471943.08649 -13593099.86247  21246887.820    21246888.2164   21246892.1734
       202.0004        203.0004
 -17521320.87348 -12718466.57247  21487133.959    21487134.6904   21487140.2784
       191.0004        193.0004
  -8011419.88248  -6231374.84546  22914723.801    22914724.0814   22914729.8614
       169.0004        168.0004
  -5645426.24247  -4371592.24346  23419515.710    23419515.2494   23419521.9594
       162.0004        164.0004
 -14331428.54249 -11147208.77347  21432110.346    21432110.6574   21432117.7644
       205.0004        205.0004
  -9566444.24148  -7147328.12246  22889151.175    22889151.3634   22889158.3414
       169.0004        170.0004
 21  2  2  2  5 30.0000000  0  9G21G28G08G07G01G04G17G09G30
 -15881712.18648 -12211634.23246  21814839.750    21814838.3604   21814843.8814
       184.0004        184.0004
  -1414881.55346  -1091336.64045  23711377.890    23711378.2024   23711383.2104
       128.0004        133.0004
 -12455128.41149  -9676059.18248  22276480.262    22276480.5004   22276487.6614
       213.0004        213.0004
 -17536775.85749 -13643618.90447  21234550.630    21234551.1194   21234554.8604
       203.0004        203.0004
 -17580450.14648 -12764541.33647  21475880.798    21475881.7024   21475887.6194
       191.0004        190.0004
  -7914833.87948  -6156113.03746  22933102.083    22933103.4154   22933109.6614
       168.0004        169.0004
  -5728908.20947  -4436643.07846  23403628.608    23403629.1854   23403635.5034
       164.0004        165.0004
 -14275230.70149 -11103418.25847  21442803.773    21442804.3114   21442811.5724
       204.0004        204.0004
  -9653588.30148  -7215232.54646  22872569.104    22872568.1664   22872576.2614
       170.0004        173.0004
 21  2  2  2  6  0.0000000  0  9G21G28G08G07G01G04G17G09G30
 -15869714.94348 -12202285.73846  21817122.692    21817121.9994   21817126.0734
       184.0004        185.0004
  -1429985.25446  -1103105.74945  23708505.930    23708505.6354   23708507.7754
       126.0004        135.0004
 -12364792.50849  -9605667.58048  22293670.747    22293670.8934   22293677.9064
       213.0004        213.0004
 -17601367.12149 -13693949.75947  21222259.102    21222259.3544   21222263.5874
       202.0004        203.0004
 -17639229.96348 -12810343.79447  21464693.941    21464694.3844   21464702.4854
       189.0004        188.0004
  -7818158.45948  -6080781.57846  22951499.739    22951499.6424   22951506.4614
       168.0004        169.0004
  -5812069.13948  -4501443.74146  23387802.939    23387804.1884   23387811.4014
       165.0004        167.0004
 -14218662.84949 -11059339.42747  21453567.951    21453568.7914   21453576.0614
       203.0004        203.0004
  -9740689.21248  -7283103.39646  22855995.201    22855994.4604   22856001.4304
       171.0004        172.0004
 21  2  2  2  6 30.0000000  0  9G21G28G08G07G01G04G17G09G30
 -15857229.09448 -12192556.47946  21819497.889    21819498.2884   21819503.0904
       185.0004        185.0004
  -1445061.07546  -1114853.11845  23705636.641    23705637.6424   23705642.4404
       129.0004        136.0004
 -12274300.78749  -9535154.54447  22310890.015    22310890.5154   22310898.3414
       212.0004        211.0004
 -17665715.31449 -13744091.20947  21210014.168    21210015.1724   21210018.4844
       203.0004        203.0004
 -17697658.34748 -12855872.36746  21453573.922    21453574.7794   21453583.8024
       187.0004        187.0004
  -7721397.83048  -6005383.70546  22969912.530    22969913.0004   22969918.5864
       168.0004        168.0004
  -5894908.66748  -4565993.95146  23372041.218    23372041.4004   23372047.2834
       168.0004        171.0004
 -14161728.89849 -11014975.31947  21464402.996    21464403.4974   21464410.3784
       203.0004        204.0004
  -9827746.03048  -7350939.87346  22839427.897    22839427.9994   22839434.0994
       171.0004        172.0004
 21  2  2  2  7  0.0000000  0  9G21G28G08G07G01G04G17G09G30
 -15844253.39548 -12182445.54646  21821966.470    21821966.2664   21821972.5214
       185.0004        186.0004
  -1460109.94746  -1126579.48645  23702773.131    23702773.6064   23702774.7504
       131.0004        138.0004
 -12183655.68149  -9464522.00947  22328139.300    22328139.3014   22328147.3544
       211.0004        210.0004
 -17729817.59949 -13794041.05447  21197816.341    21197816.4364   21197820.1914
       203.0004        203.0004
 -17755731.82848 -12901124.40147  21442523.961    21442524.4824   21442533.8864
       187.0004        189.0004
  -7624554.46048  -5929921.32246  22988341.082    22988341.7714   22988348.3994
       168.0004        169.0004
  -5977424.40548  -4630291.88446  23356337.043    23356337.8374   23356344.4754
       166.0004        167.0004
 -14104431.25149 -10970327.81147  21475306.022    21475306.4304   21475313.5714
       203.0004        203.0004
  -9914756.08648  -7418739.91246  22822869.693    22822869.9284   22822876.7714
       169.0004        169.0004
 21  2  2  2  7 30.0000000  0  9G21G28G08G07G01G04G17G09G30
 -15830788.23448 -12171953.20646  21824529.654    21824529.2124   21824534.5404
       185.0004        185.0004
  -1475134.26846  -1138286.69945  23699915.514    23699914.8234   23699918.3894
       132.0004        139.0004
 -12092860.31749  -9393772.37747  22345416.812    22345417.3494   22345425.2384
       210.0004        210.0004
 -17793671.36449 -13843797.22647  21185663.624    21185664.8604   21185669.2404
       202.0004        202.0004
 -17813447.75348 -12946097.83447  21431542.264    21431542.6204   21431550.6454
       189.0004        191.0004
  -7527631.82048  -5854397.19546  23006785.995    23006785.8464   23006791.4304
       168.0004        169.0004
  -6059615.48448  -4694336.80346  23340699.097    23340698.8824   23340702.9424
       167.0004        169.0004
 -14046773.15649 -10925399.42647  21486278.065    21486278.2464   21486285.2714
       202.0004        202.0004
 -10001717.71148  -7486502.21046  22806322.060    22806322.1294   22806329.7964
       172.0004        176.0004
 21  2  2  2  8  0.0000000  0  9G21G28G08G07G01G04G17G09G30
 -15816834.57748 -12161080.23146  21827185.362    21827184.7774   21827188.9974
       184.0004        185.0004
  -1490136.61146  -1149976.82745  23697058.497    23697059.2724   23697064.0974
       134.0004        141.0004
 -12001919.30749  -9322909.26447  22362723.992    22362723.2604   22362730.6444
       211.0004        211.0004
 -17857275.13149 -13893358.60347  21173562.125    21173562.1194   21173565.6874
       203.0004        204.0004
 -17870804.36248 -12990791.29947  21420628.376    21420628.6994   21420635.5764
       191.0004        193.0004
  -7430634.09548  -5778814.57846  23025242.938    23025244.2444   23025249.2634
       169.0004        170.0004
  -6141481.41548  -4758128.36246  23325119.146    23325119.3934   23325123.3524
       165.0004        164.0004
 -13988758.73449 -10880193.39847  21497318.364    21497318.2074   21497325.5484
       202.0004        202.0004
 -10088629.94448  -7554226.01946  22789783.021    22789783.4934   22789789.7994
       176.0004        177.0004
 21  2  2  2  8 30.0000000  0  9G21G28G08G07G01G04G17G09G30
 -15802390.28748 -12149824.94046  21829933.505    21829932.9544   21829937.7204
       184.0004        184.0004
  -1505117.10447  -1161649.93245  23694207.518    23694208.3484   23694212.2524
       136.0004        142.0004
 -11910833.64749  -9251933.43647  22380056.109    22380056.2164   22380063.6544
       211.0004        210.0004
 -17920624.83149 -13942722.02047  21161506.189    21161506.8364   21161510.6784
       203.0004        203.0004
 -17927796.80648 -13035200.99547  21409782.842    21409783.6474   21409790.6284
       193.0004        194.0004
  -7333562.48748  -5703174.40646  23043715.844    23043715.4744   23043722.4784
       169.0004        169.0004
  -6223018.97947  -4821664.04646  23309603.219    23309603.8274   23309608.0914
       163.0004        164.0004
 -13930389.03049 -10834710.50947  21508424.384    21508425.1124   21508433.1274
       202.0004        202.0004
 -10175488.78948  -7621908.24546  22773255.481    22773254.4074   22773261.1384
       177.0004        178.0004
 21  2  2  2  9  0.0000000  0  9G21G28G08G07G01G04G17G09G30
 -15787455.46748 -12138187.40646  21832775.042    21832775.2984   21832779.7334
       184.0004        183.0004
  -1520077.68447  -1173307.51645  23691362.642    23691361.1214   23691366.1254
       137.0004        142.0004
 -11819606.13549  -9180847.05347  22397413.973    22397415.0244   22397423.5604
       210.0004        209.0004
 -17983717.90449 -13991885.44447  21149499.357    21149500.3834   21149504.5694
       203.0004        203.0004
 -17984422.59848 -13079324.97847  21399007.351    21399007.8794   21399014.6524
       193.0004        193.0004
  -7236420.44448  -5627479.33846  23062200.785    23062201.3874   23062207.9024
       169.0004        169.0004
  -6304227.22147  -4884943.14346  23294149.821    23294150.8104   23294153.3664
       162.0004        163.0004
 -13871667.39249 -10788953.39447  21519600.083    21519600.0524   21519606.8194
       202.0004        202.0004
 -10262292.65148  -7689547.58046  22756735.802    22756735.2024   22756742.9844
       176.0004        176.0004
 21  2  2  2  9 30.0000000  0  9G21G28G08G07G01G04G17G09G30
 -15772029.12948 -12126166.88646  21835710.796    21835710.4714   21835715.5374
       184.0004        183.0004
  -1535019.05247  -1184950.12245  23688518.817    23688518.0074   23688522.3234
       138.0004        143.0004
 -11728239.24749  -9109652.08947  22414802.235    22414802.5554   22414809.6404
       208.0004        208.0004
 -18046550.89049 -14040846.21047  21137543.975    21137543.9634   21137547.9084
       203.0004        204.0004
 -18040677.99948 -13123160.35447  21388301.554    21388302.4114   21388309.7994
       193.0004        192.0004
  -7139210.20448  -5551731.10446  23080699.751    23080699.9374   23080706.1974
       168.0004        169.0004
  -6385103.59347  -4947963.64246  23278758.709    23278759.1204   23278763.3714
       162.0004        164.0004
 -13812595.96249 -10742923.72947  21530841.072    21530841.3774   21530847.6774
       202.0004        202.0004
 -10349038.54048  -7757141.76646  22740229.558    22740229.1264   22740235.5624
       177.0004        181.0004
 21  2  2  2 10  0.0000000  0  9G21G28G08G07G01G04G17G09G30
 -15756111.07848 -12113763.20546  21838739.879    21838739.6574   21838745.1054
       184.0004        184.0004
  -1549943.15747  -1196579.27345  23685677.379    23685678.7894   23685683.3524
       137.0004        142.0004
 -11636735.88649  -9038350.79047  22432215.609    22432215.2004   22432222.7204
       209.0004        209.0004
 -18109121.15449 -14089602.25247  21125636.623    21125637.3324   21125641.5094
       203.0004        204.0004
 -18096560.04148 -13166704.78247  21377667.250    21377668.0794   21377675.0644
       191.0004        191.0004
  -7041934.75848  -5475932.06446  23099210.414    23099210.5324   23099216.9134
       168.0004        168.0004
  -6465646.69547  -5010724.42746  23263431.143    23263432.3544   23263437.0844
       163.0004        164.0004
 -13753177.64549 -10696623.74747  21542147.831    21542147.6084   21542154.7394
       202.0004        202.0004
 -10435724.31548  -7824689.11846  22723732.918    22723733.4884   22723739.6884
       179.0004        180.0004
 21  2  2  2 10 30.0000000  0  9G21G28G08G07G01G04G17G09G30
 -15739700.86348 -12100976.01146  21841862.847    21841862.3674   21841867.0084
       184.0004        185.0004
  -1564851.47947  -1208196.12745  23682841.119    23682842.1674   23682846.5804
       138.0004        144.0004
 -11545098.73249  -8966945.21047  22449652.502    22449652.7824   22449660.6814
       210.0004        209.0004
 -18171425.94549 -14138151.44847  21113780.625    21113781.1204   21113785.4824
       204.0004        205.0004
 -18152065.49048 -13209955.77447  21367104.362    21367105.2814   21367112.7894
       190.0004        189.0004
  -6944596.80448  -5400084.32846  23117732.948    23117734.1614   23117739.0504
       166.0004        166.0004
  -6545854.82847  -5073224.20846  23248169.136    23248169.0374   23248173.4494
       162.0004        164.0004
 -13693415.09749 -10650055.52347  21553519.592    21553519.8924   21553526.8254
       201.0004        201.0004
 -10522347.42448  -7892187.65246  22707249.345    22707249.2764   22707255.9714
       180.0004        180.0004
 21  2  2  2 11  0.0000000  0  9G21G28G08G07G01G04G17G09G30
 -15722799.03248 -12087805.74946  21845078.965    21845078.9214   21845083.9904
       184.0004        184.0004
  -1579746.33247  -1219802.48945  23680007.665    23680007.8294   23680011.6424
       140.0004        145.0004
 -11453331.18849  -8895438.04747  22467115.299    22467115.3894   22467123.7134
       209.0004        209.0004
 -18233463.53949 -14186492.43247  21101975.193    21101975.5224   21101979.5644
       204.0004        204.0004
 -18207192.34148 -13252911.75147  21356613.888    21356614.6984   21356623.0934
       189.0004        190.0004
  -6847200.25747  -5324190.95446  23136266.904    23136266.7394   23136273.4374
       163.0004        164.0004
  -6625727.46447  -5135462.59045  23232970.001    23232969.5924   23232974.0634
       162.0004        162.0004
 -13633312.19249 -10603222.10747  21564957.341    21564957.7354   21564964.4724
       202.0004        203.0004
 -10608906.72748  -7959636.43946  22690776.359    22690776.6864   22690784.4574
       177.0004        175.0004
 21  2  2  2 11 30.0000000  0  9G21G28G08G07G01G04G17G09G30
 -15705404.82248 -12074251.82046  21848388.797    21848388.7784   21848393.7474
       184.0004        185.0004
  -1594628.90447  -1231399.29045  23677175.550    23677174.9124   23677180.1664
       141.0004        146.0004
 -11361435.85549  -8823831.32347  22484603.392    22484603.1304   22484610.5394
       208.0004        208.0004
 -18295230.45449 -14234622.51647  21090221.221    21090221.6744   21090225.2134
       204.0004        205.0004
 -18261937.11748 -13295570.01147  21346196.390    21346197.2544   21346204.9264
       190.0004        190.0004
  -6749747.63347  -5248253.89046  23154809.892    23154811.4744   23154818.7674
       162.0004        164.0004
  -6705262.50547  -5197437.89546  23217834.893    23217835.3594   23217839.5184
       164.0004        166.0004
 -13572871.35249 -10556125.36747  21576459.006    21576459.3504   21576466.0244
       203.0004        203.0004
 -10695399.46048  -8027033.38346  22674318.761    22674318.1694   22674324.8084
       176.0004        177.0004
 21  2  2  2 12  0.0000000  0  9G21G28G08G07G01G04G17G09G30
 -15687517.90148 -12060313.94646  21851793.793    21851792.9884   21851797.3774
       185.0004        185.0004
  -1609500.69547  -1242987.69745  23674344.542    23674344.4034   23674350.8554
       142.0004        146.0004
 -11269415.62649  -8752127.25447  22502113.682    22502113.6354   22502121.5884
       208.0004        208.0004
 -18356723.84149 -14282539.44347  21078519.246    21078519.8314   21078524.2844
       204.0004        204.0004
 -18316296.70748 -13337928.11147  21335852.577    21335852.6104   21335861.4144
       190.0004        190.0004
  -6652241.69247  -5172275.25546  23173365.769    23173366.4464   23173373.9064
       163.0004        165.0004
  -6784458.22548  -5259148.79346  23202764.133    23202764.0064   23202770.0364
       165.0004        166.0004
 -13512095.33149 -10508767.43347  21588024.383    21588024.7904   21588031.4354
       203.0004        203.0004
 -10781823.24748  -8094376.60146  22657873.146    22657873.0184   22657879.7854
       178.0004        180.0004
 21  2  2  2 12 30.0000000  0  9G21G28G08G07G01G04G17G09G30
 -15669138.46148 -12045992.28946  21855289.550    21855289.4204   21855295.1354
       184.0004        184.0004
  -1624363.69847  -1254569.21845  23671517.579    23671517.5154   23671520.7904
       143.0004        148.0004
 -11177273.32849  -8680328.07047  22519646.670    22519647.0674   22519656.0994
       208.0004        208.0004
 -18417941.40049 -14330241.44247  21066869.532    21066870.2914   21066874.4444
       204.0004        204.0004
 -18370268.39648 -13379983.97347  21325582.540    21325582.9754   21325590.3854
       191.0004        192.0004
  -6554685.56747  -5096257.52646  23191931.293    23191931.1064   23191938.5924
       163.0004        164.0004
  -6863313.78948  -5320594.61646  23187758.508    23187759.0714   23187763.7604
       165.0004        168.0004
 -13450987.26649 -10461150.76947  21599652.999    21599653.3094   21599659.8314
       203.0004        202.0004
 -10868176.06948  -8161664.50646  22641440.673    22641440.6244   22641447.7154
       180.0004        181.0004
 21  2  2  2 13  0.0000000  0  9G21G28G08G07G01G04G17G09G30
 -15650265.85648 -12031286.35646  21858881.689    21858881.4394   21858885.7094
       183.0004        184.0004
  -1639219.03547  -1266144.78445  23668689.873    23668689.0254   23668694.5224
       146.0004        151.0004
 -11085011.16149  -8608435.47147  22537204.189    22537204.4194   22537212.2494
       207.0004        207.0004
 -18478880.26949 -14377726.28447  21055274.479    21055274.7134   21055278.1674
       204.0004        204.0004
 -18423849.03148 -13421735.11147  21315386.691    21315386.8144   21315395.0724
       191.0004        192.0004
  -6457081.98847  -5020202.79346  23210503.684    23210504.3854   23210511.6194
       162.0004        163.0004
  -6941827.28648  -5381773.90646  23172817.665    23172818.0344   23172824.0914
       166.0004        168.0004
 -13389549.91049 -10413277.49447  21611343.981    21611344.3764   21611350.9764
       203.0004        203.0004
 -10954455.46148  -8228895.18046  22625021.637    22625022.3124   22625028.6204
       180.0004        181.0004
 21  2  2  2 13 30.0000000  0  9G21G28G08G07G01G04G17G09G30
 -15630899.91748 -12016196.00046  21862567.335    21862566.8704   21862571.3444
       184.0004        184.0004
  -1654068.07547  -1277715.44145  23665864.268    23665864.2584   23665869.2404
       148.0004        151.0004
 -10992632.04149  -8536451.75447  22554783.807    22554783.9584   22554791.1154
       206.0004        206.0004
 -18539537.11749 -14424991.35147  21043731.596    21043731.9064   21043735.7384
       204.0004        205.0004
 -18477035.27048 -13463178.91847  21305265.143    21305265.6564   21305273.6244
       192.0004        193.0004
  -6359433.42547  -4944113.02745  23229086.520    23229086.2814   23229092.7984
       161.0004        162.0004
  -7019996.69648  -5442685.06746  23157942.468    23157943.1154   23157949.4554
       165.0004        167.0004
 -13327785.71149 -10365149.54747  21623097.982    21623098.0564   21623104.3144
       203.0004        203.0004
 -11040658.65248  -8296066.50246  22608617.661    22608618.1174   22608625.4784
       181.0004        182.0004
 21  2  2  2 14  0.0000000  0  9G21G28G08G07G01G04G17G09G30
 -15611040.52748 -12000721.13646  21866346.274    21866345.6414   21866350.4294
       183.0004        183.0004
  -1668911.97947  -1289282.08345  23663038.723    23663038.4054   23663044.4264
       147.0004        151.0004
 -10900138.09449  -8464378.55247  22572383.758    22572384.2974   22572392.5404
       206.0004        206.0004
 -18599909.00149 -14472034.37947  21032242.929    21032243.7464   21032247.7294
       205.0004        205.0004
 -18529823.83548 -13504312.85047  21295219.628    21295220.6164   21295228.7014
       192.0004        193.0004
  -6261742.47547  -4867990.23846  23247676.586    23247676.9994   23247683.1754
       161.0004        163.0004
  -7097820.71448  -5503327.08146  23143134.023    23143133.6824   23143137.9584
       165.0004        166.0004
 -13265697.33349 -10316768.98347  21634912.167    21634912.6214   21634919.4624
       203.0004        203.0004
 -11126783.07948  -8363176.43446  22592230.186    22592230.0494   22592235.7164
       182.0004        182.0004
 21  2  2  2 14 30.0000000  0  9G21G28G08G07G01G04G17G09G30
 -15590687.63948 -11984861.74146  21870219.153    21870218.7884   21870223.5794
       183.0004        184.0004
  -1683752.92847  -1300846.46745  23660215.621    23660215.4914   23660219.3254
       149.0004        153.0004
 -10807533.32649  -8392219.01247  22590006.293    22590006.5044   22590014.8284
       206.0004        207.0004
 -18659993.80849 -14518853.73047  21020809.769    21020810.0854   21020813.5654
       205.0004        205.0004
 -18582212.52548 -13545135.21347  21285250.808    21285251.7084   21285259.9364
       194.0004        195.0004
  -6164012.71947  -4791837.21246  23266272.759    23266273.6044   23266280.2044
       161.0004        163.0004
  -7175298.41348  -5563699.25946  23128388.954    23128389.5614   23128395.5634
       165.0004        166.0004
 -13203288.43349 -10268138.69247  21646787.813    21646788.1804   21646795.5134
       202.0004        202.0004
 -11212827.19848  -8430223.80046  22575855.382    22575855.6174   22575862.9024
       180.0004        180.0004
 21  2  2  2 15  0.0000000  0  9G21G28G08G07G01G04G17G09G30
 -15569840.47848 -11968617.18646  21874186.207    21874185.5164   21874190.9794
       184.0004        184.0004
  -1698591.64947  -1312409.08745  23657391.630    23657391.1174   23657395.6574
       150.0004        153.0004
 -10714819.05449  -8319974.14647  22607649.590    22607649.9744   22607657.8364
       206.0004        205.0004
 -18719787.98749 -14565446.59347  21009431.108    21009431.4674   21009435.1344
       204.0004        204.0004
 -18634197.53148 -13585643.00347  21275358.237    21275358.7604   21275366.5254
       194.0004        194.0004
  -6066246.17047  -4715655.52545  23284878.352    23284878.1044   23284884.5994
       161.0004        162.0004
  -7252427.15447  -5623799.53246  23113711.502    23113711.9374   23113717.3164
       164.0004        165.0004
 -13140560.98649 -10219260.16347  21658724.544    21658724.8974   21658732.4594
       201.0004        201.0004
 -11298787.73448  -8497206.03346  22559497.594    22559498.4814   22559504.6464
       179.0004        178.0004
 21  2  2  2 15 30.0000000  0  9G21G28G08G07G01G04G17G09G30
 -15548499.38948 -11951987.75546  21878247.213    21878246.6454   21878251.3034
       184.0004        184.0004
  -1713430.05447  -1323971.46645  23654567.386    23654567.5454   23654572.2454
       150.0004        153.0004
 -10621998.90849  -8247646.77047  22625313.137    22625312.8924   22625321.0214
       205.0004        205.0004
 -18779289.13349 -14611811.12847  20998108.021    20998108.7894   20998112.6384
       205.0004        205.0004
 -18685776.39448 -13625834.32047  21265543.233    21265544.3014   21265551.1064
       194.0004        194.0004
  -5968446.12147  -4639447.72045  23303488.198    23303488.4634   23303494.8994
       160.0004        162.0004
  -7329206.40947  -5683627.48346  23099102.479    23099102.3284   23099106.4384
       164.0004        167.0004
 -13077518.40549 -10170136.07447  21670720.621    21670721.1954   21670728.4844
       200.0004        200.0004
 -11384662.80548  -8564121.68946  22543155.677    22543156.0284   22543162.8394
       177.0004        178.0004
 21  2  2  2 16  0.0000000  0  9G21G28G08G07G01G04G17G09G30
 -15526664.35148 -11934973.44046  21882402.323    21882402.2034   21882407.0464
       184.0004        184.0004
  -1728270.04347  -1335535.08545  23651744.204    23651744.1694   23651748.6584
       151.0004        154.0004
 -10529075.21749  -8175238.71747  22642996.323    22642995.8484   22643003.5324
       205.0004        205.0004
 -18838494.96749 -14657945.55847  20986841.751    20986842.0974   20986846.3264
       205.0004        205.0004
 -18736946.36948 -13665707.02147  21255806.493    21255806.9874   21255813.9044
       194.0004        194.0004
  -5870615.55247  -4563216.14245  23322103.635    23322104.7584   23322111.6324
       160.0004        161.0004
  -7405635.04648  -5743182.22146  23084557.396    23084558.2024   23084563.3214
       165.0004        166.0004
 -13014163.78549 -10120768.85047  21682777.513    21682777.5914   21682785.4234
       201.0004        201.0004
 -11470450.24448  -8630969.01746  22526830.487    22526830.1064   22526837.9144
       177.0004        177.0004
 21  2  2  2 16 30.0000000  0  9G21G28G08G07G01G04G17G09G30
 -15504335.13848 -11917574.03146  21886651.124    21886650.9844   21886656.2044
       184.0004        185.0004
  -1743112.49747  -1347100.62545  23648919.565    23648919.4374   23648923.2394
       152.0004        154.0004
 -10436050.27349  -8102751.74347  22660697.674    22660698.1584   22660705.5174
       205.0004        205.0004
 -18897402.10149 -14703847.21447  20975631.370    20975632.3574   20975635.9984
       205.0004        205.0004
 -18787703.99548 -13705258.39747  21246146.639    21246147.4444   21246155.0204
       193.0004        193.0004
  -5772756.76447  -4486962.55345  23340726.088    23340727.0954   23340734.5704
       160.0004        162.0004
  -7481710.80747  -5802461.99646  23070081.208    23070081.0184   23070085.8484
       164.0004        165.0004
 -12950499.48649 -10071160.30447  21694892.335    21694892.3864   21694900.2954
       200.0004        201.0004
 -11556147.10948  -8697745.79846  22510523.244    22510522.8764   22510530.0624
       176.0004        177.0004
 21  2  2  2 17  0.0000000  0  9G21G28G08G07G01G04G17G09G30
 -15481512.25948 -11899789.95146  21890994.977    21890994.2394   21890998.7994
       184.0004        185.0004
  -1757959.48647  -1358669.66845  23646093.818    23646094.2754   23646098.9544
       152.0004        154.0004
 -10342927.35449  -8030188.44547  22678419.032    22678418.5714   22678427.0974
       205.0004        205.0004
 -18956008.32949 -14749514.41047  20964479.502    20964479.7734   20964483.6174
       205.0004        206.0004
 -18838047.03748 -13744486.74047  21236566.888    21236567.3704   21236575.6194
       193.0004        194.0004
  -5674873.31547  -4410689.77645  23359353.357    23359353.8534   23359360.8824
       160.0004        162.0004
  -7557433.14548  -5861466.40646  23055672.594    23055672.5864   23055675.3034
       166.0004        167.0004
 -12886529.17249 -10021313.31647  21707065.535    21707065.6134   21707072.9174
       200.0004        200.0004
 -11641751.71548  -8764450.67746  22494232.835    22494233.1394   22494240.5784
       177.0004        178.0004
 21  2  2  2 17 30.0000000  0  9G21G28G08G07G01G04G17G09G30
 -15458195.45748 -11881621.00246  21895431.133    21895431.3214   21895436.4234
       184.0004        185.0004
  -1772812.30747  -1370243.27845  23643268.707    23643268.0884   23643272.9064
       153.0004        156.0004
 -10249708.83649  -7957550.64447  22696156.539    22696156.8664   22696165.7644
       204.0004        203.0004
 -19014310.57949 -14794944.73747  20953384.866    20953385.4274   20953389.2644
       205.0004        206.0004
 -18887972.22048 -13783389.47047  21227066.522    21227067.4064   21227074.6714
       193.0004        193.0004
  -5576967.46847  -4334399.52245  23377984.354    23377985.0684   23377990.9214
       160.0004        162.0004
  -7632800.23248  -5920193.95546  23041329.760    23041329.8654   23041334.2254
       166.0004        168.0004
 -12822255.33049  -9971229.81147  21719296.153    21719296.7954   21719302.6504
       199.0004        199.0004
 -11727261.24548  -8831081.50146  22477961.435    22477961.4184   22477967.9794
       178.0004        180.0004
 21  2  2  2 18  0.0000000  0  9G21G28G08G07G01G04G17G09G30
 -15434384.38448 -11863066.91146  21899962.336    21899961.6734   21899966.4114
       184.0004        185.0004
  -1787671.75747  -1381822.05745  23640440.256    23640440.2974   23640443.9294
       152.0004        154.0004
 -10156397.40249  -7884840.45947  22713913.055    22713913.2504   22713922.6964
       203.0004        203.0004
 -19072305.73849 -14840135.78447  20942348.672    20942349.4444   20942352.9054
       205.0004        205.0004
 -18937476.40348 -13821964.15047  21217646.618    21217646.8244   21217654.3644
       192.0004        193.0004
  -5479041.84147  -4258093.85745  23396619.495    23396619.6304   23396625.6834
       160.0004        161.0004
  -7707810.30948  -5978643.31746  23027055.442    23027056.2664   23027060.6144
       167.0004        168.0004
 -12757680.61949  -9920911.88147  21731584.551    21731584.8394   21731592.0334
       199.0004        200.0004
 -11812673.08948  -8897636.16946  22461707.215    22461707.5034   22461715.6454
       178.0004        178.0004
 21  2  2  2 18 30.0000000  0  9G21G28G08G07G01G04G17G09G30
 -15410078.88948 -11844127.55946  21904587.608    21904587.8474   21904592.2764
       184.0004        185.0004
  -1802539.43547  -1393407.26745  23637610.295    23637610.6664   23637615.8934
       150.0004        152.0004
 -10062994.90549  -7812059.30147  22731687.420    22731687.4244   22731696.3864
       203.0004        203.0004
 -19129990.77849 -14885085.16347  20931371.647    20931371.9904   20931376.0514
       205.0004        205.0004
 -18986556.33448 -13860208.24047  21208306.461    21208307.0454   21208315.1644
       192.0004        193.0004
  -5381098.85847  -4181774.67245  23415257.520    23415258.3254   23415263.7724
       159.0004        161.0004
  -7782461.78548  -6036813.29846  23012849.961    23012850.5934   23012854.3124
       167.0004        168.0004
 -12692807.63649  -9870361.50147  21743930.349    21743929.9674   21743936.8704
       199.0004        200.0004
 -11897984.37148  -8964112.47846  22445473.174    22445473.8074   22445481.5514
       178.0004        180.0004
 21  2  2  2 19  0.0000000  0  9G21G28G08G07G01G04G17G09G30
 -15385279.01148 -11824802.96346  21909306.885    21909306.3864   21909311.1824
       184.0004        184.0004
  -1817417.35147  -1405000.45145  23634779.181    23634779.4564   23634783.8594
       149.0004        152.0004
  -9969504.87049  -7739209.92947  22749478.246    22749478.2324   22749486.6234
       203.0004        203.0004
 -19187363.66649 -14929791.31547  20920453.686    20920454.4634   20920458.7364
       205.0004        205.0004
 -19035209.84448 -13898120.05147  21199047.635    21199048.6354   21199056.5954
       193.0004        194.0004
  -5283141.97347  -4105444.63445  23433898.282    23433897.6034   23433904.5874
       158.0004        158.0004
  -7856754.03948  -6094703.34446  22998713.246    22998713.3344   22998717.0564
       165.0004        166.0004
 -12627640.00249  -9819581.52947  21756330.466    21756330.8324   21756338.4274
       200.0004        200.0004
 -11983193.34748  -9030509.08346  22429260.694    22429260.0994   22429266.9144
       181.0004        183.0004
 21  2  2  2 19 30.0000000  0  9G21G28G08G07G01G04G17G09G30
 -15359986.00048 -11805094.10746  21914121.021    21914119.8004   21914124.4054
       184.0004        185.0004
  -1832307.65347  -1416603.27345  23631945.291    23631945.3674   23631949.8774
       150.0004        154.0004
  -9875930.43149  -7666294.78147  22767284.678    22767284.6474   22767292.6694
       202.0004        202.0004
 -19244422.32749 -14974252.60447  20909595.963    20909596.4284   20909600.6794
       205.0004        206.0004
 -19083434.70148 -13935697.84547  21189869.649    21189871.3694   21189879.1514
       193.0004        193.0004
  -5185174.52947  -4029106.38645  23452539.706    23452540.3414   23452547.0554
       157.0004        158.0004
  -7930686.23248  -6152312.82746  22984643.675    22984644.1784   22984647.8454
       167.0004        171.0004
 -12562181.26649  -9768574.72047  21768786.570    21768787.2054   21768794.5544
       199.0004        200.0004
 -12068298.29348  -9096824.62446  22413065.126    22413064.4074   22413071.8314
       182.0004        182.0004
 21  2  2  2 20  0.0000000  0  9G21G28G08G07G01G04G17G09G30
 -15334198.66348 -11785000.07846  21919026.674    21919026.3604   21919032.4684
       184.0004        184.0004
  -1847210.37747  -1428215.80845  23629109.668    23629109.6864   23629115.3844
       151.0004        153.0004
  -9782273.14249  -7593315.08547  22785106.444    22785106.9424   22785115.5644
       201.0004        201.0004
 -19301162.49249 -15018465.73147  20898799.233    20898799.5274   20898802.9704
       205.0004        206.0004
 -19131226.91548 -13972938.52347  21180776.327    21180777.3264   21180785.2284
       194.0004        195.0004
  -5087198.18847  -3952761.20445  23471184.379    23471185.2084   23471191.9034
       157.0004        159.0004
  -8004255.88648  -6209639.80046  22970643.645    22970644.0084   22970648.8224
       170.0004        172.0004
 -12496433.21249  -9717342.48547  21781297.785    21781298.4864   21781305.3764
       199.0004        199.0004
 -12153295.57148  -9163056.26446  22396889.837    22396890.6924   22396897.5934
       181.0004        182.0004
 21  2  2  2 20 30.0000000  0  9G21G28G08G07G01G04G17G09G30
 -15307917.61048 -11764521.33146  21924028.018    21924028.2344   21924032.6264
       184.0004        185.0004
  -1862127.39547  -1439839.44745  23626273.141    23626273.2574   23626276.3914
       151.0004        153.0004
  -9688535.58849  -7520272.86047  22802945.188    22802944.3274   22802953.5694
       199.0004        199.0004
 -19357581.65149 -15062428.71947  20888062.298    20888063.0354   20888067.1554
       206.0004        206.0004
 -19178583.84649 -14009840.01747  21171766.316    21171765.8714   21171773.1954
       195.0004        196.0004
  -4989215.90347  -3876411.41945  23489830.114    23489829.8654   23489836.6694
       156.0004        158.0004
  -8077462.03848  -6266683.51846  22956712.616    22956713.9604   22956719.4834
       172.0004        173.0004
 -12430398.98949  -9665887.26547  21793863.673    21793864.3834   21793871.0444
       198.0004        198.0004
 -12238182.86548  -9229202.21846  22380736.098    22380736.6334   22380742.9964
       181.0004        181.0004
 21  2  2  2 21  0.0000000  0  9G21G28G08G07G01G04G17G09G30
 -15281142.97648 -11743657.95346  21929123.558    21929123.0404   21929127.7684
       184.0004        183.0004
  -1877060.31147  -1451475.46945  23623429.826    23623429.6224   23623435.1484
       149.0004        153.0004
  -9594720.65849  -7447170.34147  22820797.220    22820797.2904   22820805.4834
       199.0004        199.0004
 -19413677.26149 -15106139.59147  20877387.705    20877388.3174   20877392.3884
       206.0004        206.0004
 -19225502.89249 -14046400.30747  21162836.890    21162837.5774   21162845.6674
       196.0004        196.0004
  -4891230.51547  -3800059.19945  23508476.521    23508477.3074   23508482.4134
       156.0004        158.0004
  -8150303.66148  -6323443.19746  22942850.728    22942851.1464   22942857.1614
       172.0004        172.0004
 -12364081.72749  -9614211.48747  21806484.240    21806484.7034   21806491.5814
       198.0004        198.0004
 -12322957.87148  -9295260.67846  22364605.087    22364604.1184   22364611.9714
       182.0004        183.0004
 21  2  2  2 21 30.0000000  0  9G21G28G08G07G01G04G17G09G30
 -15253874.77848 -11722410.00146  21934311.270    21934311.3344   21934317.1024
       184.0004        184.0004
  -1892010.24247  -1463124.76545  23620584.482    23620584.3374   23620589.4684
       151.0004        155.0004
  -9500831.05749  -7374009.59347  22838663.440    22838663.8444   22838672.2814
       200.0004        201.0004
 -19469446.67349 -15149596.27647  20866775.438    20866775.8554   20866779.5514
       205.0004        205.0004
 -19271981.05949 -14082617.04347  21153991.869    21153993.0324   21154000.4154
       196.0004        196.0004
  -4793244.65647  -3723706.61145  23527122.901    23527122.8334   23527128.5174
       156.0004        159.0004
  -8222779.21448  -6379917.60646  22929060.321    22929061.2014   22929066.5554
       173.0004        176.0004
 -12297484.24049  -9562317.33947  21819156.903    21819157.0964   21819164.9374
       198.0004        199.0004
 -12407618.05148  -9361229.64746  22348493.473    22348494.0124   22348501.2454
       182.0004        183.0004
 21  2  2  2 22  0.0000000  0  9G21G28G08G07G01G04G17G09G30
 -15226113.33648 -11700777.70846  21939595.147    21939594.5494   21939599.8914
       184.0004        185.0004
  -1906978.53247  -1474788.37445  23617736.787    23617737.1214   23617741.6144
       153.0004        156.0004
  -9406868.92849  -7300792.36747  22856544.036    22856544.5204   22856552.9814
       200.0004        201.0004
 -19524887.07849 -15192796.60547  20856225.606    20856226.3134   20856229.8664
       205.0004        206.0004
 -19318015.55149 -14118488.08247  21145232.114    21145232.8114   21145239.7914
       196.0004        196.0004
  -4695261.01847  -3647355.75545  23545768.035    23545768.2924   23545774.5074
       156.0004        157.0004
  -8294887.29348  -6436105.69146  22915338.714    22915338.5314   22915344.6244
       176.0004        176.0004
 -12230609.42149  -9510207.10447  21831882.886    21831883.0004   21831890.1914
       198.0004        197.0004
 -12492160.75448  -9427107.08146  22332405.659    22332406.2424   22332413.1494
       183.0004        185.0004
 21  2  2  2 22 30.0000000  0  9G21G28G08G07G01G04G17G09G30
 -15197858.30348 -11678760.78346  21944972.110    21944971.5034   21944977.1864
       185.0004        185.0004
  -1921966.73147  -1486467.47745  23614885.022    23614884.3334   23614889.7844
       154.0004        158.0004
  -9312836.73249  -7227520.53447  22874438.589    22874437.9514   22874446.0894
       199.0004        198.0004
 -19579995.27049 -15235738.04547  20845738.537    20845738.6514   20845743.2604
       206.0004        206.0004
 -19363603.29049 -14154010.98347  21136556.694    21136557.5624   21136565.1434
       196.0004        197.0004
  -4597281.97047  -3571008.45945  23564411.567    23564411.8634   23564419.3234
       154.0004        156.0004
  -8366626.36748  -6492006.24046  22901686.903    22901688.0874   22901692.3814
       175.0004        175.0004
 -12163459.94749  -9457882.83247  21844660.421    21844660.7544   21844667.7264
       197.0004        197.0004
 -12576583.29048  -9492890.86046  22316341.377    22316341.4834   22316348.6024
       185.0004        186.0004
 21  2  2  2 23  0.0000000  0  9G21G28G08G07G01G04G17G09G30
 -15169109.18448 -11656358.84546  21950442.954    21950441.9804   21950447.3974
       184.0004        185.0004
  -1936975.04147  -1498162.24245  23612028.742    23612029.0184   23612033.2924
       154.0004        157.0004
  -9218735.88049  -7154195.20247  22892343.779    22892344.1304   22892352.7474
       197.0004        196.0004
 -19634767.57649 -15278417.77347  20835316.070    20835316.6094   20835320.1384
       206.0004        207.0004
 -19408740.51149 -14189182.83447  21127967.720    21127968.2784   21127976.1124
       197.0004        198.0004
  -4499309.22347  -3494666.09345  23583055.317    23583056.1454   23583063.1024
       153.0004        155.0004
  -8437994.31148  -6547617.55946  22888106.868    22888107.0784   22888111.9304
       175.0004        175.0004
 -12096037.78549  -9405346.09147  21857491.627    21857491.9694   21857498.3254
       197.0004        198.0004
 -12660882.16348  -9558578.28346  22300299.137    22300299.4304   22300306.6664
       186.0004        186.0004
 21  2  2  2 23 30.0000000  0  9G21G28G08G07G01G04G17G09G30
 -15139867.12948 -11633572.82046  21956006.584    21956006.8254   21956011.8814
       184.0004        183.0004
  -1952005.94747  -1509874.62845  23609167.811    23609167.8984   23609173.4574
       154.0004        157.0004
  -9124570.41749  -7080819.53547  22910263.284    22910263.5364   22910271.9304
       196.0004        197.0004
 -19689202.35449 -15320834.48947  20824957.339    20824957.5934   20824961.7904
       206.0004        206.0004
 -19453425.80549 -14224002.53247  21119463.132    21119464.3834   21119473.0914
       197.0004        197.0004
  -4401346.85647  -3418331.82245  23601697.516    23601698.0434   23601704.4694
       153.0004        156.0004
  -8508991.14748  -6602939.74046  22874596.208    22874597.2624   22874601.8854
       175.0004        176.0004
 -12028347.21649  -9352600.19047  21870372.879    21870373.2444   21870379.5234
       197.0004        198.0004
 -12745056.11848  -9624168.38346  22284281.503    22284281.7634   22284288.6574
       185.0004        186.0004
 21  2  2  2 24  0.0000000  0  9G21G28G08G07G01G04G17G09G30
 -15110133.45648 -11610403.71946  21961665.490    21961665.0254   21961669.9754
       184.0004        184.0004
  -1967061.73347  -1521606.41345  23606303.189    23606303.3074   23606307.3594
       155.0004        157.0004
  -9030343.52749  -7007395.99347  22928196.262    22928195.0344   22928202.9704
       197.0004        198.0004
 -19743297.65249 -15362986.67447  20814663.226    20814663.7724   20814667.9724
       206.0004        207.0004
 -19497657.06549 -14258468.45147  21111047.248    21111048.0874   21111055.9594
       197.0004        198.0004
  -4303398.10747  -3342008.15245  23620336.292    23620337.4704   23620344.7624
       153.0004        155.0004
  -8579616.45748  -6657972.41946  22861156.391    22861157.2574   22861162.0264
       177.0004        179.0004
 -11960391.86149  -9299647.97947  21883303.533    21883303.7244   21883310.9594
       197.0004        196.0004
 -12829103.31048  -9689659.70846  22268288.975    22268287.7644   22268294.9944
       186.0004        187.0004
 21  2  2  2 24 30.0000000  0  9G21G28G08G07G01G04G17G09G30
 -15079908.61948 -11586851.89546  21967416.870    21967416.4644   21967421.7174
       183.0004        184.0004
  -1982144.15547  -1533358.93845  23603434.760    23603434.1254   23603437.7154
       154.0004        156.0004
  -8936057.80649  -6933926.61747  22946138.250    22946137.0174   22946144.9314
       197.0004        198.0004
 -19797051.32549 -15404872.66047  20804434.730    20804435.2344   20804438.8764
       207.0004        208.0004
 -19541432.13349 -14292578.89347  21102718.302    21102718.5754   21102725.9204
       198.0004        198.0004
  -4205466.23147  -3265697.66445  23638972.671    23638973.1434   23638979.9524
       152.0004        155.0004
  -8649869.68548  -6712715.17546  22847787.411    22847788.3644   22847793.9244
       177.0004        178.0004
 -11892175.22449  -9246492.15547  21896284.513    21896284.7214   21896291.8144
       195.0004        193.0004
 -12913021.76948  -9755050.71946  22252318.752    22252318.9164   22252326.5514
       186.0004        187.0004
 21  2  2  2 25  0.0000000  0  9G21G28G08G07G01G04G17G09G30
 -15049192.35948 -11562917.14546  21973263.136    21973261.9974   21973265.9434
       184.0004        184.0004
  -1997253.96047  -1545132.78745  23600558.491    23600558.1414   23600562.6824
       154.0004        156.0004
  -8841715.43649  -6860413.08547  22964089.182    22964089.4314   22964097.9664
       198.0004        197.0004
 -19850459.49149 -15446489.41247  20794271.555    20794271.9204   20794275.7344
       207.0004        208.0004
 -19584747.41249 -14326331.03747  21094474.722    21094474.9164   21094482.4304
       197.0004        197.0004
  -4107553.07447  -3189401.72845  23657604.658    23657605.0844   23657610.9384
       151.0004        154.0004
  -8719748.70748  -6767166.34246  22834490.290    22834490.4944   22834495.4934
       176.0004        175.0004
 -11823699.33748  -9193134.33347  21909314.901    21909315.1854   21909322.8714
       193.0004        192.0004
 -12996808.06448  -9820338.74646  22236374.650    22236375.2054   22236381.0914
       187.0004        187.0004
 21  2  2  2 25 30.0000000  0  9G21G28G08G07G01G04G17G09G30
 -15017984.94748 -11538599.66946  21979200.651    21979200.2184   21979205.1334
       183.0004        184.0004
  -2012392.25647  -1556928.83745  23597677.025    23597676.5274   23597681.6934
       153.0004        156.0004
  -8747317.83749  -6786856.52647  22982051.816    22982052.1304   22982061.2614
       196.0004        196.0004
 -19903519.43949 -15487834.81647  20784174.301    20784174.7624   20784178.6234
       207.0004        208.0004
 -19627599.95049 -14359722.60847  21086320.345    21086320.8494   21086327.8534
       197.0004        197.0004
  -4009661.00947  -3113122.24445  23676232.305    23676233.4674   23676239.9674
       152.0004        155.0004
  -8789251.72348  -6821324.49646  22821264.710    22821264.9054   22821269.3864
       176.0004        177.0004
 -11754966.97648  -9139576.64447  21922393.133    21922393.4474   21922402.0434
       191.0004        191.0004
 -13080459.32348  -9885521.54647  22220456.330    22220456.5794   22220463.7674
       188.0004        189.0004
 21  2  2  2 26  0.0000000  0  9G21G28G08G07G01G04G17G09G30
 -14986285.40048 -11513898.70446  21985232.835    21985232.8014   21985237.3104
       183.0004        184.0004
  -2027559.07447  -1568747.13745  23594791.175    23594790.9544   23594795.3884
       153.0004        156.0004
  -8652867.44449  -6713258.84247  23000024.820    23000025.2164   23000034.6634
       195.0004        195.0004
 -19956227.33049 -15528905.90847  20774144.360    20774144.5534   20774148.5824
       207.0004        208.0004
 -19669986.22149 -14392750.87047  21078254.148    21078254.4504   21078262.0864
       197.0004        197.0004
  -3911791.73447  -3036860.51745  23694856.869    23694857.5454   23694863.7084
       153.0004        157.0004
  -8858377.35748  -6875188.58146  22808109.444    22808110.0124   22808114.4114
       175.0004        174.0004
 -11685980.17448  -9085820.70947  21935521.011    21935521.8264   21935529.2884
       191.0004        192.0004
 -13163972.13348  -9950596.46047  22204564.562    22204564.6144   22204572.0014
       188.0004        188.0004
 21  2  2  2 26 30.0000000  0  9G21G28G08G07G01G04G17G09G30
 -14954095.54548 -11488815.71046  21991358.248    21991357.6834   21991362.9294
       183.0004        184.0004
  -2042757.09647  -1580589.75345  23591898.642    23591898.5184   23591902.3544
       153.0004        154.0004
  -8558367.29949  -6639622.38947  23018006.987    23018008.5214   23018016.7884
       195.0004        196.0004
 -20008581.51349 -15569701.38447  20764181.228    20764181.7404   20764186.2564
       207.0004        208.0004
 -19711904.49149 -14425414.45647  21070277.257    21070278.1724   21070285.3674
       196.0004        197.0004
  -3813948.81347  -2960619.33445  23713475.629    23713476.4874   23713483.2804
       155.0004        158.0004
  -8927124.83448  -6928758.04746  22795027.911    22795027.9304   22795032.4314
       175.0004        176.0004
 -11616742.88348  -9031869.59247  21948697.135    21948697.2594   21948704.8184
       192.0004        193.0004
 -13247344.91348 -10015562.26547  22188698.876    22188699.1194   22188706.6444
       188.0004        188.0004
 21  2  2  2 27  0.0000000  0  9G21G28G08G07G01G04G17G09G30
 -14921414.59648 -11463350.02446  21997577.081    21997576.8954   21997581.2594
       183.0004        183.0004
  -2057987.43647  -1592457.52145  23589000.785    23589001.6104   23589005.6064
       152.0004        154.0004
  -8463819.93449  -6565949.13047  23035999.460    23036000.0354   23036008.8634
       196.0004        197.0004
 -20060579.15449 -15610219.02447  20754286.546    20754287.1004   20754291.0294
       207.0004        208.0004
 -19753351.79549 -14457711.03647  21062390.216    21062390.5574   21062398.7624
       196.0004        197.0004
  -3716134.54247  -2884400.45545  23732088.949    23732089.8404   23732096.8564
       155.0004        158.0004
  -8995493.00248  -6982031.89746  22782017.509    22782017.9154   22782021.8504
       174.0004        175.0004
 -11547257.74848  -8977725.32747  21961920.701    21961921.0724   21961928.2784
       194.0004        196.0004
 -13330574.70148 -10080416.64347  22172860.977    22172861.3624   22172868.4654
       188.0004        188.0004
 21  2  2  2 27 30.0000000  0  9G21G28G08G07G01G04G17G09G30
 -14888244.14848 -11437502.92246  22003889.881    22003889.1174   22003893.3514
       183.0004        183.0004
  -2073251.50347  -1604351.61845  23586095.582    23586095.2174   23586100.1834
       149.0004        151.0004
  -8369227.65449  -6492240.87747  23054002.681    23054002.2464   23054008.6074
       196.0004        197.0004
 -20112217.80649 -15650456.93647  20744459.689    20744460.4684   20744464.6674
       207.0004        208.0004
 -19794326.03449 -14489639.00247  21054592.817    21054593.4184   21054601.0864
       196.0004        196.0004
  -3618352.14847  -2808206.42145  23750697.676    23750697.6564   23750704.7894
       156.0004        158.0004
  -9063481.58548  -7035009.99746  22769079.479    22769079.7044   22769084.8754
       173.0004        174.0004
 -11477528.31449  -8923390.68947  21975190.504    21975190.8004   21975197.0484
       196.0004        197.0004
 -13413659.54448 -10145158.08447  22157050.906    22157050.9004   22157058.1364
       189.0004        190.0004
