     2.11           OBSERVATION DATA    G (GPS)             RINEX VERSION / TYPE
teqc  2018Jun8                          20210202 03:10:38UTCPGM / RUN BY / DATE
Linux2.6.32-573.12.1.el6.x86_64|x86_64|gcc|Win64-MinGW64|=+ COMMENT
BIT 2 OF LLI FLAGS DATA COLLECTED UNDER A/S CONDITION       COMMENT
-Unknown-                                                   MARKER NAME
CRNO                                                        MARKER NUMBER
-Unknown-           -Unknown-                               OBSERVER / AGENCY
-Unknown-           ASHTECH             -Unknown-           REC # / TYPE / VERS
-Unknown-           -Unknown-                               ANT # / TYPE
   408078.2339 -6158372.6198  1605162.9885                  APPROX POSITION XYZ
        0.0000        0.0000        0.0000                  ANTENNA: DELTA H/E/N
     1     1                                                WAVELENGTH FACT L1/2
     7    L1    L2    C1    P1    P2    S1    S2            # / TYPES OF OBSERV
    30.0000                                                 INTERVAL
Forced Modulo Decimation to 30 seconds                      COMMENT
 SNR is mapped to RINEX snr flag value [1-9]                COMMENT
  L1: 1 -> 1;  90 -> 5; 210 -> 9                            COMMENT
  L2: 1 -> 1; 150 -> 5; 250 -> 9                            COMMENT
pseudorange smoothing corrections not applied               COMMENT
  2021     2     4     0     0   30.0000000     GPS         TIME OF FIRST OBS
                                                            END OF HEADER
 21  2  4  0  0 30.0000000  0  9G21G03G16G04G07G01G08G27G09
 -10883148.13047  -8469866.34045  22613892.417    22613891.7744   22613898.1724
       158.0004        160.0004
   6967783.26248   5448717.64746  24356423.555    24356423.8554   24356432.8504
       172.0004        173.0004
  19523887.63046  15475508.10345  24486136.628    24486134.7274   24486146.0504
       124.0004        132.0004
 -21203478.28649 -16503685.72947  20463005.150    20463005.8054   20463011.0224
       210.0004        208.0004
  -6024083.03447  -4676609.99046  23665341.354    23665341.0674   23665344.8534
       164.0004        164.0004
  -3786466.31947  -2936820.70145  23930377.434    23930377.1124   23930384.6874
       145.0004        149.0004
 -23961967.38349 -18643459.63148  20197231.865    20197232.3284   20197239.9444
       213.0004        213.0004
 -13174733.28149 -10239265.85148  21999682.803    21999682.8084   21999689.4274
       216.0004        217.0004
 -17712432.55549 -13774109.07047  20972297.221    20972297.2224   20972304.0334
       211.0004        211.0004
 21  2  4  0  1  0.0000000  0  9G21G03G16G04G07G01G08G27G09
 -10932108.72047  -8508017.40745  22604575.766    22604575.1584   22604580.2984
       158.0004        159.0004
   7022637.59248   5491461.24346  24366862.508    24366863.1694   24366870.8644
       174.0004        175.0004
  19601044.93846  15535630.63945  24500820.374    24500821.4904   24500823.2004
       127.0004        135.0004
 -21165326.00649 -16473956.67947  20470265.086    20470265.6144   20470271.5854
       209.0004        208.0004
  -6094274.21147  -4731304.38846  23651982.751    23651983.2804   23651988.5404
       161.0004        163.0004
  -3857783.11847  -2992392.13045  23916806.364    23916805.6734   23916814.9154
       146.0004        150.0004
 -23942760.00549 -18628492.82648  20200886.953    20200887.1134   20200894.8794
       213.0004        213.0004
 -13091582.26849 -10174472.84548  22015505.592    22015505.6624   22015512.9074
       216.0004        217.0004
 -17745997.55949 -13800263.62047  20965909.481    20965910.1644   20965916.9784
       211.0004        212.0004
 21  2  4  0  1 30.0000000  0  9G21G03G16G04G07G01G08G27G09
 -10980936.97647  -8546065.32845  22595281.129    22595281.4544   22595287.8984
       156.0004        158.0004
   7077285.93348   5534044.35446  24377260.845    24377261.6234   24377269.2144
       173.0004        174.0004
  19678044.96846  15595630.68045  24515473.123    24515473.6414   24515480.0364
       127.0004        134.0004
 -21126635.93049 -16443808.57047  20477627.558    20477627.9984   20477634.1114
       210.0004        208.0004
  -6164587.59047  -4786094.00046  23638603.560    23638604.0174   23638608.0514
       163.0004        166.0004
  -3929276.05647  -3048100.80145  23903199.062    23903200.4164   23903209.7254
       145.0004        149.0004
 -23922960.72849 -18613064.80048  20204654.481    20204655.1444   20204662.4314
       213.0004        213.0004
 -13008044.13249 -10109378.18748  22031401.738    22031401.8534   22031409.6374
       216.0004        215.0004
 -17779018.62549 -13825994.31547  20959625.976    20959626.2324   20959633.0844
       211.0004        211.0004
 21  2  4  0  2  0.0000000  0  9G21G03G16G04G07G01G08G27G09
 -11029630.30047  -8584008.12245  22586015.621    22586015.7374   22586020.7904
       155.0004        158.0004
   7131725.98348   5576465.13646  24387621.293    24387621.5174   24387630.9564
       174.0004        176.0004
  19754886.43146  15655507.15745  24530096.218    24530096.7954   24530101.3264
       126.0004        133.0004
 -21087410.00149 -16413242.92547  20485092.154    20485092.7454   20485098.5874
       210.0004        208.0004
  -6235022.78547  -4840978.55246  23625200.646    23625199.6974   23625205.4454
       164.0004        166.0004
  -4000943.33947  -3103945.37245  23889562.562    23889561.8634   23889571.8974
       144.0004        148.0004
 -23902570.47049 -18597176.27648  20208534.775    20208535.0394   20208542.2994
       212.0004        213.0004
 -12924122.30049 -10043984.56048  22047371.625    22047372.2204   22047379.3034
       215.0004        215.0004
 -17811495.11849 -13851300.67847  20953445.805    20953446.3194   20953452.6814
       211.0004        211.0004
 21  2  4  0  2 30.0000000  0  9G21G03G16G04G07G01G08G27G09
 -11078185.10047  -8621842.98945  22576777.733    22576776.3564   22576781.8074
       156.0004        158.0004
   7185956.85548   5618722.91746  24397939.473    24397940.6454   24397951.7634
       176.0004        177.0004
  19831569.55046  15715260.19845  24544686.510    24544687.3184   24544691.4214
       127.0004        133.0004
 -21047648.69449 -16382260.09947  20492658.493    20492658.9534   20492665.0784
       209.0004        208.0004
  -6305577.57747  -4895956.27046  23611773.249    23611773.9464   23611777.9674
       164.0004        166.0004
  -4072781.92547  -3159923.38545  23875889.830    23875890.6624   23875900.8574
       142.0004        146.0004
 -23881590.06349 -18580827.89348  20212527.014    20212527.3664   20212534.8784
       212.0004        213.0004
 -12839818.76549  -9978293.49448  22063414.548    22063414.8714   22063421.3974
       215.0004        214.0004
 -17843425.06349 -13876181.16247  20947369.997    20947370.1794   20947377.0734
       211.0004        212.0004
 21  2  4  0  3  0.0000000  0  9G21G03G16G04G07G01G08G27G09
 -11126600.30147  -8659569.06845  22567565.257    22567563.4584   22567569.4614
       157.0004        160.0004
   7239975.37648   5660815.22246  24408219.964    24408221.0634   24408229.6974
       175.0004        175.0004
  19908092.19446  15774888.23545  24559251.891    24559249.3184   24559255.9914
       129.0004        137.0004
 -21007354.87749 -16350862.32047  20500325.859    20500326.8214   20500332.6284
       209.0004        208.0004
  -6376252.29847  -4951027.48246  23598325.934    23598325.9854   23598329.0034
       164.0004        166.0004
  -4144790.80247  -3216034.11545  23862190.006    23862190.3844   23862198.2594
       142.0004        147.0004
 -23860021.42549 -18564021.14048  20216630.868    20216631.5004   20216639.3954
       212.0004        213.0004
 -12755137.81749  -9912308.32848  22079527.501    22079528.3174   22079535.6004
       214.0004        213.0004
 -17874808.72349 -13900635.95847  20941397.362    20941397.7694   20941405.1774
       212.0004        212.0004
 21  2  4  0  3 30.0000000  0  9G21G03G16G04G07G01G08G27G09
 -11174872.63747  -8697183.84345  22558377.977    22558378.2474   22558383.8594
       159.0004        162.0004
   7293779.84748   5702740.69546  24418459.291    24418460.0294   24418468.4004
       173.0004        173.0004
  19984453.57846  15834390.55445  24573779.078    24573777.4494   24573786.1764
       129.0004        136.0004
 -20966529.88449 -16319050.63647  20508094.654    20508095.2424   20508101.4594
       209.0004        208.0004
  -6447045.93147  -5006191.31946  23584853.801    23584854.0724   23584858.5144
       164.0004        166.0004
  -4216967.77447  -3272275.85845  23848452.961    23848453.2154   23848463.3374
       141.0004        145.0004
 -23837866.34849 -18546757.42648  20220847.428    20220847.6864   20220855.3454
       212.0004        213.0004
 -12670082.27049  -9846031.28148  22095713.885    22095714.2264   22095721.3364
       213.0004        213.0004
 -17905644.96549 -13924664.19747  20935529.724    20935530.0924   20935537.2444
       212.0004        212.0004
 21  2  4  0  4  0.0000000  0  9G21G03G16G04G07G01G08G27G09
 -11222998.90847  -8734684.80645  22549220.683    22549220.0594   22549225.2074
       159.0004        162.0004
   7347368.84548   5744498.30946  24428657.932    24428657.7374   24428665.5044
       171.0004        172.0004
  20060653.23746  15893766.92145  24588281.517    24588280.3894   24588286.6184
       129.0004        136.0004
 -20925174.80849 -16286825.92747  20515964.559    20515964.9284   20515970.9774
       209.0004        208.0004
  -6517956.55947  -5061446.33346  23571358.403    23571359.3044   23571363.8134
       164.0004        164.0004
  -4289310.06547  -3328646.36945  23834684.149    23834686.3304   23834696.5434
       140.0004        144.0004
 -23815125.14949 -18529037.01147  20225175.129    20225175.2084   20225182.7074
       212.0004        212.0004
 -12584654.71149  -9779464.35148  22111969.492    22111969.9964   22111977.5604
       213.0004        213.0004
 -17935932.37649 -13948264.78947  20929766.482    20929766.7354   20929773.0304
       211.0004        211.0004
 21  2  4  0  4 30.0000000  0  9G21G03G16G04G07G01G08G27G09
 -11270975.90747  -8772069.44646  22540091.845    22540091.0554   22540095.2024
       160.0004        163.0004
   7400741.41348   5786087.33546  24438812.106    24438813.1784   24438821.7894
       171.0004        172.0004
  20136691.77246  15953017.71345  24602749.865    24602748.7364   24602756.8454
       128.0004        135.0004
 -20883290.33949 -16254188.68147  20523934.665    20523935.4324   20523941.2904
       209.0004        207.0004
  -6588982.38947  -5116791.11346  23557843.227    23557843.8814   23557847.8304
       164.0004        167.0004
  -4361814.60147  -3385143.34945  23820886.494    23820889.1614   23820900.6644
       139.0004        143.0004
 -23791798.36649 -18510860.27148  20229613.879    20229614.0444   20229621.6704
       212.0004        213.0004
 -12498857.20149  -9712609.15047  22128296.259    22128296.5134   22128304.4284
       212.0004        212.0004
 -17965669.12449 -13971436.26547  20924107.479    20924107.6854   20924114.3274
       211.0004        211.0004
 21  2  4  0  5  0.0000000  0  9G21G03G16G04G07G01G08G27G09
 -11318801.47447  -8809336.07345  22530989.016    22530988.6654   22530994.6454
       160.0004        162.0004
   7453895.38648   5827506.00946  24448928.133    24448929.5014   24448937.1254
       173.0004        175.0004
  20212567.92546  16012141.96345  24617189.940    24617188.6894   24617195.2044
       127.0004        134.0004
 -20840878.50149 -16221140.50347  20532005.615    20532006.0844   20532011.9444
       208.0004        207.0004
  -6660123.06148  -5172225.40446  23544305.006    23544306.4814   23544311.1464
       167.0004        169.0004
  -4434479.52547  -3441765.29545  23807061.120    23807063.8074   23807072.6314
       142.0004        148.0004
 -23767887.82349 -18492228.66847  20234163.471    20234163.8264   20234171.7024
       212.0004        212.0004
 -12412693.15649  -9645468.33347  22144693.371    22144693.1794   22144700.7264
       212.0004        212.0004
 -17994854.66049 -13994178.24447  20918553.689    20918553.9584   20918560.5284
       211.0004        211.0004
 21  2  4  0  5 30.0000000  0  9G21G03G16G04G07G01G08G27G09
 -11366472.88047  -8846482.56945  22521917.143    22521917.1174   22521922.9504
       160.0004        162.0004
   7506828.16548   5868752.30446  24459001.426    24459001.6024   24459009.7134
       174.0004        174.0004
  20288279.93846  16071138.30245  24631596.451    24631597.7244   24631602.3214
       126.0004        134.0004
 -20797941.72349 -16187683.28947  20540176.230    20540176.5384   20540182.7394
       208.0004        207.0004
  -6731377.88948  -5227748.63646  23530746.278    23530746.5874   23530751.5264
       168.0004        169.0004
  -4507303.47247  -3498511.15345  23793206.112    23793205.8364   23793214.5484
       144.0004        148.0004
 -23743395.09349 -18473143.41847  20238824.434    20238824.5714   20238832.5184
       211.0004        212.0004
 -12326166.44549  -9578044.91947  22161158.538    22161158.7454   22161166.1494
       212.0004        212.0004
 -18023488.95949 -14016490.69447  20913104.331    20913104.5654   20913111.5464
       210.0004        210.0004
 21  2  4  0  6  0.0000000  0  9G21G03G16G04G07G01G08G27G09
 -11413988.35347  -8883507.56346  22512877.261    22512876.5674   22512881.5094
       161.0004        164.0004
   7559537.99448   5909824.86946  24469030.473    24469031.2514   24469040.6934
       173.0004        174.0004
  20363827.22746  16130006.30445  24645972.052    24645972.2404   24645976.1414
       125.0004        134.0004
 -20754481.47749 -16153818.17247  20548446.371    20548446.8574   20548453.1814
       208.0004        206.0004
  -6802745.74048  -5283359.91346  23517165.843    23517166.4324   23517170.6774
       168.0004        170.0004
  -4580283.90447  -3555378.95045  23779317.020    23779317.4734   23779326.4814
       144.0004        148.0004
 -23718322.11949 -18453606.02047  20243595.628    20243595.9804   20243603.4554
       211.0004        212.0004
 -12239279.91549  -9510341.13447  22177692.267    22177693.2794   22177700.3954
       212.0004        212.0004
 -18051570.99149 -14038372.79647  20907760.719    20907761.0094   20907767.8304
       210.0004        210.0004
 21  2  4  0  6 30.0000000  0  9G21G03G16G04G07G01G08G27G09
 -11461344.48747  -8920408.41446  22503865.253    22503864.1574   22503869.2354
       162.0004        164.0004
   7612023.55548   5950722.67746  24479018.999    24479019.7804   24479028.6434
       172.0004        173.0004
  20439209.63546  16188745.82145  24660320.941    24660319.1444   24660324.2844
       128.0004        136.0004
 -20710499.12949 -16119546.23147  20556815.874    20556816.5344   20556822.4724
       208.0004        206.0004
  -6874224.54948  -5339057.65446  23503563.850    23503564.3974   23503568.7464
       169.0004        170.0004
  -4653418.37847  -3612366.81045  23765399.020    23765399.5734   23765410.1524
       143.0004        147.0004
 -23692669.58449 -18433617.02747  20248476.947    20248477.3044   20248485.0324
       211.0004        212.0004
 -12152036.24849  -9442359.06747  22194294.502    22194295.1144   22194301.9074
       212.0004        211.0004
 -18079099.56749 -14059823.65147  20902523.165    20902522.9064   20902529.4654
       211.0004        212.0004
 21  2  4  0  7  0.0000000  0  9G21G03G16G04G07G01G08G27G09
 -11508538.60247  -8957183.01746  22494883.913    22494883.3414   22494888.8854
       162.0004        164.0004
   7664283.30548   5991444.51546  24488963.502    24488964.4424   24488973.3184
       172.0004        173.0004
  20514426.67246  16247356.50745  24674631.732    24674632.0734   24674636.8254
       130.0004        138.0004
 -20665996.08449 -16084868.53147  20565284.449    20565284.9354   20565291.3384
       208.0004        206.0004
  -6945813.80748  -5394841.46946  23489941.164    23489941.9654   23489945.4904
       169.0004        171.0004
  -4726704.28747  -3669472.65545  23751451.400    23751453.1194   23751463.1184
       144.0004        148.0004
 -23666438.56549 -18413177.25447  20253468.601    20253469.2634   20253476.6964
       211.0004        212.0004
 -12064438.25049  -9374100.88147  22210964.755    22210964.8634   22210971.1764
       212.0004        212.0004
 -18106073.63949 -14080842.40047  20897388.823    20897389.4644   20897396.6104
       211.0004        211.0004
 21  2  4  0  7 30.0000000  0  9G21G03G16G04G07G01G08G27G09
 -11555567.73047  -8993829.06246  22485935.361    22485934.4754   22485940.0044
       164.0004        166.0004
   7716315.49748   6031989.03446  24498864.868    24498865.6024   24498874.3494
       171.0004        172.0004
  20589477.91446  16305837.95845  24688913.996    24688914.6404   24688919.1724
       133.0004        140.0004
 -20620973.95049 -16049786.35447  20573852.102    20573852.5644   20573858.4944
       207.0004        206.0004
  -7017512.04048  -5450710.22646  23476297.191    23476296.6274   23476301.2634
       170.0004        170.0004
  -4800139.20647  -3726694.61545  23737478.844    23737479.2134   23737489.0844
       145.0004        150.0004
 -23639630.37749 -18392287.74447  20258570.248    20258570.6164   20258577.9814
       211.0004        212.0004
 -11976488.79449  -9305568.84047  22227700.295    22227700.9044   22227707.4034
       212.0004        211.0004
 -18132492.27049 -14101428.33947  20892361.871    20892362.2434   20892369.0944
       211.0004        212.0004
 21  2  4  0  8  0.0000000  0  9G21G03G16G04G07G01G08G27G09
 -11602428.45047  -9030343.85046  22477015.323    22477015.9624   22477022.0084
       164.0004        166.0004
   7768119.00448   6072355.36946  24508722.187    24508723.1174   24508732.0074
       170.0004        170.0004
  20664363.14646  16364190.09745  24703164.108    24703164.4774   24703171.2314
       134.0004        139.0004
 -20575433.89349 -16014300.60647  20582518.028    20582518.6824   20582524.4704
       207.0004        206.0004
  -7089317.53148  -5506662.53146  23462631.780    23462632.8224   23462637.4154
       169.0004        170.0004
  -4873720.31247  -3784030.48745  23723475.828    23723477.0124   23723487.9314
       146.0004        151.0004
 -23612246.24849 -18370949.44847  20263781.195    20263781.7944   20263789.2294
       211.0004        212.0004
 -11888190.43949  -9236764.91447  22244503.660    22244503.4694   22244510.0634
       212.0004        212.0004
 -18158354.17549 -14121580.47147  20887440.699    20887441.0404   20887447.7494
       211.0004        212.0004
 21  2  4  0  8 30.0000000  0  8G21G03G04G07G01G08G27G09
 -11649116.55247  -9066724.17046  22468131.292    22468132.1004   22468137.1894
       164.0004        166.0004
   7819693.55548   6112543.32446  24518537.041    24518537.9844   24518546.1894
       169.0004        170.0004
 -20529376.16249 -15978411.47047  20591282.094    20591282.5744   20591289.0464
       207.0004        205.0004
  -7161227.42848  -5562696.21846  23448948.755    23448949.0714   23448953.4214
       170.0004        171.0004
  -4947443.70747  -3841477.22545  23709445.266    23709447.7244   23709458.9454
       148.0004        152.0004
 -23584286.02749 -18349162.25147  20269101.760    20269102.2914   20269109.8334
       211.0004        212.0004
 -11799544.62249  -9167690.26047  22261371.508    22261371.9844   22261379.2694
       212.0004        212.0004
 -18183657.05649 -14141297.01047  20882625.733    20882625.9804   20882632.9824
       211.0004        212.0004
 21  2  4  0  9  0.0000000  0  8G21G03G04G07G01G08G27G09
 -11695630.97547  -9102969.15146  22459279.748    22459279.7714   22459286.7184
       164.0004        165.0004
   7871036.83448   6152551.03646  24528307.192    24528308.4194   24528318.0554
       170.0004        171.0004
 -20482803.25149 -15942120.88247  20600144.944    20600145.5394   20600151.5964
       206.0004        205.0004
  -7233241.33548  -5618810.89746  23435244.251    23435244.5434   23435250.9424
       169.0004        170.0004
  -5021307.84447  -3899033.64545  23695391.050    23695391.4044   23695402.3614
       149.0004        152.0004
 -23555751.99449 -18326927.92547  20274532.184    20274532.0804   20274539.3334
       211.0004        212.0004
 -11710555.18049  -9098347.83447  22278305.419    22278306.5784   22278313.3944
       212.0004        212.0004
 -18208400.92149 -14160577.93547  20877917.044    20877917.5234   20877924.5934
       212.0004        212.0004
 21  2  4  0  9 30.0000000  0  8G21G03G04G07G01G08G27G09
 -11741970.36747  -9139077.74846  22450462.394    22450462.8384   22450468.1894
       164.0004        165.0004
   7922144.97848   6192375.51446  24538033.002    24538033.8734   24538042.1664
       169.0004        170.0004
 -20435719.02649 -15905431.89447  20609105.111    20609105.4154   20609111.0094
       206.0004        205.0004
  -7305359.99248  -5675007.23546  23421521.035    23421521.1854   23421526.4494
       170.0004        172.0004
  -5095312.41647  -3956699.49845  23681309.541    23681309.1924   23681319.2194
       149.0004        152.0004
 -23526647.73649 -18304249.28647  20280070.424    20280070.4754   20280078.0174
       211.0004        212.0004
 -11621227.24349  -9028741.65947  22295305.096    22295305.5204   22295312.1764
       212.0004        212.0004
 -18232587.20349 -14179424.39947  20873314.534    20873314.7574   20873321.7864
       212.0004        212.0004
 21  2  4  0 10  0.0000000  0  8G21G03G04G07G01G08G27G09
 -11788131.50147  -9175047.43746  22441679.126    22441678.5734   22441683.8744
       164.0004        167.0004
   7973016.48648   6232015.63346  24547713.294    24547714.0814   24547723.8204
       169.0004        171.0004
 -20388125.10549 -15868345.71047  20618161.391    20618161.9244   20618167.9294
       206.0004        204.0004
  -7377582.06948  -5731284.15846  23407779.096    23407779.4004   23407783.4394
       173.0004        176.0004
  -5169454.84947  -4014472.78145  23667199.997    23667201.7904   23667210.0904
       149.0004        152.0004
 -23496974.39749 -18281127.18547  20285717.136    20285717.5614   20285724.4214
       211.0004        212.0004
 -11531563.63149  -8958873.89647  22312368.519    22312367.7204   22312374.2354
       212.0004        212.0004
 -18256214.95549 -14197835.63647  20868818.385    20868818.8554   20868825.2364
       212.0004        212.0004
 21  2  4  0 10 30.0000000  0  8G21G03G04G07G01G08G27G09
 -11834111.92148  -9210876.31146  22432928.996    22432928.1554   22432933.4224
       165.0004        167.0004
   8023649.78848   6271470.11446  24557348.824    24557349.6724   24557359.1874
       171.0004        172.0004
 -20340023.22149 -15830863.73647  20627315.098    20627315.4884   20627321.1504
       205.0004        204.0004
  -7449906.28348  -5787640.67346  23394013.791    23394015.0694   23394019.3414
       173.0004        173.0004
  -5243732.75247  -4072351.62445  23653066.057    23653065.8824   23653074.8374
       150.0004        153.0004
 -23466733.80049 -18257563.08147  20291471.236    20291471.8074   20291479.2284
       211.0004        212.0004
 -11441567.37149  -8888746.94547  22329491.878    22329492.7774   22329500.0194
       212.0004        211.0004
 -18279283.47949 -14215811.11647  20864428.824    20864428.9094   20864435.5294
       212.0004        212.0004
 21  2  4  0 11  0.0000000  0  8G21G03G04G07G01G08G27G09
 -11879907.39448  -9246561.03846  22424213.154    22424213.8254   22424220.1954
       166.0004        167.0004
   8074044.60548   6310738.74346  24566938.645    24566939.1464   24566948.1154
       168.0004        169.0004
 -20291413.85149 -15792986.30247  20636565.331    20636565.6854   20636571.1674
       205.0004        204.0004
  -7522329.86348  -5844074.61246  23380234.634    23380234.7034   23380238.1984
       173.0004        176.0004
  -5318142.24447  -4130333.00145  23638907.595    23638907.9144   23638917.6484
       151.0004        154.0004
 -23435925.75749 -18233556.79347  20297333.589    20297334.0614   20297341.9084
       211.0004        212.0004
 -11351240.07849  -8818362.04047  22346681.018    22346681.3634   22346688.3064
       211.0004        210.0004
 -18301790.74249 -14233349.23647  20860146.042    20860146.2324   20860152.7814
       212.0004        212.0004
 21  2  4  0 11 30.0000000  0  8G21G03G04G07G01G08G27G09
 -11925516.93648  -9282100.92946  22415535.959    22415535.3144   22415540.0294
       166.0004        168.0004
   8124198.23448   6349819.46846  24576481.611    24576482.7824   24576491.2304
       166.0004        167.0004
 -20242299.88349 -15754715.69447  20645911.158    20645911.8464   20645917.9004
       205.0004        204.0004
  -7594852.54748  -5900585.80246  23366433.264    23366433.6234   23366437.1954
       174.0004        173.0004
  -5392682.04647  -4188415.91445  23624721.918    23624722.3754   23624730.9074
       151.0004        154.0004
 -23404553.26949 -18209110.69447  20303303.771    20303304.2704   20303311.8744
       211.0004        212.0004
 -11260585.81049  -8747722.35847  22363931.306    22363932.4974   22363938.8784
       210.0004        209.0004
 -18323737.18349 -14250450.36347  20855969.446    20855969.6734   20855976.6304
       212.0004        212.0004
 21  2  4  0 12  0.0000000  0  8G21G03G04G07G01G08G27G09
 -11970936.75048  -9317492.95946  22406891.564    22406892.4254   22406897.1414
       165.0004        166.0004
   8174109.93648   6388711.66346  24585980.139    24585981.1524   24585989.1544
       167.0004        168.0004
 -20192682.44949 -15716052.76447  20655353.013    20655353.6314   20655359.8444
       205.0004        204.0004
  -7667472.33148  -5957172.63446  23352613.322    23352614.1764   23352617.2154
       170.0004        169.0004
  -5467348.87547  -4246597.80845  23610514.247    23610514.1484   23610522.3434
       152.0004        155.0004
 -23372617.21349 -18184225.44447  20309381.658    20309381.8264   20309389.0994
       212.0004        212.0004
 -11169606.88949  -8676829.67347  22381244.973    22381245.6824   22381251.5594
       210.0004        210.0004
 -18345121.41049 -14267113.39647  20851899.819    20851900.3314   20851907.2024
       212.0004        212.0004
 21  2  4  0 12 30.0000000  0  8G21G03G04G07G01G08G27G09
 -12016163.32748  -9352734.40846  22398286.610    22398284.9614   22398291.3994
       165.0004        167.0004
   8223778.21748   6427414.17746  24595433.008    24595433.3834   24595441.2904
       169.0004        171.0004
 -20142563.13249 -15676998.76147  20664890.642    20664890.8754   20664897.0294
       205.0004        203.0004
  -7740187.64448  -6013833.90746  23338776.330    23338776.8254   23338779.9344
       170.0004        172.0004
  -5542140.05747  -4304876.58545  23596281.609    23596282.0244   23596290.3394
       153.0004        156.0004
 -23340118.49849 -18158901.76147  20315565.480    20315566.1574   20315573.3634
       212.0004        212.0004
 -11078306.10249  -8605686.18947  22398618.568    22398618.7764   22398625.7414
       209.0004        209.0004
 -18365942.60749 -14283337.71847  20847938.136    20847938.3694   20847944.7614
       212.0004        212.0004
 21  2  4  0 13  0.0000000  0  8G21G03G04G07G01G08G27G09
 -12061195.15248  -9387824.11446  22389717.416    22389716.4404   22389720.8954
       165.0004        167.0004
   8273201.02148   6465925.42746  24604837.848    24604837.8844   24604846.4354
       171.0004        172.0004
 -20091944.43349 -15637555.62547  20674523.648    20674523.7284   20674529.0894
       204.0004        203.0004
  -7812997.76148  -6070569.06046  23324921.555    23324921.7334   23324925.5634
       172.0004        174.0004
  -5617053.68547  -4363250.79745  23582026.590    23582026.8044   23582034.7454
       155.0004        157.0004
 -23307059.80049 -18133141.71847  20321856.915    20321856.8124   20321864.4834
       212.0004        212.0004
 -10986687.06449  -8534294.73947  22416052.333    22416053.3824   22416060.1634
       208.0004        208.0004
 -18386200.82449 -14299123.33247  20844082.699    20844082.9114   20844090.0224
       212.0004        212.0004
 21  2  4  0 13 30.0000000  0  8G21G03G04G07G01G08G27G09
 -12106028.96548  -9422759.52346  22381184.826    22381184.5044   22381190.4514
       165.0004        167.0004
   8322377.57448   6504244.78846  24614195.967    24614195.9784   24614204.0234
       171.0004        173.0004
 -20040827.39549 -15597724.17347  20684249.976    20684250.6604   20684256.8324
       204.0004        202.0004
  -7885900.55848  -6127376.37946  23311046.513    23311046.9114   23311053.4894
       172.0004        173.0004
  -5692086.47947  -4421717.82845  23567748.000    23567747.7824   23567756.6334
       155.0004        157.0004
 -23273441.63649 -18106945.72747  20328253.606    20328254.3624   20328261.0884
       211.0004        212.0004
 -10894751.95749  -8462656.98547  22433547.937    22433548.5874   22433554.9504
       208.0004        208.0004
 -18405894.63849 -14314469.15148  20840335.005    20840335.4884   20840342.9344
       212.0004        213.0004
 21  2  4  0 14  0.0000000  0  8G21G03G04G07G01G08G27G09
 -12150662.02648  -9457538.51546  22372691.985    22372692.0314   22372695.7664
       166.0004        168.0004
   8371305.94048   6542370.74246  24623506.066    24623506.4504   24623515.9874
       172.0004        172.0004
 -19989214.37949 -15557506.26047  20694071.778    20694072.0804   20694078.3334
       204.0004        202.0004
  -7958894.63948  -6184254.88846  23297157.248    23297158.4604   23297161.3534
       171.0004        172.0004
  -5767236.26947  -4480276.06145  23553446.561    23553446.7974   23553455.6524
       153.0004        155.0004
 -23239266.58849 -18080315.82247  20334757.591    20334757.8464   20334764.4714
       211.0004        212.0004
 -10802504.23149  -8390775.64447  22451102.790    22451103.2534   22451109.0354
       208.0004        208.0004
 -18425023.93549 -14329375.10748  20836695.356    20836695.7374   20836702.1224
       212.0004        213.0004
 21  2  4  0 14 30.0000000  0  8G21G03G04G07G01G08G27G09
 -12195090.85048  -9492158.33946  22364236.563    22364236.5624   22364241.9614
       166.0004        166.0004
   8419985.29148   6580302.65446  24632768.918    24632769.7024   24632778.5704
       172.0004        172.0004
 -19937106.65349 -15516902.84047  20703987.152    20703987.9414   20703993.9374
       203.0004        202.0004
  -8031978.21448  -6241203.12646  23283250.314    23283250.8804   23283254.9394
       171.0004        172.0004
  -5842499.91847  -4538922.99145  23539123.565    23539124.5874   23539133.5744
       152.0004        154.0004
 -23204535.38449 -18053252.55047  20341366.400    20341366.4674   20341373.8994
       211.0004        212.0004
 -10709946.22049  -8318652.51247  22468714.993    22468715.8534   22468722.4594
       208.0004        208.0004
 -18443587.56549 -14343840.28148  20833162.278    20833162.7244   20833169.9764
       212.0004        213.0004
 21  2  4  0 15  0.0000000  0  8G21G03G04G07G01G08G27G09
 -12239313.64947  -9526617.64146  22355820.593    22355820.2164   22355825.8614
       164.0004        165.0004
   8468412.95148   6618038.44846  24641983.722    24641984.5504   24641994.1294
       168.0004        168.0004
 -19884507.26449 -15475916.30947  20713997.074    20713997.3774   20714003.5294
       203.0004        202.0004
  -8105151.10648  -6298220.95146  23269326.334    23269325.9774   23269331.5524
       172.0004        174.0004
  -5917875.97247  -4597657.54045  23524780.194    23524779.9614   23524789.9424
       152.0004        155.0004
 -23169251.30349 -18025758.44647  20348080.142    20348080.3064   20348088.3774
       211.0004        211.0004
 -10617082.09849  -8246290.86047  22486386.587    22486386.9914   22486394.0904
       208.0004        207.0004
 -18461586.11349 -14357865.13848  20829737.243    20829737.6804   20829744.7674
       212.0004        213.0004
 21  2  4  0 15 30.0000000  0  8G21G03G04G07G01G08G27G09
 -12283328.29548  -9560914.74746  22347446.253    22347445.0334   22347450.7734
       165.0004        167.0004
   8516587.74848   6655577.21146  24651151.589    24651152.8854   24651161.4134
       169.0004        170.0004
 -19831418.00749 -15434548.05447  20724099.757    20724100.2854   20724106.2164
       203.0004        203.0004
  -8178411.78148  -6355307.16446  23255386.140    23255386.4724   23255389.6454
       173.0004        175.0004
  -5993361.67247  -4656477.48645  23510416.576    23510416.6884   23510426.1114
       153.0004        157.0004
 -23133415.12349 -17997834.13247  20354899.487    20354900.0054   20354907.6304
       211.0004        211.0004
 -10523914.65449  -8173692.83647  22504118.274    22504117.0354   22504123.6584
       208.0004        208.0004
 -18479018.99449 -14371449.19448  20826420.119    20826420.5184   20826427.6094
       213.0004        213.0004
 21  2  4  0 16  0.0000000  0  8G21G03G04G07G01G08G27G09
 -12327132.67148  -9595048.00146  22339109.327    22339109.6254   22339114.7114
       165.0004        166.0004
   8564506.97648   6692916.81146  24660271.444    24660272.1324   24660281.1154
       170.0004        172.0004
 -19777841.94549 -15392800.48847  20734294.434    20734295.0234   20734301.1854
       203.0004        202.0004
  -8251759.67248  -6412461.37746  23241427.110    23241427.2424   23241430.8074
       170.0004        169.0004
  -6068955.52147  -4715381.73945  23496030.234    23496032.1454   23496041.4474
       155.0004        158.0004
 -23097030.14849 -17969482.20047  20361822.951    20361823.8274   20361831.3434
       211.0004        211.0004
 -10430448.00649  -8100861.69347  22521901.825    22521903.1744   22521909.9044
       208.0004        207.0004
 -18495886.85649 -14384592.99648  20823210.290    20823210.4464   20823217.8434
       213.0004        213.0004
 21  2  4  0 16 30.0000000  0  8G21G03G04G07G01G08G27G09
 -12370721.49248  -9629013.28746  22330814.491    22330815.0674   22330820.5994
       165.0004        166.0004
   8612171.47548   6730057.91646  24669341.257    24669342.1884   24669351.4114
       170.0004        171.0004
 -19723778.82949 -15350673.38847  20744582.752    20744583.0724   20744589.1804
       203.0004        202.0004
  -8325191.05248  -6469680.61046  23227454.304    23227454.7294   23227458.2974
       170.0004        172.0004
  -6144652.72747  -4774366.51645  23481624.519    23481625.5374   23481635.4694
       154.0004        156.0004
 -23060095.63849 -17940702.05547  20368851.955    20368852.5414   20368859.7684
       211.0004        211.0004
 -10336682.93749  -8027797.99947  22539745.326    22539745.2384   22539752.5954
       207.0004        206.0004
 -18512186.97549 -14397294.38648  20820108.326    20820108.7044   20820115.7874
       213.0004        213.0004
 21  2  4  0 17  0.0000000  0  8G21G03G04G07G01G08G27G09
 -12414092.67548  -9662809.00646  22322562.350    22322562.9344   22322566.6564
       166.0004        168.0004
   8659579.34448   6766999.04446  24678362.300    24678363.0254   24678371.9254
       170.0004        171.0004
 -19669231.20249 -15308168.74847  20754962.443    20754963.2554   20754969.4834
       203.0004        202.0004
  -8398705.01548  -6526964.22246  23213464.183    23213464.4964   23213469.1554
       171.0004        171.0004
  -6220451.11747  -4833430.12945  23467201.013    23467202.2994   23467211.1784
       154.0004        156.0004
 -23022614.29549 -17911495.80647  20375984.180    20375984.3584   20375992.1474
       210.0004        211.0004
 -10242622.93549  -7954504.49647  22557643.080    22557644.0864   22557651.0224
       205.0004        205.0004
 -18527919.49849 -14409553.50148  20817114.676    20817115.0934   20817121.5414
       212.0004        213.0004
 21  2  4  0 17 30.0000000  0  8G21G03G04G07G01G08G27G09
 -12457243.96248  -9696433.34946  22314351.696    22314351.1774   22314356.3564
       167.0004        169.0004
   8706729.06448   6803739.03346  24687333.893    24687335.0344   24687343.7484
       169.0004        169.0004
 -19614201.09949 -15265288.15547  20765434.094    20765434.7524   20765441.4624
       203.0004        202.0004
  -8472300.17848  -6584311.08746  23199459.169    23199460.0274   23199463.7164
       170.0004        171.0004
  -6296348.15347  -4892570.60645  23452757.172    23452759.3894   23452769.1854
       154.0004        157.0004
 -22984587.77049 -17881864.73747  20383220.448    20383220.5944   20383228.6374
       210.0004        211.0004
 -10148271.10649  -7880983.59047  22575598.457    22575598.8884   22575606.1754
       205.0004        205.0004
 -18543084.10549 -14421370.07948  20814229.562    20814229.4354   20814236.3794
       213.0004        214.0004
 21  2  4  0 18  0.0000000  0  8G21G03G04G07G01G08G27G09
 -12500172.63848  -9729884.22346  22306180.951    22306180.3204   22306186.0214
       166.0004        165.0004
   8753619.26848   6840276.82846  24696258.786    24696258.8514   24696268.1964
       171.0004        173.0004
 -19558690.57749 -15222033.19747  20775998.080    20775998.2524   20776004.8784
       203.0004        201.0004
  -8545974.75048  -6641719.82146  23185440.683    23185441.2904   23185444.8274
       172.0004        174.0004
  -6372341.22647  -4951785.92645  23438298.213    23438298.1054   23438307.5154
       154.0004        157.0004
 -22946017.76849 -17851810.17847  20390559.939    20390560.4194   20390568.0624
       210.0004        211.0004
 -10053630.44349  -7807237.59547  22593607.708    22593607.9474   22593615.7734
       205.0004        205.0004
 -18557680.46249 -14432743.86248  20811451.504    20811452.0594   20811458.8214
       213.0004        214.0004
 21  2  4  0 18 30.0000000  0  8G21G03G04G07G01G08G27G09
 -12542876.81647  -9763160.17546  22298054.984    22298054.9074   22298060.6044
       164.0004        166.0004
   8800247.34348   6876610.34546  24705130.813    24705131.4984   24705141.8574
       170.0004        171.0004
 -19502702.96949 -15178406.50947  20786651.772    20786652.4234   20786658.3304
       203.0004        201.0004
  -8619728.57448  -6699190.32546  23171405.016    23171405.4424   23171409.7104
       172.0004        173.0004
  -6448428.92447  -5011074.98845  23423817.809    23423819.7254   23423828.5214
       154.0004        156.0004
 -22906907.72149 -17821334.81247  20398002.633    20398003.0114   20398010.6594
       210.0004        211.0004
  -9958705.16049  -7733269.85947  22611669.919    22611671.4234   22611679.1864
       204.0004        204.0004
 -18571709.48349 -14443675.57548  20808782.107    20808782.1584   20808789.1024
       213.0004        214.0004
 21  2  4  0 19  0.0000000  0  8G21G03G04G07G01G08G27G09
 -12585352.66448  -9796258.23546  22289973.028    22289972.9864   22289976.7094
       165.0004        166.0004
   8846613.20648   6912739.51646  24713953.766    24713954.2404   24713964.3154
       169.0004        169.0004
 -19446239.00449 -15134408.62047  20797397.201    20797397.3434   20797403.1814
       202.0004        201.0004
  -8693558.77648  -6756720.33546  23157355.872    23157355.9014   23157359.8294
       171.0004        172.0004
  -6524607.29147  -5070434.69245  23409321.911    23409322.7964   23409333.1094
       154.0004        157.0004
 -22867258.20849 -17790439.08047  20405547.816    20405548.0594   20405555.4404
       210.0004        211.0004
  -9863496.99849  -7659081.68047  22629788.998    22629789.0124   22629796.6004
       203.0004        203.0004
 -18585169.52849 -14454163.92648  20806220.775    20806220.8964   20806227.6684
       213.0004        214.0004
 21  2  4  0 19 30.0000000  0  8G21G03G04G07G01G08G27G09
 -12627598.67547  -9829177.18046  22281931.438    22281930.9584   22281937.9584
       163.0004        163.0004
   8892714.38248   6948662.46146  24722726.826    24722727.2724   24722737.4374
       169.0004        171.0004
 -19389301.83049 -15090042.00747  20808231.686    20808231.8784   20808238.3104
       203.0004        201.0004
  -8767464.95048  -6814309.54946  23143292.208    23143292.1414   23143297.3724
       172.0004        173.0004
  -6600874.59947  -5129863.71245  23394810.263    23394810.6144   23394819.7914
       154.0004        157.0004
 -22827072.03049 -17759125.16447  20413194.152    20413194.8284   20413202.8724
       210.0004        210.0004
  -9768009.96549  -7584676.20847  22647961.839    22647960.4614   22647967.1524
       203.0004        204.0004
 -18598061.38549 -14464209.54448  20803767.246    20803767.6844   20803774.6524
       213.0004        214.0004
 21  2  4  0 20  0.0000000  0  8G21G03G04G07G01G08G27G09
 -12669611.94547  -9861914.71046  22273936.023    22273936.0374   22273942.6414
       162.0004        164.0004
   8938549.54948   6984378.09946  24731450.588    24731451.1234   24731459.2744
       171.0004        173.0004
 -19331893.61149 -15045308.31447  20819155.676    20819156.3274   20819162.8524
       203.0004        201.0004
  -8841445.50148  -6871956.69746  23129212.517    23129213.8334   23129218.5304
       172.0004        172.0004
  -6677228.34247  -5189360.09245  23380279.722    23380280.4954   23380289.9524
       153.0004        155.0004
 -22786350.97749 -17727394.45347  20420944.296    20420944.4714   20420951.6734
       210.0004        211.0004
  -9672247.16549  -7510055.84547  22666182.773    22666183.3764   22666190.2914
       203.0004        204.0004
 -18610384.85849 -14473812.25048  20801422.268    20801422.4784   20801429.6034
       214.0004        214.0004
 21  2  4  0 20 30.0000000  0  8G21G03G04G07G01G08G27G09
 -12711389.85748  -9894468.94446  22265990.426    22265989.5904   22265992.7124
       166.0004        170.0004
   8984117.34248   7019885.36346  24740122.410    24740122.3764   24740130.3064
       171.0004        172.0004
 -19274016.43349 -15000209.23447  20830169.866    20830169.9874   20830176.7224
       203.0004        201.0004
  -8915498.78148  -6929660.55546  23115122.415    23115122.7294   23115126.5494
       172.0004        173.0004
  -6753665.73447  -5248921.64445  23365734.460    23365734.7524   23365743.7084
       152.0004        155.0004
 -22745097.10249 -17695248.57347  20428793.759    20428794.3494   20428802.2324
       210.0004        211.0004
  -9576211.53649  -7435222.90647  22684458.005    22684458.1774   22684464.9944
       202.0004        202.0004
 -18622139.68949 -14482971.88048  20799184.537    20799185.5644   20799192.6474
       213.0004        213.0004
 21  2  4  0 21  0.0000000  0  8G21G03G04G07G01G08G27G09
 -12752928.94848  -9926837.10146  22258085.216    22258085.5434   22258087.7834
       170.0004        171.0004
   9029416.76048   7055183.52646  24748738.544    24748740.1354   24748749.5884
       167.0004        167.0004
 -19215672.20549 -14954746.19947  20841272.137    20841272.3984   20841278.8494
       202.0004        201.0004
  -8989623.09048  -6987419.74546  23101016.838    23101017.1084   23101021.8184
       173.0004        175.0004
  -6830183.77347  -5308546.02845  23351172.871    23351173.8424   23351183.1964
       152.0004        155.0004
 -22703312.18749 -17662688.89247  20436745.681    20436745.9714   20436753.3624
       210.0004        211.0004
  -9479905.85149  -7360179.49647  22702784.717    22702784.9804   22702791.6514
       202.0004        202.0004
 -18633325.43349 -14491688.05848  20797056.834    20797057.0054   20797063.7684
       213.0004        213.0004
 21  2  4  0 21 30.0000000  0  8G21G03G04G07G01G08G27G09
 -12794226.88648  -9959017.29646  22250224.111    22250223.5764   22250229.8944
       168.0004        168.0004
   9074446.87148   7090271.83246  24757310.011    24757309.9724   24757319.4534
       166.0004        168.0004
 -19156862.69249 -14908920.61547  20852463.473    20852463.5414   20852470.1244
       202.0004        201.0004
  -9063816.48848  -7045232.76646  23086896.697    23086897.7204   23086902.0284
       174.0004        174.0004
  -6906779.40347  -5368230.87545  23336597.699    23336599.3684   23336606.2634
       152.0004        155.0004
 -22660997.69149 -17629716.54647  20444797.290    20444798.0494   20444805.3974
       210.0004        210.0004
  -9383332.75849  -7284927.71247  22721162.329    22721162.3794   22721169.3324
       203.0004        203.0004
 -18643941.54049 -14499960.36148  20795036.767    20795037.0994   20795043.4884
       213.0004        213.0004
 21  2  4  0 22  0.0000000  0  8G21G03G04G07G01G08G27G09
 -12835280.08848  -9991006.74746  22242409.289    22242409.1654   22242417.7174
       165.0004        165.0004
   9119206.92648   7125149.73546  24765827.982    24765828.7374   24765838.0814
       168.0004        170.0004
 -19097589.51849 -14862733.73947  20863742.638    20863743.0964   20863748.7904
       202.0004        201.0004
  -9138076.59648  -7103097.77546  23072766.176    23072766.9314   23072771.4144
       174.0004        176.0004
  -6983449.32447  -5427973.62845  23322007.761    23322008.1574   23322017.1634
       151.0004        155.0004
 -22618155.16449 -17596332.75947  20452950.508    20452950.8944   20452958.0884
       210.0004        210.0004
  -9286494.68949  -7209469.47947  22739589.752    22739589.9874   22739596.4384
       203.0004        202.0004
 -18653987.32449 -14507788.25048  20793125.099    20793125.1934   20793132.4904
       213.0004        214.0004
 21  2  4  0 22 30.0000000  0  8G21G03G04G07G01G08G27G09
 -12876086.39247 -10022803.83646  22234646.275    22234645.9604   22234652.9434
       164.0004        165.0004
   9163694.43848   7159815.26746  24774292.662    24774293.1964   24774303.9934
       169.0004        170.0004
 -19037855.98449 -14816188.12947  20875109.427    20875109.9064   20875115.7924
       202.0004        200.0004
  -9212402.95248  -7161014.39146  23058622.145    23058623.3054   23058627.7704
       175.0004        177.0004
  -7060191.84347  -5487772.94645  23307405.264    23307405.0874   23307414.0364
       152.0004        155.0004
 -22574787.74549 -17562539.94847  20461202.554    20461203.1024   20461210.9264
       210.0004        210.0004
  -9189395.71349  -7133807.94247  22758066.668    22758067.3204   22758073.6974
       202.0004        202.0004
 -18663463.73049 -14515172.47148  20791321.179    20791321.7814   20791328.8154
       214.0004        214.0004
 21  2  4  0 23  0.0000000  0  8G21G03G04G07G01G08G27G09
 -12916644.07748 -10054407.21146  22226929.228    22226928.5654   22226934.5894
       165.0004        167.0004
   9207908.23748   7194267.50946  24782707.756    24782707.5974   24782716.5574
       169.0004        169.0004
 -18977664.31549 -14769285.53747  20886563.741    20886564.0474   20886570.0834
       202.0004        200.0004
  -9286793.74648  -7218981.24746  23044467.655    23044467.7044   23044472.0224
       178.0004        180.0004
  -7137004.31047  -5547626.77245  23292787.318    23292787.7314   23292797.1004
       153.0004        156.0004
 -22530897.49849 -17528339.74647  20469554.762    20469555.1704   20469562.5044
       210.0004        210.0004
  -9092038.90649  -7057945.50047  22776592.754    22776593.6054   22776599.7244
       201.0004        201.0004
 -18672370.72149 -14522112.99948  20789626.755    20789626.8684   20789634.0594
       214.0004        214.0004
 21  2  4  0 23 30.0000000  0  8G21G03G04G07G01G08G27G09
 -12956950.83348 -10085815.05246  22219260.933    22219259.6174   22219264.3094
       169.0004        171.0004
   9251846.66348   7228505.16946  24791067.197    24791067.9314   24791077.8654
       168.0004        169.0004
 -18917017.16849 -14722028.01347  20898104.351    20898104.9544   20898110.8244
       202.0004        200.0004
  -9361247.82248  -7276997.38446  23030299.046    23030299.0814   23030303.4524
       178.0004        177.0004
  -7213884.29947  -5607533.21145  23278156.871    23278158.0414   23278166.5564
       154.0004        157.0004
 -22486486.74049 -17493733.94647  20478005.957    20478006.3264   20478013.7814
       209.0004        210.0004
  -8994427.65749  -6981884.77747  22795167.741    22795167.9614   22795174.7014
       201.0004        201.0004
 -18680708.67249 -14528610.10448  20788039.712    20788040.0224   20788047.3524
       213.0004        214.0004
 21  2  4  0 24  0.0000000  0  7G21G04G07G01G08G27G09
 -12996997.71748 -10117020.41746  22211639.710    22211638.7384   22211643.8324
       171.0004        172.0004
 -18855910.85149 -14674412.69947  20909732.752    20909733.0624   20909739.0564
       202.0004        200.0004
  -9435757.77448  -7335057.07746  23016120.805    23016120.6294   23016124.6354
       178.0004        179.0004
  -7290823.14347  -5667485.52245  23263515.492    23263516.7884   23263525.0844
       154.0004        156.0004
 -22441551.47749 -17458719.44347  20486556.372    20486557.2504   20486564.6804
       209.0004        210.0004
  -8896559.07649  -6905623.54647  22813791.872    22813791.8684   22813798.2584
       202.0004        202.0004
 -18688471.57749 -14534659.12648  20786562.929    20786563.1974   20786569.8504
       213.0004        214.0004
 21  2  4  0 24 30.0000000  0  7G21G04G07G01G08G27G09
 -13036789.36648 -10148026.87546  22204066.818    22204065.5924   22204071.3154
       170.0004        171.0004
 -18794354.98149 -14626447.08147  20921446.298    20921446.8444   20921452.2814
       202.0004        200.0004
  -9510329.21848  -7393164.68146  23001928.832    23001930.1444   23001934.2644
       178.0004        179.0004
  -7367825.44947  -5727487.27345  23248863.026    23248863.8304   23248872.0754
       154.0004        156.0004
 -22396101.27649 -17423303.68947  20495206.202    20495206.4544   20495213.6834
       210.0004        210.0004
  -8798443.48349  -6829169.83347  22832462.384    22832462.5934   22832468.9384
       201.0004        200.0004
 -18695666.79149 -14540265.79148  20785193.728    20785193.7974   20785200.7514
       214.0004        214.0004
 21  2  4  0 25  0.0000000  0  7G21G04G07G01G08G27G09
 -13076322.04048 -10178831.53946  22196543.747    22196543.5094   22196549.3614
       170.0004        172.0004
 -18732350.62449 -14578132.00047  20933245.018    20933245.8844   20933251.1814
       201.0004        199.0004
  -9584959.10848  -7451317.82146  22987727.918    22987729.1044   22987732.4854
       180.0004        182.0004
  -7444887.14047  -5787535.31345  23234199.578    23234200.2804   23234208.8564
       155.0004        158.0004
 -22350137.45049 -17387487.71347  20503952.557    20503953.0124   20503960.5944
       210.0004        210.0004
  -8700082.64949  -6752525.03247  22851180.659    22851181.0684   22851186.6894
       202.0004        203.0004
 -18702293.10149 -14545429.15548  20783932.446    20783932.9794   20783939.9314
       214.0004        214.0004
 21  2  4  0 25 30.0000000  0  7G21G04G07G01G08G27G09
 -13115593.29848 -10209432.50446  22189069.957    22189070.5634   22189075.7544
       169.0004        169.0004
 -18669900.25449 -14529469.38747  20945129.609    20945130.0184   20945135.4844
       201.0004        200.0004
  -9659645.60248  -7509515.08346  22973515.096    22973515.9794   22973519.6394
       179.0004        180.0004
  -7522005.60347  -5847627.57845  23219523.688    23219524.1024   23219533.6094
       156.0004        158.0004
 -22303661.65949 -17351272.80247  20512796.730    20512796.8974   20512804.3204
       209.0004        210.0004
  -8601479.79049  -6675691.63047  22869944.258    22869943.8124   22869949.8054
       202.0004        202.0004
 -18708350.71849 -14550149.38548  20782779.745    20782780.4894   20782787.4514
       214.0004        215.0004
 21  2  4  0 26  0.0000000  0  7G21G04G07G01G08G27G09
 -13154600.18448 -10239827.44746  22181646.611    22181647.1994   22181652.4854
       168.0004        168.0004
 -18607005.84849 -14480460.76647  20957097.453    20957098.0754   20957104.4074
       201.0004        200.0004
  -9734387.48548  -7567755.51746  22959292.402    22959292.7104   22959296.9444
       179.0004        180.0004
  -7599177.71847  -5907761.66045  23204838.412    23204839.5104   23204848.7874
       158.0004        161.0004
 -22256676.34549 -17314660.86047  20521737.298    20521737.8994   20521744.9964
       209.0004        209.0004
  -8502637.59349  -6598671.74947  22888752.704    22888752.5254   22888759.5794
       203.0004        202.0004
 -18713839.44949 -14554426.32148  20781735.914    20781735.8124   20781742.6844
       214.0004        215.0004
 21  2  4  0 26 30.0000000  0  7G21G04G07G01G08G27G09
 -13193339.17348 -10270013.65946  22174274.398    22174274.4244   22174280.4424
       167.0004        169.0004
 -18543669.02249 -14431107.39147  20969150.181    20969150.2454   20969156.4854
       201.0004        199.0004
  -9809181.82548  -7626036.80746  22945058.946    22945059.4904   22945065.1294
       180.0004        181.0004
  -7676399.91247  -5967934.77745  23190144.867    23190144.5104   23190152.8254
       159.0004        160.0004
 -22209182.22049 -17277652.43747  20530776.025    20530776.0104   20530783.1334
       209.0004        209.0004
  -8403558.30849  -6521467.10547  22907606.083    22907606.6464   22907613.7484
       202.0004        201.0004
 -18718758.61749 -14558259.45048  20780799.510    20780799.6984   20780806.4824
       214.0004        214.0004
 21  2  4  0 27  0.0000000  0  7G21G04G07G01G08G27G09
 -13231807.92148 -10299989.29546  22166954.209    22166954.2374   22166960.0974
       167.0004        168.0004
 -18479892.34849 -14381411.30247  20981286.991    20981287.3734   20981292.9964
       201.0004        200.0004
  -9884027.15348  -7684357.84146  22930818.066    22930818.5754   22930821.7044
       181.0004        183.0004
  -7753669.62747  -6028144.92845  23175441.197    23175440.5264   23175448.4354
       159.0004        161.0004
 -22161182.48649 -17240250.04947  20539909.376    20539909.7354   20539917.1904
       209.0004        209.0004
  -8304245.18549  -6444080.25847  22926504.131    22926505.2324   22926512.1034
       200.0004        200.0004
 -18723108.68049 -14561649.12048  20779971.386    20779971.9254   20779978.8634
       214.0004        214.0004
 21  2  4  0 27 30.0000000  0  7G21G04G07G01G08G27G09
 -13270004.73848 -10329752.98646  22159686.040    22159686.6284   22159692.4784
       168.0004        170.0004
 -18415678.97649 -14331374.90147  20993505.749    20993506.3604   20993512.0934
       201.0004        199.0004
  -9958922.35848  -7742717.73346  22916564.873    22916565.8264   22916569.8224
       182.0004        182.0004
  -7830984.77147  -6088390.44746  23160726.641    23160727.6414   23160736.4564
       160.0004        163.0004
 -22112679.57049 -17202455.55647  20549139.703    20549139.7784   20549147.1514
       209.0004        209.0004
  -8204702.02849  -6366514.15147  22945446.696    22945447.2934   22945454.0434
       200.0004        199.0004
 -18726890.47049 -14564595.96648  20779252.211    20779252.4994   20779259.4784
       214.0004        215.0004
 21  2  4  0 28  0.0000000  0  7G21G04G07G01G08G27G09
 -13307925.60848 -10359301.69346  22152471.135    22152470.7744   22152476.3324
       170.0004        172.0004
 -18351030.01249 -14280999.10247  21005807.654    21005808.5294   21005814.7614
       200.0004        199.0004
 -10033864.71148  -7801114.36746  22902303.498    22902304.1744   22902307.8924
       181.0004        181.0004
  -7908341.23447  -6148668.18446  23146007.337    23146008.2524   23146016.3824
       161.0004        164.0004
 -22063674.83549 -17164270.04647  20558465.119    20558465.2644   20558472.3564
       209.0004        210.0004
  -8104930.53149  -6288770.12347  22964432.994    22964433.3794   22964440.4514
       200.0004        199.0004
 -18730102.95049 -14567099.21548  20778640.785    20778641.2384   20778648.0884
       215.0004        215.0004
 21  2  4  0 28 30.0000000  0  7G21G04G07G01G08G27G09
 -13345568.47948 -10388633.78446  22145308.302    22145308.2144   22145312.4974
       172.0004        173.0004
 -18285948.55549 -14230286.27747  21018192.398    21018193.0794   21018199.1764
       200.0004        199.0004
 -10108852.85548  -7859546.66546  22888034.436    22888035.0354   22888039.0744
       182.0004        182.0004
  -7985736.80947  -6208976.38746  23131278.834    23131279.7514   23131288.6394
       162.0004        164.0004
 -22014171.03649 -17125695.64347  20567885.491    20567885.7164   20567892.3054
       209.0004        210.0004
  -8004934.37649  -6210851.05147  22983462.684    22983461.9054   22983469.1914
       199.0004        199.0004
 -18732747.04249 -14569159.55048  20778137.848    20778138.0064   20778144.8174
       215.0004        215.0004
 21  2  4  0 29  0.0000000  0  7G21G04G07G01G08G27G09
 -13382930.97548 -10417747.39246  22138198.616    22138197.8974   22138202.7944
       172.0004        174.0004
 -18220437.00649 -14179238.32947  21030659.046    21030659.6934   21030665.5554
       200.0004        198.0004
 -10183885.22748  -7918013.44846  22873755.500    22873755.5654   22873760.4494
       181.0004        180.0004
  -8063168.69347  -6269312.87946  23116544.398    23116544.4834   23116553.3164
       162.0004        163.0004
 -21964170.54949 -17086734.21247  20577400.208    20577400.3694   20577407.2844
       209.0004        209.0004
  -7904716.59649  -6132759.26647  23002533.275    23002533.1524   23002539.9264
       199.0004        199.0004
 -18734822.94149 -14570777.14248  20777742.538    20777743.0334   20777749.7974
       214.0004        214.0004
 21  2  4  0 29 30.0000000  0  7G21G04G07G01G08G27G09
 -13420010.69648 -10446640.66946  22131141.621    22131141.7214   22131146.9304
       173.0004        175.0004
 -18154498.09149 -14127857.36647  21043207.303    21043207.5954   21043213.1004
       200.0004        198.0004
 -10258960.11448  -7976513.35346  22859468.968    22859469.6694   22859474.0064
       179.0004        180.0004
  -8140634.29747  -6329675.63845  23101801.912    23101802.6074   23101810.3554
       160.0004        161.0004
 -21913675.93449 -17047387.75347  20587008.230    20587008.7704   20587016.3024
       209.0004        209.0004
  -7804280.41149  -6054497.30047  23021645.569    23021645.7704   23021652.5964
       198.0004        198.0004
 -18736331.26449 -14571952.46348  20777455.088    20777455.6714   20777462.6574
       214.0004        214.0004
 21  2  4  0 30  0.0000000  0  7G21G04G07G01G08G27G09
 -13456804.22648 -10475310.93846  22124139.761    22124139.3234   22124144.9554
       173.0004        172.0004
 -18088133.49449 -14076144.69747  21055835.388    21055836.1084   21055841.8704
       199.0004        198.0004
 -10334075.19548  -8035044.57146  22845176.473    22845176.8054   22845180.8484
       180.0004        181.0004
  -8218129.92247  -6390061.82145  23087055.354    23087056.4064   23087063.9204
       160.0004        162.0004
 -21862688.26149 -17007657.09147  20596710.508    20596711.3124   20596718.6654
       208.0004        208.0004
  -7703628.15449  -5976066.95447  23040798.152    23040799.5934   23040806.1704
       197.0004        197.0004
 -18737271.55549 -14572685.15748  20777276.053    20777276.7324   20777283.8264
       214.0004        214.0004
 21  2  4  0 30 30.0000000  0  7G21G04G07G01G08G27G09
 -13493310.37448 -10503757.27046  22117192.589    22117192.0844   22117198.5734
       172.0004        173.0004
 -18021347.47549 -14024103.64947  21068544.578    21068545.6214   21068550.2514
       199.0004        197.0004
 -10409229.91348  -8093606.67746  22830875.065    22830875.3304   22830879.1424
       181.0004        182.0004
  -8295654.54347  -6450470.59246  23072304.029    23072305.2504   23072311.9104
       161.0004        164.0004
 -21811212.34249 -16967545.97047  20606506.219    20606506.4864   20606514.0654
       208.0004        208.0004
  -7602764.59749  -5897471.97147  23059992.725    23059992.8164   23060000.2704
       197.0004        196.0004
 -18737645.88249 -14572976.84248  20777205.978    20777206.0804   20777212.8284
       215.0004        216.0004
 21  2  4  0 31  0.0000000  0  7G21G04G07G01G08G27G09
 -13529526.51948 -10531977.62446  22110301.352    22110301.9454   22110306.7784
       172.0004        172.0004
 -17954141.73949 -13971735.54947  21081334.160    21081334.2754   21081339.7264
       199.0004        197.0004
 -10484422.10548  -8152198.00746  22816566.070    22816566.8914   22816569.8294
       181.0004        182.0004
  -8373204.54447  -6510899.13646  23057546.806    23057547.0594   23057555.4544
       163.0004        165.0004
 -21759249.29849 -16927055.28747  20616393.698    20616394.7464   20616402.7534
       207.0004        208.0004
  -7501691.98749  -5818714.09847  23079224.988    23079226.1384   23079233.1414
       196.0004        196.0004
 -18737453.89349 -14572827.25148  20777242.136    20777242.2754   20777249.2114
       215.0004        216.0004
 21  2  4  0 31 30.0000000  0  7G21G04G07G01G08G27G09
 -13565450.11048 -10559970.00046  22103464.886    22103465.0544   22103470.2284
       171.0004        171.0004
 -17886518.91049 -13919042.44747  21094201.853    21094202.1344   21094208.4624
       199.0004        198.0004
 -10559650.27148  -8210817.36246  22802251.526    22802251.6614   22802254.3194
       181.0004        181.0004
  -8450776.97547  -6571345.15646  23042784.680    23042785.5384   23042794.1544
       163.0004        165.0004
 -21706801.91449 -16886187.19447  20626375.448    20626375.8274   20626382.9944
       208.0004        208.0004
  -7400413.40549  -5739795.73247  23098498.530    23098498.5144   23098505.6724
       196.0004        196.0004
 -18736696.08649 -14572236.76548  20777385.990    20777386.5544   20777393.5644
       215.0004        216.0004
 21  2  4  0 32  0.0000000  0  7G21G04G07G01G08G27G09
 -13601076.73448 -10587730.98046  22096685.512    22096685.8094   22096689.9344
       170.0004        171.0004
 -17818479.45549 -13866024.68947  21107148.978    21107149.3744   21107156.2114
       199.0004        197.0004
 -10634910.41248  -8269461.62346  22787928.578    22787928.6904   22787932.6984
       179.0004        179.0004
  -8528367.01147  -6631804.87446  23028018.828    23028019.4014   23028028.8004
       162.0004        163.0004
 -21653870.63349 -16844942.01847  20636448.166    20636448.4894   20636455.4454
       208.0004        209.0004
  -7298929.86849  -5660717.63647  23117809.149    23117809.6074   23117817.2174
       195.0004        194.0004
 -18735370.91249 -14571204.15948  20777638.591    20777638.9044   20777645.7104
       215.0004        216.0004
 21  2  4  0 32 30.0000000  0  7G21G04G07G01G08G27G09
 -13636403.61548 -10615258.41146  22089963.230    22089962.4044   22089968.9484
       171.0004        173.0004
 -17750025.79049 -13812684.19047  21120174.806    21120175.1444   21120182.5284
       198.0004        197.0004
 -10710200.13048  -8328128.93946  22773600.524    22773601.3784   22773606.0134
       178.0004        180.0004
  -8605971.56847  -6692275.95246  23013251.259    23013252.0024   23013260.5694
       161.0004        163.0004
 -21600457.41549 -16803321.33347  20646612.275    20646612.5814   20646619.3944
       208.0004        208.0004
  -7197244.16648  -5581482.03847  23137159.200    23137159.9404   23137167.9224
       194.0004        193.0004
 -18733478.58449 -14569729.63748  20777998.505    20777998.7754   20778005.6154
       215.0004        216.0004
 21  2  4  0 33  0.0000000  0  7G21G04G07G01G08G27G09
 -13671428.81848 -10642550.75846  22083298.258    22083297.1734   22083302.3004
       172.0004        173.0004
 -17681160.95049 -13759023.27347  21133279.476    21133280.0404   21133286.7594
       198.0004        196.0004
 -10785518.47948  -8386818.54446  22759269.769    22759269.7584   22759273.9384
       179.0004        180.0004
  -8683588.23947  -6752756.44146  22998481.449    22998482.2944   22998491.1404
       162.0004        164.0004
 -21546565.23949 -16761327.41347  20656867.291    20656867.6114   20656874.6834
       207.0004        207.0004
  -7095359.85448  -5502091.65947  23156547.355    23156548.0934   23156556.0754
       193.0004        193.0004
 -18731020.13549 -14567813.95848  20778466.268    20778466.6364   20778473.5734
       215.0004        215.0004
 21  2  4  0 33 30.0000000  0  7G21G04G07G01G08G27G09
 -13706151.43348 -10669607.31546  22076690.782    22076690.8424   22076694.7414
       172.0004        172.0004
 -17611889.18549 -13705045.29647  21146461.909    21146462.3384   21146468.6674
       198.0004        197.0004
 -10860865.25448  -8445530.31246  22744931.252    22744931.7614   22744935.2694
       180.0004        181.0004
  -8761215.77747  -6813245.38446  22983710.039    22983711.3434   22983719.2134
       162.0004        164.0004
 -21492198.00149 -16718963.32147  20667212.663    20667212.7824   20667220.3714
       207.0004        206.0004
  -6993281.60448  -5422550.17047  23175972.156    23175972.5794   23175981.1604
       192.0004        193.0004
 -18727997.74949 -14565458.86248  20779041.096    20779041.6324   20779048.6234
       215.0004        215.0004
 21  2  4  0 34  0.0000000  0  7G21G04G07G01G08G27G09
 -13740569.26148 -10696426.37646  22070141.313    22070140.7994   22070146.0594
       172.0004        173.0004
 -17542213.41949 -13650752.49447  21159720.860    21159721.4044   21159727.8664
       198.0004        197.0004
 -10936238.86148  -8504262.98646  22730587.476    22730587.4244   22730592.2384
       179.0004        179.0004
  -8838851.63147  -6873740.83546  22968936.259    22968936.5884   22968945.4264
       162.0004        163.0004
 -21437359.07449 -16676231.69047  20677647.820    20677648.1834   20677655.9494
       206.0004        206.0004
  -6891012.76448  -5342860.16047  23195434.481    23195434.1394   23195442.9144
       192.0004        193.0004
 -18724412.31549 -14562665.02948  20779723.873    20779724.0484   20779730.7474
       215.0004        215.0004
 21  2  4  0 34 30.0000000  0  7G21G04G07G01G08G27G09
 -13774679.18348 -10723005.49546  22063649.782    22063650.0544   22063654.2784
       172.0004        173.0004
 -17472135.52249 -13596146.33947  21173055.662    21173056.5024   21173062.8014
       198.0004        196.0004
 -11011636.53648  -8563014.40846  22716239.330    22716239.9634   22716244.8744
       178.0004        179.0004
  -8916492.10247  -6934239.86246  22954162.048    22954162.2024   22954170.7154
       162.0004        163.0004
 -21382049.77649 -16633133.52947  20688172.815    20688173.5924   20688180.9374
       206.0004        207.0004
  -6788555.55548  -5263023.38447  23214930.302    23214930.2434   23214939.1304
       190.0004        189.0004
 -18720263.69749 -14559432.34148  20780513.005    20780513.5104   20780520.4514
       214.0004        215.0004
 21  2  4  0 35  0.0000000  0  7G21G04G07G01G08G27G09
 -13808478.08248 -10749342.24846  22057217.988    22057217.8034   22057223.6914
       173.0004        174.0004
 -17401657.71749 -13541228.58047  21186467.481    21186468.2464   21186474.5714
       197.0004        197.0004
 -11087056.32048  -8621783.07346  22701888.382    22701888.6504   22701891.6374
       179.0004        181.0004
  -8994133.91047  -6994739.94145  22939386.102    22939386.7924   22939396.1074
       161.0004        162.0004
 -21326272.29349 -16589670.54747  20698787.590    20698788.2144   20698794.9554
       207.0004        207.0004
  -6685912.67548  -5183041.94347  23234463.238    23234463.5714   23234471.4484
       190.0004        191.0004
 -18715552.09749 -14555760.96348  20781409.701    20781410.1654   20781416.9364
       215.0004        215.0004
 21  2  4  0 35 30.0000000  0  7G21G04G07G01G08G27G09
 -13841962.73548 -10775434.15746  22050848.086    22050846.7394   22050851.1384
       174.0004        176.0004
 -17330781.77849 -13486000.58147  21199955.061    21199955.5904   21199961.8674
       198.0004        196.0004
 -11162495.32348  -8680566.69146  22687531.817    22687532.4204   22687537.0934
       180.0004        181.0004
  -9071773.16947  -7055238.04746  22924610.948    22924612.9184   22924621.0944
       161.0004        163.0004
 -21270028.33949 -16545844.06447  20709490.718    20709490.7804   20709498.0644
       207.0004        208.0004
  -6583086.26448  -5102917.45847  23254030.028    23254030.8824   23254038.6284
       190.0004        191.0004
 -18710277.32249 -14551650.74348  20782413.675    20782414.0254   20782420.6414
       215.0004        215.0004
 21  2  4  0 36  0.0000000  0  7G21G04G07G01G08G27G09
 -13875130.98748 -10801279.53646  22044535.236    22044534.1834   22044539.3754
       174.0004        174.0004
 -17259510.49349 -13430464.53547  21213517.361    21213517.7244   21213524.4884
       197.0004        196.0004
 -11237951.74148  -8739363.90146  22673173.157    22673173.6934   22673177.8844
       180.0004        180.0004
  -9149407.16747  -7115732.05146  22909839.935    22909840.0814   22909848.0304
       161.0004        164.0004
 -21213320.65949 -16501656.25847  20720281.499    20720281.9894   20720289.0334
       207.0004        207.0004
  -6480079.44748  -5022652.42247  23273631.283    23273631.9234   23273638.7424
       189.0004        189.0004
 -18704440.15149 -14547102.31848  20783524.949    20783524.9634   20783531.6924
       215.0004        216.0004
 21  2  4  0 36 30.0000000  0  7G21G04G07G01G08G27G09
 -13907981.16548 -10826877.05646  22038283.428    22038283.3184   22038288.7144
       174.0004        175.0004
 -17187847.22849 -13374623.03347  21227154.222    21227154.7254   21227161.0194
       197.0004        196.0004
 -11313424.38648  -8798173.73646  22658811.672    22658812.0574   22658816.2194
       180.0004        181.0004
  -9227033.59747  -7176220.12446  22895067.902    22895068.1364   22895077.2714
       162.0004        164.0004
 -21156152.37149 -16457109.52447  20731159.937    20731160.3874   20731167.8464
       206.0004        205.0004
  -6376895.91348  -4942249.65547  23293266.404    23293267.9264   23293274.8834
       190.0004        192.0004
 -18698041.97549 -14542116.73048  20784741.508    20784741.8604   20784749.1854
       215.0004        215.0004
 21  2  4  0 37  0.0000000  0  7G21G04G07G01G08G27G09
 -13940511.81648 -10852225.59946  22032093.587    22032093.1174   22032098.1674
       175.0004        175.0004
 -17115795.42249 -13318478.78947  21240865.823    21240866.0444   21240872.1814
       197.0004        196.0004
 -11388912.11848  -8856995.34846  22644446.246    22644447.2774   22644451.0614
       180.0004        181.0004
  -9304650.28847  -7236700.64646  22880298.215    22880298.3634   22880306.4624
       162.0004        164.0004
 -21098526.79649 -16412206.48147  20742125.951    20742126.0754   20742133.4854
       205.0004        205.0004
  -6273539.44348  -4861712.16647  23312935.106    23312935.4544   23312942.8464
       190.0004        191.0004
 -18691084.31149 -14536695.18848  20786065.626    20786066.3194   20786072.9084
       215.0004        215.0004
 21  2  4  0 37 30.0000000  0  7G21G04G07G01G08G27G09
 -13972719.52448 -10877322.49446  22025964.360    22025963.6794   22025968.9134
       175.0004        176.0004
 -17043356.78249 -13262033.10247  21254650.337    21254650.6454   21254656.4384
       196.0004        195.0004
 -11464411.97848  -8915826.38546  22630078.468    22630079.4294   22630084.7254
       182.0004        183.0004
  -9382253.29847  -7297170.49745  22865529.908    22865530.4494   22865539.1244
       161.0004        162.0004
 -21040445.60849 -16366948.40747  20753177.907    20753178.5144   20753185.9474
       205.0004        205.0004
  -6170012.01748  -4781041.45147  23332636.730    23332636.3154   23332642.9284
       190.0004        190.0004
 -18683566.91949 -14530837.48448  20787496.497    20787496.7654   20787503.5244
       215.0004        215.0004
 21  2  4  0 38  0.0000000  0  7G21G04G07G01G08G27G09
 -14004602.28148 -10902166.17346  22019897.384    22019897.7124   22019901.8714
       175.0004        176.0004
 -16970534.44249 -13205288.42247  21268507.372    21268507.9504   21268514.5614
       196.0004        195.0004
 -11539922.52948  -8974665.76946  22615710.327    22615710.7824   22615714.7494
       182.0004        183.0004
  -9459840.04947  -7357627.67246  22850766.177    22850766.3624   22850774.2824
       162.0004        164.0004
 -20981911.76549 -16321337.61147  20764317.063    20764317.0824   20764324.1974
       205.0004        205.0004
  -6066317.06448  -4700240.17447  23352368.514    23352368.9634   23352376.0434
       190.0004        191.0004
 -18675491.02049 -14524544.57848  20789033.397    20789033.5984   20789040.0924
       215.0004        215.0004
 21  2  4  0 38 30.0000000  0  7G21G04G07G01G08G27G09
 -14036157.57848 -10926754.68446  22013893.334    22013892.3724   22013897.9034
       175.0004        175.0004
 -16897331.24549 -13148246.99047  21282437.608    21282438.1464   21282444.2384
       196.0004        195.0004
 -11615442.02748  -9033512.15046  22601339.891    22601340.4124   22601343.5334
       183.0004        183.0004
  -9537407.71347  -7418069.96946  22836005.368    22836005.3834   22836014.7924
       162.0004        164.0004
 -20922928.14449 -16275376.33547  20775541.364    20775541.7254   20775548.7924
       205.0004        206.0004
  -5962457.74848  -4619310.85947  23372132.370    23372132.7764   23372139.8334
       191.0004        192.0004
 -18666857.56649 -14517817.21748  20790675.989    20790676.3664   20790683.1094
       215.0004        215.0004
 21  2  4  0 39  0.0000000  0  7G21G04G07G01G08G27G09
 -14067382.87748 -10951086.06246  22007951.115    22007950.4504   22007955.5234
       174.0004        174.0004
 -16823749.46449 -13090910.54347  21296440.425    21296440.7114   21296446.3464
       196.0004        194.0004
 -11690967.82148  -9092363.42546  22586967.884    22586968.1594   22586972.2604
       183.0004        185.0004
  -9614952.82947  -7478494.73146  22821249.178    22821249.1604   22821257.2674
       162.0004        164.0004
 -20863496.88849 -16229066.24847  20786850.816    20786851.0594   20786858.4804
       206.0004        206.0004
  -5858436.57148  -4538255.37447  23391927.506    23391927.4064   23391934.4554
       192.0004        192.0004
 -18657666.93049 -14510655.68948  20792425.177    20792425.3054   20792432.3374
       215.0004        215.0004
 21  2  4  0 39 30.0000000  0  7G21G04G07G01G08G27G09
 -14098275.82448 -10975158.44546  22002071.588    22002071.5364   22002076.2834
       174.0004        175.0004
 -16749792.00349 -13033281.35647  21310514.311    21310514.6184   21310520.1294
       196.0004        195.0004
 -11766498.21348  -9151218.24946  22572594.507    22572595.2384   22572599.5384
       185.0004        186.0004
  -9692472.67347  -7538899.78746  22806497.178    22806497.3814   22806506.5914
       162.0004        164.0004
 -20803620.92649 -16182409.63447  20798244.583    20798244.8284   20798252.5544
       205.0004        205.0004
  -5754256.66148  -4457076.23247  23411752.124    23411752.3674   23411759.1514
       192.0004        192.0004
 -18647920.12049 -14503060.77248  20794279.312    20794279.8754   20794287.1674
       214.0004        215.0004
 21  2  4  0 40  0.0000000  0  7G21G04G07G01G08G27G09
 -14128832.78948 -10998969.02946  21996257.468    21996256.7354   21996261.7574
       174.0004        175.0004
 -16675460.55249 -12975360.76747  21324658.101    21324659.0914   21324664.9484
       196.0004        195.0004
 -11842030.46348  -9210074.54346  22558221.098    22558221.6214   22558225.7284
       185.0004        186.0004
  -9769963.00047  -7599281.81646  22791750.895    22791751.8364   22791760.6274
       163.0004        165.0004
 -20743301.41449 -16135407.41447  20809722.590    20809723.0084   20809730.8374
       205.0004        204.0004
  -5649919.94948  -4375774.91047  23431606.660    23431607.4034   23431613.8724
       193.0004        194.0004
 -18637616.98949 -14495032.37548  20796239.838    20796240.3394   20796247.4624
       214.0004        214.0004
 21  2  4  0 40 30.0000000  0  7G21G04G07G01G08G27G09
 -14159052.24348 -11022516.62546  21990504.961    21990505.9874   21990511.6134
       174.0004        174.0004
 -16600758.27949 -12917151.19347  21338873.691    21338874.2634   21338880.1894
       196.0004        194.0004
 -11917562.47848  -9268930.64246  22543847.985    22543848.6754   22543852.5554
       185.0004        185.0004
  -9847421.30048  -7659638.88746  22777011.933    22777012.7294   22777020.7424
       165.0004        168.0004
 -20682541.87249 -16088062.30747  20821285.191    20821285.2094   20821293.0994
       204.0004        204.0004
  -5545429.89048  -4294354.06647  23451490.552    23451490.6924   23451496.7284
       192.0004        192.0004
 -18626758.86849 -14486571.49748  20798306.837    20798306.9374   20798313.8984
       214.0004        215.0004
 21  2  4  0 41  0.0000000  0  7G21G04G07G01G08G27G09
 -14188932.71048 -11045800.05746  21984818.282    21984819.2254   21984824.4294
       173.0004        173.0004
 -16525688.33849 -12858655.14347  21353158.718    21353159.5204   21353165.9874
       196.0004        195.0004
 -11993093.07648  -9327785.64246  22529475.339    22529474.9484   22529479.7144
       185.0004        185.0004
  -9924844.94748  -7719968.95846  22762278.922    22762279.1934   22762287.4584
       167.0004        170.0004
 -20621344.80849 -16040376.27147  20832929.793    20832930.4024   20832938.3234
       204.0004        204.0004
  -5440789.76648  -4212816.31247  23471402.480    23471402.9284   23471409.4264
       192.0004        191.0004
 -18615347.04349 -14477679.17148  20800477.916    20800478.2784   20800485.2744
       214.0004        214.0004
 21  2  4  0 41 30.0000000  0  7G21G04G07G01G08G27G09
 -14218471.87648 -11068817.55946  21979197.397    21979197.8254   21979202.8174
       172.0004        173.0004
 -16450253.92949 -12799875.10047  21367514.177    21367514.7454   21367520.6104
       195.0004        194.0004
 -12068620.43548  -9386638.12247  22515102.745    22515102.8614   22515107.1484
       187.0004        188.0004
 -10002231.35948  -7780270.02446  22747553.012    22747553.4654   22747561.0824
       168.0004        169.0004
 -20559713.76549 -15992352.06847  20844658.328    20844658.7714   20844665.9124
       204.0004        204.0004
  -5336002.99548  -4131164.27347  23491343.261    23491343.8454   23491349.5274
       191.0004        193.0004
 -18603382.96649 -14468356.51148  20802754.841    20802755.0924   20802762.1794
       214.0004        214.0004
 21  2  4  0 42  0.0000000  0  7G21G04G07G01G08G27G09
 -14247665.99948 -11091566.20546  21973642.817    21973642.4684   21973647.9834
       172.0004        173.0004
 -16374456.30649 -12740812.01547  21381937.611    21381938.1064   21381944.2424
       195.0004        193.0004
 -12144141.11748  -9445485.39846  22500731.606    22500732.2154   22500735.7154
       187.0004        187.0004
 -10079575.91448  -7840538.45046  22732834.340    22732834.8434   22732842.8494
       168.0004        169.0004
 -20497649.84649 -15943990.55447  20856469.490    20856469.7344   20856476.1864
       204.0004        205.0004
  -5231070.94348  -4049399.05347  23511310.729    23511311.4494   23511317.3324
       191.0004        190.0004
 -18590866.02949 -14458603.05548  20805136.813    20805137.0064   20805143.9244
       214.0004        215.0004
 21  2  4  0 42 30.0000000  0  7G21G04G07G01G08G27G09
 -14276512.87648 -11114044.27446  21968153.217    21968153.0654   21968158.9574
       172.0004        173.0004
 -16298298.46148 -12681468.25747  21396429.480    21396430.5324   21396436.5934
       194.0004        193.0004
 -12219653.21448  -9504326.00746  22486362.209    22486362.6854   22486365.9834
       186.0004        187.0004
 -10156875.79348  -7900772.09046  22718125.145    22718124.9874   22718133.3814
       169.0004        170.0004
 -20435156.29849 -15895294.27947  20868361.552    20868361.8354   20868369.1104
       204.0004        205.0004
  -5125996.80848  -3967523.10247  23531306.728    23531306.3694   23531311.7234
       189.0004        189.0004
 -18577797.48249 -14448419.78448  20807623.324    20807623.8114   20807630.8934
       215.0004        215.0004
 21  2  4  0 43  0.0000000  0  7G21G04G07G01G08G27G09
 -14305010.50948 -11136250.19546  21962732.097    21962730.6284   21962736.3334
       173.0004        174.0004
 -16221783.46848 -12621846.19747  21410990.734    21410991.0014   21410997.2314
       194.0004        193.0004
 -12295154.90848  -9563158.47846  22471994.693    22471994.9574   22471999.2064
       187.0004        187.0004
 -10234128.23748  -7960968.74446  22703423.591    22703424.3004   22703432.5594
       168.0004        169.0004
 -20372235.70749 -15846265.23447  20880334.704    20880334.5554   20880342.2684
       204.0004        203.0004
  -5020783.75548  -3885538.92647  23551327.768    23551327.7954   23551333.7974
       190.0004        191.0004
 -18564178.64949 -14437807.70448  20810215.203    20810215.3734   20810222.4034
       215.0004        215.0004
 21  2  4  0 43 30.0000000  0  7G21G04G07G01G08G27G09
 -14333157.38948 -11158182.81846  21957374.761    21957373.7434   21957380.3424
       173.0004        175.0004
 -16144914.68648 -12561948.45947  21425618.175    21425618.5944   21425624.9504
       194.0004        193.0004
 -12370644.83348  -9621981.79847  22457629.782    22457629.8464   22457633.6774
       187.0004        188.0004
 -10311330.73248  -8021126.48946  22688731.752    22688732.0564   22688741.7074
       169.0004        171.0004
 -20308891.11849 -15796905.81047  20892387.988    20892388.6984   20892396.1524
       203.0004        203.0004
  -4915435.31648  -3803449.24547  23571374.469    23571374.9704   23571380.9564
       190.0004        191.0004
 -18550011.15649 -14426768.10348  20812911.081    20812911.3804   20812918.5784
       215.0004        215.0004
 21  2  4  0 44  0.0000000  0  7G21G04G07G01G08G27G09
 -14360950.20848 -11179839.54646  21952086.014    21952085.9304   21952091.2944
       175.0004        176.0004
 -16067694.19948 -12501776.65147  21440312.420    21440313.3744   21440319.0854
       194.0004        193.0004
 -12446119.94848  -9680793.57347  22443266.385    22443267.8704   22443271.0794
       188.0004        188.0004
 -10388479.44748  -8081242.32546  22674050.217    22674051.5244   22674059.7084
       169.0004        170.0004
 -20245124.74949 -15747217.71247  20904522.020    20904522.5064   20904530.6164
       203.0004        203.0004
  -4809953.61748  -3721255.71047  23591446.987    23591446.8704   23591453.5214
       190.0004        190.0004
 -18535295.28449 -14415301.19548  20815711.945    20815712.0284   20815718.8574
       215.0004        215.0004
 21  2  4  0 44 30.0000000  0  7G21G04G07G01G08G27G09
 -14388386.96548 -11201218.82146  21946864.894    21946865.1114   21946871.2864
       175.0004        176.0004
 -15990124.80148 -12441332.98647  21455073.529    21455074.2944   21455080.4294
       194.0004        192.0004
 -12521578.30748  -9739592.29547  22428907.525    22428908.0314   22428912.6554
       188.0004        189.0004
 -10465571.27648  -8141313.85046  22659380.716    22659381.5874   22659390.1194
       170.0004        171.0004
 -20180939.12749 -15697202.94247  20916736.202    20916736.9954   20916744.6724
       202.0004        203.0004
  -4704341.60248  -3638960.61846  23611543.427    23611543.7594   23611551.3204
       188.0004        187.0004
 -18520032.17549 -14403407.87348  20818615.870    20818616.1654   20818623.3214
       214.0004        214.0004
 21  2  4  0 45  0.0000000  0  7G21G04G07G01G08G27G09
 -14415465.58648 -11222319.00546  21941711.747    21941711.4814   21941717.5334
       176.0004        177.0004
 -15912209.40248 -12380619.69347  21469900.992    21469901.0194   21469906.7394
       193.0004        192.0004
 -12597017.95048  -9798376.40347  22414553.001    22414552.3994   22414556.7014
       188.0004        189.0004
 -10542603.29348  -8201338.74646  22644720.350    22644722.0094   22644731.2054
       170.0004        171.0004
 -20116337.58549 -15646864.03847  20929029.709    20929030.0554   20929037.7824
       202.0004        202.0004
  -4598602.22848  -3556566.32846  23631665.886    23631666.0684   23631672.8614
       187.0004        186.0004
 -18504223.00549 -14391089.02648  20821624.303    20821624.6664   20821631.0484
       214.0004        214.0004
 21  2  4  0 45 30.0000000  0  7G21G04G07G01G08G27G09
 -14442184.33648 -11243138.81846  21936628.143    21936627.7884   21936632.4514
       176.0004        177.0004
 -15833951.43648 -12319639.47747  21484792.418    21484792.9124   21484798.7294
       193.0004        192.0004
 -12672437.22348  -9857144.65647  22400199.528    22400200.3384   22400204.6564
       188.0004        188.0004
 -10619572.84348  -8261314.97646  22630075.367    22630075.8854   22630085.7534
       170.0004        173.0004
 -20051323.01349 -15596203.33247  20941401.349    20941401.7814   20941409.2984
       202.0004        201.0004
  -4492738.97148  -3474075.46646  23651812.577    23651811.4814   23651817.8694
       186.0004        185.0004
 -18487869.52549 -14378346.07148  20824736.334    20824736.7524   20824743.1284
       214.0004        214.0004
 21  2  4  0 46  0.0000000  0  7G21G04G07G01G08G27G09
 -14468541.47248 -11263676.82146  21931612.239    21931611.4974   21931616.5454
       176.0004        176.0004
 -15755354.20448 -12258394.90247  21499749.243    21499749.5664   21499755.0914
       193.0004        192.0004
 -12747834.47448  -9915895.75446  22385852.258    22385852.3834   22385856.8244
       187.0004        187.0004
 -10696477.38048  -8321240.55946  22615441.891    22615442.0734   22615450.8434
       171.0004        173.0004
 -19985899.06849 -15545223.61947  20953850.966    20953851.6174   20953859.3114
       202.0004        202.0004
  -4386755.20648  -3391490.74246  23671980.236    23671979.9174   23671986.5674
       186.0004        187.0004
 -18470973.44449 -14365180.28248  20827951.962    20827951.9124   20827958.8264
       214.0004        215.0004
 21  2  4  0 46 30.0000000  0  7G21G04G07G01G08G27G09
 -14494534.52048 -11283931.11946  21926665.608    21926665.2964   21926670.5854
       177.0004        177.0004
 -15676420.19248 -12196887.89347  21514769.836    21514770.1074   21514776.1984
       193.0004        192.0004
 -12823207.18648  -9974627.71847  22371508.948    22371509.7444   22371513.6934
       187.0004        188.0004
 -10773313.38948  -8381112.73846  22600820.500    22600820.7014   22600828.8054
       171.0004        172.0004
 -19920067.98249 -15493926.65647  20966378.501    20966378.7874   20966386.4394
       202.0004        202.0004
  -4280653.49448  -3308814.06046  23692170.656    23692170.6554   23692176.5774
       186.0004        187.0004
 -18453535.52149 -14351592.28448  20831269.584    20831270.1044   20831276.9324
       214.0004        214.0004
 21  2  4  0 47  0.0000000  0  8G30G21G04G07G01G08G27G09
  -1306283.46556   -999552.58145  24279967.865                    24279974.6824
       131.0004        152.0004
 -14520160.97048 -11303899.77546  21921789.498    21921788.5734   21921794.3754
       177.0004        178.0004
 -15597152.25848 -12135120.68147  21529853.957    21529854.4944   21529860.8294
       192.0004        191.0004
 -12898553.17348 -10033338.88247  22357171.890    22357172.2074   22357176.0954
       188.0004        188.0004
 -10850077.78848  -8440929.09946  22586211.338    22586212.1494   22586220.8104
       170.0004        170.0004
 -19853832.01849 -15442314.21147  20978982.079    20978982.9174   20978991.1154
       201.0004        201.0004
  -4174436.64348  -3226047.70447  23712384.019    23712383.7704   23712388.7754
       188.0004        189.0004
 -18435557.03249 -14337583.07848  20834691.547    20834691.5544   20834698.4314
       214.0004        215.0004
 21  2  4  0 47 30.0000000  0  8G30G21G04G07G01G08G27G09
  -1390266.81947  -1064994.13245  24263986.258    24263985.8124   24263993.4194
       149.0004        156.0004
 -14545419.04948 -11323581.38246  21916982.153    21916982.1394   21916988.3914
       177.0004        178.0004
 -15517553.02048 -12073095.31547  21545000.565    21545001.4454   21545007.4624
       192.0004        191.0004
 -12973870.11348 -10092027.38846  22342839.327    22342840.0234   22342843.3264
       188.0004        187.0004
 -10926767.14848  -8500687.00446  22571617.236    22571617.9864   22571627.4044
       170.0004        171.0004
 -19787194.52349 -15390388.87647  20991663.154    20991663.6734   20991671.6604
       201.0004        201.0004
  -4068107.29448  -3143193.66347  23732618.485    23732617.1354   23732622.6654
       187.0004        188.0004
 -18417038.94949 -14323153.41148  20838214.877    20838215.0294   20838222.1044
       214.0004        214.0004
 21  2  4  0 48  0.0000000  0  8G30G21G04G07G01G08G27G09
  -1474358.82747  -1130520.34245  24247983.743    24247983.1754   24247990.3434
       152.0004        156.0004
 -14570307.58948 -11342975.04946  21912246.370    21912246.4164   21912252.0664
       179.0004        179.0004
 -15437626.58148 -12010814.97947  21560210.909    21560211.4144   21560216.9324
       193.0004        193.0004
 -13049157.10248 -10150692.55147  22328512.146    22328512.6394   22328517.4454
       187.0004        188.0004
 -11003379.61448  -8560384.99546  22557039.511    22557040.0674   22557048.1224
       170.0004        171.0004
 -19720159.09349 -15338153.46047  21004418.977    21004419.8184   21004427.8604
       200.0004        200.0004
  -3961669.53848  -3060255.15547  23752872.223    23752871.3684   23752877.2054
       187.0004        188.0004
 -18397983.80549 -14308305.24148  20841840.356    20841841.0294   20841848.3034
       214.0004        214.0004
 21  2  4  0 48 30.0000000  0  8G30G21G04G07G01G08G27G09
  -1558555.92347  -1196128.46745  24231961.430    24231960.4914   24231967.2334
       152.0004        154.0004
 -14594822.15948 -11362077.29746  21907581.038    21907581.1514   21907586.7074
       179.0004        179.0004
 -15357373.52348 -11948280.14647  21575482.248    21575482.9214   21575488.9734
       193.0004        192.0004
 -13124409.62548 -10209330.84947  22314191.349    22314192.3494   22314197.9204
       188.0004        189.0004
 -11079909.70448  -8620018.80546  22542476.319    22542476.9754   22542484.8184
       169.0004        171.0004
 -19652725.78949 -15285608.01947  21017251.592    21017252.2844   21017259.5754
       200.0004        201.0004
  -3855123.86048  -2977232.55846  23773145.023    23773145.0814   23773151.9854
       186.0004        185.0004
 -18378390.52949 -14293037.75448  20845569.238    20845569.8434   20845576.7614
       214.0004        215.0004
 21  2  4  0 49  0.0000000  0  8G30G21G04G07G01G08G27G09
  -1642856.44547  -1261817.16045  24215917.812    24215918.0694   24215926.0324
       151.0004        153.0004
 -14618960.03348 -11380886.04546  21902988.180    21902988.5644   21902993.2274
       179.0004        179.0004
 -15276796.25748 -11885492.69847  21590815.878    21590816.2214   21590821.9094
       192.0004        191.0004
 -13199625.08148 -10267940.29447  22299879.689    22299880.4054   22299884.1454
       189.0004        189.0004
 -11156353.84448  -8679585.64846  22527928.422    22527929.6754   22527938.9464
       170.0004        171.0004
 -19584897.72449 -15232754.97947  21030159.797    21030159.6814   21030166.9814
       200.0004        201.0004
  -3748472.78748  -2894127.83946  23793440.168    23793439.4714   23793447.1724
       184.0004        184.0004
 -18358260.09149 -14277351.70948  20849400.455    20849400.8714   20849407.2344
       214.0004        215.0004
 21  2  4  0 49 30.0000000  0  8G30G21G04G07G01G08G27G09
  -1727257.62347  -1327584.28045  24199857.102    24199858.0684   24199865.4394
       153.0004        156.0004
 -14642717.39948 -11399398.26146  21898468.246    21898467.6114   21898472.0794
       179.0004        180.0004
 -15195896.21648 -11822453.71347  21606209.972    21606210.5534   21606217.0274
       192.0004        191.0004
 -13274799.50148 -10326517.75147  22285574.475    22285574.6374   22285578.1394
       188.0004        188.0004
 -11232707.42048  -8739081.89246  22513398.886    22513400.3354   22513408.3394
       170.0004        171.0004
 -19516675.97349 -15179595.16047  21043141.515    21043141.5484   21043149.3324
       200.0004        201.0004
  -3641717.62648  -2810941.99746  23813752.909    23813754.4914   23813761.2514
       182.0004        182.0004
 -18337592.34149 -14261246.96948  20853333.009    20853333.6344   20853340.3564
       214.0004        215.0004
 21  2  4  0 50  0.0000000  0  8G30G21G04G07G01G08G27G09
  -1811759.22847  -1393429.66845  24183776.041    24183777.4794   24183785.3734
       155.0004        158.0004
 -14666094.10248 -11417613.85846  21894018.735    21894019.2784   21894023.8604
       179.0004        180.0004
 -15114677.54948 -11759166.45347  21621665.282    21621665.7654   21621672.4834
       191.0004        190.0004
 -13349932.24548 -10385062.72147  22271275.638    22271276.8524   22271280.8344
       188.0004        188.0004
 -11308968.49748  -8798506.06646  22498887.102    22498887.2164   22498897.3594
       170.0004        171.0004
 -19448064.70349 -15126131.82847  21056197.349    21056197.7334   21056205.6764
       200.0004        200.0004
  -3534862.40348  -2727678.19146  23834086.389    23834088.1644   23834095.9974
       182.0004        182.0004
 -18316389.86249 -14244725.56048  20857367.948    20857368.0084   20857374.9994
       214.0004        214.0004
 21  2  4  0 50 30.0000000  0  8G30G21G04G07G01G08G27G09
  -1896360.57747  -1459352.76645  24167677.376    24167678.4374   24167686.3734
       156.0004        158.0004
 -14689088.27948 -11435531.37546  21889643.980    21889643.0104   21889648.3724
       179.0004        180.0004
 -15033143.70248 -11695633.59847  21637181.324    21637181.7114   21637187.0524
       191.0004        191.0004
 -13425021.59948 -10443573.89747  22256987.990    22256988.6494   22256991.6394
       188.0004        188.0004
 -11385134.47548  -8857856.13846  22484393.300    22484394.5364   22484402.7604
       171.0004        172.0004
 -19379067.08549 -15072367.43347  21069326.703    21069327.5984   21069335.7104
       200.0004        199.0004
  -3427910.54148  -2644339.05946  23854440.586    23854441.6524   23854446.5994
       182.0004        182.0004
 -18294654.64849 -14227789.02348  20861503.974    20861504.2134   20861510.7714
       214.0004        214.0004
 21  2  4  0 51  0.0000000  0  8G30G21G04G07G01G08G27G09
  -1981061.90447  -1525353.76645  24151561.155    24151561.2394   24151568.0264
       157.0004        160.0004
 -14711699.01548 -11453150.10346  21885340.914    21885340.5644   21885345.9064
       179.0004        179.0004
 -14951299.12348 -11631858.60947  21652755.756    21652756.1434   21652762.2174
       191.0004        190.0004
 -13500066.88948 -10502050.73147  22242707.713    22242707.6454   22242711.5634
       188.0004        188.0004
 -11461203.67648  -8917130.81346  22469918.060    22469918.4524   22469927.0464
       171.0004        173.0004
 -19309687.71449 -15018305.56947  21082529.582    21082529.8484   21082538.0534
       199.0004        199.0004
  -3320866.40248  -2560928.05146  23874810.206    23874811.4304   23874817.2864
       182.0004        183.0004
 -18272389.57649 -14210439.61348  20865740.772    20865741.2394   20865747.8294
       213.0004        214.0004
 21  2  4  0 51 30.0000000  0  8G30G21G04G07G01G08G27G09
  -2065862.40647  -1591432.05945  24135423.946    24135423.7744   24135430.9364
       158.0004        161.0004
 -14733925.68348 -11470469.55646  21881111.135    21881110.4604   21881115.8014
       178.0004        179.0004
 -14869147.39148 -11567844.29247  21668388.836    21668389.1514   21668395.6974
       192.0004        191.0004
 -13575066.10248 -10560491.64547  22228434.633    22228434.7044   22228439.5884
       188.0004        188.0004
 -11537173.57548  -8976328.10646  22455461.477    22455462.1414   22455469.4114
       171.0004        171.0004
 -19239929.75249 -14963948.71847  21095803.686    21095804.4624   21095812.5034
       198.0004        199.0004
  -3213733.41548  -2477447.80346  23895197.656    23895197.7774   23895204.5244
       183.0004        184.0004
 -18249596.77549 -14192678.99848  20870078.216    20870078.5874   20870085.3194
       213.0004        214.0004
 21  2  4  0 52  0.0000000  0  8G30G21G04G07G01G08G27G09
  -2150759.23047  -1657585.42145  24119267.824    24119268.2414   24119275.4904
       157.0004        159.0004
 -14755763.65948 -11487486.14146  21876955.891    21876955.5584   21876960.7444
       179.0004        179.0004
 -14786689.78048 -11503591.62447  21684080.093    21684079.9814   21684086.7254
       192.0004        191.0004
 -13650015.77348 -10618893.96847  22214172.915    22214173.2554   22214177.1594
       188.0004        189.0004
 -11613039.40848  -9035444.29246  22441023.598    22441024.8824   22441033.3974
       169.0004        170.0004
 -19169795.05249 -14909298.28747  21109150.709    21109151.0254   21109158.7274
       198.0004        198.0004
  -3106512.76448  -2393899.26446  23915599.988    23915600.2304   23915608.2384
       181.0004        181.0004
 -18226276.11349 -14174507.05548  20874515.980    20874516.2044   20874523.0654
       213.0004        214.0004
 21  2  4  0 52 30.0000000  0  8G30G21G04G07G01G08G27G09
  -2235750.39847  -1723812.28145  24103094.497    24103095.4154   24103102.3994
       157.0004        159.0004
 -14777211.37148 -11504198.61546  21872874.562    21872873.2094   21872879.5964
       179.0004        179.0004
 -14703928.73348 -11439102.50147  21699829.103    21699829.5044   21699835.3584
       192.0004        190.0004
 -13724913.08748 -10677255.49647  22199919.192    22199920.4354   22199924.8614
       189.0004        190.0004
 -11688797.43248  -9094476.47046  22426608.579    22426609.3804   22426617.2414
       170.0004        172.0004
 -19099285.33549 -14854355.63447  21122568.068    21122568.1914   21122575.9474
       198.0004        198.0004
  -2999206.81248  -2310284.22346  23936019.059    23936018.9274   23936028.3634
       179.0004        179.0004
 -18202428.58449 -14155924.57248  20879053.908    20879054.4544   20879061.1434
       213.0004        214.0004
 21  2  4  0 53  0.0000000  0  8G30G21G04G07G01G08G27G09
  -2320834.91947  -1790111.87945  24086904.161    24086904.2944   24086910.3934
       157.0004        159.0004
 -14798266.98048 -11520605.54546  21868867.712    21868866.5024   21868872.5204
       179.0004        179.0004
 -14620867.56748 -11374379.51247  21715634.397    21715634.8504   21715641.6484
       191.0004        190.0004
 -13799756.04748 -10735574.68047  22185677.596    22185678.5304   22185682.3964
       190.0004        190.0004
 -11764444.89448  -9153422.49046  22412213.302    22412213.5174   22412222.4004
       171.0004        172.0004
 -19028404.25949 -14799123.61747  21136056.165    21136056.3264   21136064.5294
       198.0004        198.0004
  -2891818.60948  -2226605.11946  23956456.579    23956455.1744   23956463.0234
       179.0004        180.0004
 -18178056.08049 -14136933.00148  20883692.076    20883692.3024   20883699.3334
       213.0004        214.0004
 21  2  4  0 53 30.0000000  0  8G30G21G04G07G01G08G27G09
  -2406012.19247  -1856483.76545  24070695.410    24070695.6334   24070702.0194
       157.0004        159.0004
 -14818928.89148 -11536705.69646  21864934.642    21864934.1474   21864940.1944
       178.0004        178.0004
 -14537510.01048 -11309425.58847  21731497.577    21731498.2634   21731504.0164
       191.0004        190.0004
 -13874543.31448 -10793850.46547  22171446.911    22171447.3074   22171451.3624
       190.0004        190.0004
 -11839979.34048  -9212280.46146  22397838.988    22397839.5784   22397848.1094
       171.0004        172.0004
 -18957155.29749 -14743604.93547  21149614.720    21149614.4344   21149622.8364
       197.0004        197.0004
  -2784351.71148  -2142864.70546  23976906.427    23976905.1354   23976912.6594
       177.0004        176.0004
 -18153160.86249 -14117534.13548  20888429.111    20888429.4764   20888436.2784
       213.0004        213.0004
 21  2  4  0 54  0.0000000  0  8G30G21G04G07G01G08G27G09
  -2491279.76247  -1922925.98745  24054468.797    24054468.8824   24054476.5494
       157.0004        160.0004
 -14839194.57048 -11552497.10846  21861078.440    21861078.3074   21861083.3964
       178.0004        179.0004
 -14453857.96048 -11244242.19347  21747415.822    21747416.2414   21747422.3424
       190.0004        189.0004
 -13949271.38548 -10852080.12247  22157226.150    22157226.8644   22157230.2154
       190.0004        189.0004
 -11915396.54048  -9271047.07646  22383487.852    22383488.1104   22383496.6464
       171.0004        172.0004
 -18885540.13249 -14687800.90747  21163242.312    21163242.2464   21163250.5774
       197.0004        198.0004
  -2676807.92448  -2059064.38246  23997370.575    23997371.2614   23997377.4714
       176.0004        177.0004
 -18127743.49749 -14097728.39648  20893265.952    20893266.1724   20893273.2344
       213.0004        214.0004
 21  2  4  0 54 30.0000000  0  8G30G21G04G07G01G08G27G09
  -2576636.37147  -1989437.59245  24038225.337    24038225.7984   24038233.7994
       158.0004        160.0004
 -14859062.02448 -11567978.20846  21857297.502    21857297.4274   21857303.6054
       178.0004        179.0004
 -14369914.48848 -11178831.70647  21763389.840    21763390.3714   21763396.1554
       190.0004        188.0004
 -14023938.01848 -10910261.90247  22143017.594    22143018.0904   22143022.4554
       190.0004        191.0004
 -11990693.42148  -9329719.93346  22369158.561    22369160.0424   22369167.8914
       172.0004        174.0004
 -18813562.30149 -14631714.27647  21176939.013    21176939.2814   21176947.3824
       197.0004        198.0004
  -2569190.12648  -1975206.35146  24017850.248    24017849.5534   24017856.2474
       174.0004        173.0004
 -18101805.69649 -14077517.12748  20898201.984    20898202.3514   20898209.4614
       213.0004        214.0004
 21  2  4  0 55  0.0000000  0  8G30G21G04G07G01G08G27G09
  -2662080.05347  -2056017.07146  24021965.935    24021967.3134   24021974.6714
       160.0004        163.0004
 -14878529.04448 -11583147.29946  21853594.297    21853593.7744   21853598.1664
       179.0004        179.0004
 -14285682.12848 -11113196.12247  21779418.791    21779419.0164   21779424.7974
       189.0004        189.0004
 -14098540.64848 -10968393.81247  22128821.340    22128821.6504   22128825.8474
       191.0004        192.0004
 -12065866.33948  -9388296.19946  22354855.036    22354855.2944   22354863.5414
       173.0004        174.0004
 -18741223.84149 -14575346.63747  21190704.963    21190705.2524   21190712.8514
       197.0004        198.0004
  -2461500.58748  -1891292.46646  24038343.311    24038343.2394   24038349.3304
       175.0004        177.0004
 -18075348.60249 -14056901.21048  20903236.076    20903236.5624   20903243.6794
       213.0004        214.0004
 21  2  4  0 55 30.0000000  0  8G30G21G04G07G01G08G27G09
  -2747610.73647  -2122664.33745  24005691.396    24005691.3064   24005698.0764
       160.0004        162.0004
 -14897594.84048 -11598003.74446  21849966.758    21849965.9834   21849970.5904
       180.0004        181.0004
 -14201165.17348 -11047338.74947  21795501.380    21795502.0924   21795507.7424
       189.0004        188.0004
 -14173078.39648 -11026475.16847  22114637.954    22114638.1914   22114641.8824
       192.0004        193.0004
 -12140913.40748  -9446774.40846  22340574.720    22340574.6374   22340582.0934
       174.0004        175.0004
 -18668528.92549 -14518701.23547  21204538.204    21204538.6594   21204546.1814
       197.0004        197.0004
  -2353743.42648  -1807325.84746  24058846.758    24058847.1314   24058854.3744
       173.0004        173.0004
 -18048375.17649 -14035882.95948  20908369.487    20908369.4944   20908376.8194
       213.0004        213.0004
 21  2  4  0 56  0.0000000  0  8G30G21G04G07G01G08G27G09
  -2833226.07647  -2189377.58145  23989399.492    23989399.5814   23989405.8784
       158.0004        159.0004
 -14916256.81148 -11612545.50846  21846414.025    21846414.2164   21846419.9244
       180.0004        181.0004
 -14116365.66648 -10981261.19947  21811638.122    21811638.7184   21811645.0184
       189.0004        188.0004
 -14247548.04648 -11084503.45447  22100466.787    22100466.8094   22100470.1394
       192.0004        192.0004
 -12215830.46448  -9505151.29546  22326318.020    22326318.0074   22326326.1004
       175.0004        176.0004
 -18595479.70749 -14461779.75547  21218438.649    21218439.0034   21218447.0774
       196.0004        196.0004
  -2245920.43948  -1723307.97046  24079365.674    24079366.0114   24079372.0424
       174.0004        175.0004
 -18020886.17349 -14014462.95148  20913599.632    20913600.2574   20913607.5074
       212.0004        213.0004
 21  2  4  0 56 30.0000000  0  8G30G21G04G07G01G08G27G09
  -2918925.11247  -2256156.04945  23973091.980    23973091.1534   23973098.1454
       155.0004        156.0004
 -14934513.32448 -11626771.34446  21842939.776    21842939.3844   21842945.5284
       180.0004        180.0004
 -14031287.05048 -10914966.18046  21827828.320    21827829.2134   21827834.6744
       188.0004        187.0004
 -14321947.41048 -11142476.98147  22086308.818    22086309.1194   22086313.2394
       192.0004        192.0004
 -12290614.79448  -9563424.75246  22312085.422    22312086.1634   22312095.1554
       175.0004        175.0004
 -18522079.74149 -14404584.98547  21232405.764    21232406.2744   21232415.2384
       196.0004        196.0004
  -2138034.86848  -1639241.27646  24099895.177    24099896.0064   24099903.0654
       175.0004        176.0004
 -17992883.78349 -13992642.92148  20918928.852    20918929.0984   20918936.0994
       212.0004        213.0004
 21  2  4  0 57  0.0000000  0  8G30G21G04G07G01G08G27G09
  -3004706.30547  -2322998.52745  23956768.232    23956768.0344   23956775.5274
       156.0004        159.0004
 -14952362.35848 -11640679.65546  21839543.402    21839543.1324   21839548.4794
       180.0004        180.0004
 -13945932.24548 -10848455.92646  21844070.981    21844071.6414   21844077.8184
       188.0004        187.0004
 -14396274.01948 -11200393.80247  22072164.617    22072164.8364   22072168.9334
       192.0004        192.0004
 -12365263.12348  -9621592.26046  22297881.335    22297881.4744   22297889.4754
       175.0004        175.0004
 -18448331.97849 -14347119.19347  21246440.571    21246440.8174   21246448.9314
       196.0004        197.0004
  -2030089.35648  -1555127.91646  24120436.544    24120437.5344   24120443.8494
       175.0004        176.0004
 -17964369.61849 -13970424.09148  20924355.070    20924355.3474   20924362.2674
       212.0004        213.0004
 21  2  4  0 57 30.0000000  0  8G30G21G04G07G01G08G27G09
  -3090567.02647  -2389902.94945  23940428.444    23940428.9754   23940436.4634
       156.0004        159.0004
 -14969801.26048 -11654268.37746  21836225.438    21836224.3504   21836230.1414
       180.0004        180.0004
 -13860303.15248 -10781731.93946  21860364.901    21860365.4884   21860372.0324
       188.0004        187.0004
 -14470524.38148 -11258251.20847  22058034.915    22058035.5914   22058039.3974
       192.0004        193.0004
 -12439771.11748  -9679650.39446  22283702.852    22283703.3794   22283711.2084
       174.0004        175.0004
 -18374237.48149 -14289383.20247  21260539.755    21260540.5104   21260547.7924
       196.0004        196.0004
  -1922085.56948  -1470969.09346  24140989.168    24140989.6834   24140996.4854
       175.0004        176.0004
 -17935344.28949 -13947806.94948  20929878.539    20929878.6154   20929885.7024
       213.0004        213.0004
 21  2  4  0 58  0.0000000  0  8G30G21G04G07G01G08G27G09
  -3176506.06147  -2456868.39645  23924073.588    23924073.4824   23924080.9884
       154.0004        155.0004
 -14986828.41248 -11667536.25846  21832984.054    21832985.0244   21832988.9954
       179.0004        180.0004
 -13774403.02148 -10714796.74946  21876711.134    21876711.8064   21876718.0974
       187.0004        186.0004
 -14544696.63048 -11316047.73947  22043920.875    22043921.3304   22043925.3974
       193.0004        193.0004
 -12514135.75548  -9737596.80346  22269551.651    22269551.5934   22269560.2704
       174.0004        175.0004
 -18299800.03549 -14231379.98247  21274704.567    21274705.5644   21274712.5164
       196.0004        196.0004
  -1814026.38048  -1386767.16746  24161553.884    24161553.6514   24161559.0414
       177.0004        178.0004
 -17905809.79149 -13924793.04347  20935498.856    20935498.7774   20935505.8174
       212.0004        212.0004
 21  2  4  0 58 30.0000000  0  8G30G21G04G07G01G08G27G09
  -3262521.59047  -2523893.45345  23907705.899    23907706.5324   23907713.7014
       155.0004        158.0004
 -15003441.66048 -11680481.61846  21829823.094    21829823.6634   21829828.1884
       180.0004        181.0004
 -13688234.59848 -10647652.52646  21893108.870    21893109.5874   21893115.1444
       186.0004        185.0004
 -14618788.36448 -11373781.55747  22029821.876    22029821.5194   22029825.5174
       193.0004        192.0004
 -12588353.57648  -9795428.82046  22255427.754    22255429.0784   22255437.0314
       175.0004        176.0004
 -18225022.37549 -14173111.66547  21288934.398    21288934.8244   21288942.2374
       195.0004        196.0004
  -1705914.21748  -1302523.91946  24182125.869    24182126.3714   24182132.4464
       177.0004        177.0004
 -17875767.63749 -13901383.57447  20941215.155    20941215.6124   20941222.2784
       212.0004        212.0004
 21  2  4  0 59  0.0000000  0  8G30G21G04G07G01G08G27G09
  -3348613.14247  -2590977.79045  23891324.493    23891324.5984   23891330.7754
       157.0004        160.0004
 -15019640.40548 -11693104.01246  21826741.483    21826741.6184   21826745.2334
       181.0004        181.0004
 -13601801.88348 -10580302.35446  21909557.060    21909557.3064   21909562.7514
       186.0004        187.0004
 -14692797.97948 -11431451.37047  22015736.380    22015737.5174   22015742.5264
       192.0004        192.0004
 -12662422.38548  -9853144.75246  22241331.982    22241333.7114   22241341.6094
       175.0004        176.0004
 -18149907.77749 -14114580.81347  21303229.012    21303228.8834   21303236.4214
       195.0004        195.0004
  -1597752.87848  -1218242.40846  24202708.213    24202709.1154   24202714.4264
       177.0004        178.0004
 -17845220.65949 -13877580.74148  20947028.742    20947028.9344   20947035.6574
       212.0004        213.0004
 21  2  4  0 59 30.0000000  0  8G30G21G04G07G01G08G27G09
  -3434778.38147  -2658119.51245  23874927.226    23874927.0684   23874934.0204
       158.0004        160.0004
 -15035421.27648 -11705400.76046  21823738.207    21823737.4504   21823743.1914
       181.0004        181.0004
 -13515107.06648 -10512747.94746  21926053.825    21926054.5884   21926061.1964
       186.0004        185.0004
 -14766721.80148 -11489054.32347  22001670.477    22001670.9024   22001675.1324
       193.0004        194.0004
 -12736338.09248  -9910741.38746  22227268.463    22227268.2414   22227276.6724
       176.0004        177.0004
 -18074459.12149 -14055789.64447  21317586.277    21317586.4614   21317594.0024
       195.0004        195.0004
  -1489544.22848  -1133923.97546  24223298.941    24223300.3584   24223305.7454
       179.0004        180.0004
 -17814169.81349 -13853385.27247  20952936.831    20952937.0634   20952944.2694
       212.0004        212.0004
 21  2  4  1  0  0.0000000  0  8G30G21G04G07G01G08G27G09
  -3521016.63947  -2725318.12945  23858516.387    23858517.0834   23858523.6064
       156.0004        156.0004
 -15050784.54748 -11717372.11946  21820813.965    21820814.2004   21820819.5364
       181.0004        181.0004
 -13428154.06948 -10444992.38546  21942600.981    21942601.0414   21942607.7804
       186.0004        186.0004
 -14840559.31948 -11546590.03747  21987620.074    21987620.3774   21987623.9844
       194.0004        195.0004
 -12810098.41948  -9968216.93346  22213231.976    22213232.2794   22213240.6544
       177.0004        178.0004
 -17998679.82049 -13996740.83347  21332006.244    21332006.6544   21332014.3264
       195.0004        196.0004
  -1381291.73948  -1049571.39546  24243899.542    24243900.2644   24243905.5134
       180.0004        180.0004
 -17782617.88149 -13828799.34747  20958941.250    20958941.6084   20958948.3554
       212.0004        212.0004
 21  2  4  1  0 30.0000000  0  8G30G21G04G07G01G08G27G09
  -3607325.58347  -2792571.84245  23842091.490    23842092.7124   23842100.0764
       154.0004        156.0004
 -15065726.91748 -11729015.51146  21817970.418    21817970.2014   21817975.8374
       181.0004        181.0004
 -13340945.04748 -10377037.30946  21959195.865    21959196.8124   21959202.6514
       186.0004        186.0004
 -14914306.34648 -11604055.24347  21973586.561    21973586.3034   21973590.2184
       194.0004        194.0004
 -12883699.28148 -10025568.19546  22199224.972    22199225.6454   22199235.0804
       176.0004        178.0004
 -17922572.33549 -13937436.28647  21346488.886    21346489.0864   21346497.4924
       196.0004        196.0004
  -1272997.42248   -965186.21846  24264507.562    24264507.9854   24264514.3964
       181.0004        183.0004
 -17750565.84449 -13803823.74047  20965039.742    20965040.2314   20965047.7784
       211.0004        211.0004
 21  2  4  1  1  0.0000000  0  8G30G21G04G07G01G08G27G09
  -3693704.48747  -2859880.06845  23825655.172    23825654.6664   23825662.5284
       153.0004        155.0004
 -15080248.17548 -11740330.77146  21815207.817    21815207.1424   21815213.0734
       181.0004        182.0004
 -13253483.84348 -10308885.75146  21975839.785    21975840.3504   21975845.8574
       186.0004        185.0004
 -14987961.94548 -11661449.21347  21959569.426    21959570.4994   21959574.1514
       193.0004        193.0004
 -12957138.16148 -10082793.28146  22185248.963    22185250.8644   22185259.7264
       177.0004        178.0004
 -17846140.42749 -13877878.96747  21361033.396    21361033.7054   21361041.5364
       195.0004        195.0004
  -1164664.59148   -880771.04546  24285122.772    24285122.5274   24285129.2864
       181.0004        181.0004
 -17718016.40849 -13778460.55947  20971234.066    20971234.4804   20971242.0574
       211.0004        212.0004
 21  2  4  1  1 30.0000000  0  8G30G21G04G07G01G08G27G09
  -3780150.71847  -2927240.75945  23809203.258    23809204.4824   23809212.4324
       153.0004        156.0004
 -15094345.05248 -11751315.34146  21812524.374    21812525.0374   21812529.7484
       181.0004        180.0004
 -13165772.40048 -10240539.17846  21992530.878    21992530.9884   21992536.3934
       186.0004        185.0004
 -15061522.24148 -11718768.92047  21945571.837    21945572.6324   21945575.8774
       193.0004        194.0004
 -13030410.83048 -10139888.81746  22171307.176    22171308.1444   22171315.3124
       178.0004        179.0004
 -17769385.64448 -13818070.03947  21375639.333    21375639.7314   21375647.1884
       194.0004        196.0004
  -1056294.92348   -796327.15946  24305745.195    24305745.1914   24305750.3454
       178.0004        176.0004
 -17684970.46749 -13752710.47047  20977522.419    20977522.9784   20977529.9024
       211.0004        212.0004
 21  2  4  1  2  0.0000000  0  8G30G21G04G07G01G08G27G09
  -3866662.88847  -2994652.80845  23792742.844    23792742.8574   23792749.5394
       156.0004        159.0004
 -15108016.00548 -11761968.00646  21809924.229    21809923.2064   21809928.1294
       180.0004        181.0004
 -13077814.00748 -10172000.17346  22009268.001    22009268.9704   22009274.4754
       186.0004        185.0004
 -15134985.16048 -11776012.74447  21931592.338    21931592.7754   21931596.7284
       194.0004        194.0004
 -13103514.30248 -10196852.53346  22157395.545    22157396.1054   22157405.3514
       178.0004        178.0004
 -17692311.21349 -13758012.02947  21390306.381    21390306.6814   21390314.3024
       195.0004        195.0004
   -947891.31148   -711856.77846  24326373.804    24326373.8954   24326379.3004
       176.0004        176.0004
 -17651430.16149 -13726575.16747  20983905.750    20983905.6684   20983912.8134
       212.0004        212.0004
 21  2  4  1  2 30.0000000  0  9G30G21G17G04G07G01G08G27G09
  -3953239.70347  -3062115.25645  23776267.970    23776268.3364   23776274.4824
       159.0004        162.0004
 -15121259.96448 -11772287.95946  21807403.791    21807402.7774   21807408.3264
       181.0004        181.0004
  -1739291.62154  -1329184.83045  24243790.777
        74.0004        134.0004
 -12989611.99348 -10103271.33746  22026052.698    22026052.5804   22026059.0444
       186.0004        185.0004
 -15208348.90649 -11833179.28647  21917632.273    21917632.8154   21917636.2724
       195.0004        195.0004
 -13176445.64948 -10253682.11146  22143516.896    22143518.5754   22143526.8184
       177.0004        177.0004
 -17614920.84449 -13697707.84347  21405033.460    21405033.6034   21405040.8794
       195.0004        195.0004
   -839456.67748   -627362.27346  24347007.949    24347008.2194   24347013.3654
       173.0004        172.0004
 -17617397.75949 -13700056.41047  20990381.183    20990381.3724   20990389.6004
       211.0004        211.0004
 21  2  4  1  3  0.0000000  0  9G30G21G17G04G07G01G08G27G09
  -4039879.30047  -3129626.65246  23759780.424    23759780.6504   23759788.3064
       160.0004        163.0004
 -15134074.98448 -11782273.66646  21804964.588    21804964.5804   21804969.2194
       181.0004        181.0004
  -1836292.14546  -1404769.55445  24225332.268                    24225338.1024
       125.0004        143.0004
 -12901169.13348 -10034354.82846  22042882.864    22042883.2704   22042888.4074
       185.0004        184.0004
 -15281610.53349 -11890266.25747  21903690.749    21903690.8674   21903694.8994
       195.0004        196.0004
 -13249201.29248 -10310374.80446  22129672.409    22129672.8864   22129682.7384
       178.0004        179.0004
 -17537216.82848 -13637159.25447  21419819.639    21419820.0214   21419827.9414
       194.0004        194.0004
   -730993.38648   -542845.37146  24367647.652    24367648.4254   24367653.7334
       173.0004        174.0004
 -17582874.91049 -13673155.48247  20996950.679    20996951.2074   20996958.4354
       211.0004        211.0004
 21  2  4  1  3 30.0000000  0  9G30G21G17G04G07G01G08G27G09
  -4126581.61247  -3197186.84845  23743281.509    23743280.9934   23743289.8044
       160.0004        162.0004
 -15146461.04248 -11791925.11546  21802608.313    21802607.7144   21802612.5334
       181.0004        182.0004
  -1933072.76247  -1480182.95545  24206915.425    24206916.0774   24206921.3804
       141.0004        148.0004
 -12812489.88048  -9965254.11646  22059758.144    22059758.4124   22059763.7004
       185.0004        184.0004
 -15354768.95349 -11947272.79947  21889768.314    21889768.9794   21889773.8764
       195.0004        195.0004
 -13321779.50448 -10366929.21146  22115861.118    22115862.3514   22115870.2724
       178.0004        179.0004
 -17459203.87948 -13576369.93247  21434664.915    21434665.2484   21434672.7724
       194.0004        193.0004
   -622505.50448   -458309.37046  24388291.582    24388292.2124   24388298.4604
       173.0004        175.0004
 -17547865.07249 -13645875.09947  21003613.355    21003613.4444   21003620.4364
       211.0004        212.0004
 21  2  4  1  4  0.0000000  0  9G30G21G17G04G07G01G08G27G09
  -4213344.13047  -3264793.97245  23726770.298    23726770.2724   23726778.2094
       159.0004        160.0004
 -15158415.49648 -11801240.26146  21800333.849    21800332.8594   21800337.5714
       182.0004        181.0004
  -2029630.36147  -1555422.64745  24188539.870    24188540.1214   24188546.0654
       143.0004        147.0004
 -12723576.43948  -9895970.92646  22076677.383    22076677.3654   22076683.7224
       184.0004        184.0004
 -15427820.82049 -12004196.32747  21875867.069    21875867.9574   21875872.1584
       195.0004        195.0004
 -13394176.13048 -10423342.12546  22102085.796    22102085.8574   22102093.2684
       178.0004        179.0004
 -17380884.08248 -13515341.52347  21449568.766    21449569.4834   21449576.6744
       194.0004        194.0004
   -513994.78848   -373755.61346  24408940.113    24408941.2914   24408947.5244
       174.0004        175.0004
 -17512369.40849 -13618216.14847  21010367.301    21010367.8494   21010374.5684
       210.0004        210.0004
 21  2  4  1  4 30.0000000  0  9G30G21G17G04G07G01G08G27G09
  -4300164.45247  -3332446.19145  23710249.629    23710249.2954   23710257.0294
       157.0004        158.0004
 -15169935.77048 -11810217.07846  21798140.622    21798140.7274   21798146.3874
       182.0004        182.0004
  -2125961.64447  -1630485.95445  24170209.805    24170210.3014   24170216.6074
       145.0004        149.0004
 -12634431.10748  -9826507.04446  22093640.836    22093641.7514   22093647.4924
       185.0004        184.0004
 -15500762.63649 -12061034.10247  21861986.858    21861987.6444   21861991.7594
       195.0004        196.0004
 -13466387.22348 -10479610.48246  22088343.731    22088344.1684   22088352.1584
       179.0004        180.0004
 -17302259.37248 -13454075.53447  21464531.176    21464531.4394   21464538.7734
       193.0004        194.0004
   -405463.13048   -289185.48646  24429593.157    24429594.2234   24429599.3914
       171.0004        171.0004
 -17476389.28249 -13590179.69247  21017214.368    21017214.6114   21017221.8624
       210.0004        211.0004
 21  2  4  1  5  0.0000000  0  9G30G21G17G04G07G01G08G27G09
  -4387040.11947  -3400141.48945  23693717.736    23693717.2334   23693725.4104
       156.0004        158.0004
 -15181019.90948 -11818854.04346  21796031.423    21796031.0774   21796036.8124
       183.0004        183.0004
  -2222063.57247  -1705370.54245  24151921.979    24151922.3564   24151928.3454
       146.0004        149.0004
 -12545056.15748  -9756864.21846  22110647.565    22110648.7124   22110655.6944
       184.0004        184.0004
 -15573591.62449 -12117783.93647  21848128.545    21848129.0664   21848133.1654
       196.0004        197.0004
 -13538408.68248 -10535731.05446  22074638.836    22074639.1714   22074648.3394
       179.0004        181.0004
 -17223332.06948 -13392573.71847  21479549.968    21479550.7444   21479558.2184
       194.0004        194.0004
   -296912.24448   -204600.39746  24450249.538    24450250.7334   24450257.9364
       170.0004        170.0004
 -17439925.82649 -13561766.59847  21024153.512    21024153.4944   21024160.2794
       210.0004        210.0004
 21  2  4  1  5 30.0000000  0  9G30G21G17G04G07G01G08G27G09
  -4473969.13347  -3467878.38745  23677176.303    23677176.2004   23677182.7554
       157.0004        159.0004
 -15191665.80248 -11827149.54646  21794005.583    21794005.1464   21794011.2554
       183.0004        184.0004
  -2317934.30847  -1780075.00145  24133678.032    24133678.0154   24133684.3674
       146.0004        149.0004
 -12455454.23548  -9687044.57246  22127699.031    22127699.7284   22127706.3844
       184.0004        184.0004
 -15646305.04249 -12174443.75747  21834291.628    21834291.8534   21834295.9074
       196.0004        196.0004
 -13610236.91148 -10591701.08146  22060969.347    22060970.1494   22060979.9884
       179.0004        180.0004
 -17144105.08648 -13330838.41847  21494626.324    21494626.5844   21494634.7704
       193.0004        192.0004
   -188344.43448   -120002.12046  24470908.969    24470910.3684   24470915.7824
       170.0004        172.0004
 -17402980.82249 -13532978.30147  21031183.746    21031184.0094   21031190.7594
       210.0004        210.0004
 21  2  4  1  6  0.0000000  0  9G30G21G17G04G07G01G08G27G09
  -4560949.95647  -3535655.65645  23660623.709    23660624.0984   23660630.7264
       157.0004        160.0004
 -15201872.30748 -11835102.65246  21792063.665    21792063.0144   21792067.9264
       182.0004        182.0004
  -2413572.08047  -1854598.00745  24115479.033    24115479.3864   24115486.1664
       145.0004        148.0004
 -12365628.46948  -9617050.46446  22144793.240    22144793.3054   22144799.1844
       185.0004        185.0004
 -15718900.35849 -12231011.52247  21820476.959    21820477.1574   21820481.3484
       196.0004        196.0004
 -13681868.74048 -10647518.05846  22047338.983    22047339.6214   22047347.3324
       179.0004        180.0004
 -17064581.40648 -13268871.90847  21509759.296    21509759.5964   21509766.9574
       192.0004        191.0004
    -79762.30048    -35392.66146  24491571.314    24491572.3204   24491579.1164
       172.0004        173.0004
 -17365556.43549 -13503816.43747  21038305.689    21038306.0574   21038313.0534
       210.0004        211.0004
 21  2  4  1  6 30.0000000  0  9G30G21G17G04G07G01G08G27G09
  -4647981.47947  -3603472.42145  23644062.497    23644063.0814   23644070.1404
       159.0004        162.0004
 -15211638.46948 -11842712.61946  21790204.563    21790204.5214   21790208.5644
       181.0004        181.0004
  -2508974.23247  -1928937.30345  24097325.271    24097325.1874   24097330.2784
       146.0004        150.0004
 -12275582.62248  -9546884.85846  22161927.288    22161927.7614   22161934.8054
       185.0004        183.0004
 -15791375.57849 -12287485.70247  21806685.609    21806685.8084   21806690.1304
       196.0004        196.0004
 -13753301.63148 -10703180.01046  22033744.645    22033745.6714   22033753.1074
       179.0004        180.0004
 -16984764.48948 -13206676.90747  21524948.964    21524948.8894   21524955.8014
       192.0004        192.0004
     28830.88048     49225.35546  24512234.897    24512236.5314   24512244.0894
       171.0004        172.0004
 -17327655.43249 -13474283.18347  21045517.448    21045517.9004   21045525.5704
       211.0004        211.0004
 21  2  4  1  7  0.0000000  0  9G30G21G17G04G07G01G08G27G09
  -4735061.63847  -3671327.07845  23627490.716    23627491.7874   23627498.7644
       160.0004        161.0004
 -15220962.27848 -11849977.90946  21788429.840    21788429.6774   21788434.3694
       181.0004        180.0004
  -2604138.69747  -2003091.40645  24079216.412    24079216.5824   24079220.6684
       149.0004        153.0004
 -12185319.16448  -9476549.69746  22179104.135    22179104.8884   22179111.6334
       184.0004        182.0004
 -15863727.86249 -12343864.10547  21792916.601    21792917.6204   21792921.9674
       196.0004        196.0004
 -13824531.75248 -10758683.97846  22020190.402    22020191.9644   22020199.3564
       179.0004        179.0004
 -16904656.97148 -13144255.46947  21540192.412    21540193.1914   21540200.0904
       192.0004        193.0004
    137432.92648    133850.34346  24532901.431    24532902.9804   24532909.5424
       171.0004        172.0004
 -17289279.43649 -13444379.81547  21052820.375    21052820.9304   21052827.4024
       211.0004        211.0004
 21  2  4  1  7 30.0000000  0  9G30G21G17G04G07G01G08G27G09
  -4822189.35447  -3739218.77745  23610910.720    23610911.1554   23610918.9214
       159.0004        161.0004
 -15229842.95848 -11856897.90346  21786741.082    21786740.7214   21786744.2414
       180.0004        181.0004
  -2699064.18547  -2077059.28345  24061152.097    24061152.8944   24061157.9104
       150.0004        152.0004
 -12094841.88048  -9406047.91446  22196322.202    22196322.3134   22196327.6964
       183.0004        183.0004
 -15935955.10949 -12400145.07447  21779172.505    21779173.1224   21779177.5584
       197.0004        197.0004
 -13895556.59948 -10814027.98346  22006674.497    22006675.3264   22006684.2984
       179.0004        181.0004
 -16824262.48548 -13081610.40847  21555491.231    21555491.8324   21555498.0954
       192.0004        193.0004
    246040.88548    218479.90946  24553566.551    24553569.3914   24553577.8824
       168.0004        168.0004
 -17250431.28349 -13414108.52147  21060212.920    21060213.0544   21060220.2184
       210.0004        210.0004
 21  2  4  1  8  0.0000000  0  9G30G21G17G04G07G01G08G27G09
  -4909362.10047  -3807145.56646  23594323.074    23594322.9534   23594331.3254
       160.0004        164.0004
 -15238278.28348 -11863470.87246  21785135.403    21785134.9414   21785138.8204
       181.0004        181.0004
  -2793747.80447  -2150838.67845  24043134.411    24043134.8454   24043140.1074
       148.0004        151.0004
 -12004152.93248  -9335381.20146  22213578.310    22213579.8584   22213586.3504
       182.0004        181.0004
 -16008054.09949 -12456326.09947  21765452.763    21765452.9804   21765457.1894
       196.0004        197.0004
 -13966372.03948 -10869208.81846  21993199.337    21993200.3584   21993208.0034
       180.0004        181.0004
 -16743583.24448 -13018743.46447  21570843.734    21570844.3644   21570851.1844
       192.0004        192.0004
    354652.87248    303112.58146  24574236.951    24574237.8554   24574246.3814
       171.0004        173.0004
 -17211112.26949 -13383470.34047  21067695.520    21067695.5174   21067702.4034
       210.0004        210.0004
 21  2  4  1  8 30.0000000  0  9G30G21G17G04G07G01G14G08G09
  -4996578.76347  -3875106.60046  23577727.170    23577727.3434   23577733.7244
       163.0004        165.0004
 -15246267.57248 -11869696.26746  21783614.997    21783614.7914   21783619.3294
       182.0004        183.0004
  -2888188.00147  -2224428.45045  24025162.555    24025162.6034   24025167.5394
       149.0004        153.0004
 -11913256.06848  -9264552.49146  22230875.885    22230876.5404   22230883.0934
       182.0004        182.0004
 -16080023.08749 -12512405.81947  21751757.422    21751757.5714   21751762.1674
       196.0004        196.0004
 -14036975.47448 -10924224.45146  21979764.873    21979765.6254   21979771.8964
       180.0004        182.0004
  -1205528.83356   -926955.51445  23591177.469                    23591182.2064
       119.0004        142.0004
 -16662622.58248 -12955657.23947  21586249.595    21586250.3044   21586256.9434
       191.0004        191.0004
 -17171325.27549 -13352467.48747  21075266.285    21075266.8254   21075273.5414
       210.0004        211.0004
 21  2  4  1  9  0.0000000  0  9G30G21G17G04G07G01G14G08G09
  -5083838.26447  -3943101.02246  23561121.797    23561121.8314   23561129.0864
       163.0004        165.0004
 -15253809.51248 -11875573.08646  21782179.411    21782179.1674   21782185.1654
       183.0004        183.0004
  -2982383.16247  -2297827.25545  24007238.056    24007238.4894   24007243.6544
       152.0004        156.0004
 -11822154.98948  -9193564.64746  22248212.326    22248212.3864   22248217.9414
       182.0004        181.0004
 -16151860.19449 -12568382.78747  21738087.339    21738087.8684   21738091.9304
       197.0004        197.0004
 -14107364.22148 -10979072.78846  21966369.281    21966370.0284   21966377.7554
       180.0004        181.0004
  -1232605.94146   -948054.48445  23586026.058    23586027.8804   23586028.5954
       133.0004        142.0004
 -16581384.53848 -12892354.86547  21601709.736    21601709.6254   21601716.0404
       191.0004        191.0004
 -17131073.09549 -13321102.15547  21082925.882    21082926.5084   21082933.3314
       210.0004        210.0004
 21  2  4  1  9 30.0000000  0  9G30G21G17G04G07G01G14G08G09
  -5171138.09647  -4011126.84746  23544509.388    23544509.2404   23544516.3934
       164.0004        166.0004
 -15260902.52248 -11881100.07646  21780829.335    21780829.1944   21780835.0754
       183.0004        183.0004
  -3076330.47147  -2371032.83745  23989360.931    23989360.7154   23989367.7474
       155.0004        158.0004
 -11730851.94748  -9122419.41346  22265585.770    22265586.6574   22265592.5494
       181.0004        179.0004
 -16223562.11249 -12624254.39047  21724443.186    21724443.2324   21724447.2564
       197.0004        198.0004
 -14177534.35748 -11033750.75946  21953015.761    21953016.0894   21953025.3514
       180.0004        180.0004
  -1259624.26247   -969107.67245  23580885.793    23580886.0084   23580887.7154
       140.0004        145.0004
 -16499871.04148 -12828837.82647  21617221.407    21617221.3754   21617228.0394
       191.0004        191.0004
 -17090357.19549 -13289375.46747  21090674.193    21090674.2354   21090681.3004
       210.0004        210.0004
 21  2  4  1 10  0.0000000  0  9G30G21G17G04G07G01G14G08G09
  -5258477.18248  -4079183.27046  23527888.468    23527888.7454   23527896.4124
       165.0004        166.0004
 -15267546.00848 -11886276.79146  21779566.382    21779566.1224   21779571.1744
       183.0004        184.0004
  -3170028.90247  -2444044.58045  23971528.806    23971529.3514   23971536.6804
       156.0004        158.0004
 -11639350.64048  -9051119.71146  22282998.647    22282998.6834   22283005.2204
       180.0004        180.0004
 -16295126.96549 -12680019.20647  21710824.335    21710825.0404   21710829.1694
       198.0004        197.0004
 -14247483.22048 -11088256.34846  21939705.681    21939706.4784   21939714.3334
       180.0004        181.0004
  -1286585.83547   -990116.64345  23575754.309    23575754.7594   23575759.7014
       141.0004        146.0004
 -16418086.07848 -12765109.28947  21632783.950    21632784.3864   21632791.0304
       191.0004        191.0004
 -17049180.52249 -13257289.74947  21098509.565    21098509.6524   21098516.7884
       209.0004        209.0004
 21  2  4  1 10 30.0000000  0  9G30G21G17G04G07G01G14G08G09
  -5345852.71948  -4147268.06046  23511261.004    23511261.0614   23511269.1704
       165.0004        166.0004
 -15273737.11748 -11891101.02446  21778388.062    21778387.1114   21778393.1664
       184.0004        184.0004
  -3263474.36347  -2516859.18545  23953748.407    23953748.3094   23953753.8624
       156.0004        158.0004
 -11547653.08148  -8979667.08146  22300447.154    22300447.9104   22300454.7314
       179.0004        177.0004
 -16366550.69749 -12735674.05847  21697233.436    21697233.5154   21697237.2294
       197.0004        198.0004
 -14317206.56948 -11142586.20146  21926437.427    21926437.6614   21926445.7314
       181.0004        181.0004
  -1313490.85247  -1011081.54245  23570632.279    23570633.6554   23570643.1154
       145.0004        151.0004
 -16336031.49848 -12701170.66647  21648397.819    21648398.8384   21648405.6784
       191.0004        191.0004
 -17007544.23549 -13224845.89647  21106433.133    21106433.2424   21106440.1144
       209.0004        210.0004
 21  2  4  1 11  0.0000000  0  9G30G21G17G04G07G01G14G08G09
  -5433262.25948  -4215379.36146  23494629.114    23494628.8124   23494636.0104
       166.0004        168.0004
 -15279474.24548 -11895571.49646  21777295.392    21777295.5954   21777300.3864
       184.0004        184.0004
  -3356665.12347  -2589475.31845  23936014.080    23936014.8204   23936020.6624
       155.0004        156.0004
 -11455761.63948  -8908063.36646  22317934.492    22317934.6014   22317940.9154
       178.0004        178.0004
 -16437830.65249 -12791216.88247  21683669.111    21683669.5644   21683673.3974
       197.0004        198.0004
 -14386700.42548 -11196737.23646  21913213.258    21913213.7804   21913222.1414
       181.0004        183.0004
  -1340340.00747  -1032002.96645  23565523.994    23565525.3034   23565533.5304
       151.0004        156.0004
 -16253709.06748 -12637023.31747  21664063.413    21664063.7144   21664071.4084
       190.0004        189.0004
 -16965449.94949 -13192045.15647  21114443.602    21114443.6274   21114450.2684
       210.0004        210.0004
 21  2  4  1 11 30.0000000  0  9G30G21G17G04G07G01G14G08G09
  -5520704.26548  -4283515.98046  23477989.067    23477988.6864   23477995.9384
       166.0004        167.0004
 -15284756.12848 -11899687.23646  21776290.106    21776290.6144   21776295.3384
       183.0004        183.0004
  -3449599.24147  -2661891.44745  23918329.344    23918330.1954   23918335.4734
       156.0004        160.0004
 -11363679.74948  -8836311.25646  22335457.750    22335457.8914   22335463.1964
       179.0004        180.0004
 -16508964.73849 -12846646.03547  21670132.404    21670133.1434   21670137.0364
       198.0004        198.0004
 -14455961.88948 -11250707.17246  21900034.473    21900034.0844   21900043.5924
       182.0004        184.0004
  -1367134.91747  -1052882.10745  23560427.249    23560427.4964   23560434.4084
       155.0004        158.0004
 -16171122.54148 -12572670.17947  21679779.430    21679779.7894   21679787.1664
       190.0004        191.0004
 -16922900.27249 -13158889.56147  21122540.144    21122540.3524   21122547.2534
       210.0004        210.0004
 21  2  4  1 12  0.0000000  0  9G30G21G17G04G07G01G14G08G09
  -5608178.80448  -4351677.96646  23461343.254    23461342.0284   23461349.8824
       166.0004        168.0004
 -15289583.35048 -11903448.70546  21775372.785    21775372.1324   21775376.4464
       183.0004        183.0004
  -3542276.65247  -2734107.56945  23900693.730    23900693.9534   23900699.6074
       158.0004        160.0004
 -11271412.22848  -8764414.51046  22353015.079    22353015.7644   22353021.7634
       178.0004        177.0004
 -16579951.57449 -12901960.44547  21656624.326    21656624.8204   21656628.4854
       198.0004        198.0004
 -14524989.44748 -11304494.84646  21886897.438    21886898.7384   21886906.3954
       183.0004        183.0004
  -1393878.67847  -1073721.40545  23555337.221    23555338.3264   23555342.5944
       154.0004        156.0004
 -16088276.63648 -12508114.93547  21695545.662    21695545.6404   21695551.8194
       191.0004        192.0004
 -16879899.30249 -13125382.30647  21130722.904    21130723.2854   21130730.4134
       210.0004        210.0004
 21  2  4  1 12 30.0000000  0  9G30G21G17G04G07G01G14G08G09
  -5695682.45048  -4419862.62446  23444690.832    23444691.2424   23444697.3814
       165.0004        165.0004
 -15293953.19748 -11906853.77246  21774541.716    21774540.6654   21774545.0894
       183.0004        183.0004
  -3634693.47247  -2806120.62845  23883107.768    23883108.3614   23883113.7044
       158.0004        160.0004
 -11178960.48348  -8692374.20146  22370607.108    22370608.1084   22370613.8654
       177.0004        177.0004
 -16650786.98649 -12957156.86647  21643145.016    21643144.9474   21643148.8804
       198.0004        198.0004
 -14593778.33348 -11358096.56846  21873807.334    21873808.0334   21873815.7714
       182.0004        182.0004
  -1420570.99947  -1094520.59545  23550259.124    23550258.5144   23550263.1434
       152.0004        153.0004
 -16005172.88749 -12443358.77347  21711358.575    21711358.8144   21711366.1344
       207.0004        210.0004
 -16836447.77749 -13091523.98047  21138992.120    21138992.2254   21138998.3904
       210.0004        210.0004
 21  2  4  1 13  0.0000000  0  9G30G21G17G04G07G01G14G08G09
  -5783213.13147  -4488068.33146  23428033.706    23428034.3684   23428041.1504
       163.0004        164.0004
 -15297863.89448 -11909901.03946  21773796.867    21773796.6364   21773801.1514
       183.0004        184.0004
  -3726846.86247  -2877928.41945  23865571.034    23865571.2924   23865577.1044
       158.0004        159.0004
 -11086327.31948  -8620192.52046  22388235.007    22388235.6664   22388242.8554
       177.0004        177.0004
 -16721468.04349 -13012233.00247  21629693.959    21629694.6424   21629699.3354
       198.0004        198.0004
 -14662324.93048 -11411509.48646  21860763.772    21860764.0724   21860772.3794
       182.0004        183.0004
  -1447212.87647  -1115280.44545  23545187.580    23545188.1254   23545192.6924
       151.0004        155.0004
 -15921813.92349 -12378403.73947  21727221.665    21727221.7854   21727228.5844
       210.0004        208.0004
 -16792547.72049 -13057316.14747  21147345.231    21147345.5744   21147352.8504
       210.0004        210.0004
 21  2  4  1 13 30.0000000  0  9G30G21G17G04G07G01G14G08G09
  -5870769.00347  -4556293.66046  23411372.671    23411372.4384   23411380.5794
       163.0004        165.0004
 -15301314.75848 -11912590.00146  21773140.298    21773139.3064   21773144.0964
       184.0004        184.0004
  -3818735.41747  -2949529.87045  23848085.909    23848085.9284   23848090.3684
       157.0004        160.0004
 -10993515.76648  -8547871.84846  22405897.374    22405897.7314   22405903.9494
       177.0004        178.0004
 -16791992.90449 -13067187.44647  21616273.363    21616274.1544   21616279.1344
       198.0004        198.0004
 -14730626.00148 -11464731.08646  21847766.946    21847767.4394   21847774.3014
       182.0004        183.0004
  -1473805.69447  -1136002.08645  23540127.266    23540128.3254   23540133.2304
       156.0004        160.0004
 -15838202.35149 -12313251.85448  21743132.322    21743132.6784   21743139.1144
       219.0004        221.0004
 -16748201.58149 -13022760.71647  21155783.830    21155784.2034   21155791.4334
       209.0004        210.0004
 21  2  4  1 14  0.0000000  0  9G30G21G17G04G07G01G14G08G09
  -5958349.16448  -4624537.92446  23394706.605    23394707.3594   23394714.8284
       165.0004        168.0004
 -15304305.12948 -11914920.15246  21772570.439    21772570.3784   21772575.6574
       185.0004        186.0004
  -3910357.95747  -3020923.99245  23830649.077    23830649.7944   23830655.5804
       157.0004        158.0004
 -10900529.84148  -8475415.30546  22423591.998    22423592.6994   22423598.3274
       178.0004        177.0004
 -16862359.52449 -13122018.56847  21602883.575    21602883.9434   21602887.5514
       198.0004        198.0004
 -14798679.26248 -11517759.56346  21834816.154    21834817.6114   21834825.3934
       182.0004        184.0004
  -1500351.62647  -1156687.19745  23535076.724    23535076.9124   23535081.4044
       158.0004        160.0004
 -15754342.53549 -12247906.55348  21759090.364    21759090.4754   21759097.2484
       221.0004        221.0004
 -16703412.58449 -12987860.19747  21164307.189    21164307.5974   21164314.4834
       209.0004        210.0004
 21  2  4  1 14 30.0000000  0  9G30G21G17G04G07G01G14G08G09
  -6045950.71748  -4692798.86546  23378037.213    23378037.5344   23378045.0104
       166.0004        166.0004
 -15306832.56148 -11916889.56146  21772090.328    21772089.9294   21772095.8284
       186.0004        187.0004
  -4001711.58047  -3092108.55145  23813262.815    23813265.3664   23813270.9894
       152.0004        153.0004
 -10807371.54148  -8402824.42246  22441319.093    22441320.1144   22441325.8454
       178.0004        179.0004
 -16932563.51549 -13176722.98247  21589524.924    21589524.8574   21589528.7974
       198.0004        199.0004
 -14866480.42648 -11570591.61146  21821913.764    21821915.0404   21821923.0714
       183.0004        183.0004
  -1526851.02447  -1177336.05345  23530034.061    23530033.6394   23530038.8884
       157.0004        158.0004
 -15670236.05849 -12182369.05048  21775095.727    21775095.9264   21775102.4644
       223.0004        223.0004
 -16658182.12949 -12952615.69647  21172914.286    21172914.8124   21172921.8534
       210.0004        210.0004
 21  2  4  1 15  0.0000000  0  9G30G21G17G04G07G01G14G08G09
  -6133571.12547  -4761074.51746  23361363.259    23361363.5314   23361371.2934
       163.0004        164.0004
 -15308895.33848 -11918496.90947  21771697.625    21771697.8414   21771703.6174
       187.0004        188.0004
  -4092793.16447  -3163081.13445  23795932.924    23795934.4284   23795937.9044
       151.0004        155.0004
 -10714043.29548  -8330101.11146  22459078.816    22459079.5704   22459084.9874
       178.0004        177.0004
 -17002602.65249 -13231298.92347  21576196.709    21576196.8034   21576201.4324
       199.0004        200.0004
 -14934025.56948 -11623224.15746  21809061.039    21809061.6574   21809069.8874
       183.0004        184.0004
  -1553304.46047  -1197949.09245  23524998.804    23524999.5014   23525005.1624
       156.0004        159.0004
 -15585885.85549 -12116641.61048  21791147.551    21791147.3924   21791153.8094
       223.0004        222.0004
 -16612511.99549 -12917028.57547  21181604.973    21181605.2294   21181612.0484
       209.0004        210.0004
 21  2  4  1 15 30.0000000  0  9G30G21G17G04G07G01G14G08G09
  -6221210.10147  -4829364.60246  23344686.696    23344686.6854   23344694.1954
       163.0004        166.0004
 -15310494.12448 -11919742.69147  21771393.612    21771393.0144   21771400.1544
       188.0004        189.0004
  -4183602.83047  -3233841.82945  23778653.578    23778652.9564   23778658.4444
       153.0004        157.0004
 -10620549.59848  -8257248.88146  22476870.019    22476871.2364   22476876.9344
       177.0004        176.0004
 -17072475.53249 -13285745.30847  21562900.122    21562900.4244   21562904.3504
       199.0004        199.0004
 -15001312.99448 -11675655.87846  21796255.727    21796256.4304   21796265.6464
       183.0004        184.0004
  -1579714.71447  -1218528.48946  23519975.057    23519974.7564   23519979.8494
       160.0004        164.0004
 -15501296.13849 -12050727.53848  21807243.685    21807243.7714   21807250.5574
       222.0004        221.0004
 -16566406.01049 -12881101.83847  21190379.320    21190379.3054   21190386.2494
       210.0004        210.0004
 21  2  4  1 16  0.0000000  0  9G30G21G17G04G07G01G14G08G09
  -6308865.34448  -4897667.36746  23328007.437    23328007.1314   23328014.0454
       165.0004        168.0004
 -15311627.46648 -11920625.79447  21771177.093    21771177.0134   21771184.0464
       188.0004        188.0004
  -4274138.14047  -3304388.73245  23761423.513    23761424.4204   23761430.0694
       155.0004        158.0004
 -10526893.20448  -8184269.88346  22494693.221    22494693.3244   22494698.3284
       177.0004        178.0004
 -17142179.11849 -13340059.80747  21549636.510    21549636.8274   21549640.3774
       199.0004        199.0004
 -15068339.15048 -11727884.02546  21783501.684    21783501.8814   21783510.7794
       184.0004        185.0004
  -1606082.84047  -1239075.05746  23514956.104    23514956.7724   23514961.6624
       163.0004        166.0004
 -15416469.51549 -11984628.88048  21823385.090    21823385.2924   21823392.5164
       221.0004        220.0004
 -16519866.41749 -12844837.21647  21199233.934    21199234.9744   21199242.4164
       209.0004        210.0004
 21  2  4  1 16 30.0000000  0  9G30G21G17G04G07G01G14G08G09
  -6396535.40248  -4965981.66846  23311323.026    23311323.2084   23311331.0364
       165.0004        166.0004
 -15312294.50348 -11921145.51647  21771050.772    21771050.4144   21771057.3674
       189.0004        188.0004
  -4364397.58547  -3374720.70045  23744249.295    23744249.1424   23744255.6244
       157.0004        160.0004
 -10433077.49048  -8111166.71846  22512545.702    22512545.7254   22512551.3214
       178.0004        178.0004
 -17211711.20149 -13394240.63147  21536404.370    21536404.8364   21536409.1174
       199.0004        199.0004
 -15135101.19848 -11779906.37546  21770796.938    21770797.9064   21770805.6544
       184.0004        185.0004
  -1632410.47048  -1259590.06946  23509946.553    23509946.7604   23509952.0214
       165.0004        166.0004
 -15331409.43849 -11918348.29848  21839570.884    21839571.4084   21839578.6204
       220.0004        220.0004
 -16472895.97149 -12808236.85947  21208173.134    21208173.7324   21208180.4464
       209.0004        209.0004
 21  2  4  1 17  0.0000000  0  9G30G21G17G04G07G01G14G08G09
  -6484216.88748  -5034304.88746  23294638.278    23294638.4604   23294645.5724
       166.0004        167.0004
 -15312492.88248 -11921300.06247  21771012.257    21771012.2344   21771019.3514
       188.0004        188.0004
  -4454377.47647  -3444834.86245  23727125.977    23727126.1714   23727131.5764
       158.0004        159.0004
 -10339104.04148  -8037940.65046  22530426.123    22530427.8454   22530433.8924
       178.0004        178.0004
 -17281067.78649 -13448284.72347  21523205.845    21523206.5054   21523210.7844
       199.0004        199.0004
 -15201594.36848 -11831719.20346  21758143.355    21758143.7874   21758152.3104
       184.0004        184.0004
  -1658697.39447  -1280073.36346  23504943.689    23504943.7784   23504950.2214
       164.0004        165.0004
 -15246117.17349 -11851886.79548  21855801.659    21855802.4654   21855809.5034
       220.0004        220.0004
 -16425495.68949 -12771301.58047  21217193.227    21217193.5584   21217200.0464
       209.0004        209.0004
 21  2  4  1 17 30.0000000  0  9G30G21G17G04G07G01G14G08G09
  -6571908.37748  -5102635.87246  23277950.486    23277950.1264   23277957.7064
       165.0004        165.0004
 -15312222.08348 -11921089.02347  21771063.844    21771063.5984   21771070.5704
       188.0004        189.0004
  -4544076.85347  -3514730.43845  23710056.552    23710057.3394   23710062.0834
       156.0004        157.0004
 -10244976.44348  -7964594.46846  22548339.750    22548339.7814   22548345.7354
       177.0004        176.0004
 -17350246.42249 -13502190.14847  21510042.346    21510043.1824   21510046.3714
       200.0004        200.0004
 -15267815.92848 -11883320.41746  21745543.354    21745544.2014   21745551.3184
       185.0004        186.0004
  -1684945.41847  -1300526.36146  23499949.311    23499949.6974   23499954.8674
       163.0004        164.0004
 -15160596.13949 -11785247.04248  21872077.106    21872077.0184   21872083.4334
       220.0004        220.0004
 -16377668.56449 -12734033.69747  21226293.506    21226293.9354   21226301.4024
       208.0004        208.0004
 21  2  4  1 18  0.0000000  0  9G30G21G17G04G07G01G14G08G09
  -6659608.12548  -5170973.32646  23261261.752    23261261.5024   23261268.8504
       165.0004        168.0004
 -15311480.82748 -11920511.41346  21771205.327    21771204.6574   21771211.0004
       187.0004        187.0004
  -4633493.26947  -3584405.47345  23693040.451    23693041.4124   23693047.6434
       154.0004        156.0004
 -10150697.87848  -7891130.63246  22566279.715    22566279.8514   22566286.3254
       177.0004        176.0004
 -17419244.76549 -13555955.08847  21496912.014    21496912.6564   21496916.0294
       200.0004        200.0004
 -15333762.84048 -11934707.61646  21732992.836    21732993.5714   21733002.0534
       185.0004        186.0004
  -1711156.05547  -1320950.19746  23494961.220    23494961.5934   23494967.1804
       161.0004        163.0004
 -15074849.69849 -11718431.62348  21888394.083    21888394.3534   21888400.4894
       220.0004        220.0004
 -16329417.25149 -12696435.27247  21235476.623    21235477.0234   21235484.0444
       209.0004        209.0004
 21  2  4  1 18 30.0000000  0  9G30G21G17G04G07G01G14G08G09
  -6747313.54548  -5239315.20646  23244572.309    23244572.0384   23244580.1824
       168.0004        171.0004
 -15310268.07848 -11919566.40946  21771435.860    21771435.3284   21771440.7364
       186.0004        185.0004
  -4722624.55147  -3653858.39145  23676079.325    23676079.8934   23676085.6924
       155.0004        158.0004
 -10056270.83148  -7817551.12546  22584248.273    22584249.6884   22584254.8054
       176.0004        176.0004
 -17488059.91849 -13609577.28947  21483816.610    21483817.3414   21483821.7454
       200.0004        200.0004
 -15399431.31248 -11985877.83146  21720495.804    21720496.9524   21720505.5014
       185.0004        185.0004
  -1737329.89047  -1341345.35246  23489981.335    23489980.7664   23489987.3134
       163.0004        165.0004
 -14988879.99649 -11651442.25848  21904753.235    21904753.6034   21904759.4294
       220.0004        219.0004
 -16280743.68949 -12658507.83447  21244738.599    21244738.8934   21244745.5504
       209.0004        208.0004
 21  2  4  1 19  0.0000000  0  9G30G21G17G04G07G01G14G08G09
  -6835022.78648  -5307660.03346  23227881.586    23227881.3214   23227888.6844
       168.0004        168.0004
 -15308582.70248 -11918253.11246  21771756.360    21771756.2504   21771761.3444
       185.0004        184.0004
  -4811469.06847  -3723087.78345  23659173.698    23659173.5124   23659178.7714
       156.0004        158.0004
  -9961698.26648  -7743858.20946  22602245.371    22602246.6844   22602251.9274
       177.0004        178.0004
 -17556688.74049 -13663054.28647  21470758.078    21470758.1114   21470761.5494
       200.0004        200.0004
 -15464818.04348 -12036828.50846  21708054.467    21708055.1944   21708062.7474
       185.0004        186.0004
  -1763468.32947  -1361712.93546  23485005.647    23485006.0284   23485012.8484
       163.0004        164.0004
 -14902689.96949 -11584281.18848  21921154.393    21921154.6754   21921161.1504
       219.0004        219.0004
 -16231650.39149 -12620253.31347  21254080.428    21254080.6474   21254087.9274
       208.0004        207.0004
 21  2  4  1 19 30.0000000  0  9G30G21G17G04G07G01G14G08G09
  -6922734.07248  -5376006.49646  23211190.489    23211190.5124   23211198.0804
       167.0004        169.0004
 -15306423.81248 -11916570.85946  21772166.969    21772166.7164   21772171.6154
       184.0004        183.0004
  -4900024.93947  -3792092.28445  23642322.724    23642322.6474   23642327.4824
       157.0004        159.0004
  -9866983.50548  -7670054.51846  22620268.676    22620269.1024   22620276.3014
       177.0004        176.0004
 -17625129.39849 -13716384.68347  21457733.270    21457734.2934   21457737.5784
       200.0004        199.0004
 -15529920.18248 -12087557.44446  21695666.569    21695666.8074   21695674.7814
       186.0004        187.0004
  -1789572.79447  -1382054.06946  23480039.442    23480039.6894   23480045.5174
       163.0004        164.0004
 -14816283.33249 -11516951.35848  21937597.015    21937597.5324   21937603.9024
       220.0004        219.0004
 -16182140.17049 -12581673.92747  21263502.125    21263502.3174   21263509.0124
       207.0004        208.0004
 21  2  4  1 20  0.0000000  0  9G30G21G17G04G07G01G14G08G09
  -7010446.27148  -5444353.65646  23194500.264    23194500.3944   23194507.4844
       169.0004        172.0004
 -15303791.52448 -11914519.70646  21772667.775    21772667.5764   21772672.3844
       183.0004        183.0004
  -4988291.26647  -3860871.17645  23625524.839    23625524.4554   23625529.2204
       155.0004        157.0004
  -9772130.39648  -7596143.01446  22638318.845    22638319.7324   22638325.9634
       176.0004        176.0004
 -17693379.30949 -13769566.41747  21444745.711    21444746.2524   21444750.4584
       200.0004        200.0004
 -15594735.29848 -12138062.72346  21683331.957    21683332.0374   21683340.2854
       186.0004        187.0004
  -1815645.46047  -1402370.40046  23475077.587    23475078.0914   23475082.7654
       163.0004        165.0004
 -14729663.59249 -11449455.45148  21954081.131    21954080.7734   21954087.4464
       219.0004        218.0004
 -16132216.41749 -12542772.30447  21273002.704    21273002.8964   21273009.3954
       207.0004        208.0004
 21  2  4  1 20 30.0000000  0  9G30G21G17G04G07G01G14G08G09
  -7098156.15548  -5512698.99746  23177809.456    23177809.6454   23177816.1424
       171.0004        172.0004
 -15300683.51448 -11912097.86046  21773259.690    21773259.3084   21773263.7214
       183.0004        182.0004
  -5076264.67547  -3929421.81745  23608784.142    23608785.2184   23608789.3394
       155.0004        159.0004
  -9677140.69548  -7522125.07946  22656395.382    22656395.5774   22656401.7714
       176.0004        175.0004
 -17761434.96949 -13822596.80647  21431795.199    21431795.7154   21431800.5064
       200.0004        200.0004
 -15659258.92848 -12188340.87146  21671052.672    21671053.8374   21671061.6914
       186.0004        185.0004
  -1841686.30147  -1422661.91646  23470123.059    23470122.9094   23470127.8644
       164.0004        165.0004
 -14642832.36749 -11381794.74348  21970602.889    21970603.6034   21970610.4434
       218.0004        217.0004
 -16081880.44749 -12503549.47847  21282580.749    21282580.8414   21282588.2854
       207.0004        207.0004
 21  2  4  1 21  0.0000000  0  9G30G21G17G04G07G01G14G08G09
  -7185862.74448  -5581041.80446  23161119.418    23161119.3084   23161126.1154
       171.0004        172.0004
 -15297099.80048 -11909305.34546  21773942.249    21773941.5124   21773944.7514
       182.0004        182.0004
  -5163944.59147  -3997743.75745  23592101.055    23592100.8724   23592105.2344
       159.0004        162.0004
  -9582018.45348  -7448003.87046  22674496.212    22674496.7964   22674503.2554
       175.0004        175.0004
 -17829294.89149 -13875474.66047  21418882.056    21418882.3864   21418886.8434
       200.0004        201.0004
 -15723488.87548 -12238390.17346  21658830.543    21658831.4384   21658839.3464
       186.0004        187.0004
  -1867697.56747  -1442930.38946  23465172.454    23465173.2704   23465178.8234
       164.0004        165.0004
 -14555793.23649 -11313972.04648  21987166.885    21987166.6854   21987174.3644
       218.0004        218.0004
 -16031135.81149 -12464008.19747  21292237.312    21292237.8334   21292244.5264
       207.0004        207.0004
 21  2  4  1 21 30.0000000  0  9G30G21G17G04G07G01G14G08G09
  -7273563.16748  -5649379.78046  23144430.265    23144430.7554   23144437.7724
       172.0004        174.0004
 -15293038.96448 -11906141.05646  21774714.363    21774713.9894   21774718.0544
       182.0004        181.0004
  -5251327.99347  -4065834.64845  23575471.637    23575471.3684   23575476.7974
       159.0004        161.0004
  -9486765.79548  -7373781.00946  22692622.233    22692622.4134   22692629.2254
       174.0004        174.0004
 -17896955.28449 -13928197.04047  21406006.779    21406007.2124   21406011.2834
       200.0004        201.0004
 -15787420.99848 -12288207.41147  21646664.246    21646665.0694   21646673.7354
       187.0004        188.0004
  -1893679.70547  -1463176.18946  23460227.545    23460227.8604   23460233.6824
       163.0004        163.0004
 -14468549.30049 -11245989.77648  22003769.031    22003769.0924   22003775.7844
       218.0004        218.0004
 -15979984.23749 -12424149.83747  21301970.884    21301971.5464   21301978.6114
       207.0004        207.0004
 21  2  4  1 22  0.0000000  0  9G30G21G17G04G07G01G14G08G09
  -7361255.52948  -5717711.47746  23127742.672    23127743.0394   23127750.2654
       172.0004        172.0004
 -15288500.13648 -11902604.28846  21775578.972    21775578.6874   21775581.7904
       182.0004        183.0004
  -5338413.38747  -4133693.35045  23558897.749    23558899.0174   23558904.7384
       157.0004        159.0004
  -9391385.86148  -7299458.97746  22710771.388    22710772.2854   22710778.4584
       173.0004        173.0004
 -17964413.64249 -13980761.98947  21393169.767    21393170.5104   21393174.2234
       201.0004        201.0004
 -15851052.26048 -12337790.20146  21634555.240    21634555.7314   21634564.4974
       186.0004        186.0004
  -1919634.07547  -1483400.36246  23455289.168    23455289.4684   23455294.7844
       162.0004        163.0004
 -14381102.74849 -11177849.59648  22020409.396    22020409.3764   22020416.5494
       219.0004        218.0004
 -15928428.47449 -12383976.51447  21311781.301    21311781.8804   21311789.1094
       206.0004        206.0004
 21  2  4  1 22 30.0000000  0  9G30G21G17G04G07G01G14G08G09
  -7448936.56248  -5786034.34046  23111057.713    23111058.2644   23111064.9894
       172.0004        174.0004
 -15283481.29448 -11898693.48546  21776533.644    21776532.9194   21776536.9494
       182.0004        182.0004
  -5425197.72447  -4201317.45545  23542383.699    23542384.0284   23542390.9694
       157.0004        159.0004
  -9295880.39648  -7225039.15246  22728946.846    22728946.9424   22728952.4274
       172.0004        172.0004
 -18031666.01249 -14033166.42647  21380372.091    21380372.5144   21380376.8374
       201.0004        202.0004
 -15914378.20748 -12387135.09146  21622505.661    21622506.2724   21622513.9724
       186.0004        187.0004
  -1945560.70847  -1503602.89946  23450355.350    23450355.7924   23450361.0084
       161.0004        163.0004
 -14293455.61449 -11109553.13248  22037087.843    22037088.2314   22037094.9454
       219.0004        218.0004
 -15876469.93149 -12343489.35147  21321669.541    21321669.6074   21321676.8204
       206.0004        207.0004
 21  2  4  1 23  0.0000000  0  9G30G21G17G04G07G01G14G08G09
  -7536605.61448  -5854347.87146  23094374.472    23094375.0374   23094381.9234
       171.0004        171.0004
 -15277982.78448 -11894408.93646  21777579.374    21777578.7924   21777582.7824
       182.0004        182.0004
  -5511680.63647  -4268706.70345  23525926.043    23525927.2504   23525933.8774
       157.0004        159.0004
  -9200253.78548  -7150524.92246  22747143.076    22747143.4794   22747150.5754
       170.0004        171.0004
 -18098711.05249 -14085409.30847  21367613.175    21367613.8574   21367618.5724
       201.0004        201.0004
 -15977397.04048 -12436240.64547  21610513.823    21610514.0404   21610522.0724
       187.0004        188.0004
  -1971462.15747  -1523785.81546  23445426.075    23445426.4174   23445432.3334
       162.0004        164.0004
 -14205612.18849 -11041103.71248  22053803.275    22053804.0944   22053810.9074
       218.0004        217.0004
 -15824112.55249 -12302691.40347  21331631.844    21331632.2974   21331639.8944
       206.0004        207.0004
 21  2  4  1 23 30.0000000  0  9G30G21G17G04G07G01G14G08G09
  -7624260.37148  -5922650.28446  23077694.206    23077695.0504   23077701.6084
       170.0004        171.0004
 -15272003.76848 -11889749.94146  21778717.363    21778716.9294   21778720.3864
       182.0004        183.0004
  -5597859.86547  -4335859.30545  23509528.562    23509528.1664   23509532.8674
       157.0004        158.0004
  -9104508.77448  -7075918.43246  22765363.171    22765363.8444   22765369.6334
       170.0004        170.0004
 -18165545.84049 -14137488.35847  21354895.836    21354896.3734   21354900.2374
       201.0004        202.0004
 -16040105.28348 -12485104.18147  21598580.485    21598581.0294   21598589.4874
       188.0004        188.0004
  -1997339.44547  -1543949.92946  23440501.326    23440502.2284   23440507.5714
       161.0004        163.0004
 -14117574.90149 -10972503.23248  22070556.093    22070556.5114   22070563.6124
       217.0004        215.0004
 -15771358.76649 -12261584.55847  21341671.197    21341671.5764   21341678.2244
       206.0004        206.0004
 21  2  4  1 24  0.0000000  0  9G30G21G17G04G07G01G14G08G09
  -7711898.52348  -5990939.76346  23061017.595    23061017.6164   23061025.9074
       170.0004        173.0004
 -15265543.14348 -11884715.67446  21779947.029    21779946.1584   21779950.9054
       182.0004        183.0004
  -5683733.16447  -4402773.54645  23493186.076    23493185.4544   23493190.1854
       154.0004        154.0004
  -9008648.14948  -7001221.84546  22783605.217    22783605.5504   22783611.6754
       170.0004        171.0004
 -18232167.45749 -14189401.32347  21342218.665    21342218.7064   21342222.5894
       202.0004        203.0004
 -16102499.57348 -12533723.10047  21586708.035    21586709.0754   21586716.3174
       188.0004        189.0004
  -2023193.58447  -1564096.01445  23435582.082    23435582.7414   23435587.7624
       160.0004        161.0004
 -14029346.49149 -10903753.83248  22087345.894    22087346.1394   22087353.4804
       216.0004        217.0004
 -15718210.96349 -12220170.70547  21351784.962    21351785.3374   21351792.2024
       206.0004        206.0004
 21  2  4  1 24 30.0000000  0  9G30G21G17G04G07G01G14G08G09
  -7799517.91948  -6059214.56846  23044344.617    23044344.6404   23044352.0114
       172.0004        174.0004
 -15258600.10948 -11879305.49746  21781267.511    21781267.3224   21781272.7124
       183.0004        183.0004
  -5769299.12547  -4469448.31645  23476901.888    23476903.4584   23476908.8674
       153.0004        156.0004
  -8912674.83048  -6926437.42146  22801867.349    22801868.5134   22801874.4374
       170.0004        170.0004
 -18298573.01549 -14241145.90547  21329581.322    21329582.1334   21329585.7194
       202.0004        203.0004
 -16164576.64548 -12582094.81347  21574895.129    21574895.8934   21574902.7344
       189.0004        189.0004
  -2049025.75047  -1584224.93145  23430666.645    23430666.3664   23430671.6724
       159.0004        159.0004
 -13940930.03849 -10834857.88248  22104171.293    22104171.8514   22104178.6304
       217.0004        217.0004
 -15664671.76649 -12178451.83747  21361973.538    21361973.4634   21361980.3024
       206.0004        206.0004
 21  2  4  1 25  0.0000000  0  9G30G21G17G04G07G01G14G08G09
  -7887116.11848  -6127472.89046  23027675.507    23027675.6144   23027681.9264
       172.0004        173.0004
 -15251173.52748 -11873518.54946  21782681.078    21782680.6194   21782686.0614
       183.0004        184.0004
  -5854555.20947  -4535881.60045  23460680.321    23460680.9424   23460685.2314
       156.0004        160.0004
  -8816591.33048  -6851567.19846  22820151.954    22820152.3614   22820157.8964
       168.0004        169.0004
 -18364759.53049 -14292719.81847  21316986.106    21316987.2204   21316990.9784
       202.0004        202.0004
 -16226332.85648 -12630216.52647  21563141.672    21563142.7204   21563150.9414
       188.0004        188.0004
  -2074836.71347  -1604337.31845  23425755.592    23425755.4374   23425760.1534
       159.0004        161.0004
 -13852327.78149 -10765817.17548  22121031.517    22121032.1334   22121039.1884
       217.0004        216.0004
 -15610743.39049 -12136429.74847  21372235.479    21372235.6994   21372242.7974
       206.0004        206.0004
 21  2  4  1 25 30.0000000  0  9G30G21G17G04G07G01G14G08G09
  -7974692.56848  -6195714.29446  23011010.264    23011010.6424   23011016.9034
       173.0004        175.0004
 -15243264.33448 -11867355.52646  21784186.731    21784186.3094   21784190.6354
       184.0004        185.0004
  -5939501.54847  -4602073.53546  23444516.609    23444516.4514   23444520.5894
       161.0004        164.0004
  -8720402.28248  -6776614.69646  22838455.765    22838457.2904   22838462.6754
       169.0004        170.0004
 -18430725.80449 -14344122.11747  21304434.107    21304434.3284   21304437.7854
       202.0004        202.0004
 -16287766.71048 -12678087.04347  21551452.054    21551453.3354   21551460.1194
       188.0004        188.0004
  -2100629.34947  -1624435.46445  23420846.195    23420846.9674   23420852.2084
       160.0004        162.0004
 -13763544.64949 -10696635.51448  22137926.917    22137926.7764   22137933.5754
       216.0004        215.0004
 -15556430.16549 -12094107.74847  21382570.102    21382570.8454   21382577.9154
       205.0004        205.0004
 21  2  4  1 26  0.0000000  0  9G30G21G17G04G07G01G14G08G09
  -8062244.14648  -6263936.30346  22994350.210    22994349.7214   22994356.5394
       174.0004        174.0004
 -15234871.03348 -11860815.28646  21785782.547    21785782.6474   21785788.4394
       184.0004        185.0004
  -6024135.34147  -4668021.88446  23428409.465    23428409.1954   23428415.8364
       161.0004        163.0004
  -8624109.62448  -6701581.46246  22856780.850    22856780.2684   22856786.1704
       168.0004        168.0004
 -18496468.21949 -14395349.96647  21291923.163    21291923.5724   21291928.0004
       203.0004        203.0004
 -16348873.97548 -12725703.07947  21539824.299    21539824.6474   21539832.1434
       188.0004        188.0004
  -2126403.79347  -1644519.42145  23415941.330    23415942.5204   23415947.2364
       159.0004        161.0004
 -13674581.77649 -10627313.81248  22154855.179    22154855.5094   22154862.6554
       215.0004        214.0004
 -15501733.76049 -12051487.18247  21392979.120    21392979.4484   21392986.5474
       205.0004        205.0004
 21  2  4  1 26 30.0000000  0  9G30G21G17G04G07G01G14G08G09
  -8149768.62148  -6332137.17646  22977693.562    22977693.3704   22977700.6534
       172.0004        173.0004
 -15225992.54248 -11853896.97546  21787472.157    21787472.6334   21787478.1634
       185.0004        185.0004
  -6108454.66347  -4733725.19246  23412364.875    23412365.4144   23412370.8414
       163.0004        165.0004
  -8527716.15848  -6626469.68446  22875123.584    22875123.9654   22875129.6684
       168.0004        169.0004
 -18561983.74949 -14446401.03147  21279455.806    21279456.1914   21279460.2614
       203.0004        203.0004
 -16409651.33848 -12773062.05846  21528258.488    21528259.3544   21528266.2874
       187.0004        187.0004
  -2152161.10047  -1664590.02945  23411040.587    23411041.1064   23411046.3814
       160.0004        161.0004
 -13585442.22049 -10557854.42748  22171818.123    22171818.3204   22171825.2544
       214.0004        214.0004
 -15446656.70049 -12008569.99647  21403460.839    21403460.7094   21403467.9114
       205.0004        206.0004
 21  2  4  1 27  0.0000000  0  9G30G21G17G04G07G01G14G08G09
  -8237263.40948  -6400314.92046  22961044.639    22961045.1564   22961052.0174
       174.0004        176.0004
 -15216627.92448 -11846599.84446  21789255.482    21789254.2434   21789259.9384
       185.0004        185.0004
  -6192457.09647  -4799181.56146  23396379.048    23396379.1204   23396385.1994
       163.0004        163.0004
  -8431224.49448  -6551281.35646  22893485.708    22893486.1414   22893491.6224
       170.0004        171.0004
 -18627269.31649 -14497272.89247  21267032.209    21267032.7014   21267036.8014
       202.0004        202.0004
 -16470095.32348 -12820161.24147  21516755.560    21516756.3914   21516764.7244
       187.0004        188.0004
  -2177902.10547  -1684647.92245  23406141.517    23406142.6044   23406146.7924
       159.0004        160.0004
 -13496128.33249 -10488259.18248  22188813.107    22188813.9744   22188821.1734
       214.0004        213.0004
 -15391201.29849 -11965357.99247  21414012.863    21414013.4494   21414020.6374
       205.0004        206.0004
 21  2  4  1 27 30.0000000  0  9G30G21G17G04G07G01G14G08G09
  -8324727.15948  -6468468.46946  22944399.394    22944399.1634   22944406.7904
       171.0004        170.0004
 -15206776.95548 -11838923.75646  21791128.864    21791128.4674   21791134.6324
       185.0004        185.0004
  -6276141.62347  -4864390.19146  23380454.795    23380455.3674   23380460.9584
       164.0004        166.0004
  -8334638.24948  -6476019.35846  22911865.607    22911865.7324   22911870.6784
       170.0004        169.0004
 -18692322.54949 -14547963.73747  21254653.366    21254653.8984   21254657.7804
       202.0004        203.0004
 -16530203.34348 -12866998.63147  21505316.905    21505317.8944   21505327.0584
       187.0004        189.0004
  -2203628.76447  -1704694.64545  23401246.783    23401246.5424   23401251.7924
       160.0004        162.0004
 -13406644.04849 -10418531.16948  22205841.871    22205842.6444   22205849.6814
       214.0004        214.0004
 -15335371.04049 -11921853.90047  21424636.866    21424637.4144   21424644.3804
       205.0004        205.0004
 21  2  4  1 28  0.0000000  0  9G30G21G17G04G07G01G14G08G09
  -8412156.68948  -6536595.36346  22927762.308    22927762.3864   22927770.2904
       170.0004        171.0004
 -15196438.48648 -11830867.78946  21793096.967    21793096.8504   21793102.0704
       185.0004        186.0004
  -6359505.80648  -4929349.18046  23364590.353    23364590.8204   23364597.3224
       165.0004        167.0004
  -8237959.42648  -6400685.20546  22930260.203    22930262.2744   22930268.8144
       168.0004        168.0004
 -18757140.22149 -14598471.01247  21242318.863    21242319.4074   21242323.6844
       203.0004        203.0004
 -16589971.33748 -12913571.07347  21493945.433    21493945.9654   21493953.2474
       190.0004        191.0004
  -2229341.20547  -1724730.32345  23396354.236    23396353.9894   23396358.3214
       158.0004        159.0004
 -13316991.06749 -10348671.69548  22222903.566    22222903.4694   22222909.8344
       214.0004        213.0004
 -15279167.70849 -11878059.10047  21435331.913    21435332.1444   21435339.3514
       204.0004        204.0004
 21  2  4  1 28 30.0000000  0  9G30G21G17G04G07G01G14G08G09
  -8499550.42148  -6604694.36546  22911131.377    22911132.0364   22911140.1054
       170.0004        171.0004
 -15185612.49348 -11822431.93946  21795156.549    21795156.3964   21795162.3874
       185.0004        186.0004
  -6442548.58548  -4994057.75246  23348788.592    23348789.0304   23348794.8924
       166.0004        169.0004
  -8141191.52848  -6325281.66646  22948676.295    22948675.9684   22948682.6664
       168.0004        168.0004
 -18821720.08549 -14648792.98847  21230029.873    21230030.1854   21230034.1664
       203.0004        203.0004
 -16649396.75948 -12959876.61147  21482638.806    21482638.5264   21482644.7004
       193.0004        194.0004
  -2255041.28547  -1744756.31845  23391462.538    23391462.9894   23391468.9794
       157.0004        157.0004
 -13227172.88849 -10278683.52148  22239995.680    22239995.0614   22240002.1134
       213.0004        213.0004
 -15222594.52549 -11833976.11147  21446097.397    21446098.2724   21446104.7654
       204.0004        204.0004
 21  2  4  1 29  0.0000000  0 10G30G21G17G04G07G01G14G08G28G09
  -8586905.76448  -6672763.47146  22894508.465    22894508.6034   22894516.1004
       170.0004        171.0004
 -15174297.89948 -11813615.36546  21797309.898    21797309.6434   21797314.7084
       186.0004        187.0004
  -6525267.91648  -5058514.28846  23333047.939    23333047.5274   23333054.4224
       168.0004        170.0004
  -8044337.11348  -6249810.69446  22967106.360    22967107.3514   22967114.6114
       168.0004        170.0004
 -18886058.83349 -14698927.07947  21217787.132    21217787.4264   21217791.1204
       203.0004        204.0004
 -16708476.08848 -13005912.46247  21471394.414    21471395.3374   21471402.2024
       193.0004        192.0004
  -2280729.69547  -1764773.24645  23386574.202    23386574.9514   23386580.3554
       154.0004        156.0004
 -13137192.13149 -10208568.66147  22257116.623    22257117.4144   22257124.5994
       213.0004        212.0004
  -1262745.00554   -974509.950 4                                  23710272.499
        74.0004        126.000
 -15165653.83249 -11789606.74847  21456933.069    21456933.3704   21456940.5464
       203.0004        204.0004
 21  2  4  1 29 30.0000000  0 10G30G21G17G04G07G01G14G08G28G09
  -8674220.32848  -6740800.77646  22877892.120    22877892.7634   22877901.9224
       170.0004        172.0004
 -15162493.88448 -11804417.40946  21799556.130    21799556.0264   21799561.1674
       186.0004        187.0004
  -6607661.77748  -5122717.22746  23317367.126    23317368.4504   23317374.3884
       167.0004        168.0004
  -7947398.85548  -6174274.38446  22985554.191    22985554.1834   22985560.4624
       168.0004        169.0004
 -18950153.64349 -14748871.09547  21205589.831    21205590.0834   21205594.1294
       204.0004        204.0004
 -16767205.93948 -13051675.97847  21460217.265    21460217.5444   21460226.2814
       190.0004        189.0004
  -2306407.39847  -1784781.86245  23381688.515    23381688.8564   23381693.8254
       154.0004        157.0004
 -13047050.84149 -10138328.69848  22274270.926    22274270.8924   22274277.8624
       213.0004        213.0004
  -1290730.10346   -996316.29245  23704944.149                    23704949.3024
       118.0004        136.0004
 -15108348.23049 -11744953.04647  21467837.933    21467838.1444   21467845.3944
       203.0004        204.0004
 21  2  4  1 30  0.0000000  0 10G30G21G17G04G07G01G14G08G28G09
  -8761494.52548  -6808806.62346  22861286.205    22861286.5214   22861292.7044
       172.0004        174.0004
 -15150203.11348 -11794840.16946  21801895.127    21801894.9704   21801900.4724
       187.0004        187.0004
  -6689730.97948  -5186667.16546  23301752.015    23301751.9224   23301757.8854
       167.0004        168.0004
  -7850382.27548  -6098677.04546  23004016.659    23004017.1934   23004022.1164
       169.0004        170.0004
 -19014004.34749 -14798624.88247  21193438.749    21193439.4604   21193443.6594
       203.0004        203.0004
 -16825585.86048 -13097166.78746  21449106.416    21449107.5954   21449116.5334
       188.0004        187.0004
  -2332078.19947  -1804785.07445  23376803.559    23376804.1714   23376807.9654
       155.0004        157.0004
 -12956754.70949 -10067968.08847  22291453.214    22291453.7474   22291460.5874
       212.0004        212.0004
  -1305819.86646  -1008074.55945  23702073.089    23702073.2154   23702077.9894
       129.0004        138.0004
 -15050683.11049 -11700019.19047  21478810.683    21478811.1844   21478818.6334
       203.0004        202.0004
 21  2  4  1 30 30.0000000  0 10G30G21G17G04G07G01G14G08G28G09
  -8848726.94348  -6876779.91946  22844686.472    22844686.8984   22844693.6834
       173.0004        174.0004
 -15137425.43348 -11784883.51846  21804325.890    21804325.5784   21804331.7444
       186.0004        185.0004
  -6771474.78748  -5250363.56246  23286195.945    23286196.8634   23286201.6414
       166.0004        168.0004
  -7753291.18048  -6023021.63446  23022491.180    23022492.2094   23022497.7204
       169.0004        171.0004
 -19077608.96449 -14848186.92047  21181336.009    21181336.7114   21181339.9944
       204.0004        204.0004
 -16883613.47948 -13142383.09747  21438065.444    21438065.9694   21438074.5784
       188.0004        189.0004
  -2357744.09047  -1824784.46345  23371919.701    23371919.7594   23371923.5304
       154.0004        156.0004
 -12866307.50449  -9997489.75547  22308664.431    22308664.7194   22308672.5124
       211.0004        210.0004
  -1320887.22046  -1019815.31645  23699205.718    23699205.4104   23699208.6034
       131.0004        138.0004
 -14992662.02249 -11654807.96047  21489851.593    21489851.8454   21489860.1534
       202.0004        202.0004
 21  2  4  1 31  0.0000000  0 10G30G21G17G04G07G01G14G08G28G09
  -8935912.80048  -6944716.94846  22828095.832    22828095.6174   22828101.9714
       173.0004        173.0004
 -15124157.50448 -11774544.85946  21806850.453    21806850.6944   21806856.2344
       186.0004        187.0004
  -6852889.30848  -5313803.40346  23270703.596    23270703.6894   23270707.3804
       165.0004        166.0004
  -7656125.82748  -5947308.36846  23040980.480    23040981.6174   23040987.4894
       169.0004        168.0004
 -19140962.21949 -14897553.09947  21169280.837    21169280.8594   21169284.2874
       204.0004        204.0004
 -16941283.13448 -13187320.47847  21427092.627    21427092.9644   21427100.4814
       189.0004        191.0004
  -2383403.65147  -1844778.90245  23367035.168    23367035.9344   23367041.9654
       154.0004        156.0004
 -12775709.59849  -9926893.99347  22325904.508    22325904.4494   22325912.8494
       210.0004        209.0004
  -1335931.02246  -1031537.72245  23696342.491    23696342.4664   23696347.3614
       133.0004        140.0004
 -14934285.21949 -11609319.53847  21500961.021    21500961.6824   21500968.3224
       202.0004        203.0004
 21  2  4  1 31 30.0000000  0 10G30G21G17G04G07G01G14G08G28G09
  -9023047.52748  -7012614.13046  22811514.589    22811514.5674   22811521.1994
       173.0004        176.0004
 -15110396.72048 -11763822.17046  21809469.690    21809469.6794   21809474.1344
       186.0004        186.0004
  -6933970.21347  -5376983.28146  23255273.437    23255273.9414   23255277.0694
       163.0004        163.0004
  -7558886.83848  -5871537.72446  23059484.527    23059486.0354   23059491.7684
       168.0004        169.0004
 -19204058.68249 -14946719.17647  21157273.001    21157273.4224   21157277.8194
       204.0004        204.0004
 -16998589.40648 -13231974.71847  21416188.128    21416188.3704   21416194.9124
       192.0004        194.0004
  -2409055.71447  -1864767.49145  23362154.784    23362155.0074   23362160.2364
       155.0004        158.0004
 -12684961.32049  -9856181.05547  22343172.902    22343173.7664   22343181.0584
       209.0004        209.0004
  -1350950.33147  -1043241.08745  23693483.907    23693483.1654   23693489.0224
       135.0004        141.0004
 -14875553.12749 -11563554.28347  21512137.588    21512137.7434   21512144.5094
       202.0004        202.0004
 21  2  4  1 32  0.0000000  0 10G30G21G17G04G07G01G14G08G28G09
  -9110128.94048  -7080469.77146  22794944.204    22794943.1164   22794950.7764
       177.0004        178.0004
 -15096142.87748 -11752715.26646  21812181.908    21812182.1114   21812186.5154
       186.0004        186.0004
  -7014716.14147  -5439902.12745  23239908.581    23239909.3934   23239911.3374
       161.0004        162.0004
  -7461577.16248  -5795711.99946  23078002.410    23078003.2114   23078009.5424
       168.0004        169.0004
 -19266895.99149 -14995683.30847  21145315.303    21145316.0694   21145319.9114
       204.0004        204.0004
 -17055529.27748 -13276343.43247  21405352.517    21405353.2874   21405360.0414
       193.0004        194.0004
  -2434701.48347  -1884751.18545  23357275.003    23357275.6234   23357279.7134
       157.0004        161.0004
 -12594065.38449  -9785353.05447  22360470.363    22360471.1834   22360477.9894
       209.0004        209.0004
  -1365947.07647  -1054926.85545  23690630.531    23690629.7384   23690634.5914
       136.0004        142.0004
 -14816468.61749 -11517514.41147  21523380.766    21523381.3674   21523388.0014
       202.0004        202.0004
 21  2  4  1 32 30.0000000  0 10G30G21G17G04G07G01G14G08G28G09
  -9197156.26248  -7148283.24146  22778383.323    22778383.1914   22778389.1564
       177.0004        179.0004
 -15081397.22048 -11741225.11346  21814988.737    21814988.2734   21814993.2864
       186.0004        185.0004
  -7095126.70447  -5502559.63845  23224606.659    23224605.5264   23224610.0584
       160.0004        160.0004
  -7364201.17048  -5719834.59246  23096533.935    23096533.6184   23096539.0814
       167.0004        168.0004
 -19329472.85649 -15044444.50347  21133407.921    21133408.2724   21133412.2654
       204.0004        204.0004
 -17112101.11148 -13320425.37747  21394587.930    21394588.0184   21394594.1814
       193.0004        193.0004
  -2460343.43847  -1904731.90345  23352395.704    23352395.1024   23352399.8504
       159.0004        161.0004
 -12503026.05149  -9714413.31747  22377795.630    22377795.6094   22377802.5434
       210.0004        210.0004
  -1380924.51647  -1066597.57345  23687781.411    23687780.4974   23687783.3474
       138.0004        143.0004
 -14757035.92949 -11471203.22347  21534690.115    21534690.7894   21534697.8834
       202.0004        202.0004
 21  2  4  1 33  0.0000000  0 10G30G21G17G04G07G01G14G08G28G09
  -9284128.21648  -7216053.60046  22761832.291    22761832.0184   22761839.4284
       178.0004        178.0004
 -15066160.17048 -11729352.09046  21817888.352    21817887.5794   21817892.4444
       186.0004        186.0004
  -7175201.54947  -5564955.59345  23209368.001    23209368.1674   23209371.6764
       158.0004        161.0004
  -7266762.66848  -5643908.49746  23115074.434    23115075.1484   23115080.5984
       166.0004        166.0004
 -19391787.34749 -15093001.26447  21121549.049    21121549.9824   21121554.4744
       204.0004        205.0004
 -17168302.78948 -13364218.89547  21383892.122    21383892.7364   21383900.0464
       193.0004        193.0004
  -2485983.83847  -1924711.42045  23347515.768    23347516.5184   23347520.8614
       159.0004        161.0004
 -12411847.51149  -9643365.11047  22395146.078    22395145.9934   22395153.7604
       210.0004        209.0004
  -1395884.85547  -1078254.96245  23684933.280    23684933.6164   23684938.5654
       138.0004        143.0004
 -14697258.91349 -11424623.73047  21546065.834    21546066.1884   21546072.7984
       202.0004        203.0004
 21  2  4  1 33 30.0000000  0 10G30G21G17G04G07G01G14G08G28G09
  -9371040.62648  -7283777.53546  22745293.434    22745293.8654   22745300.6344
       179.0004        181.0004
 -15050429.31648 -11717094.26046  21820880.387    21820880.2684   21820885.8234
       186.0004        185.0004
  -7254937.06647  -5627087.10645  23194195.533    23194196.5534   23194199.1204
       159.0004        162.0004
  -7169262.72547  -5567934.51446  23133628.058    23133629.2354   23133634.2364
       164.0004        165.0004
 -19453834.82649 -15141349.94247  21109742.705    21109742.8444   21109746.5634
       205.0004        205.0004
 -17224129.38348 -13407720.11747  21373268.644    21373269.0974   21373276.8564
       192.0004        191.0004
  -2511621.87447  -1944689.09045  23342637.441    23342637.8184   23342643.0024
       159.0004        160.0004
 -12320529.94249  -9572208.56747  22412522.014    22412522.5064   22412530.3134
       208.0004        207.0004
  -1410827.54847  -1089898.57845  23682089.343    23682089.6604   23682095.3154
       140.0004        145.0004
 -14637138.37249 -11377776.56447  21557505.829    21557506.6954   21557513.9784
       203.0004        204.0004
 21  2  4  1 34  0.0000000  0 10G30G21G17G04G07G01G14G08G28G09
  -9457891.66348  -7351453.66446  22728766.498    22728766.1324   22728772.7894
       180.0004        182.0004
 -15034204.93948 -11704451.87846  21823967.337    21823968.0984   21823973.4314
       185.0004        185.0004
  -7334332.25947  -5688953.47246  23179087.401    23179087.4024   23179092.4224
       162.0004        166.0004
  -7071704.63247  -5491915.22246  23152192.042    23152192.9424   23152199.6224
       163.0004        165.0004
 -19515613.06549 -15189488.83747  21097986.328    21097986.9184   21097990.7184
       205.0004        205.0004
 -17279578.28148 -13450927.04347  21362716.472    21362717.0684   21362725.1924
       191.0004        191.0004
  -2537259.07747  -1964666.12345  23337758.620    23337758.9384   23337763.9204
       158.0004        160.0004
 -12229077.12449  -9500946.65547  22429925.615    22429925.9094   22429932.9584
       208.0004        208.0004
  -1425755.18547  -1101530.48045  23679250.864    23679250.9604   23679253.9874
       141.0004        146.0004
 -14576677.80449 -11330664.44347  21569012.279    21569012.1224   21569018.5884
       204.0004        204.0004
 21  2  4  1 34 30.0000000  0 10G30G21G17G04G07G01G14G08G28G09
  -9544679.09148  -7419080.22246  22712252.110    22712251.9634   22712257.9704
       182.0004        183.0004
 -15017486.94148 -11691424.84646  21827150.456    21827149.1114   21827154.7584
       185.0004        185.0004
  -7413385.58948  -5750553.38146  23164044.023    23164044.8124   23164049.8524
       165.0004        168.0004
  -6974091.32647  -5415852.89246  23170768.081    23170768.2594   23170775.1394
       164.0004        165.0004
 -19577119.27349 -15237415.75747  21086281.666    21086282.4234   21086286.6344
       204.0004        205.0004
 -17334646.49348 -13493837.32247  21352237.158    21352237.5834   21352246.2154
       191.0004        191.0004
  -2562896.66447  -1984643.44645  23332879.517    23332880.5764   23332884.4564
       159.0004        162.0004
 -12137491.72149  -9429581.40147  22447353.673    22447353.4944   22447361.4964
       208.0004        208.0004
  -1440668.97147  -1113151.60645  23676411.545    23676411.7804   23676416.1594
       142.0004        146.0004
 -14515880.04449 -11283289.56147  21580581.083    21580581.4714   21580588.3164
       204.0004        205.0004
 21  2  4  1 35  0.0000000  0 10G30G21G17G04G07G01G14G08G28G09
  -9631402.22948  -7486656.69346  22695748.165    22695748.3574   22695754.6494
       180.0004        180.0004
 -15000275.85148 -11678013.60146  21830424.480    21830424.6334   21830429.8894
       185.0004        186.0004
  -7492096.87048  -5811886.82246  23149065.284    23149065.3154   23149072.6524
       167.0004        169.0004
  -6876427.19947  -5339750.99046  23189353.280    23189353.3484   23189359.9544
       164.0004        166.0004
 -19638352.00949 -15285129.58347  21074629.553    21074630.1674   21074634.4094
       204.0004        205.0004
 -17389332.54448 -13536449.82147  21341830.557    21341830.7494   21341839.7744
       191.0004        191.0004
  -2588537.25847  -2004623.12745  23328001.105    23328001.5764   23328005.5604
       160.0004        162.0004
 -12045777.93449  -9358116.12647  22464804.953    22464805.8704   22464814.5434
       208.0004        208.0004
  -1455571.74147  -1124764.13245  23673576.073    23673575.6904   23673581.0214
       142.0004        147.0004
 -14454749.45149 -11235655.35447  21592214.633    21592214.5314   21592221.2644
       204.0004        205.0004
 21  2  4  1 35 30.0000000  0 10G30G21G17G04G07G01G14G08G28G09
  -9718057.36848  -7554180.17846  22679258.623    22679258.5344   22679264.3554
       179.0004        179.0004
 -14982570.96348 -11664217.58246  21833794.336    21833794.0814   21833799.0954
       186.0004        186.0004
  -7570463.19848  -5872951.44246  23134152.348    23134152.9074   23134160.0624
       169.0004        170.0004
  -6778713.84147  -5263610.72646  23207947.426    23207947.8214   23207953.9594
       163.0004        164.0004
 -19699307.35249 -15332627.26947  21063030.350    21063031.4094   21063034.4854
       204.0004        205.0004
 -17443632.07848 -13578761.13047  21331497.372    21331498.0404   21331506.5314
       190.0004        191.0004
  -2614180.69547  -2024605.01145  23323120.489    23323120.8824   23323126.3754
       160.0004        162.0004
 -11953937.26749  -9286551.98547  22482283.992    22482283.4954   22482290.5384
       208.0004        207.0004
  -1470463.91047  -1136368.40545  23670740.915    23670741.3064   23670745.6884
       142.0004        147.0004
 -14393287.55749 -11187762.96947  21603909.627    21603910.0094   21603917.2424
       204.0004        204.0004
 21  2  4  1 36  0.0000000  0 10G30G21G17G04G07G01G14G08G28G09
  -9804642.84048  -7621649.38646  22662781.685    22662781.7084   22662787.5544
       178.0004        180.0004
 -14964372.48148 -11650036.94146  21837257.748    21837256.5684   21837262.2504
       186.0004        185.0004
  -7648484.11048  -5933746.91046  23119305.960    23119306.2624   23119313.3104
       170.0004        171.0004
  -6680954.64547  -5187434.74546  23226550.295    23226550.3074   23226556.8174
       162.0004        163.0004
 -19759983.20649 -15379907.16047  21051484.781    21051485.0914   21051488.6794
       205.0004        205.0004
 -17497542.71648 -13620769.42047  21321240.060    21321240.3114   21321247.5494
       191.0004        192.0004
  -2639828.65247  -2044590.42145  23318240.719    23318240.4664   23318245.0314
       160.0004        162.0004
 -11861972.57149  -9214891.20347  22499783.451    22499783.6644   22499791.0364
       207.0004        207.0004
  -1485347.77647  -1147966.19545  23667909.982    23667909.3214   23667913.8454
       144.0004        149.0004
 -14331497.86249 -11139615.16547  21615668.122    21615668.2304   21615675.2304
       204.0004        203.0004
 21  2  4  1 36 30.0000000  0 10G30G21G17G04G07G01G14G08G28G09
  -9891156.27548  -7689062.44246  22646318.845    22646319.1624   22646325.8974
       181.0004        183.0004
 -14945679.82948 -11635471.21746  21840814.557    21840813.7124   21840819.4994
       186.0004        186.0004
  -7726157.97948  -5994271.93146  23104525.381    23104526.5124   23104531.4234
       169.0004        170.0004
  -6583152.48447  -5111225.26346  23245162.191    23245161.5184   23245168.1774
       162.0004        164.0004
 -19820377.04449 -15426967.28947  21039991.760    21039992.3734   21039995.9554
       205.0004        205.0004
 -17551061.40148 -13662472.28547  21311055.567    21311055.6834   21311063.3584
       192.0004        193.0004
  -2665482.22547  -2064580.19245  23313358.232    23313358.3254   23313363.3704
       160.0004        160.0004
 -11769887.51149  -9143136.62047  22517306.723    22517306.8164   22517313.9404
       206.0004        206.0004
  -1500224.97147  -1159558.78545  23665078.460    23665078.1354   23665083.5134
       148.0004        151.0004
 -14269383.20949 -11091214.12947  21627488.301    21627488.4924   21627495.0364
       203.0004        203.0004
 21  2  4  1 37  0.0000000  0 10G30G21G17G04G07G01G14G08G28G09
  -9977594.78848  -7756417.11346  22629870.457    22629871.1174   22629877.5074
       183.0004        184.0004
 -14926492.43948 -11620519.99846  21844464.612    21844465.3564   21844470.3044
       185.0004        185.0004
  -7803482.66548  -6054524.87046  23089810.022    23089809.8614   23089816.8644
       169.0004        169.0004
  -6485309.70447  -5034984.13046  23263780.150    23263781.3554   23263787.5194
       162.0004        163.0004
 -19880485.26449 -15473804.87347  21028554.012    21028554.4564   21028557.7544
       205.0004        205.0004
 -17604184.59748 -13703866.97747  21300945.530    21300946.1794   21300953.9884
       193.0004        193.0004
  -2691141.97747  -2084574.79545  23308476.151    23308476.1644   23308480.9164
       159.0004        160.0004
 -11677683.83449  -9071289.59547  22534850.683    22534851.9414   22534859.5934
       205.0004        204.0004
  -1515096.13147  -1171146.66645  23662248.545    23662248.5824   23662253.7524
       149.0004        152.0004
 -14206945.97449 -11042561.74647  21639368.888    21639369.2994   21639376.7434
       202.0004        202.0004
 21  2  4  1 37 30.0000000  0 10G30G21G17G04G07G01G14G08G28G09
 -10063955.79248  -7823711.39946  22613436.051    22613436.7214   22613442.4094
       182.0004        183.0004
 -14906810.05048 -11605183.05346  21848211.073    21848210.2834   21848215.2344
       185.0004        185.0004
  -7880456.47548  -6114504.42046  23075162.585    23075163.6204   23075168.3964
       167.0004        168.0004
  -6387428.71247  -4958713.23345  23282405.563    23282406.1104   23282413.0734
       161.0004        162.0004
 -19940304.58149 -15520417.32247  21017170.388    21017170.6144   21017174.7824
       205.0004        205.0004
 -17656909.02048 -13744950.94047  21290912.265    21290912.9614   21290921.6244
       193.0004        194.0004
  -2716808.63447  -2104574.75845  23303591.700    23303592.9134   23303596.6714
       159.0004        161.0004
 -11585363.79149  -8999351.90547  22552419.930    22552420.0214   22552427.8324
       205.0004        205.0004
  -1529962.68047  -1182730.95545  23659418.960    23659419.5684   23659423.4644
       149.0004        152.0004
 -14144188.68049 -10993659.96647  21651311.113    21651311.7294   21651318.9254
       201.0004        202.0004
 21  2  4  1 38  0.0000000  0 10G30G21G17G04G07G01G14G08G28G09
 -10150237.14848  -7890943.61146  22597017.320    22597017.4784   22597024.1964
       182.0004        182.0004
 -14886632.97048 -11589460.64646  21852050.595    21852050.6064   21852055.2194
       185.0004        185.0004
  -7957078.23948  -6174209.63946  23060582.161    23060582.1654   23060588.0654
       168.0004        168.0004
  -6289512.71947  -4882415.06846  23301038.794    23301039.2604   23301046.0254
       161.0004        163.0004
 -19999832.81949 -15566802.96247  21005841.989    21005843.0724   21005846.8884
       205.0004        206.0004
 -17709231.92848 -13785722.02347  21280957.326    21280957.5804   21280964.6814
       194.0004        195.0004
  -2742483.55147  -2124581.20145  23298705.544    23298706.1224   23298711.0444
       158.0004        161.0004
 -11492930.59049  -8927326.03947  22570009.048    22570009.4324   22570017.3994
       205.0004        205.0004
  -1544826.26147  -1194312.96345  23656591.715    23656591.2704   23656595.7754
       150.0004        154.0004
 -14081114.50549 -10944511.26147  21663314.291    21663314.6014   21663321.6114
       201.0004        201.0004
 21  2  4  1 38 30.0000000  0 10G30G21G17G04G07G01G14G08G28G09
 -10236437.38448  -7958112.63646  22580614.181    22580613.7244   22580620.3094
       181.0004        182.0004
 -14865961.20048 -11573352.76646  21855985.034    21855984.2984   21855989.1374
       186.0004        186.0004
  -8033347.41448  -6233640.12946  23046067.830    23046068.7014   23046073.4804
       167.0004        169.0004
  -6191565.33947  -4806092.44146  23319676.838    23319678.0754   23319684.1234
       162.0004        164.0004
 -20059068.15449 -15612960.37647  20994570.979    20994571.3874   20994574.7404
       205.0004        206.0004
 -17761151.27649 -13826178.63847  21271077.188    21271077.0794   21271084.5474
       195.0004        195.0004
  -2768168.64747  -2144595.55645  23293818.046    23293818.3924   23293824.3844
       158.0004        160.0004
 -11400387.78149  -8855214.77047  22587619.252    22587619.7214   22587627.7964
       205.0004        206.0004
  -1559689.47847  -1205894.66845  23653761.733    23653762.5434   23653766.4304
       151.0004        154.0004
 -14017727.22449 -10895118.57947  21675376.276    21675376.4724   21675384.0324
       201.0004        201.0004
 21  2  4  1 39  0.0000000  0 10G30G21G17G04G07G01G14G08G28G09
 -10322552.68148  -8025215.45146  22564227.598    22564227.4464   22564233.0284
       181.0004        181.0004
 -14844793.47748 -11556858.42346  21860011.967    21860011.9554   21860016.9224
       186.0004        186.0004
  -8109261.13448  -6292793.61946  23031623.111    23031623.6584   23031627.3104
       169.0004        172.0004
  -6093587.99647  -4729746.47246  23338321.596    23338321.9694   23338329.6874
       162.0004        164.0004
 -20118006.25949 -15658886.16847  20983354.228    20983355.1764   20983359.2804
       205.0004        205.0004
 -17812662.65349 -13866317.35247  21261274.652    21261274.9144   21261282.4644
       195.0004        195.0004
  -2793863.63347  -2164617.60645  23288928.474    23288928.6174   23288933.4374
       159.0004        162.0004
 -11307736.57849  -8783019.03947  22605249.223    22605249.8574   22605258.9544
       204.0004        203.0004
  -1574552.23347  -1217476.00945  23650933.739    23650934.3944   23650938.2864
       151.0004        153.0004
 -13954028.34749 -10845483.09847  21687497.049    21687497.2824   21687505.4504
       200.0004        199.0004
 21  2  4  1 39 30.0000000  0 10G30G21G17G04G07G01G14G08G28G09
 -10408582.30148  -8092251.52546  22547855.514    22547855.9264   22547862.4754
       179.0004        179.0004
 -14823131.76948 -11539979.17246  21864134.478    21864134.3114   21864139.3554
       186.0004        186.0004
  -8184819.85448  -6351670.50246  23017244.304    23017244.7524   23017248.6694
       169.0004        169.0004
  -5995585.06947  -4653380.57246  23356971.465    23356972.1184   23356977.8654
       162.0004        163.0004
 -20176645.89749 -15704579.39947  20972196.282    20972197.0004   20972200.4574
       205.0004        206.0004
 -17863764.77349 -13906137.17347  21251550.140    21251550.3714   21251558.1004
       195.0004        196.0004
  -2819571.06647  -2184649.37145  23284036.680    23284036.9184   23284041.4594
       160.0004        161.0004
 -11214980.91049  -8710741.92347  22622901.515    22622901.6154   22622909.4134
       203.0004        203.0004
  -1589417.46947  -1229059.29645  23648106.376    23648105.9584   23648110.4124
       153.0004        156.0004
 -13890022.35449 -10795608.31947  21699677.722    21699677.9094   21699684.9304
       200.0004        200.0004
 21  2  4  1 40  0.0000000  0 10G30G21G17G04G07G01G14G08G28G09
 -10494522.66548  -8159218.02746  22531501.468    22531501.5174   22531509.2094
       179.0004        180.0004
 -14800974.53348 -11522713.78646  21868350.687    21868350.7454   21868355.4454
       186.0004        186.0004
  -8260020.81948  -6410268.58546  23002933.702    23002934.6284   23002937.8034
       168.0004        168.0004
  -5897558.18747  -4576995.99046  23375626.103    23375626.3214   23375632.3184
       162.0004        164.0004
 -20234983.17049 -15750037.01547  20961094.994    20961095.3464   20961098.8234
       205.0004        205.0004
 -17914453.55549 -13945634.91147  21241903.454    21241904.3644   21241912.3264
       195.0004        195.0004
  -2845290.89847  -2204690.77946  23279141.585    23279142.7824   23279147.5744
       161.0004        163.0004
 -11122123.09549  -8638385.18047  22640571.027    22640571.2894   22640579.5884
       203.0004        203.0004
  -1604285.77447  -1240644.96845  23645276.517    23645275.2094   23645279.7614
       152.0004        155.0004
 -13825711.02149 -10745495.60447  21711916.247    21711916.3094   21711922.6394
       200.0004        200.0004
 21  2  4  1 40 30.0000000  0 10G30G21G17G04G07G01G14G08G28G09
 -10580372.02148  -8226113.63646  22515165.362    22515165.4514   22515171.5704
       178.0004        178.0004
 -14778322.23948 -11505062.62846  21872660.972    21872660.9824   21872666.0424
       186.0004        186.0004
  -8334862.71548  -6468586.92046  22988692.636    22988693.1384   22988695.7174
       168.0004        171.0004
  -5799510.78347  -4500595.42245  23394283.985    23394285.2314   23394289.1734
       161.0004        162.0004
 -20293015.56949 -15795257.07347  20950051.086    20950051.6924   20950055.6424
       205.0004        205.0004
 -17964726.69048 -13984808.78047  21232337.123    21232338.0114   21232345.5714
       194.0004        195.0004
  -2871024.74047  -2224743.10446  23274245.128    23274245.4074   23274250.1854
       161.0004        163.0004
 -11029165.76049  -8565950.90347  22658260.154    22658261.2584   22658268.8574
       203.0004        203.0004
  -1619159.11147  -1252234.54645  23642447.119    23642446.3064   23642450.7344
       152.0004        155.0004
 -13761097.86649 -10695147.70147  21724210.853    21724211.5854   21724218.6414
       200.0004        200.0004
 21  2  4  1 41  0.0000000  0 10G30G21G17G04G07G01G14G08G28G09
 -10666127.78148  -8292936.29846  22498846.633    22498846.3134   22498853.9024
       179.0004        181.0004
 -14755174.68148 -11487025.56346  21877065.898    21877065.7234   21877070.9804
       185.0004        185.0004
  -8409344.49248  -6526624.61746  22974518.897    22974518.4524   22974523.4824
       169.0004        170.0004
  -5701445.46247  -4424180.88345  23412946.467    23412945.8904   23412950.7704
       161.0004        161.0004
 -20350740.46049 -15840237.50747  20939066.894    20939067.3544   20939071.3634
       205.0004        206.0004
 -18014581.14148 -14023656.39247  21222850.254    21222850.6374   21222858.9424
       194.0004        194.0004
  -2896773.57947  -2244807.09546  23269345.204    23269345.9584   23269350.2854
       162.0004        164.0004
 -10936111.55149  -8493441.12847  22675969.579    22675968.6594   22675976.4694
       202.0004        202.0004
  -1634038.89147  -1263829.14245  23639614.023    23639614.0414   23639618.1164
       152.0004        154.0004
 -13696185.67549 -10644566.78447  21736563.835    21736564.0974   21736571.2014
       200.0004        200.0004
 21  2  4  1 41 30.0000000  0 10G30G21G17G04G07G01G14G08G28G09
 -10751788.15748  -8359684.66246  22482545.580    22482545.7584   22482552.5574
       180.0004        181.0004
 -14731532.70348 -11468603.23346  21881564.737    21881564.6534   21881569.8214
       185.0004        185.0004
  -8483465.14248  -6584380.96746  22960414.000    22960414.3374   22960418.9974
       171.0004        173.0004
  -5603365.62247  -4347755.04345  23431608.898    23431609.1684   23431615.4184
       159.0004        159.0004
 -20408155.92249 -15884976.83647  20928140.447    20928141.1464   20928145.6234
       205.0004        206.0004
 -18064014.60248 -14062175.97047  21213442.984    21213443.6044   21213451.6804
       194.0004        194.0004
  -2922538.97747  -2264884.01345  23264441.858    23264442.9494   23264447.0664
       162.0004        161.0004
 -10842964.14849  -8420858.75147  22693693.449    22693694.0264   22693702.3954
       202.0004        202.0004
  -1648927.17847  -1275430.38545  23636780.708    23636781.1314   23636785.2254
       150.0004        152.0004
 -13630977.99349 -10593755.61547  21748972.109    21748972.7094   21748980.3644
       200.0004        200.0004
 21  2  4  1 42  0.0000000  0 10G30G21G17G04G07G01G14G08G28G09
 -10837349.06248  -8426355.48546  22466263.569    22466263.4634   22466271.9404
       180.0004        182.0004
 -14707394.49148 -11449794.22946  21886158.680    21886158.3104   21886162.8984
       185.0004        185.0004
  -8557222.39648  -6641854.10146  22946378.283    22946378.6954   22946382.6224
       172.0004        173.0004
  -5505272.38847  -4271318.75445  23450275.012    23450275.1664   23450281.7184
       159.0004        161.0004
 -20465257.36049 -15929471.46747  20917275.072    20917275.5974   20917279.8584
       206.0004        206.0004
 -18113022.55148 -14100363.97647  21204116.176    21204117.7274   21204125.6544
       193.0004        194.0004
  -2948320.28247  -2284973.33045  23259535.555    23259535.7534   23259540.0904
       159.0004        159.0004
 -10749724.04449  -8348204.13747  22711435.295    22711436.1084   22711445.7864
       201.0004        201.0004
  -1663823.63547  -1287038.02245  23633946.018    23633945.7244   23633950.9234
       150.0004        152.0004
 -13565476.13349 -10542715.19647  21761436.914    21761437.2484   21761444.3294
       200.0004        200.0004
 21  2  4  1 42 30.0000000  0 10G30G21G17G04G07G01G14G08G28G09
 -10922807.73648  -8492946.64546  22450001.188    22450001.8034   22450009.0634
       179.0004        180.0004
 -14682759.96748 -11430598.49646  21890846.295    21890846.2624   21890850.4714
       185.0004        185.0004
  -8630614.38648  -6699042.61146  22932413.200    22932412.9104   22932417.7974
       172.0004        174.0004
  -5407168.15247  -4194873.90545  23468944.185    23468945.1014   23468950.3294
       158.0004        159.0004
 -20522041.64149 -15973718.96547  20906469.606    20906470.0254   20906473.9254
       206.0004        206.0004
 -18161601.73248 -14138217.87047  21194872.938    21194873.7214   21194881.5204
       194.0004        195.0004
  -2974118.14747  -2305075.57445  23254626.462    23254626.7324   23254632.1204
       159.0004        162.0004
 -10656393.65249  -8275479.17247  22729195.951    22729196.6974   22729205.9324
       201.0004        202.0004
  -1678729.65547  -1298653.09545  23631109.989    23631109.2454   23631113.7704
       150.0004        154.0004
 -13499682.62549 -10491447.54247  21773957.052    21773957.1234   21773963.9864
       199.0004        198.0004
 21  2  4  1 43  0.0000000  0 10G30G21G17G04G07G01G14G08G28G09
 -11008162.98848  -8559457.22146  22433759.661    22433759.4784   22433766.3174
       180.0004        181.0004
 -14657630.24048 -11411016.87746  21895628.086    21895627.7814   21895632.9944
       185.0004        185.0004
  -8703640.78048  -6755946.25846  22918515.688    22918515.6784   22918521.6994
       172.0004        173.0004
  -5309056.94847  -4118423.63345  23487614.415    23487615.0554   23487619.8574
       157.0004        158.0004
 -20578507.36749 -16017718.24047  20895724.692    20895725.0814   20895728.8304
       206.0004        207.0004
 -18209750.58548 -14175736.44947  21185709.993    21185710.7594   21185718.7854
       194.0004        195.0004
  -2999934.93147  -2325192.54746  23249714.092    23249714.4224   23249719.0464
       162.0004        165.0004
 -10562976.77849  -8202686.81947  22746972.586    22746973.4154   22746982.2594
       202.0004        202.0004
  -1693647.72047  -1310277.55145  23628270.981    23628271.3184   23628275.7254
       152.0004        154.0004
 -13433601.75249 -10439955.97247  21786531.462    21786531.7424   21786539.1034
       198.0004        198.0004
 21  2  4  1 43 30.0000000  0 10G30G21G17G04G07G01G14G08G28G09
 -11093411.89248  -8625884.94846  22417536.773    22417537.5754   22417543.4374
       181.0004        182.0004
 -14632005.17748 -11391049.29246  21900503.671    21900503.5804   21900509.4314
       185.0004        185.0004
  -8776300.02148  -6812563.79546  22904688.495    22904689.8324   22904695.4654
       175.0004        178.0004
  -5210941.07247  -4041969.70845  23506284.683    23506284.5844   23506290.2604
       156.0004        157.0004
 -20634651.14749 -16061466.65147  20885040.630    20885041.2234   20885045.2114
       207.0004        207.0004
 -18257465.83849 -14212917.14147  21176630.597    21176630.8784   21176639.0504
       195.0004        196.0004
  -3025771.10247  -2345324.61646  23244797.162    23244797.8304   23244803.6844
       164.0004        166.0004
 -10469475.62449  -8129828.76947  22764764.433    22764765.4324   22764774.0774
       200.0004        200.0004
  -1708578.78347  -1321912.14945  23625430.024    23625429.6944   23625433.2414
       151.0004        154.0004
 -13367235.98049 -10388242.38947  21799161.143    21799161.3224   21799168.1674
       198.0004        199.0004
 21  2  4  1 44  0.0000000  0 10G30G21G17G04G07G01G14G08G28G09
 -11178552.36448  -8692228.17146  22401334.049    22401335.0994   22401342.9934
       182.0004        183.0004
 -14605885.14648 -11370696.00146  21905474.264    21905474.3434   21905479.2714
       185.0004        185.0004
  -8848591.14148  -6868894.48646  22890932.958    22890933.1754   22890938.3344
       177.0004        178.0004
  -5112823.59147  -3965514.54345  23524956.079    23524956.4964   23524961.4554
       155.0004        158.0004
 -20690470.71849 -16104962.41047  20874418.235    20874418.7154   20874422.8034
       206.0004        207.0004
 -18304745.03649 -14249758.04947  21167633.929    21167634.2214   21167641.9024
       196.0004        197.0004
  -3051628.08647  -2365472.87146  23239877.609    23239878.0324   23239882.1934
       164.0004        165.0004
 -10375893.29849  -8056907.49447  22782574.128    22782574.3994   22782582.8894
       199.0004        198.0004
  -1723524.97847  -1333558.51845  23622585.660    23622585.2284   23622589.5574
       151.0004        152.0004
 -13300588.60249 -10336309.35847  21811843.381    21811843.5944   21811850.6464
       198.0004        198.0004
 21  2  4  1 44 30.0000000  0 10G30G21G17G04G07G01G14G08G28G09
 -11263582.30148  -8758485.25446  22385155.485    22385155.6434   22385161.8354
       182.0004        184.0004
 -14579270.67148 -11349957.43946  21910539.562    21910539.6714   21910544.4194
       184.0004        185.0004
  -8920513.21148  -6924937.62046  22877245.884    22877246.2554   22877251.8254
       175.0004        174.0004
  -5014707.64947  -3889060.56345  23543627.312    23543627.4004   23543633.2814
       156.0004        157.0004
 -20745963.82749 -16148203.80147  20863858.568    20863859.2324   20863862.9134
       206.0004        207.0004
 -18351585.70549 -14286257.25347  21158720.347    21158721.0624   21158729.1044
       196.0004        197.0004
  -3077507.17448  -2385638.37646  23234953.149    23234953.6234   23234958.7304
       165.0004        167.0004
 -10282232.59449  -7983925.13647  22800396.489    22800397.0524   22800406.1224
       197.0004        197.0004
  -1738487.93647  -1345217.95745  23619738.876    23619738.1124   23619742.8374
       151.0004        154.0004
 -13233662.94549 -10284159.50447  21824578.807    21824578.8134   21824586.3624
       198.0004        198.0004
 21  2  4  1 45  0.0000000  0 10G30G21G17G04G07G01G14G08G28G09
 -11348499.49248  -8824654.49446  22368996.212    22368996.2304   22369002.8174
       183.0004        184.0004
 -14552162.25748 -11328833.99546  21915697.185    21915697.0184   21915702.6214
       185.0004        185.0004
  -8992065.37448  -6980692.51146  22863630.618    22863630.5564   22863636.5844
       174.0004        175.0004
  -4916596.12247  -3812610.02845  23562296.400    23562297.0924   23562302.4144
       155.0004        157.0004
 -20801127.57349 -16191188.54847  20853361.209    20853361.4734   20853365.6964
       207.0004        207.0004
 -18397985.35249 -14322412.80147  21149890.228    21149890.8584   21149899.0994
       197.0004        197.0004
  -3103409.56948  -2405822.06546  23230023.793    23230024.5564   23230029.6534
       167.0004        168.0004
 -10188496.55049  -7910884.09647  22818234.304    22818234.5334   22818242.8564
       197.0004        197.0004
  -1753469.40647  -1356891.82045  23616886.912    23616887.3024   23616891.7284
       152.0004        155.0004
 -13166462.26449 -10231795.34747  21837366.757    21837367.2704   21837374.0364
       198.0004        198.0004
 21  2  4  1 45 30.0000000  0 10G30G21G17G04G07G01G14G08G28G09
 -11433299.79848  -8890732.65646  22352858.844    22352858.3394   22352865.1124
       184.0004        185.0004
 -14524558.47248 -11307324.54046  21920951.179    21920950.5534   21920955.5814
       184.0004        184.0004
  -9063244.10748  -7036156.41646  22850085.420    22850086.2414   22850091.0464
       176.0004        177.0004
  -4818490.17247  -3736163.84945  23580965.828    23580964.9444   23580971.7304
       155.0004        156.0004
 -20855957.85049 -16233913.43847  20842927.023    20842927.8364   20842931.4584
       206.0004        207.0004
 -18443939.46549 -14358221.19147  21141146.215    21141146.3604   21141153.9784
       197.0004        197.0004
  -3129334.64848  -2426023.42546  23225090.254    23225091.2704   23225096.3334
       167.0004        168.0004
 -10094685.90249  -7837784.89447  22836086.688    22836087.0004   22836093.9714
       198.0004        199.0004
  -1768468.83147  -1368579.67145  23614033.726    23614034.3064   23614037.2814
       153.0004        157.0004
 -13098987.83049 -10179217.86747  21850207.429    21850207.4984   21850214.0814
       198.0004        198.0004
 21  2  4  1 46  0.0000000  0 10G30G21G17G04G07G01G14G08G28G09
 -11517983.48048  -8956719.94346  22336743.149    22336743.5664   22336751.1104
       185.0004        186.0004
 -14496462.17048 -11285431.30046  21926297.647    21926297.6454   21926302.4104
       184.0004        184.0004
  -9134051.79048  -7091331.18646  22836611.116    22836611.9904   22836616.3044
       176.0004        177.0004
  -4720395.19747  -3659726.22645  23599632.518    23599633.1344   23599638.9514
       155.0004        157.0004
 -20910455.01149 -16276378.77147  20832557.724    20832557.5244   20832561.2754
       206.0004        207.0004
 -18489448.13549 -14393682.48847  21132485.929    21132486.7444   21132494.0754
       197.0004        198.0004
  -3155286.14348  -2446245.37146  23220152.880    23220153.1604   23220156.7914
       168.0004        168.0004
 -10000805.76249  -7764631.55247  22853951.387    22853951.4354   22853959.1334
       198.0004        198.0004
  -1783490.71147  -1380285.00345  23611174.640    23611173.7954   23611178.9864
       154.0004        157.0004
 -13031245.43249 -10126431.58947  21863098.752    21863098.8834   21863105.3184
       198.0004        198.0004
 21  2  4  1 46 30.0000000  0 10G30G21G17G04G07G01G14G08G28G09
 -11602545.62948  -9022612.53646  22320652.367    22320652.2234   22320658.4614
       186.0004        186.0004
 -14467870.92248 -11263152.39246  21931738.061    21931737.8524   21931742.8864
       184.0004        185.0004
  -9204484.59648  -7146213.84246  22823208.545    22823208.4314   22823214.3834
       177.0004        177.0004
  -4622311.48247  -3583297.35645  23618297.594    23618297.3264   23618304.6064
       154.0004        156.0004
 -20964613.26549 -16318580.00147  20822250.498    20822251.0624   20822255.6144
       207.0004        208.0004
 -18534506.14449 -14428792.61147  21123911.789    21123912.4084   21123919.7254
       198.0004        198.0004
  -3181262.50648  -2466486.67846  23215208.893    23215208.9894   23215214.1214
       167.0004        166.0004
  -9906856.41749  -7691424.28147  22871829.401    22871829.1624   22871836.9964
       197.0004        197.0004
  -1798533.65147  -1392006.74945  23608312.625    23608312.0684   23608316.6744
       155.0004        158.0004
 -12963235.56949 -10073436.88347  21876039.531    21876039.7954   21876046.7484
       197.0004        196.0004
 21  2  4  1 47  0.0000000  0 10G30G21G17G04G07G01G14G08G28G09
 -11686984.74248  -9088409.23446  22304583.693    22304583.6634   22304591.1654
       186.0004        186.0004
 -14438786.55748 -11240489.24546  21937272.651    21937272.8694   21937277.4164
       184.0004        184.0004
  -9274542.33648  -7200804.26746  22809876.740    22809877.6654   22809882.0574
       176.0004        176.0004
  -4524242.68847  -3506880.14145  23636958.248    23636958.5084   23636966.7824
       154.0004        156.0004
 -21018430.94649 -16360515.86247  20812009.671    20812010.3634   20812014.4524
       207.0004        208.0004
 -18579111.72649 -14463550.20947  21115422.138    21115423.4744   21115432.2944
       198.0004        198.0004
  -3207265.78747  -2486748.97446  23210259.719    23210259.9564   23210265.4134
       164.0004        164.0004
  -9812841.80949  -7618166.15947  22889720.107    22889719.9324   22889727.8044
       196.0004        195.0004
  -1813600.53647  -1403747.17245  23605444.940    23605444.6164   23605449.4534
       155.0004        157.0004
 -12894962.20549 -10020236.87247  21889030.415    21889031.1254   21889039.2774
       195.0004        195.0004
 21  2  4  1 47 30.0000000  0 10G30G21G17G04G07G01G14G08G28G09
 -11771296.91948  -9154107.02146  22288539.115    22288539.4274   22288547.3264
       186.0004        186.0004
 -14409207.59748 -11217440.70846  21942901.848    21942902.0114   21942906.0824
       184.0004        184.0004
  -9344222.41548  -7255100.40646  22796616.464    22796617.2554   22796621.8394
       174.0004        174.0004
  -4426190.17047  -3430475.60345  23655616.128    23655617.1484   23655624.7614
       153.0004        155.0004
 -21071904.22249 -16402183.35347  20801834.507    20801834.7894   20801838.7174
       208.0004        208.0004
 -18623260.82449 -14497952.08947  21107022.272    21107022.8654   21107030.6604
       198.0004        199.0004
  -3233295.46347  -2507031.80946  23205306.207    23205307.0674   23205313.6314
       162.0004        165.0004
  -9718762.44849  -7544857.58747  22907621.718    22907622.4894   22907629.9684
       195.0004        195.0004
  -1828691.11647  -1415506.04245  23602572.934    23602572.8264   23602577.5154
       155.0004        157.0004
 -12826426.96448  -9966832.79347  21902072.946    21902072.6084   21902081.4444
       194.0004        193.0004
 21  2  4  1 48  0.0000000  0 10G30G21G17G04G07G01G14G08G28G09
 -11855479.85548  -9219704.12747  22272519.775    22272520.4144   22272527.4464
       187.0004        188.0004
 -14379134.36748 -11194007.01746  21948623.740    21948623.6204   21948629.3984
       184.0004        185.0004
  -9413523.75448  -7309101.42446  22783429.415    22783429.6274   22783434.2924
       173.0004        174.0004
  -4328156.77647  -3354085.97045  23674273.587    23674273.0554   23674279.8494
       154.0004        156.0004
 -21125030.58849 -16443580.53547  20791724.427    20791725.2004   20791728.6934
       208.0004        208.0004
 -18666950.93849 -14531996.32747  21098708.488    21098708.6464   21098717.1644
       199.0004        199.0004
  -3259352.72248  -2527336.16646  23200349.365    23200349.2544   23200353.7944
       165.0004        168.0004
  -9624621.46549  -7471500.98847  22925535.754    22925536.7584   22925545.0014
       196.0004        196.0004
  -1843806.82147  -1427284.48845  23599697.800    23599697.3774   23599701.7004
       155.0004        157.0004
 -12757633.04748  -9913227.16047  21915163.092    21915163.2574   21915171.5754
       192.0004        191.0004
 21  2  4  1 48 30.0000000  0 10G30G21G17G04G07G01G14G08G28G09
 -11939532.46748  -9285199.67746  22256525.705    22256525.6514   22256532.5934
       187.0004        187.0004
 -14348568.76648 -11170189.65846  21954440.569    21954439.7994   21954444.8464
       184.0004        183.0004
  -9482446.74548  -7362807.60746  22770313.028    22770313.4944   22770318.9354
       173.0004        174.0004
  -4230146.67347  -3277714.46645  23692923.407    23692924.1294   23692930.2244
       155.0004        159.0004
 -21177808.69049 -16484706.33147  20781681.469    20781681.8284   20781685.4684
       208.0004        208.0004
 -18710180.81449 -14565681.92547  21090481.031    21090482.1124   21090490.1454
       198.0004        198.0004
  -3285439.86747  -2547663.79146  23195383.712    23195384.2204   23195389.1014
       164.0004        164.0004
  -9530422.91048  -7398099.52447  22943461.807    22943461.3834   22943470.1034
       194.0004        195.0004
  -1858951.01247  -1439085.11745  23596814.788    23596813.9244   23596820.1214
       154.0004        156.0004
 -12688584.84148  -9859423.39547  21928302.281    21928303.1244   21928310.5804
       191.0004        192.0004
 21  2  4  1 49  0.0000000  0 10G30G21G17G04G07G01G14G08G28G09
 -12023451.00748  -9350590.73847  22240556.374    22240556.6154   22240563.4894
       188.0004        189.0004
 -14317510.26148 -11145988.23046  21960350.407    21960349.8824   21960355.4184
       183.0004        183.0004
  -9550989.28248  -7416217.35946  22757269.811    22757270.5544   22757275.1094
       172.0004        173.0004
  -4132161.21947  -3201362.19245  23711569.632    23711569.8704   23711576.3754
       157.0004        159.0004
 -21230234.54449 -16525557.65147  20771704.675    20771705.0604   20771709.7404
       208.0004        208.0004
 -18752946.58149 -14599005.90347  21082343.209    21082343.9294   21082352.2624
       198.0004        198.0004
  -3311556.66947  -2568014.53946  23190413.564    23190414.1934   23190419.6934
       161.0004        163.0004
  -9436167.96349  -7324654.12447  22961399.474    22961398.8154   22961406.6664
       195.0004        196.0004
  -1874123.72247  -1450907.98145  23593927.299    23593927.8614   23593931.5054
       153.0004        155.0004
 -12619284.19548  -9805422.90447  21941491.477    21941491.3674   21941499.0664
       193.0004        195.0004
 21  2  4  1 49 30.0000000  0 10G30G21G17G04G07G01G14G08G28G09
 -12107234.03748  -9415876.22647  22224613.040    22224613.7144   22224620.2094
       190.0004        191.0004
 -14285959.88848 -11121403.50246  21966354.650    21966354.2714   21966359.0014
       183.0004        183.0004
  -9619151.23648  -7469330.53746  22744299.611    22744299.7524   22744303.9634
       172.0004        173.0004
  -4034204.20947  -3125032.09345  23730209.337    23730209.8994   23730217.0594
       156.0004        158.0004
 -21282306.55549 -16566133.24747  20761795.934    20761796.4044   20761800.8004
       208.0004        209.0004
 -18795246.69249 -14631967.02747  21074293.244    21074294.6854   21074302.4844
       197.0004        197.0004
  -3337705.12147  -2588389.97845  23185438.470    23185439.5274   23185443.8994
       161.0004        162.0004
  -9341860.02749  -7251167.44147  22979346.179    22979345.4894   22979352.7594
       195.0004        195.0004
  -1889327.26847  -1462754.91245  23591033.759    23591033.9384   23591038.9944
       153.0004        156.0004
 -12549735.21749  -9751228.88847  21954726.212    21954726.3764   21954733.7874
       195.0004        197.0004
 21  2  4  1 50  0.0000000  0 10G30G21G17G04G07G01G14G08G28G09
 -12190878.24248  -9481053.52447  22208695.922    22208696.1844   22208703.7054
       191.0004        191.0004
 -14253917.48748 -11096435.39046  21972451.572    21972451.5114   21972457.3704
       183.0004        184.0004
  -9686930.70648  -7522145.66446  22731401.607    22731402.1574   22731406.0634
       172.0004        173.0004
  -3936277.50547  -3048725.59145  23748845.261    23748845.4644   23748852.8474
       156.0004        158.0004
 -21334021.15849 -16606430.34747  20751954.577    20751955.1234   20751959.4184
       208.0004        208.0004
 -18837077.73049 -14664562.64047  21066332.844    21066334.4644   21066342.4504
       197.0004        197.0004
  -3363885.34047  -2608790.16946  23180455.979    23180456.6574   23180461.6744
       161.0004        163.0004
  -9247501.16049  -7177641.06847  22997300.433    22997300.3804   22997309.4704
       195.0004        195.0004
  -1904562.19947  -1474626.26545  23588135.621    23588135.3914   23588139.7194
       153.0004        155.0004
 -12479940.06749  -9696843.05247  21968008.742    21968008.8754   21968015.4784
       197.0004        197.0004
 21  2  4  1 50 30.0000000  0 10G30G21G17G04G07G01G14G08G28G09
 -12274381.30748  -9546120.83347  22192806.232    22192806.2074   22192813.0784
       190.0004        190.0004
 -14221383.68348 -11071084.36446  21978642.133    21978642.1164   21978648.3904
       183.0004        184.0004
  -9754327.01448  -7574662.26246  22718575.833    22718576.3174   22718580.8614
       172.0004        174.0004
  -3838383.97847  -2972444.93045  23767471.408    23767473.2884   23767480.7414
       155.0004        157.0004
 -21385375.72949 -16646446.89447  20742182.071    20742182.7954   20742186.8264
       208.0004        208.0004
 -18878437.28349 -14696790.84747  21058463.564    21058464.2404   21058472.2954
       197.0004        197.0004
  -3390098.50247  -2629216.01546  23175468.963    23175468.8534   23175473.8414
       163.0004        166.0004
  -9153093.45049  -7104076.65247  23015265.612    23015265.9534   23015273.7394
       195.0004        196.0004
  -1919830.09947  -1486523.31845  23585229.560    23585229.2744   23585233.8134
       151.0004        153.0004
 -12409901.99749  -9642267.92447  21981336.941    21981337.2434   21981342.3814
       198.0004        199.0004
 21  2  4  1 51  0.0000000  0 10G30G21G17G04G07G01G14G08G28G09
 -12357739.52448  -9611075.28447  22176942.940    22176943.1894   22176949.4194
       189.0004        188.0004
 -14188358.01748 -11045350.06346  21984926.930    21984927.1074   21984932.6264
       183.0004        184.0004
  -9821337.97548  -7626878.56146  22705824.470    22705824.7084   22705829.1204
       172.0004        173.0004
  -3740525.13947  -2896191.31345  23786095.076    23786096.0694   23786102.5574
       155.0004        157.0004
 -21436366.70549 -16686180.11947  20732479.051    20732479.5024   20732483.9874
       208.0004        209.0004
 -18919321.70449 -14728648.82747  21050682.942    21050683.8674   21050691.8534
       197.0004        197.0004
  -3416344.39347  -2649667.33246  23170474.079    23170475.4054   23170478.8444
       164.0004        166.0004
  -9058638.67149  -7030475.53347  23033239.626    23033239.9584   23033247.7334
       195.0004        196.0004
  -1935131.46547  -1498446.47645  23582318.502    23582318.1764   23582322.5144
       148.0004        151.0004
 -12339622.93349  -9587505.00447  21994710.491    21994710.6234   21994716.3024
       199.0004        199.0004
 21  2  4  1 51 30.0000000  0 10G30G21G17G04G07G01G14G08G28G09
 -12440951.75048  -9675915.99647  22161108.167    22161108.5914   22161115.7574
       188.0004        189.0004
 -14154841.82748 -11019233.53946  21991305.428    21991304.8034   21991311.5454
       184.0004        184.0004
  -9887963.72548  -7678794.70246  22693146.710    22693146.6254   22693150.1164
       173.0004        176.0004
  -3642704.99547  -2819967.84445  23804709.199    23804710.6614   23804717.2674
       155.0004        157.0004
 -21486992.79949 -16725629.02947  20722845.649    20722845.8474   20722850.0624
       208.0004        209.0004
 -18959729.75649 -14760135.61947  21042994.472    21042994.5394   21043002.0204
       197.0004        197.0004
  -3442625.25548  -2670145.91846  23165473.744    23165474.7024   23165477.4654
       167.0004        168.0004
  -8964140.85249  -6956840.89847  23051222.054    23051223.1914   23051230.1504
       196.0004        197.0004
  -1950468.90947  -1510397.71445  23579399.138    23579399.0944   23579404.8924
       147.0004        152.0004
 -12269107.19049  -9532557.66647  22008128.727    22008128.7604   22008135.3034
       198.0004        197.0004
 21  2  4  1 52  0.0000000  0 10G30G21G17G04G07G01G14G08G28G09
 -12524014.98548  -9740640.56847  22145301.483    22145301.6774   22145309.5554
       188.0004        188.0004
 -14120835.34948 -10992734.96846  21997777.271    21997776.2304   21997781.5374
       184.0004        185.0004
  -9954203.08348  -7730409.75646  22680541.488    22680541.8374   22680545.9814
       174.0004        175.0004
  -3544925.64247  -2743776.15645  23823315.737    23823316.7764   23823323.8884
       156.0004        159.0004
 -21537251.10449 -16764791.34647  20713281.631    20713281.9294   20713286.0964
       209.0004        209.0004
 -18999658.39549 -14791248.83747  21035395.331    21035396.3784   21035403.8944
       196.0004        196.0004
  -3468941.48448  -2690652.02146  23160467.136    23160467.4144   23160470.4334
       169.0004        170.0004
  -8869601.85249  -6883174.14747  23069212.607    23069212.1364   23069220.1004
       196.0004        195.0004
  -1965842.97247  -1522377.50345  23576473.108    23576473.5174   23576478.1264
       148.0004        152.0004
 -12198357.30949  -9477427.89147  22021590.139    22021590.5114   22021598.4184
       196.0004        194.0004
 21  2  4  1 52 30.0000000  0 10G30G21G17G04G07G01G14G08G28G09
 -12606927.63248  -9805247.82547  22129524.052    22129524.9644   22129531.6424
       188.0004        189.0004
 -14086340.59748 -10965855.93446  22004341.033    22004340.1234   22004345.7744
       184.0004        184.0004
 -10020055.90848  -7781723.62846  22668008.985    22668009.0694   22668014.3074
       173.0004        173.0004
  -3447190.72847  -2667619.10945  23841915.274    23841915.3644   23841922.5634
       157.0004        159.0004
 -21587139.68949 -16803665.57747  20703788.231    20703788.9164   20703792.6164
       209.0004        210.0004
 -19039106.12749 -14821987.32847  21027889.128    21027889.6354   21027897.2604
       196.0004        196.0004
  -3495294.96148  -2711187.18746  23155450.879    23155449.7684   23155455.5684
       168.0004        167.0004
  -8775024.91449  -6809477.84847  23087209.422    23087209.1954   23087218.3374
       195.0004        195.0004
  -1981256.38847  -1534387.96545  23573539.975    23573539.2814   23573543.4574
       146.0004        147.0004
 -12127377.40848  -9422118.87747  22035097.169    22035097.6704   22035106.1824
       193.0004        193.0004
 21  2  4  1 53  0.0000000  0 10G30G21G17G04G07G01G14G08G28G09
 -12689685.46748  -9869734.44547  22113776.325    22113776.0194   22113783.0364
       188.0004        188.0004
 -14051356.20748 -10938595.35946  22010998.578    22010998.1964   22011002.1434
       184.0004        185.0004
 -10085519.74948  -7832734.38846  22655552.202    22655552.6164   22655556.8794
       173.0004        175.0004
  -3349501.22247  -2591497.45845  23860505.964    23860506.3524   23860511.6954
       156.0004        157.0004
 -21636654.29849 -16842248.39247  20694365.901    20694366.5174   20694370.3794
       209.0004        210.0004
 -19078068.75449 -14852347.80747  21020474.271    21020474.7084   21020483.1714
       196.0004        196.0004
  -3521684.87347  -2731750.77946  23150425.387    23150426.5054   23150433.4434
       164.0004        163.0004
  -8680410.80548  -6735752.59947  23105213.698    23105214.0814   23105223.2444
       194.0004        195.0004
  -1996708.70147  -1546428.69945  23570599.927    23570601.1434   23570605.6504
       144.0004        147.0004
 -12056168.78548  -9366631.65947  22048648.007    22048648.7004   22048656.5914
       193.0004        194.0004
 21  2  4  1 53 30.0000000  0 10G30G21G17G04G07G01G14G08G28G09
 -12772286.74148  -9934099.08347  22098057.228    22098057.8864   22098064.4784
       189.0004        189.0004
 -14015883.23248 -10910954.06546  22017749.239    22017748.5754   22017752.9964
       184.0004        184.0004
 -10150594.40248  -7883441.88846  22643170.100    22643169.7454   22643173.4904
       174.0004        175.0004
  -3251860.48847  -2515413.80245  23879086.286    23879086.7404   23879092.2574
       154.0004        155.0004
 -21685793.09249 -16880538.37147  20685015.558    20685015.6304   20685019.4654
       210.0004        210.0004
 -19116544.64949 -14882329.01247  21013152.873    21013153.6594   21013161.5044
       196.0004        197.0004
  -3548112.94347  -2752344.09946  23145399.873    23145399.8684   23145404.5634
       163.0004        164.0004
  -8585763.04748  -6662001.10847  23123224.367    23123224.4114   23123233.3494
       193.0004        193.0004
  -2012202.33447  -1558501.62445  23567652.522    23567651.4024   23567655.3254
       144.0004        148.0004
 -11984735.32348  -9310969.23047  22062240.288    22062241.0874   22062249.1734
       192.0004        191.0004
 21  2  4  1 54  0.0000000  0 10G30G21G17G04G07G01G14G08G28G09
 -12854728.73848  -9998339.60547  22082370.197    22082369.6114   22082376.6244
       189.0004        188.0004
 -13979921.90848 -10882932.24246  22024591.627    22024591.2234   22024596.1304
       184.0004        183.0004
 -10215278.68048  -7933845.19646  22630859.986    22630861.0414   22630865.3284
       176.0004        178.0004
  -3154271.00547  -2439370.07545  23897656.381    23897656.9614   23897664.2484
       152.0004        154.0004
 -21734553.28949 -16918533.34447  20675736.745    20675737.2574   20675741.0584
       210.0004        210.0004
 -19154531.14249 -14911928.86747  21005924.347    21005924.5864   21005932.9754
       197.0004        197.0004
  -3574579.95948  -2772967.72546  23140364.398    23140365.1974   23140367.9084
       165.0004        168.0004
  -8491083.95149  -6588225.21847  23141241.072    23141241.7954   23141251.0434
       195.0004        196.0004
  -2027738.12547  -1570607.44945  23564695.225    23564695.2184   23564701.4154
       148.0004        153.0004
 -11913079.86748  -9255133.82047  22075878.062    22075877.9594   22075884.2674
       192.0004        193.0004
 21  2  4  1 54 30.0000000  0 10G30G21G17G04G07G01G14G08G28G09
 -12937008.83348 -10062453.94347  22066711.654    22066711.8414   22066719.1794
       188.0004        188.0004
 -13943473.68248 -10854531.03546  22031527.697    22031527.6354   22031532.1464
       183.0004        184.0004
 -10279571.83848  -7983943.74546  22618626.450    22618625.9434   22618630.4664
       178.0004        178.0004
  -3056735.28947  -2363368.24145  23916216.605    23916216.5454   23916223.1444
       150.0004        152.0004
 -21782932.39949 -16956231.35447  20666529.925    20666530.3304   20666534.7574
       210.0004        211.0004
 -19192025.76249 -14941145.45247  20998789.144    20998790.0804   20998797.9874
       197.0004        197.0004
  -3601086.68048  -2793622.29246  23135319.746    23135320.0014   23135324.0814
       166.0004        167.0004
  -8396375.51349  -6514426.44847  23159261.970    23159263.8224   23159273.4674
       195.0004        196.0004
  -2043317.47547  -1582747.20445  23561730.452    23561729.7414   23561735.8044
       150.0004        152.0004
 -11841205.45648  -9199127.80047  22089555.863    22089556.1554   22089561.8534
       193.0004        193.0004
 21  2  4  1 55  0.0000000  0 10G30G21G17G04G07G01G14G08G28G09
 -13019124.23748 -10126439.95547  22051086.118    22051086.3664   22051092.8944
       188.0004        189.0004
 -13906538.42748 -10825750.28446  22038557.420    22038556.4054   22038560.4504
       184.0004        184.0004
 -10343472.74948  -8033736.64846  22606465.051    22606465.7634   22606470.2584
       177.0004        178.0004
  -2959255.72747  -2287410.16645  23934766.481    23934768.0114   23934773.1004
       149.0004        152.0004
 -21830927.13549 -16993629.85747  20657396.860    20657397.6964   20657401.4904
       210.0004        211.0004
 -19229025.89849 -14969976.71947  20991748.140    20991748.8234   20991756.9544
       197.0004        197.0004
  -3627633.71348  -2814308.29146  23130267.122    23130267.2044   23130271.6954
       165.0004        164.0004
  -8301640.36349  -6440606.85047  23177291.714    23177291.9504   23177300.3084
       195.0004        194.0004
  -2058941.97647  -1594922.13645  23558756.667    23558757.0744   23558761.6954
       149.0004        151.0004
 -11769114.91348  -9142953.34247  22103274.331    22103274.1764   22103280.4624
       193.0004        194.0004
 21  2  4  1 55 30.0000000  0 10G30G21G17G04G07G01G14G08G28G09
 -13101072.48048 -10190295.73747  22035491.316    22035491.7164   22035498.7164
       189.0004        189.0004
 -13869116.71648 -10796590.49946  22045677.997    22045677.0914   22045681.9364
       184.0004        183.0004
 -10406980.76448  -8083223.38846  22594380.173    22594380.4474   22594386.0234
       178.0004        178.0004
  -2861835.13047  -2211498.01745  23953304.970    23953305.5814   23953311.9594
       150.0004        153.0004
 -21878535.26549 -17030727.10747  20648337.306    20648337.9954   20648341.8184
       210.0004        210.0004
 -19265529.23949 -14998420.88747  20984802.698    20984803.3784   20984810.5564
       197.0004        198.0004
  -3654222.03147  -2835026.45646  23125205.997    23125206.7494   23125213.0714
       164.0004        167.0004
  -8206880.90748  -6366768.34947  23195324.063    23195324.3634   23195332.4224
       194.0004        194.0004
  -2074612.42047  -1607132.83945  23555776.465    23555776.3774   23555780.0064
       149.0004        153.0004
 -11696811.38948  -9086612.93347  22117032.071    22117032.3844   22117039.3424
       192.0004        192.0004
 21  2  4  1 56  0.0000000  0 10G30G21G17G04G07G01G14G08G28G09
 -13182851.51148 -10254019.65947  22019928.391    22019929.0464   22019936.9624
       188.0004        188.0004
 -13831209.86148 -10767052.68446  22052890.177    22052889.9594   22052895.1204
       183.0004        183.0004
 -10470095.54648  -8132403.71446  22582369.464    22582369.3984   22582374.3734
       177.0004        176.0004
  -2764476.43247  -2135634.12345  23971831.660    23971831.4284   23971839.4784
       150.0004        152.0004
 -21925754.72349 -17067521.49847  20639351.842    20639352.3904   20639356.4584
       210.0004        210.0004
 -19301533.90249 -15026476.46847  20977951.941    20977951.7214   20977959.7114
       198.0004        199.0004
  -3680853.00048  -2855777.86446  23120139.889    23120139.6144   23120144.8194
       166.0004        167.0004
  -8112099.81448  -6292912.99047  23213359.954    23213360.0184   23213368.6384
       193.0004        192.0004
  -2090330.67547  -1619380.82845  23552784.177    23552783.7864   23552788.1304
       149.0004        152.0004
 -11624298.40048  -9030109.32547  22130828.768    22130830.0964   22130838.6184
       191.0004        191.0004
 21  2  4  1 56 30.0000000  0 10G30G21G17G04G07G01G14G08G28G09
 -13264457.57848 -10317608.79847  22004400.913    22004400.8104   22004407.7734
       188.0004        189.0004
 -13792817.85648 -10737136.81246  22060196.208    22060196.1414   22060200.7714
       183.0004        183.0004
 -10532815.05648  -8181276.02646  22570434.347    22570434.5554   22570439.7274
       176.0004        178.0004
  -2667181.03747  -2059819.58045  23990345.114    23990345.7634   23990353.8574
       148.0004        151.0004
 -21972581.82749 -17104010.15747  20630441.292    20630441.6674   20630445.5484
       210.0004        211.0004
 -19337036.35849 -15054140.71947  20971193.753    20971195.0764   20971203.7164
       198.0004        198.0004
  -3707526.32547  -2876562.25246  23115062.990    23115063.3094   23115069.4474
       164.0004        165.0004
  -8017298.55848  -6219041.90847  23231401.308    23231400.3304   23231408.8874
       192.0004        191.0004
  -2106097.12047  -1631666.36545  23549784.857    23549784.5234   23549789.0784
       149.0004        152.0004
 -11551577.87048  -8973443.98047  22144667.979    22144668.5054   22144677.1464
       190.0004        191.0004
 21  2  4  1 57  0.0000000  0 10G30G21G17G04G07G01G14G08G28G09
 -13345888.83248 -10381061.71547  21988904.978    21988905.4064   21988912.0904
       189.0004        190.0004
 -13753942.16348 -10706844.04646  22067594.431    22067593.9894   22067598.5214
       183.0004        183.0004
 -10595139.07248  -8229840.14746  22558575.079    22558575.7004   22558580.1954
       178.0004        178.0004
  -2569952.28047  -1984056.98445  24008848.681    24008849.7684   24008855.4474
       147.0004        149.0004
 -22019014.79449 -17140191.68947  20621605.422    20621605.7694   20621609.5694
       211.0004        211.0004
 -19372035.09049 -15081412.45547  20964534.735    20964535.2704   20964542.8604
       198.0004        198.0004
  -3734243.57147  -2897380.86546  23109979.347    23109979.8234   23109985.5514
       162.0004        163.0004
  -7922479.99148  -6145157.34047  23249444.439    23249444.2574   23249452.4964
       192.0004        192.0004
  -2121913.81847  -1643991.02745  23546774.249    23546774.1904   23546779.3674
       149.0004        152.0004
 -11478653.61548  -8916619.89847  22158546.389    22158546.5994   22158552.9444
       191.0004        191.0004
 21  2  4  1 57 30.0000000  0 11G30G21G17G04G07G01G14G08G19G28G09
 -13427142.10248 -10444375.95547  21973442.770    21973443.6864   21973449.3424
       190.0004        191.0004
 -13714582.35448 -10676174.06046  22075084.075    22075083.7404   22075088.1934
       183.0004        183.0004
 -10657066.41248  -8278095.20946  22546790.554    22546790.8314   22546795.1254
       178.0004        179.0004
  -2472792.17847  -1908347.85745  24027337.811    24027338.4434   24027343.0814
       146.0004        149.0004
 -22065050.57249 -17176063.73847  20612844.560    20612845.3584   20612849.3714
       211.0004        211.0004
 -19406527.16249 -15108289.39547  20957971.044    20957972.1364   20957979.6414
       199.0004        199.0004
  -3761005.00347  -2918233.93046  23104885.830    23104886.9794   23104892.6664
       162.0004        164.0004
  -7827646.14048  -6071260.85247  23267489.731    23267489.5864   23267498.1564
       192.0004        192.0004
  -1033985.80754   -789822.94545  24819716.400
        74.0004        154.0004
  -2137781.58947  -1656355.54145  23543754.673    23543754.0824   23543758.6434
       149.0004        152.0004
 -11405528.08848  -8859638.97747  22172461.026    22172461.9574   22172469.2004
       190.0004        191.0004
 21  2  4  1 58  0.0000000  0 11G30G21G17G04G07G01G14G08G19G28G09
 -13508215.33148 -10507549.90647  21958016.050    21958015.3584   21958021.6394
       191.0004        191.0004
 -13674740.36048 -10645128.33746  22082666.235    22082665.0844   22082670.7364
       182.0004        183.0004
 -10718596.83648  -8326040.96146  22535080.208    22535081.5254   22535086.8354
       178.0004        179.0004
  -2375703.76847  -1832694.56545  24045812.396    24045813.6504   24045817.6844
       144.0004        147.0004
 -22110686.90749 -17211624.52447  20604160.423    20604161.0114   20604165.1984
       211.0004        212.0004
 -19440510.80349 -15134770.15547  20951504.712    20951505.4154   20951512.7444
       199.0004        200.0004
  -3787811.93147  -2939122.43646  23099785.200    23099785.9914   23099791.0404
       161.0004        163.0004
  -7732800.14248  -5997354.89747  23285536.209    23285537.1664   23285546.8524
       190.0004        190.0004
  -1125155.13947   -860863.87745  24802365.808                    24802370.4284
       138.0004        149.0004
  -2153702.01747  -1668761.03345  23540724.266    23540724.5894   23540729.6904
       150.0004        153.0004
 -11332204.91448  -8802504.04447  22186414.751    22186415.1524   22186421.9344
       191.0004        190.0004
 21  2  4  1 58 30.0000000  0 11G30G21G17G04G07G01G14G08G19G28G09
 -13589105.32748 -10570581.07447  21942623.252    21942623.1334   21942628.9454
       192.0004        193.0004
 -13634415.73448 -10613706.53146  22090339.454    22090339.2574   22090343.8044
       182.0004        182.0004
 -10779729.08648  -8373676.45546  22523449.141    22523449.4324   22523453.7564
       180.0004        182.0004
  -2278688.96347  -1757098.65145  24064275.595    24064275.1064   24064281.0444
       144.0004        149.0004
 -22155920.63849 -17246871.58447  20595553.124    20595553.2554   20595557.3234
       211.0004        211.0004
 -19473983.15749 -15160852.50647  20945134.993    20945135.5004   20945143.1184
       200.0004        200.0004
  -3814664.57148  -2960046.56146  23094675.870    23094676.1674   23094681.4804
       165.0004        169.0004
  -7637942.98448  -5923440.23747  23303587.869    23303588.5234   23303597.5574
       190.0004        190.0004
  -1216115.67247   -931742.14445  24785058.169    24785056.7544   24785064.0644
       142.0004        147.0004
  -2169675.96547  -1681208.24445  23537685.318    23537685.9244   23537689.8924
       152.0004        156.0004
 -11258686.55648  -8745217.00947  22200404.595    22200404.8954   22200411.5714
       190.0004        191.0004
 21  2  4  1 59  0.0000000  0 11G30G21G17G04G07G01G14G08G19G28G09
 -13669811.91448 -10633469.32847  21927264.215    21927264.5174   21927271.8814
       192.0004        192.0004
 -13593612.12148 -10581911.49046  22098104.694    22098103.7684   22098108.4374
       182.0004        182.0004
 -10840464.79148  -8421002.96246  22511890.532    22511891.6314   22511896.7414
       181.0004        183.0004
  -2181752.79847  -1681564.01745  24082721.214    24082720.1664   24082728.2004
       145.0004        149.0004
 -22200751.83149 -17281804.99147  20587021.452    20587022.2214   20587026.2364
       211.0004        211.0004
 -19506944.40749 -15186536.59847  20938863.024    20938863.6174   20938870.9174
       200.0004        200.0004
  -3841566.17548  -2981008.85346  23089557.345    23089557.7594   23089562.2724
       168.0004        169.0004
  -7543080.22248  -5849521.22347  23321638.618    23321640.0564   23321649.2474
       189.0004        188.0004
  -1306868.38247  -1002458.43045  24767787.726    24767787.2874   24767791.9814
       142.0004        147.0004
  -2185707.08047  -1693700.01445  23534635.655    23534635.2044   23534640.0214
       152.0004        154.0004
 -11184978.49448  -8687782.17447  22214430.849    22214431.0154   22214438.6204
       191.0004        191.0004
 21  2  4  1 59 30.0000000  0 11G30G21G17G04G07G01G14G08G19G28G09
 -13750330.38248 -10696210.98947  21911941.641    21911942.0644   21911948.7564
       191.0004        191.0004
 -13552328.24548 -10549742.23746  22105960.411    22105959.8564   22105964.1274
       182.0004        181.0004
 -10900801.43648  -8468018.50846  22500409.012    22500409.4224   22500415.6724
       182.0004        183.0004
  -2084895.63847  -1606090.96145  24101152.636    24101153.4544   24101158.1874
       146.0004        151.0004
 -22245175.65649 -17316420.97047  20578567.923    20578568.5444   20578572.5604
       211.0004        211.0004
 -19539390.23349 -15211819.05447  20932688.527    20932689.1204   20932696.9404
       200.0004        200.0004
  -3868515.47148  -3002008.29046  23084428.410    23084428.2154   23084434.2394
       166.0004        165.0004
  -7448211.56648  -5775597.63046  23339693.005    23339693.6214   23339702.1584
       187.0004        187.0004
  -1397409.92147  -1073010.25745  24750558.992    24750557.7714   24750563.0624
       142.0004        147.0004
  -2201794.50547  -1706235.66045  23531573.624    23531574.0254   23531577.5164
       150.0004        152.0004
 -11111081.67148  -8630200.24647  22228492.126    22228492.8324   22228499.6024
       190.0004        189.0004
 21  2  4  2  0  0.0000000  0 11G30G21G17G04G07G01G14G08G19G28G09
 -13830658.26748 -10758804.16047  21896656.128    21896656.5304   21896663.1154
       192.0004        193.0004
 -13510565.57448 -10517199.88246  22113907.345    22113906.8204   22113911.0064
       181.0004        181.0004
 -10960738.13148  -8514722.42046  22489004.153    22489004.3054   22489008.5664
       183.0004        184.0004
  -1988120.08347  -1530681.48145  24119567.550    24119568.6494   24119575.0544
       148.0004        151.0004
 -22289189.85749 -17350717.75847  20570192.192    20570192.8514   20570196.8594
       210.0004        211.0004
 -19571318.56249 -15236698.27647  20926612.708    20926613.3304   20926620.9074
       200.0004        200.0004
  -3895513.40247  -3023045.62046  23079291.050    23079291.3214   23079295.8624
       164.0004        165.0004
  -7353339.94348  -5701671.71547  23357749.243    23357748.2294   23357756.9604
       188.0004        189.0004
  -1487738.75947  -1143396.23845  24733368.986    24733368.4814   24733373.1584
       142.0004        145.0004
  -2217939.82647  -1718816.42845  23528502.022    23528500.6334   23528504.8474
       148.0004        150.0004
 -11036999.29648  -8572473.73247  22242589.903    22242590.4064   22242597.6454
       190.0004        191.0004
 21  2  4  2  0 30.0000000  0 11G30G21G17G04G07G01G14G08G19G28G09
 -13910791.83448 -10821245.89647  21881407.317    21881407.4744   21881414.4154
       194.0004        195.0004
 -13468323.19148 -10484283.72646  22121946.307    22121945.5864   22121949.6264
       180.0004        181.0004
 -11020273.50248  -8561113.58946  22477674.127    22477674.9294   22477679.0434
       183.0004        183.0004
  -1891427.60047  -1455336.73245  24137968.104    24137968.6604   24137974.6654
       148.0004        151.0004
 -22332791.07049 -17384692.73647  20561895.778    20561896.1554   20561899.8104
       210.0004        211.0004
 -19602726.15449 -15261171.71447  20920635.824    20920636.7874   20920644.0044
       200.0004        200.0004
  -3922559.55548  -3044120.54646  23074144.998    23074144.9624   23074149.5114
       165.0004        166.0004
  -7258466.15448  -5627744.11947  23375805.428    23375803.3944   23375810.8324
       189.0004        190.0004
  -1577852.42747  -1213614.60545  24716222.523    24716222.3904   24716224.9864
       141.0004        144.0004
  -2234143.09947  -1731442.30945  23525418.398    23525418.5954   23525422.2244
       147.0004        151.0004
 -10962733.36348  -8514604.18447  22256722.430    22256722.8754   22256730.0064
       189.0004        189.0004
 21  2  4  2  1  0.0000000  0 11G30G21G17G04G07G01G14G08G19G28G09
 -13990729.76449 -10883535.18647  21866195.493    21866196.0774   21866203.3964
       195.0004        196.0004
 -13425603.58548 -10450995.71946  22130074.424    22130073.8914   22130079.2494
       180.0004        180.0004
 -11079407.69348  -8607192.16946  22466422.172    22466421.6904   22466426.9314
       182.0004        183.0004
  -1794821.95947  -1380059.66645  24156351.885    24156351.9774   24156357.6054
       149.0004        152.0004
 -22375977.81049 -17418344.75147  20553676.886    20553677.5474   20553682.0114
       210.0004        211.0004
 -19633612.10249 -15285238.66747  20914758.525    20914759.1894   20914766.7034
       200.0004        201.0004
  -3949656.05348  -3065234.68746  23068987.442    23068987.6284   23068994.0084
       165.0004        167.0004
  -7163594.03348  -5553817.81947  23393858.912    23393857.4874   23393863.2094
       190.0004        191.0004
  -1667749.93947  -1283664.50745  24699115.686    24699115.4204   24699117.8884
       142.0004        147.0004
  -2250406.72847  -1744115.25745  23522323.289    23522322.9074   23522328.1474
       149.0004        152.0004
 -10888288.28748  -8456595.04647  22270889.235    22270889.7104   22270896.3414
       188.0004        188.0004
 21  2  4  2  1 30.0000000  0 11G30G21G17G04G07G01G14G08G19G28G09
 -14070468.49248 -10945669.25247  21851022.134    21851022.3934   21851029.1184
       194.0004        194.0004
 -13382406.91248 -10417335.97046  22138294.747    22138294.5764   22138299.5734
       180.0004        180.0004
 -11138139.19448  -8652956.94846  22455245.862    22455245.4754   22455250.7484
       182.0004        182.0004
  -1698304.65447  -1304851.42045  24174717.633    24174717.1014   24174724.7004
       149.0004        151.0004
 -22418746.68049 -17451671.15447  20545538.343    20545539.1604   20545543.1394
       210.0004        211.0004
 -19663973.17449 -15308896.65047  20908981.408    20908981.7614   20908989.1554
       201.0004        201.0004
  -3976802.65248  -3086387.86246  23063822.448    23063822.9944   23063827.2854
       167.0004        168.0004
  -7068724.82748  -5479893.76847  23411907.215    23411908.4064   23411915.7164
       189.0004        188.0004
  -1757429.14247  -1353544.31645  24682049.770    24682048.5034   24682051.8244
       142.0004        147.0004
  -2266731.18247  -1756835.59645  23519217.107    23519216.1134   23519219.4684
       149.0004        151.0004
 -10813665.89348  -8398447.72346  22285088.785    22285089.3904   22285096.5194
       188.0004        187.0004
 21  2  4  2  2  0.0000000  0 11G30G21G17G04G07G01G14G08G19G28G09
 -14150003.94248 -11007644.93547  21835886.542    21835886.7434   21835893.5174
       194.0004        194.0004
 -13338731.85248 -10383303.46946  22146605.428    22146605.6364   22146609.9884
       180.0004        181.0004
 -11196465.98048  -8698406.39546  22444145.990    22444146.8754   22444151.5034
       182.0004        182.0004
  -1601876.71947  -1229712.83045  24193068.121    24193067.9054   24193073.9244
       147.0004        149.0004
 -22461093.59149 -17484668.75447  20537480.606    20537481.0914   20537484.6284
       211.0004        211.0004
 -19693806.05549 -15332143.04347  20903304.759    20903305.0294   20903312.3534
       201.0004        201.0004
  -4003998.69348  -3107579.55546  23058646.199    23058646.2634   23058652.5584
       165.0004        166.0004
  -6973859.42148  -5405972.69847  23429960.207    23429960.7354   23429969.1554
       188.0004        188.0004
  -1846887.00247  -1423251.59645  24665026.167    24665025.3944   24665029.5714
       142.0004        146.0004
  -2283116.16147  -1769603.11645  23516099.038    23516098.3804   23516102.2574
       148.0004        152.0004
 -10738867.98348  -8340163.64246  22299322.241    22299322.4554   22299329.5274
       186.0004        186.0004
 21  2  4  2  2 30.0000000  0 11G30G21G17G04G07G01G14G08G19G28G09
 -14229334.33649 -11069460.83647  21820790.821    21820790.9444   21820797.7104
       195.0004        194.0004
 -13294580.80248 -10348900.06446  22155008.009    22155007.6344   22155011.8634
       180.0004        180.0004
 -11254388.55148  -8743540.86846  22433123.568    22433124.7124   22433128.1684
       181.0004        182.0004
  -1505541.48247  -1154646.44445  24211399.165    24211400.2244   24211405.3054
       147.0004        151.0004
 -22503017.09049 -17517336.42047  20529502.638    20529503.0984   20529507.0714
       211.0004        212.0004
 -19723109.40849 -15354976.81847  20897727.758    20897728.4584   20897735.9864
       201.0004        200.0004
  -4031245.80648  -3128811.06246  23053461.356    23053461.9484   23053466.8794
       165.0004        167.0004
  -6879001.07348  -5332057.12446  23448012.804    23448012.6014   23448019.3084
       187.0004        187.0004
  -1936122.85647  -1492785.91845  24648043.337    24648043.6984   24648048.9994
       141.0004        143.0004
  -2299563.91247  -1782419.53645  23512969.187    23512968.9164   23512973.6574
       150.0004        153.0004
 -10663898.49248  -8281745.87646  22313588.349    22313588.6454   22313595.5024
       185.0004        185.0004
 21  2  4  2  3  0.0000000  0 11G30G21G17G04G07G01G14G08G19G28G09
 -14308457.33949 -11131115.12247  21805734.561    21805734.6954   21805741.2844
       195.0004        196.0004
 -13249955.59748 -10314127.18046  22163499.862    22163499.3014   22163503.7114
       180.0004        180.0004
 -11311906.60248  -8788360.11446  22422178.674    22422178.7154   22422182.8944
       181.0004        182.0004
  -1409301.69147  -1079654.45845  24229713.874    24229714.5584   24229719.6664
       148.0004        152.0004
 -22544515.21049 -17549672.62447  20521605.435    20521606.1764   20521610.2374
       211.0004        212.0004
 -19751881.43549 -15377396.57447  20892251.791    20892253.0534   20892261.4224
       201.0004        201.0004
  -4058544.94848  -3150083.10646  23048267.090    23048267.1534   23048272.8734
       166.0004        168.0004
  -6784151.85048  -5258148.65146  23466060.609    23466060.5554   23466069.0264
       186.0004        187.0004
  -2025135.78847  -1562146.59245  24631106.433    24631105.1514   24631108.7884
       137.0004        141.0004
  -2316076.02447  -1795286.13045  23509825.598    23509825.4474   23509830.3124
       148.0004        150.0004
 -10588760.68348  -8223196.93346  22327887.350    22327887.3124   22327894.9314
       186.0004        187.0004
 21  2  4  2  3 30.0000000  0 11G30G21G17G04G07G01G14G08G19G28G09
 -14387370.88449 -11192606.19447  21790717.659    21790717.5424   21790724.8704
       196.0004        196.0004
 -13204856.79248 -10278985.23446  22172082.427    22172081.5694   22172085.8334
       180.0004        180.0004
 -11369020.25648  -8832864.25446  22411310.344    22411311.1094   22411314.1564
       182.0004        183.0004
  -1313160.38747  -1004739.21545  24248008.872    24248009.2224   24248015.0004
       149.0004        152.0004
 -22585586.15549 -17581675.95447  20513789.899    20513790.5064   20513794.6544
       211.0004        212.0004
 -19780120.69349 -15399401.17647  20886878.458    20886879.3744   20886887.6634
       200.0004        201.0004
  -4085897.51648  -3171396.77746  23043062.258    23043062.4564   23043067.6574
       168.0004        170.0004
  -6689315.15748  -5184249.95146  23484105.413    23484106.2244   23484115.4924
       186.0004        186.0004
  -2113924.96847  -1631332.86245  24614208.172    24614208.2574   24614210.8104
       135.0004        138.0004
  -2332653.97847  -1808204.01945  23506671.634    23506671.0254   23506676.3194
       147.0004        151.0004
 -10513458.25548  -8164519.72546  22342216.606    22342216.6964   22342224.4884
       186.0004        186.0004
 21  2  4  2  4  0.0000000  0 11G30G21G17G04G07G01G14G08G19G28G09
 -14466071.10849 -11253931.04147  21775740.960    21775741.2594   21775748.3764
       196.0004        196.0004
 -13159285.19448 -10243474.89546  22180753.532    22180753.7144   22180758.3454
       180.0004        181.0004
 -11425727.72848  -8877051.87746  22400519.369    22400519.7694   22400523.5024
       182.0004        183.0004
  -1217118.70647   -929901.58445  24266284.056    24266284.2274   24266292.1684
       148.0004        151.0004
 -22626226.09649 -17613343.45147  20506056.567    20506057.0914   20506061.3054
       211.0004        212.0004
 -19807823.89249 -15420988.07947  20881607.469    20881607.5884   20881615.5354
       200.0004        200.0004
  -4113302.86748  -3192751.59446  23037846.318    23037847.2644   23037851.8774
       168.0004        167.0004
  -6594491.70548  -5110361.55347  23502151.409    23502151.9214   23502160.3334
       187.0004        189.0004
  -2202487.39247  -1700342.41445  24597355.472    24597354.9934   24597361.2484
       135.0004        142.0004
  -2349297.59447  -1821173.06045  23503504.880    23503505.2484   23503509.1744
       149.0004        154.0004
 -10437992.97248  -8105715.62046  22356577.733    22356578.0794   22356585.0514
       186.0004        187.0004
 21  2  4  2  4 30.0000000  0 11G30G21G17G04G07G01G14G08G19G28G09
 -14544556.87149 -11315088.77947  21760806.115    21760806.4494   21760812.2514
       195.0004        196.0004
 -13113242.99048 -10207597.85046  22189515.253    22189515.7584   22189519.8784
       180.0004        180.0004
 -11482029.89348  -8920923.68146  22389805.851    22389805.9584   22389809.8574
       183.0004        183.0004
  -1121180.62647   -855144.67945  24284540.518    24284541.0884   24284548.6454
       148.0004        150.0004
 -22666434.10149 -17644674.37647  20498405.236    20498405.8734   20498409.7754
       211.0004        212.0004
 -19834990.57649 -15442156.91947  20876436.909    20876437.6864   20876446.0014
       200.0004        200.0004
  -4140763.32048  -3214149.34646  23032622.066    23032622.1584   23032626.7374
       167.0004        167.0004
  -6499685.11048  -5036486.31047  23520192.153    23520193.0924   23520201.1924
       187.0004        188.0004
  -2290823.29847  -1769175.48745  24580548.740    24580547.6124   24580549.7944
       139.0004        145.0004
  -2366010.10547  -1834195.79845  23500324.503    23500323.8814   23500328.2434
       150.0004        152.0004
 -10362369.43248  -8046788.20546  22370968.378    22370968.4224   22370974.9664
       187.0004        187.0004
 21  2  4  2  5  0.0000000  0 11G30G21G17G04G07G01G14G08G19G28G09
 -14622824.73849 -11376076.72247  21745912.466    21745912.2484   21745918.4444
       195.0004        196.0004
 -13066730.74248 -10171354.52346  22198365.363    22198365.7394   22198370.4464
       180.0004        180.0004
 -11537925.47448  -8964478.66346  22379168.710    22379169.5964   22379174.1964
       183.0004        183.0004
  -1025347.72347   -780469.74645  24302777.429    24302777.8554   24302784.0124
       147.0004        150.0004
 -22706207.05549 -17675666.29648  20490836.818    20490837.4064   20490841.4904
       212.0004        213.0004
 -19861617.93749 -15462905.50147  20871369.963    20871370.6994   20871378.7104
       199.0004        200.0004
  -4168278.77548  -3235589.92146  23027384.180    23027384.3604   23027391.4394
       167.0004        167.0004
  -6404897.00648  -4962625.46947  23538230.303    23538231.5024   23538238.1784
       188.0004        188.0004
  -2378929.86147  -1837829.88245  24563781.846    24563780.9804   24563785.3284
       144.0004        149.0004
  -2382791.93447  -1847272.54945  23497129.929    23497129.8484   23497134.6414
       149.0004        152.0004
 -10286589.87448  -7987739.21546  22385388.881    22385389.1354   22385396.4074
       187.0004        187.0004
 21  2  4  2  5 30.0000000  0 11G30G21G17G04G07G01G14G08G19G28G09
 -14700872.53049 -11436893.19547  21731059.480    21731059.6974   21731066.8134
       196.0004        196.0004
 -13019749.63248 -10134745.87646  22207306.045    22207306.0164   22207310.7004
       179.0004        179.0004
 -11593414.48148  -9007716.84046  22368609.349    22368609.6534   22368614.3564
       182.0004        183.0004
   -929622.94847   -705879.07145  24320990.961    24320993.1994   24321001.1104
       146.0004        149.0004
 -22745543.25349 -17706317.88947  20483351.227    20483351.8324   20483355.7204
       211.0004        212.0004
 -19887704.54849 -15483232.73247  20866406.401    20866406.8134   20866414.9404
       200.0004        200.0004
  -4195850.43148  -3257074.32346  23022137.683    23022139.4104   23022143.7744
       167.0004        168.0004
  -6310129.72048  -4888780.83947  23556264.725    23556265.6074   23556273.0104
       188.0004        190.0004
  -2466806.73347  -1906305.30045  24547058.698    24547058.2704   24547063.6234
       148.0004        152.0004
  -2399644.35647  -1860404.31145  23493924.060    23493923.9634   23493929.1384
       151.0004        156.0004
 -10210657.84848  -7928571.42646  22399838.064    22399838.0844   22399845.6664
       186.0004        185.0004
 21  2  4  2  6  0.0000000  0 11G30G21G17G04G07G01G14G08G19G28G09
 -14778696.92149 -11497535.56347  21716250.509    21716250.6514   21716257.5804
       196.0004        196.0004
 -12972299.69748 -10097771.89846  22216336.007    22216335.2344   22216340.3204
       180.0004        181.0004
 -11648495.67248  -9050637.24246  22358127.811    22358128.5604   22358132.6114
       182.0004        183.0004
   -834007.98847   -631373.95945  24339185.849    24339189.1224   24339194.7874
       145.0004        148.0004
 -22784439.12649 -17736626.36848  20475949.950    20475950.1904   20475954.3644
       212.0004        213.0004
 -19913247.69949 -15503136.45747  20861545.325    20861546.1364   20861553.6514
       200.0004        200.0004
  -4223478.17848  -3278602.46546  23016882.006    23016882.4084   23016886.7464
       168.0004        169.0004
  -6215385.04748  -4814953.85047  23574294.803    23574294.8584   23574302.4084
       188.0004        189.0004
  -2554451.76847  -1974600.06645  24530381.094    24530380.2004   24530384.0584
       150.0004        153.0004
  -2416568.06547  -1873591.63745  23490704.895    23490704.4314   23490707.6494
       155.0004        159.0004
 -10134575.68248  -7869286.64246  22414315.872    22414315.9044   22414322.2744
       184.0004        184.0004
 21  2  4  2  6 30.0000000  0 11G30G21G17G04G07G01G14G08G19G28G09
 -14856296.28349 -11558002.60147  21701484.549    21701483.6994   21701490.7924
       196.0004        197.0004
 -12924383.81548 -10060434.85446  22225453.638    22225453.5594   22225458.8724
       180.0004        180.0004
 -11703170.16248  -9093240.72646  22347723.928    22347724.0954   22347728.5814
       183.0004        184.0004
   -738506.21247   -556957.04245  24357361.647    24357362.5664   24357368.2924
       144.0004        148.0004
 -22822893.76449 -17766591.03548  20468632.103    20468632.7884   20468636.9234
       212.0004        214.0004
 -19938246.62149 -15522616.13447  20856788.245    20856788.7354   20856796.9014
       199.0004        199.0004
  -4251163.81848  -3300175.66246  23011611.515    23011612.2204   23011618.0364
       166.0004        166.0004
  -6120666.37948  -4741147.11446  23592319.140    23592319.1374   23592325.6824
       187.0004        187.0004
  -2641864.31847  -2042713.68445  24513745.708    24513745.8834   24513750.4564
       150.0004        153.0004
  -2433565.52847  -1886836.38445  23487469.530    23487469.3144   23487473.7074
       156.0004        159.0004
 -10058347.42648  -7809888.00446  22428820.968    22428821.6554   22428828.8934
       183.0004        184.0004
 21  2  4  2  7  0.0000000  0 11G30G21G17G04G07G01G14G08G19G28G09
 -14933667.26349 -11618291.68347  21686760.335    21686760.9974   21686767.8794
       197.0004        198.0004
 -12876001.68348 -10022734.48846  22234660.089    22234660.1664   22234665.3384
       180.0004        180.0004
 -11757436.00348  -9135525.77446  22337396.897    22337396.9034   22337401.6474
       182.0004        181.0004
   -643119.33747   -482629.68145  24375513.314    24375514.6324   24375519.8864
       143.0004        146.0004
 -22860903.79949 -17796209.25348  20461399.335    20461399.4964   20461403.6294
       212.0004        213.0004
 -19962698.69249 -15541669.68947  20852135.419    20852136.0104   20852144.2194
       200.0004        200.0004
  -4278907.27248  -3321793.91646  23006333.010    23006333.9354   23006337.7984
       165.0004        167.0004
  -6025974.60148  -4667361.33946  23610337.295    23610337.4684   23610345.6614
       186.0004        186.0004
  -2729041.84547  -2110644.17545  24497156.184    24497155.2174   24497161.5394
       150.0004        153.0004
  -2450636.42647  -1900138.38845  23484220.237    23484220.9704   23484224.3044
       156.0004        158.0004
  -9981975.44848  -7750377.38546  22443355.081    22443355.7284   22443362.1694
       184.0004        185.0004
 21  2  4  2  7 30.0000000  0 11G30G21G17G04G07G01G14G08G19G28G09
 -15010806.54349 -11678400.21847  21672081.816    21672081.8814   21672087.9474
       197.0004        197.0004
 -12827154.14048  -9984671.47946  22243956.330    22243956.1114   22243960.1644
       179.0004        179.0004
 -11811291.94848  -9177491.44846  22327148.793    22327148.8664   22327153.5604
       182.0004        182.0004
   -547849.06347   -408393.16845  24393642.455    24393642.7264   24393649.4314
       142.0004        146.0004
 -22898466.47349 -17825478.87048  20454251.060    20454251.6644   20454255.7154
       212.0004        214.0004
 -19986601.40749 -15560295.17747  20847586.593    20847587.5724   20847595.5374
       200.0004        200.0004
  -4306708.53748  -3343457.24246  23001043.794    23001043.7104   23001047.1814
       165.0004        166.0004
  -5931311.46248  -4593597.85646  23628349.224    23628350.0934   23628359.6134
       184.0004        185.0004
  -2815982.70647  -2178390.23245  24480611.100    24480610.7164   24480616.9554
       150.0004        152.0004
  -2467781.72847  -1913498.34545  23480959.301    23480959.4024   23480962.3084
       158.0004        161.0004
  -9905462.15948  -7690756.66746  22457914.802    22457914.9164   22457922.1724
       184.0004        184.0004
 21  2  4  2  8  0.0000000  0 11G30G21G17G04G07G01G14G08G19G28G09
 -15087711.86449 -11738326.44047  21657447.559    21657447.3294   21657454.0874
       197.0004        197.0004
 -12777843.44248  -9946247.56446  22253339.451    22253339.3794   22253344.2684
       179.0004        179.0004
 -11864739.68748  -9219139.02046  22316977.975    22316978.1704   22316982.2514
       183.0004        183.0004
   -452698.09147   -334249.58345  24411746.468    24411748.4654   24411757.2564
       140.0004        144.0004
 -22935579.72249 -17854398.29548  20447189.034    20447189.5884   20447193.4604
       213.0004        214.0004
 -20009953.29249 -15578491.44647  20843142.697    20843143.5024   20843151.1904
       200.0004        200.0004
  -4334568.64648  -3365166.41846  22995741.466    22995742.0684   22995746.6074
       165.0004        167.0004
  -5836679.90548  -4519858.99246  23646358.056    23646358.7254   23646366.7424
       185.0004        185.0004
  -2902685.52547  -2245950.82245  24464113.711    24464113.4124   24464117.6314
       148.0004        150.0004
  -2485003.07847  -1926917.56045  23477682.712    23477682.3214   23477685.2774
       157.0004        158.0004
  -9828810.95848  -7631028.46746  22472500.310    22472500.6844   22472508.2074
       183.0004        184.0004
 21  2  4  2  8 30.0000000  0 11G30G21G17G04G07G01G14G08G19G28G09
 -15164380.31649 -11798068.07047  21642855.815    21642856.6324   21642864.5494
       196.0004        197.0004
 -12728070.14648  -9907463.17546  22262811.333    22262810.8704   22262815.6854
       179.0004        180.0004
 -11917777.66848  -9260467.30446  22306884.937    22306885.4864   22306889.7814
       183.0004        183.0004
   -357668.57247   -260200.67645  24429830.390    24429831.8444   24429840.0694
       137.0004        142.0004
 -22972241.12149 -17882965.61848  20440212.192    20440212.5154   20440216.8274
       213.0004        213.0004
 -20032752.29249 -15596256.89247  20838804.484    20838805.0164   20838812.6284
       199.0004        199.0004
  -4362487.97948  -3386921.70446  22990428.357    22990428.7174   22990434.3244
       167.0004        169.0004
  -5742081.57948  -4446146.01546  23664360.238    23664359.8704   23664369.1224
       183.0004        183.0004
  -2989149.02147  -2313324.91445  24447659.508    24447658.9684   24447663.4674
       148.0004        151.0004
  -2502301.22347  -1940396.62045  23474389.277    23474388.7014   23474394.5764
       152.0004        153.0004
  -9752024.57048  -7571194.92846  22487112.619    22487113.0544   22487120.3254
       183.0004        183.0004
 21  2  4  2  9  0.0000000  0 11G30G21G17G04G07G01G14G08G19G28G09
 -15240809.57049 -11857623.33847  21628314.022    21628313.9694   21628320.4074
       197.0004        198.0004
 -12677835.07348  -9868318.95946  22272369.772    22272369.9114   22272374.7764
       179.0004        179.0004
 -11970405.57848  -9301476.05246  22296870.487    22296870.4964   22296875.1504
       183.0004        184.0004
   -262763.21947   -186248.56145  24447892.599    24447892.3414   24447899.5384
       137.0004        142.0004
 -23008448.64449 -17911179.28048  20433321.724    20433322.5704   20433326.5044
       212.0004        213.0004
 -20054997.00649 -15613590.42447  20834571.204    20834571.9814   20834579.6544
       199.0004        199.0004
  -4390467.56848  -3408723.97946  22985104.554    22985104.4784   22985110.0654
       169.0004        170.0004
  -5647518.81648  -4372460.76446  23682355.682    23682355.5824   23682363.1734
       183.0004        184.0004
  -3075372.22047  -2380511.78345  24431252.104    24431251.6954   24431256.3244
       151.0004        155.0004
  -2519677.56847  -1953936.66645  23471078.329    23471079.5604   23471087.8024
       149.0004        151.0004
  -9675106.44448  -7511258.75346  22501750.369    22501750.3204   22501757.6554
       183.0004        184.0004
 21  2  4  2  9 30.0000000  0 11G30G21G17G04G07G01G14G08G19G28G09
 -15316996.54449 -11916989.81647  21613815.617    21613815.3824   21613821.9354
       197.0004        197.0004
 -12627140.23448  -9828816.47646  22282017.208    22282017.3324   22282022.9894
       179.0004        180.0004
 -12022622.66048  -9342164.66346  22286932.512    22286933.7224   22286938.5534
       183.0004        183.0004
   -167983.86347   -112394.55545  24465928.193    24465929.9704   24465936.0734
       137.0004        141.0004
 -23044199.47949 -17939037.08548  20426519.224    20426519.6554   20426523.6604
       212.0004        213.0004
 -20076685.26949 -15630490.35447  20830444.692    20830444.5864   20830452.9274
       199.0004        200.0004
  -4418507.51448  -3430573.29446  22979768.328    22979768.5954   22979772.5264
       168.0004        168.0004
  -5552993.51148  -4298804.70546  23700344.185    23700342.5124   23700351.1274
       182.0004        182.0004
  -3161353.42347  -2447510.08945  24414891.017    24414889.8964   24414893.0064
       150.0004        152.0004
  -2537133.06047  -1967538.35945  23467759.970    23467760.1804   23467765.6124
       149.0004        153.0004
  -9598059.16548  -7451221.90546  22516411.327    22516411.7834   22516419.6394
       183.0004        184.0004
 21  2  4  2 10  0.0000000  0 11G30G21G17G04G07G01G14G08G19G28G09
 -15392939.15149 -11976165.86747  21599363.822    21599363.5904   21599370.6834
       196.0004        196.0004
 -12575987.21248  -9788956.99146  22291751.684    22291750.9924   22291756.7374
       179.0004        179.0004
 -12074429.53448  -9382533.66746  22277075.771    22277075.9444   22277079.8514
       184.0004        185.0004
    -73333.43147    -38641.06345  24483940.711    24483940.5974   24483948.2214
       138.0004        143.0004
 -23079492.37449 -17966538.05148  20419802.737    20419803.4144   20419807.7214
       212.0004        214.0004
 -20097815.88049 -15646955.76047  20826422.469    20826423.3064   20826431.7074
       199.0004        199.0004
  -4446609.11748  -3452470.65246  22974420.263    22974421.4534   22974426.4104
       168.0004        170.0004
  -5458508.12648  -4225179.75546  23718321.414    23718321.4694   23718330.9374
       181.0004        182.0004
  -3247091.16347  -2514318.70045  24398575.656    24398575.1324   24398578.0574
       150.0004        153.0004
  -2554669.26447  -1981202.91345  23464426.374    23464424.5834   23464427.7844
       153.0004        157.0004
  -9520886.30448  -7391087.20446  22531096.591    22531096.8074   22531104.5004
       183.0004        183.0004
 21  2  4  2 10 30.0000000  0 11G30G21G17G04G07G01G14G08G19G28G09
 -15468633.96549 -12035148.83747  21584960.013    21584959.8944   21584966.4134
       196.0004        197.0004
 -12524376.05448  -9748740.48646  22301572.240    22301572.2774   22301578.1804
       179.0004        179.0004
 -12125825.01548  -9422582.07146  22267294.711    22267295.2844   22267299.4514
       185.0004        186.0004
     21186.59647     35010.85045  24501925.705    24501926.7174   24501935.1054
       138.0004        142.0004
 -23114323.94649 -17993679.54048  20413175.073    20413175.5184   20413179.2164
       213.0004        214.0004
 -20118386.39349 -15662984.71247  20822508.181    20822509.3284   20822516.9524
       199.0004        199.0004
  -4474772.18948  -3474415.88846  22969062.118    22969062.2784   22969066.5984
       170.0004        172.0004
  -5364063.97048  -4151586.90846  23736289.886    23736292.6394   23736302.8124
       179.0004        179.0004
  -3332583.62947  -2580936.18145  24382306.181    24382305.8454   24382309.4024
       151.0004        154.0004
  -2572286.72947  -1994930.79645  23461073.585    23461073.2964   23461075.5204
       155.0004        157.0004
  -9443590.15648  -7330856.44046  22545806.381    22545807.0604   22545813.6594
       184.0004        186.0004
 21  2  4  2 11  0.0000000  0 11G30G21G17G04G07G01G14G08G19G28G09
 -15544078.01049 -12093936.41047  21570603.169    21570603.2974   21570609.9974
       197.0004        197.0004
 -12472307.81148  -9708167.83646  22311481.436    22311481.0804   22311486.2714
       179.0004        180.0004
 -12176808.74048  -9462309.64446  22257592.586    22257593.1424   22257597.8504
       185.0004        186.0004
    115574.10347    108559.43345  24519888.734    24519889.3064   24519893.9094
       139.0004        143.0004
 -23148691.57149 -18020459.51948  20406634.375    20406635.0884   20406639.0324
       212.0004        213.0004
 -20138394.77449 -15678575.64547  20818701.021    20818701.8764   20818709.3444
       199.0004        199.0004
  -4502996.90248  -3496409.20246  22963691.009    22963691.5154   22963695.3244
       171.0004        171.0004
  -5269662.67048  -4078027.44946  23754255.894    23754257.1254   23754266.6884
       180.0004        180.0004
  -3417829.11247  -2647361.17645  24366085.724    24366085.0304   24366088.7664
       154.0004        158.0004
  -2589986.11047  -2008722.53345  23457702.130    23457701.9474   23457707.6204
       154.0004        155.0004
  -9366173.41648  -7270531.71646  22560538.598    22560538.5834   22560545.4524
       185.0004        185.0004
 21  2  4  2 11 30.0000000  0 11G30G21G17G04G07G01G14G08G19G28G09
 -15619268.76449 -12152526.60947  21556295.281    21556294.8894   21556301.7824
       198.0004        198.0004
 -12419784.27448  -9667240.40446  22321476.264    22321475.8314   22321481.3184
       179.0004        179.0004
 -12227380.33748  -9501716.09846  22247970.241    22247969.9104   22247974.5004
       186.0004        186.0004
    209826.69647    182002.92845  24537822.219    24537822.5814   24537830.4394
       137.0004        141.0004
 -23182593.20449 -18046876.38348  20400184.084    20400184.3914   20400188.2314
       213.0004        214.0004
 -20157839.60449 -15693727.45147  20815001.171    20815001.4534   20815009.4154
       199.0004        199.0004
  -4531284.14048  -3518451.18946  22958307.800    22958308.8134   22958313.1464
       170.0004        171.0004
  -5175306.75148  -4004503.38646  23772214.366    23772213.1664   23772222.1064
       180.0004        180.0004
  -3502826.76347  -2713593.08145  24349910.059    24349909.1674   24349914.2294
       153.0004        155.0004
  -2607768.19947  -2022578.69845  23454316.894    23454317.8694   23454323.9694
       151.0004        152.0004
  -9288639.25348  -7210115.50446  22575292.592    22575292.3654   22575299.8144
       184.0004        184.0004
 21  2  4  2 12  0.0000000  0 11G30G21G17G04G07G01G14G08G19G28G09
 -15694204.03649 -12210917.74347  21542035.287    21542035.8554   21542042.1414
       198.0004        200.0004
 -12366806.79148  -9625959.24246  22331557.463    22331556.5114   22331562.1704
       179.0004        179.0004
 -12277540.17148  -9540801.69546  22238423.538    22238424.4684   22238429.9854
       185.0004        185.0004
    303941.64547    255339.12245  24555731.594    24555732.7234   24555740.5094
       137.0004        142.0004
 -23216027.30649 -18072928.94048  20393821.618    20393821.7924   20393825.8694
       213.0004        214.0004
 -20176719.73549 -15708439.25147  20811407.284    20811408.0604   20811416.4054
       198.0004        199.0004
  -4559634.90948  -3540542.70046  22952912.928    22952913.2724   22952917.6144
       170.0004        170.0004
  -5080998.75448  -3931016.65346  23790158.709    23790159.8034   23790167.2794
       178.0004        179.0004
  -3587575.36947  -2779630.92545  24333782.802    24333782.3384   24333785.7664
       153.0004        155.0004
  -2625634.85947  -2036500.73845  23450918.997    23450919.5554   23450923.3524
       150.0004        153.0004
  -9210991.21648  -7149610.54046  22590066.965    22590067.8734   22590075.6274
       182.0004        182.0004
 21  2  4  2 12 30.0000000  0 11G30G21G17G04G07G01G14G08G19G28G09
 -15768880.63349 -12269107.28947  21527825.034    21527824.5804   21527832.3144
       199.0004        199.0004
 -12313376.76748  -9584325.47546  22341724.602    22341724.8164   22341729.4174
       179.0004        180.0004
 -12327287.21248  -9579565.63846  22228957.355    22228957.5224   22228962.9694
       185.0004        185.0004
    397917.26547    328566.74745  24573615.275    24573616.6094   24573624.7374
       138.0004        144.0004
 -23248991.27749 -18098615.15848  20387548.057    20387548.9354   20387552.7384
       213.0004        214.0004
 -20195032.96149 -15722709.30647  20807923.047    20807923.6664   20807932.0144
       199.0004        200.0004
  -4588049.14848  -3562683.67146  22947506.224    22947506.2954   22947510.6314
       169.0004        170.0004
  -4986740.05848  -3857568.32546  23808095.309    23808095.9094   23808106.3774
       178.0004        179.0004
  -3672072.98147  -2845473.17745  24317702.700    24317701.5744   24317707.3394
       153.0004        156.0004
  -2643586.73447  -2050489.22845  23447504.272    23447504.3474   23447507.4044
       153.0004        158.0004
  -9133231.65348  -7089018.71246  22604865.770    22604866.4394   22604873.1544
       182.0004        184.0004
 21  2  4  2 13  0.0000000  0 11G30G21G17G04G07G01G14G08G19G28G09
 -15843296.26249 -12327093.49247  21513664.285    21513664.0184   21513670.8114
       199.0004        199.0004
 -12259495.75748  -9542340.25346  22351978.282    22351977.5444   22351982.6504
       179.0004        179.0004
 -12376622.36648  -9618008.60446  22219570.131    22219570.1874   22219574.1264
       185.0004        186.0004
    491750.79747    401683.64645  24591471.835    24591472.7984   24591480.1054
       139.0004        145.0004
 -23281482.94649 -18123933.35048  20381365.726    20381366.2084   20381369.9614
       213.0004        214.0004
 -20212778.13949 -15736536.70847  20804546.838    20804547.1374   20804555.5304
       200.0004        200.0004
  -4616527.88248  -3584874.92246  22942086.312    22942086.7644   22942091.6974
       169.0004        171.0004
  -4892533.35148  -3784160.51046  23826022.551    23826023.7054   23826032.2154
       177.0004        178.0004
  -3756319.04547  -2911119.41445  24301671.692    24301670.9264   24301676.6174
       154.0004        157.0004
  -2661625.57747  -2064545.44745  23444070.506    23444070.6154   23444075.1354
       155.0004        158.0004
  -9055364.01848  -7028342.63246  22619683.994    22619684.0074   22619690.8214
       184.0004        184.0004
 21  2  4  2 13 30.0000000  0 11G30G21G17G04G07G01G14G08G19G28G09
 -15917448.43949 -12384874.41047  21499553.763    21499553.8434   21499560.7004
       200.0004        202.0004
 -12205165.16748  -9500004.71646  22362316.913    22362316.5774   22362322.2934
       178.0004        177.0004
 -12425545.45148  -9656130.47047  22210260.330    22210260.7874   22210265.3994
       186.0004        189.0004
    585439.81347    474687.90245  24609301.769    24609302.7504   24609308.2814
       140.0004        144.0004
 -23313500.74649 -18148882.29448  20375272.658    20375273.3174   20375277.2344
       213.0004        214.0004
 -20229953.85549 -15749920.37647  20801278.120    20801278.8504   20801286.5414
       200.0004        200.0004
  -4645071.76748  -3607116.89146  22936655.096    22936655.5214   22936660.1084
       170.0004        172.0004
  -4798380.44748  -3710794.63646  23843941.324    23843940.8184   23843949.0044
       176.0004        177.0004
  -3840312.15147  -2976568.53245  24285689.537    24285688.3604   24285692.0974
       153.0004        155.0004
  -2679752.13747  -2078670.04745  23440621.710    23440621.2364   23440626.1234
       156.0004        158.0004
  -8977391.47948  -6967584.81046  22634521.280    22634520.7474   22634527.4464
       183.0004        183.0004
 21  2  4  2 14  0.0000000  0 11G30G21G17G04G07G01G14G08G19G28G09
 -15991334.57249 -12442448.01547  21485493.234    21485493.3884   21485500.2904
       201.0004        201.0004
 -12150386.57948  -9457320.10446  22372740.217    22372739.8564   22372745.4294
       178.0004        178.0004
 -12474056.10048  -9693930.95646  22201028.323    22201028.8384   22201033.7124
       187.0004        187.0004
    678982.08347    547577.83945  24627102.933    24627103.4194   24627109.5014
       140.0004        143.0004
 -23345042.25849 -18173460.10148  20369270.650    20369271.1014   20369275.1634
       213.0004        214.0004
 -20246558.67749 -15762859.18447  20798117.962    20798118.7814   20798126.7424
       199.0004        200.0004
  -4673681.47248  -3629410.16646  22931210.182    22931211.0544   22931216.5984
       171.0004        171.0004
  -4704283.32848  -3637472.23946  23861848.285    23861847.6914   23861855.1844
       177.0004        178.0004
  -3924051.09547  -3041819.57645  24269753.641    24269752.9964   24269757.0354
       150.0004        152.0004
  -2697967.50447  -2092863.81745  23437155.881    23437155.1264   23437158.8084
       155.0004        158.0004
  -8899317.15048  -6906747.65846  22649377.555    22649378.0944   22649384.8144
       182.0004        183.0004
 21  2  4  2 14 30.0000000  0 11G30G21G17G04G07G01G14G08G19G28G09
 -16064951.65449 -12499811.98447  21471484.345    21471484.5274   21471491.6274
       201.0004        201.0004
 -12095161.49048  -9414287.57146  22383248.758    22383248.9624   22383253.6944
       177.0004        177.0004
 -12522153.88248  -9731409.74147  22191876.090    22191875.8094   22191881.4454
       188.0004        188.0004
    772375.73947    620351.94845  24644874.816    24644875.2024   24644880.9914
       139.0004        143.0004
 -23376105.24349 -18197665.04248  20363359.288    20363359.7534   20363364.0564
       213.0004        214.0004
 -20262590.84349 -15775351.78047  20795067.750    20795068.2944   20795075.9554
       199.0004        200.0004
  -4702357.21148  -3651754.91146  22925753.839    22925753.7274   22925758.9954
       171.0004        171.0004
  -4610244.23648  -3564195.02846  23879740.713    23879742.1664   23879750.4874
       176.0004        178.0004
  -4007534.41747  -3106871.47245  24253867.275    24253866.0454   24253870.3704
       149.0004        151.0004
  -2716272.59347  -2107127.52145  23433671.464    23433671.3204   23433675.5894
       155.0004        156.0004
  -8821143.64848  -6845833.24646  22664254.969    22664254.5524   22664261.4774
       182.0004        183.0004
 21  2  4  2 15  0.0000000  0 11G30G21G17G04G07G01G14G08G19G28G09
 -16138295.90649 -12556963.35347  21457528.073    21457527.8084   21457534.7524
       201.0004        202.0004
 -12039489.87148  -9370907.08546  22393843.589    22393842.7994   22393847.9814
       177.0004        177.0004
 -12569838.03448  -9768566.21746  22182801.905    22182802.3644   22182807.1464
       187.0004        187.0004
    865619.56147    693009.30845  24662617.958    24662619.0574   24662625.2994
       139.0004        143.0004
 -23406686.44449 -18221494.55948  20357540.124    20357540.5984   20357544.7734
       213.0004        215.0004
 -20278047.76849 -15787396.13947  20792126.257    20792126.3564   20792135.0924
       199.0004        200.0004
  -4731098.32448  -3674150.59446  22920283.767    22920284.6474   22920289.1754
       169.0004        168.0004
  -4516263.55648  -3490963.36446  23897627.062    23897626.9294   23897633.3274
       179.0004        180.0004
  -4090759.69847  -3171722.27945  24238029.649    24238028.7844   24238032.1394
       147.0004        150.0004
  -2734667.52347  -2121461.23145  23430171.037    23430171.5134   23430176.6234
       156.0004        159.0004
  -8742872.88948  -6784843.03146  22679147.257    22679148.8024   22679155.3674
       183.0004        183.0004
 21  2  4  2 15 30.0000000  0 11G30G21G17G04G07G01G14G08G19G28G09
 -16211365.73649 -12613900.88247  21443622.922    21443622.9534   21443629.9814
       202.0004        202.0004
 -11983374.23148  -9327180.62046  22404522.098    22404521.8434   22404526.0354
       177.0004        177.0004
 -12617108.77148  -9805400.55146  22173806.134    22173806.6644   22173811.8664
       186.0004        187.0004
    958710.45547    765547.52345  24680333.295    24680333.7694   24680340.2434
       139.0004        144.0004
 -23436784.88649 -18244947.89348  20351812.133    20351813.0524   20351817.2184
       214.0004        215.0004
 -20292929.01549 -15798991.91247  20789294.648    20789295.0154   20789302.6294
       200.0004        200.0004
  -4759906.44448  -3696598.48346  22914802.334    22914802.7724   22914807.0484
       168.0004        168.0004
  -4422344.49448  -3417779.67846  23915498.723    23915498.9564   23915507.2364
       181.0004        182.0004
  -4173726.88147  -3236372.00245  24222242.667    24222241.6464   24222244.8474
       148.0004        152.0004
  -2753154.16847  -2135866.41145  23426653.304    23426653.8094   23426657.4874
       157.0004        159.0004
  -8664508.88048  -6723780.16546  22694059.767    22694060.4724   22694067.6494
       183.0004        183.0004
 21  2  4  2 16  0.0000000  0 11G30G21G17G04G07G01G14G08G19G28G09
 -16284157.56249 -12670621.78747  21429770.808    21429770.8174   21429777.9814
       202.0004        202.0004
 -11926815.32148  -9283108.73046  22415285.072    22415284.2944   22415289.2344
       176.0004        176.0004
 -12663965.64148  -9841912.39847  22164890.079    22164890.2414   22164895.1324
       187.0004        188.0004
   1051647.12747    837965.61445  24698016.981    24698018.7064   24698024.7804
       139.0004        143.0004
 -23466397.27749 -18268022.49348  20346177.569    20346178.1224   20346181.9754
       214.0004        215.0004
 -20307232.25649 -15810137.29447  20786572.224    20786573.1854   20786580.9684
       200.0004        200.0004
  -4788781.13048  -3719098.23446  22909307.107    22909308.5644   22909313.2774
       168.0004        170.0004
  -4328488.01148  -3344644.76846  23933356.454    23933357.9234   23933365.5014
       178.0004        177.0004
  -4256433.76647  -3300818.87745  24206501.978    24206502.0084   24206507.2874
       151.0004        155.0004
  -2771732.39247  -2150342.96345  23423118.340    23423118.8484   23423122.4644
       157.0004        159.0004
  -8586053.69448  -6662646.27146  22708989.939    22708990.2164   22708997.9814
       181.0004        181.0004
 21  2  4  2 16 30.0000000  0 11G30G21G17G04G07G01G14G08G19G28G09
 -16356669.00149 -12727124.20347  21415972.150    21415972.5104   21415979.2184
       202.0004        201.0004
 -11869814.57048  -9238692.55746  22426131.761    22426131.2884   22426136.0384
       176.0004        177.0004
 -12710408.43148  -9878101.58047  22156052.182    22156052.9214   22156057.6394
       188.0004        189.0004
   1144426.97647    910261.45545  24715674.090    24715674.1124   24715679.9084
       139.0004        143.0004
 -23495521.91549 -18290717.02748  20340635.523    20340635.9354   20340639.9164
       214.0004        215.0004
 -20320956.45949 -15820831.47347  20783960.798    20783961.2204   20783968.9674
       200.0004        199.0004
  -4817723.10148  -3741650.41746  22903800.194    22903800.8544   22903805.4344
       170.0004        170.0004
  -4234696.63548  -3271560.56346  23951206.849    23951206.3714   23951214.5514
       178.0004        179.0004
  -4338878.81647  -3365061.75845  24190815.302    24190813.5014   24190817.4124
       155.0004        158.0004
  -2790403.31147  -2164891.70745  23419565.587    23419564.7654   23419569.0714
       156.0004        157.0004
  -8507510.65748  -6601443.90246  22723936.653    22723936.8434   22723943.0404
       181.0004        181.0004
 21  2  4  2 17  0.0000000  0 11G30G21G17G04G07G01G14G08G19G28G09
 -16428897.29649 -12783406.00147  21402227.788    21402228.0294   21402235.1094
       202.0004        202.0004
 -11812373.47148  -9193933.24646  22437062.910    22437062.7394   22437066.6324
       176.0004        176.0004
 -12756437.92548  -9913968.72447  22147292.612    22147293.2914   22147297.7904
       188.0004        188.0004
   1237047.84247    982433.37945  24733297.686    24733298.9234   24733303.9794
       138.0004        143.0004
 -23524156.73249 -18313029.87648  20335186.035    20335186.4584   20335191.0294
       214.0004        215.0004
 -20334100.15749 -15831073.30747  20781459.816    20781460.4334   20781468.0734
       200.0004        200.0004
  -4846732.88248  -3764255.44646  22898279.428    22898279.8804   22898284.8214
       169.0004        169.0004
  -4140972.11148  -3198528.49446  23969040.718    23969041.7834   23969048.9674
       178.0004        179.0004
  -4421061.14847  -3429099.87845  24175173.378    24175173.0304   24175179.0514
       154.0004        156.0004
  -2809168.35647  -2179513.78545  23415994.774    23415994.8924   23415997.9644
       157.0004        160.0004
  -8428882.59748  -6540175.27446  22738898.076    22738898.4244   22738906.2204
       179.0004        179.0004
 21  2  4  2 17 30.0000000  0 10G30G21G17G07G01G14G08G19G28G09
 -16500837.45649 -12839463.26547  21388538.095    21388538.0554   21388545.2104
       202.0004        201.0004
 -11754491.76848  -9148830.61946  22448077.038    22448076.5714   22448080.9044
       175.0004        176.0004
 -12802051.34748  -9949511.66047  22138613.538    22138613.5464   22138617.9594
       188.0004        189.0004
 -23552297.57149 -18334957.81948  20329831.245    20329831.9324   20329835.8474
       214.0004        215.0004
 -20346659.66349 -15840859.92147  20779069.690    20779070.0834   20779078.1144
       200.0004        199.0004
  -4875808.48548  -3786911.77046  22892747.000    22892747.6584   22892751.8434
       169.0004        170.0004
  -4047313.58848  -3125547.80046  23986862.743    23986863.7594   23986871.6954
       176.0004        176.0004
  -4502977.42047  -3492930.69045  24159586.887    24159587.1924   24159590.9624
       154.0004        157.0004
  -2828026.15147  -2194208.15745  23412405.725    23412406.2014   23412409.8394
       157.0004        159.0004
  -8350170.13548  -6478840.88146  22753876.141    22753876.6894   22753884.9944
       178.0004        179.0004
 21  2  4  2 18  0.0000000  0 10G30G21G17G07G01G14G08G19G28G09
 -16572489.12649 -12895295.73547  21374903.005    21374903.4874   21374910.2814
       202.0004        202.0004
 -11696173.50048  -9103387.80846  22459173.735    22459174.2204   22459177.8994
       175.0004        176.0004
 -12847250.93148  -9984732.10347  22130012.022    22130012.6914   22130016.4834
       188.0004        188.0004
 -23579945.01649 -18356501.29248  20324570.321    20324570.5234   20324574.6354
       214.0004        216.0004
 -20358636.00549 -15850192.12647  20776790.700    20776791.1364   20776799.1664
       200.0004        200.0004
  -4904952.67148  -3809621.53746  22887200.909    22887200.6434   22887205.7514
       169.0004        170.0004
  -3953725.83448  -3052622.31446  24004675.638    24004675.0894   24004681.1384
       176.0004        177.0004
  -4584628.65847  -3556555.00545  24144047.942    24144047.9384   24144053.3154
       152.0004        153.0004
  -2846980.08447  -2208977.43745  23408799.468    23408798.6984   23408803.1974
       157.0004        159.0004
  -8271378.59148  -6417444.88446  22768870.349    22768870.5984   22768877.8144
       178.0004        178.0004
 21  2  4  2 18 30.0000000  0 10G30G21G17G07G01G14G08G19G28G09
 -16643851.49149 -12950902.78647  21361324.007    21361323.7094   21361330.5044
       202.0004        202.0004
 -11637421.63948  -9057607.13446  22470355.312    22470354.6264   22470359.5854
       175.0004        175.0004
 -12892038.11448 -10019631.21347  22121490.036    22121489.4034   22121494.4344
       188.0004        188.0004
 -23607098.33149 -18377659.74048  20319402.704    20319403.2614   20319407.8104
       214.0004        215.0004
 -20370029.76949 -15859070.38747  20774622.604    20774623.0424   20774630.8444
       200.0004        200.0004
  -4934167.77648  -3832386.54846  22881641.817    22881641.8284   22881647.2144
       170.0004        171.0004
  -3860212.32848  -2979754.65346  24022469.181    24022468.6554   24022476.0604
       175.0004        174.0004
  -4666015.34947  -3619973.20445  24128562.900    24128561.5224   24128565.9154
       152.0004        156.0004
  -2866032.65847  -2223823.59445  23405172.095    23405172.6674   23405177.0294
       156.0004        157.0004
  -8192512.69948  -6355990.95946  22783878.295    22783878.5964   22783885.7564
       178.0004        178.0004
 21  2  4  2 19  0.0000000  0 10G30G21G17G07G01G14G08G19G28G09
 -16714920.71049 -13006281.40247  21347799.121    21347799.6534   21347806.1584
       202.0004        202.0004
 -11578235.92948  -9011488.39646  22481617.065    22481616.9844   22481621.0914
       175.0004        175.0004
 -12936411.93648 -10054208.21947  22113044.973    22113045.6214   22113050.8144
       188.0004        189.0004
 -23633754.38749 -18398430.70748  20314330.676    20314331.0514   20314334.9294
       214.0004        216.0004
 -20380838.47349 -15867492.74347  20772565.594    20772566.5814   20772574.7104
       200.0004        201.0004
  -4963453.04348  -3855206.24046  22876067.458    22876068.7144   22876074.5494
       170.0004        170.0004
  -3766773.56648  -2906945.20446  24040248.780    24040249.1944   24040257.7824
       175.0004        176.0004
  -4747134.75947  -3683183.08745  24113125.793    24113125.8654   24113130.0524
       155.0004        157.0004
  -2885183.59847  -2238746.38645  23401529.476    23401529.2754   23401533.2234
       156.0004        158.0004
  -8113574.28048  -6294480.49246  22798899.790    22798900.2034   22798907.1914
       178.0004        179.0004
 21  2  4  2 19 30.0000000  0 10G30G21G17G07G01G14G08G19G28G09
 -16785693.29949 -13061428.87747  21334331.633    21334331.8534   21334338.8304
       202.0004        203.0004
 -11518617.68948  -8965032.61846  22492962.300    22492961.8364   22492965.6754
       174.0004        175.0004
 -12980372.18448 -10088462.95346  22104679.014    22104679.9254   22104684.4054
       187.0004        187.0004
 -23659910.41049 -18418812.03448  20309353.686    20309354.0504   20309358.1424
       215.0004        216.0004
 -20391060.12749 -15875457.64147  20770621.095    20770621.5374   20770629.3984
       201.0004        201.0004
  -4992808.05048  -3878080.28846  22870482.887    22870482.9574   22870488.1724
       169.0004        171.0004
  -3673411.09648  -2834195.22946  24058013.382    24058014.0814   24058024.5304
       176.0004        177.0004
  -4827985.34547  -3746183.47345  24097739.626    24097739.0124   24097743.5634
       153.0004        155.0004
  -2904432.89547  -2253745.80845  23397865.443    23397866.5144   23397869.6204
       155.0004        158.0004
  -8034565.43748  -6232915.16846  22813934.837    22813934.8084   22813942.6774
       178.0004        179.0004
 21  2  4  2 20  0.0000000  0 10G30G21G17G07G01G14G08G19G28G09
 -16856165.91549 -13116342.59647  21320921.460    21320921.6384   21320928.4134
       203.0004        203.0004
 -11458568.21448  -8918240.82546  22504389.419    22504388.8724   22504392.3474
       174.0004        175.0004
 -13023917.92148 -10122394.69347  22096393.686    22096393.8634   22096398.2954
       188.0004        189.0004
 -23685564.08549 -18438801.92048  20304471.264    20304471.9964   20304476.1864
       215.0004        216.0004
 -20400692.90149 -15882963.68947  20768788.595    20768788.5184   20768796.1674
       200.0004        200.0004
  -5022232.62848  -3901008.52446  22864883.837    22864883.9244   22864888.9574
       170.0004        171.0004
  -3580125.94048  -2761505.50046  24075763.489    24075765.1004   24075775.0954
       174.0004        174.0004
  -4908565.37547  -3808973.07145  24082406.101    24082405.9874   24082410.6004
       154.0004        156.0004
  -2923781.19547  -2268822.38245  23394184.210    23394184.1634   23394188.2914
       157.0004        161.0004
  -7955488.44548  -6171296.72446  22828982.124    22828982.5424   22828990.0294
       177.0004        178.0004
