     2.11           OBSERVATION DATA    G (GPS)             RINEX VERSION / TYPE
teqc  2018Jun8                          20210202 03:10:36UTCPGM / RUN BY / DATE
Linux2.6.32-573.12.1.el6.x86_64|x86_64|gcc|Win64-MinGW64|=+ COMMENT
BIT 2 OF LLI FLAGS DATA COLLECTED UNDER A/S CONDITION       COMMENT
-Unknown-                                                   MARKER NAME
CRNO                                                        MARKER NUMBER
-Unknown-           -Unknown-                               OBSERVER / AGENCY
-Unknown-           ASHTECH             -Unknown-           REC # / TYPE / VERS
-Unknown-           -Unknown-                               ANT # / TYPE
   408078.7420 -6158375.1890  1605165.7842                  APPROX POSITION XYZ
        0.0000        0.0000        0.0000                  ANTENNA: DELTA H/E/N
     1     1                                                WAVELENGTH FACT L1/2
     7    L1    L2    C1    P1    P2    S1    S2            # / TYPES OF OBSERV
    30.0000                                                 INTERVAL
Forced Modulo Decimation to 30 seconds                      COMMENT
 SNR is mapped to RINEX snr flag value [1-9]                COMMENT
  L1: 1 -> 1;  90 -> 5; 210 -> 9                            COMMENT
  L2: 1 -> 1; 150 -> 5; 250 -> 9                            COMMENT
pseudorange smoothing corrections not applied               COMMENT
  2021     1    31     0     0   30.0000000     GPS         TIME OF FIRST OBS
                                                            END OF HEADER
 21  1 31  0  0 30.0000000  0 10G22G03G04G07G21G27G01G09G16G08
  -1783039.09547  -1361091.85945  24667759.343    24667758.5574   24667770.3204
       140.0004        145.0004
  -1648792.02748  -1243238.53846  23995614.003    23995615.1994   23995622.7504
       176.0004        177.0004
 -21621523.96149 -16834044.95947  20281772.495    20281772.8644   20281778.9244
       214.0004        212.0004
  -4159957.85747  -3214021.81945  24095057.939    24095058.0774   24095064.4364
       155.0004        158.0004
 -10697627.36147  -8176744.36145  22929161.285    22929160.6894   22929166.8764
       148.0004        152.0004
 -17969449.96649 -13977474.18048  21527205.415    21527205.6974   21527213.0994
       223.0004        223.0004
  -2449705.31647  -1882928.00745  24350770.650    24350770.7144   24350786.5944
       137.0004        142.0004
 -16675571.94049 -12963327.14747  21243466.961    21243467.0534   21243475.8584
       201.0004        201.0004
  -2017441.77347  -1541294.39845  23980815.277    23980814.2964   23980817.4204
       139.0004        143.0004
 -23701129.59549 -18451237.42448  20143155.650    20143155.9984   20143163.9354
       212.0004        213.0004
 21  1 31  0  1  0.0000000  0 10G22G03G04G07G21G27G01G09G16G08
  -1735530.66147  -1324072.74145  24676800.277    24676799.4994   24676809.7984
       139.0004        144.0004
  -1588245.92948  -1196059.83946  24007134.993    24007135.8764   24007144.6494
       175.0004        176.0004
 -21601810.80849 -16818684.07847  20285523.598    20285524.1804   20285530.1874
       213.0004        212.0004
  -4225614.78647  -3265183.02245  24082563.604    24082564.4644   24082569.8004
       156.0004        158.0004
 -10749253.49347  -8216972.41745  22919337.527    22919335.8714   22919342.4714
       149.0004        151.0004
 -17900463.56249 -13923718.54948  21540333.095    21540333.5964   21540340.7504
       223.0004        223.0004
  -2514086.93847  -1933095.15145  24338517.644    24338519.0094   24338535.9704
       135.0004        140.0004
 -16726373.80449 -13002913.01947  21233799.089    21233800.0494   21233808.1574
       201.0004        201.0004
  -1935648.78947  -1477559.59045  23996379.933    23996379.8914   23996384.4094
       140.0004        145.0004
 -23701284.11849 -18451357.83648  20143126.287    20143126.3724   20143134.4414
       213.0004        213.0004
 21  1 31  0  1 30.0000000  0 10G22G03G04G07G21G27G01G09G16G08
  -1688261.86547  -1287240.32945  24685797.874    24685795.9374   24685804.5024
       139.0004        143.0004
  -1527841.84248  -1148991.78746  24018629.881    24018630.4494   24018641.3194
       176.0004        177.0004
 -21581529.53949 -16802880.48447  20289383.475    20289383.8564   20289389.7974
       214.0004        212.0004
  -4291424.87847  -3316463.55545  24070041.753    24070041.9374   24070046.8784
       156.0004        158.0004
 -10800835.80847  -8257166.30545  22909520.321    22909520.1064   22909526.4614
       149.0004        152.0004
 -17831002.87449 -13869593.30448  21553551.647    21553551.5734   21553559.0644
       223.0004        224.0004
  -2578711.87246  -1983451.87645  24326220.906    24326221.4384   24326235.5504
       132.0004        138.0004
 -16776683.17849 -13042115.10647  21224226.489    21224227.0804   21224234.9314
       201.0004        203.0004
  -1853982.50147  -1413923.51945  24011920.022    24011919.7964   24011924.6664
       139.0004        144.0004
 -23700828.77849 -18451003.00448  20143212.846    20143213.2814   20143220.8544
       212.0004        213.0004
 21  1 31  0  2  0.0000000  0 10G22G03G04G07G21G27G01G09G16G08
  -1641233.01247  -1250594.93045  24694745.778    24694744.8014   24694754.9394
       140.0004        146.0004
  -1467580.94848  -1102035.33346  24030097.481    24030097.7484   24030107.3984
       176.0004        178.0004
 -21560679.85349 -16786633.98747  20293350.659    20293351.2614   20293357.3674
       213.0004        212.0004
  -4357386.56647  -3367862.23245  24057488.322    24057489.5324   24057494.0754
       156.0004        159.0004
 -10852370.60247  -8297323.21145  22899712.092    22899712.2834   22899719.1834
       150.0004        154.0004
 -17761069.57249 -13815099.80848  21566859.091    21566858.8674   21566866.5534
       223.0004        223.0004
  -2643577.41146  -2033996.11545  24313876.658    24313877.1894   24313891.1154
       131.0004        136.0004
 -16826497.39249 -13080931.37047  21214747.898    21214748.3954   21214755.7744
       203.0004        204.0004
  -1772443.22547  -1350386.41845  24027435.497    24027436.2804   24027441.2354
       139.0004        143.0004
 -23699762.42649 -18450172.07047  20143416.016    20143416.1764   20143423.7054
       212.0004        212.0004
 21  1 31  0  2 30.0000000  0 10G22G03G04G07G21G27G01G09G16G08
  -1594444.23447  -1214136.58145  24703648.991    24703647.9794   24703659.9324
       140.0004        144.0004
  -1407464.33548  -1055191.31646  24041537.221    24041537.5434   24041546.9884
       176.0004        177.0004
 -21539261.19349 -16769944.13947  20297427.081    20297427.0064   20297432.7224
       213.0004        211.0004
  -4423497.94547  -3419377.52845  24044907.956    24044908.6154   24044914.0924
       155.0004        157.0004
 -10903854.57347  -8337440.49245  22889915.003    22889914.7264   22889922.5904
       151.0004        154.0004
 -17690664.99449 -13760239.09448  21580255.317    21580256.2194   21580264.3034
       222.0004        222.0004
  -2708680.75746  -2084725.68145  24301486.079    24301486.5264   24301503.7464
       127.0004        134.0004
 -16875813.48449 -13119359.49247  21205363.828    21205364.3674   21205371.0354
       204.0004        206.0004
  -1691031.24747  -1286948.50245  24042929.345    24042929.3514   24042933.1434
       139.0004        143.0004
 -23698084.40949 -18448864.52048  20143735.118    20143735.4204   20143742.9574
       212.0004        213.0004
 21  1 31  0  3  0.0000000  0 10G22G03G04G07G21G27G01G09G16G08
  -1547898.45147  -1177867.53545  24712504.867    24712504.2184   24712516.2374
       137.0004        141.0004
  -1347496.05148  -1008462.86046  24052948.490    24052949.2494   24052958.2484
       176.0004        177.0004
 -21517276.00749 -16752812.81947  20301609.996    20301610.8714   20301616.9634
       213.0004        212.0004
  -4489760.25747  -3471010.42045  24032300.308    24032300.3684   24032304.9624
       156.0004        159.0004
 -10955286.75447  -8377517.39245  22880128.870    22880128.4964   22880135.6894
       151.0004        154.0004
 -17619793.57749 -13705014.58248  21593743.177    21593743.2564   21593750.7974
       222.0004        222.0004
  -2774021.71746  -2135640.37745  24289054.660    24289056.1174   24289068.9244
       133.0004        141.0004
 -16924631.50749 -13157399.50347  21196074.927    21196075.3384   21196081.4754
       206.0004        207.0004
  -1609749.30147  -1223611.91045  24058396.324    24058396.1164   24058400.7724
       139.0004        143.0004
 -23695796.68449 -18447081.85147  20144170.513    20144170.5484   20144178.3924
       212.0004        212.0004
 21  1 31  0  3 30.0000000  0 10G22G03G04G07G21G27G01G09G16G08
  -1501595.84247  -1141788.03245  24721318.889    24721316.5394   24721328.4144
       136.0004        141.0004
  -1287677.34448   -961850.96346  24064330.981    24064332.4824   24064343.5044
       177.0004        179.0004
 -21494724.03849 -16735239.87547  20305901.544    20305902.1884   20305907.9214
       213.0004        212.0004
  -4556171.85147  -3522759.69745  24019660.819    24019661.3274   24019666.4094
       155.0004        157.0004
 -11006663.84747  -8417551.41945  22870352.944    22870351.4284   22870358.6424
       151.0004        154.0004
 -17548457.02149 -13649427.65548  21607317.518    21607317.7934   21607325.4864
       222.0004        222.0004
  -2839597.68747  -2186738.25145  24276575.610    24276577.6914   24276589.3344
       136.0004        141.0004
 -16972948.81349 -13195049.36847  21186881.315    21186881.0834   21186887.2934
       207.0004        208.0004
  -1528597.90747  -1160377.06645  24073837.116    24073838.6014   24073843.6394
       136.0004        141.0004
 -23692898.63349 -18444823.63547  20144721.771    20144722.1024   20144729.8364
       212.0004        212.0004
 21  1 31  0  4  0.0000000  0 10G22G03G04G07G21G27G01G09G16G08
  -1455537.96947  -1105899.25445  24730084.660    24730084.8204   24730092.9014
       137.0004        142.0004
  -1228010.34948   -915357.27746  24075686.960    24075686.9184   24075696.7294
       179.0004        181.0004
 -21471605.96249 -16717225.77947  20310301.486    20310301.8304   20310307.4544
       213.0004        212.0004
  -4622731.75947  -3574624.50445  24006993.698    24006995.6854   24007000.5234
       154.0004        157.0004
 -11057983.01247  -8457540.26345  22860585.002    22860585.4844   22860593.2284
       152.0004        155.0004
 -17476657.95349 -13593480.29848  21620980.875    21620980.5284   21620988.4154
       222.0004        221.0004
  -2905406.84846  -2238017.79845  24264051.156    24264050.0314   24264065.3234
       132.0004        138.0004
 -17020763.69649 -13232307.69647  21177781.194    21177781.6024   21177787.9214
       207.0004        206.0004
  -1447578.16546  -1097244.80945  24089254.268    24089253.1974   24089260.5474
       134.0004        139.0004
 -23689390.58849 -18442090.06047  20145389.251    20145389.6624   20145397.6154
       212.0004        212.0004
 21  1 31  0  4 30.0000000  0 10G22G03G04G07G21G27G01G09G16G08
  -1409725.41447  -1070201.60145  24738802.120    24738800.4284   24738809.5054
       138.0004        142.0004
  -1168496.88248   -868983.27546  24087011.730    24087012.4684   24087022.4734
       180.0004        181.0004
 -21447921.98649 -16698770.75147  20314808.071    20314808.5144   20314814.3224
       213.0004        211.0004
  -4689438.94947  -3626604.09545  23994302.133    23994302.0154   23994306.9764
       156.0004        158.0004
 -11109241.03347  -8497481.53245  22850831.166    22850831.2314   22850838.9524
       153.0004        156.0004
 -17404398.55249 -13537174.27548  21634731.274    21634731.1844   21634738.7394
       221.0004        221.0004
  -2971446.81646  -2289477.19645  24251483.159    24251485.5194   24251498.8974
       131.0004        138.0004
 -17068073.99349 -13269172.88047  21168777.689    21168778.0974   21168784.6824
       205.0004        204.0004
  -1366690.61347  -1034215.55745  24104650.140    24104649.4664   24104651.4474
       136.0004        142.0004
 -23685272.48549 -18438881.15247  20146173.253    20146173.3774   20146180.7154
       212.0004        212.0004
 21  1 31  0  5  0.0000000  0 10G22G03G04G07G21G27G01G09G16G08
  -1364161.03647  -1034697.27945  24747472.598    24747471.4814   24747482.4344
       137.0004        141.0004
  -1109140.56248   -822731.64446  24098305.043    24098306.6754   24098317.4104
       179.0004        179.0004
 -21423674.61649 -16679876.67347  20319421.869    20319422.4164   20319428.5294
       213.0004        211.0004
  -4756294.55747  -3678699.29645  23981579.236    23981579.5984   23981584.9954
       155.0004        157.0004
 -11160437.08747  -8537374.41145  22841090.095    22841089.1944   22841096.6924
       154.0004        156.0004
 -17331683.01849 -13480512.78248  21648568.995    21648568.7624   21648576.1544
       221.0004        221.0004
  -3037717.34646  -2341116.27045  24238872.608    24238874.2964   24238889.5084
       133.0004        139.0004
 -17114879.58049 -13305644.71547  21159869.050    21159869.9204   21159877.7194
       203.0004        202.0004
  -1285937.94147   -971291.33245  24120014.127    24120013.9394   24120019.8584
       135.0004        141.0004
 -23680546.17049 -18435198.26348  20147072.806    20147073.0634   20147080.4464
       212.0004        213.0004
 21  1 31  0  5 30.0000000  0 10G22G03G04G07G21G27G01G09G16G08
  -1318843.26947   -999385.14745  24756097.604    24756094.8964   24756107.2704
       140.0004        145.0004
  -1049940.90548   -776602.15946  24109573.180    24109573.1474   24109582.8784
       178.0004        179.0004
 -21398861.80349 -16660542.02947  20324143.448    20324144.0434   20324150.3334
       212.0004        211.0004
  -4823294.82347  -3730907.27645  23968827.564    23968828.8954   23968833.8344
       153.0004        154.0004
 -11211565.68447  -8577214.79645  22831361.175    22831358.9234   22831366.6384
       154.0004        156.0004
 -17258511.28149 -13423495.83948  21662491.830    21662492.6634   21662500.2204
       221.0004        221.0004
  -3104213.87547  -2392931.49745  24226219.556    24226220.0684   24226233.2624
       135.0004        142.0004
 -17161176.11849 -13341719.93747  21151059.258    21151059.8534   21151068.2844
       202.0004        202.0004
  -1205318.77147   -908471.20845  24135358.617    24135358.1484   24135361.5354
       137.0004        143.0004
 -23675209.54349 -18431039.84548  20148088.084    20148088.2554   20148095.9794
       212.0004        213.0004
 21  1 31  0  6  0.0000000  0 10G22G03G04G07G21G27G01G09G16G08
  -1273775.34147   -964267.71845  24764672.773    24764672.2664   24764683.8354
       140.0004        145.0004
   -990901.99248   -730597.91046  24120806.931    24120808.0044   24120816.2284
       176.0004        176.0004
 -21373486.28349 -16640768.90647  20328972.258    20328973.0124   20328978.9264
       212.0004        211.0004
  -4890441.15447  -3783229.08345  23956052.735    23956052.6244   23956056.7824
       155.0004        158.0004
 -11262626.05047  -8617002.01345  22821643.020    22821643.3354   22821649.6554
       153.0004        155.0004
 -17184887.99649 -13366127.04848  21676502.033    21676502.7984   21676510.1904
       220.0004        220.0004
  -3170936.51547  -2444922.88045  24213522.814    24213524.2574   24213535.2074
       136.0004        142.0004
 -17206963.91649 -13377398.73647  21142345.315    21142346.1584   21142355.4924
       202.0004        203.0004
  -1124836.04847   -845757.39545  24150671.636    24150671.9314   24150675.1864
       136.0004        141.0004
 -23669264.79249 -18426407.55848  20149218.927    20149219.4044   20149227.1814
       212.0004        213.0004
 21  1 31  0  6 30.0000000  0 10G22G03G04G07G21G27G01G09G16G08
  -1228958.14447   -929345.65645  24773201.251    24773200.0784   24773212.4224
       139.0004        143.0004
   -932025.88648   -684720.53146  24132010.558    24132011.3764   24132019.5574
       175.0004        176.0004
 -21347548.83849 -16620557.92047  20333908.114    20333908.6794   20333914.6034
       212.0004        210.0004
  -4957732.51347  -3835663.86545  23943246.719    23943246.6794   23943252.1564
       157.0004        160.0004
 -11313615.66747  -8656734.09345  22811940.258    22811939.9604   22811946.5274
       151.0004        154.0004
 -17110815.83449 -13308408.47048  21690598.202    21690597.8224   21690605.6704
       220.0004        220.0004
  -3237883.21647  -2497088.89045  24200783.653    24200783.2864   24200796.3394
       138.0004        143.0004
 -17252241.26649 -13412679.77247  21133730.462    21133730.6534   21133739.4614
       202.0004        204.0004
  -1044490.50847   -783150.44545  24165959.820    24165961.2094   24165966.8134
       136.0004        141.0004
 -23662712.32249 -18421301.72648  20150465.925    20150466.2934   20150474.1914
       212.0004        213.0004
 21  1 31  0  7  0.0000000  0  9G03G04G07G21G27G01G09G16G08
   -873311.68048   -638969.26846  24143183.657    24143184.4224   24143194.0554
       177.0004        179.0004
 -21321047.29449 -16599907.35247  20338950.969    20338951.7214   20338957.3614
       211.0004        210.0004
  -5025165.47747  -3888208.97045  23930413.949    23930414.6164   23930421.4214
       159.0004        161.0004
 -11364529.06847  -8696406.76245  22802252.567    22802251.8014   22802259.6274
       154.0004        157.0004
 -17036294.40849 -13250339.80448  21704778.681    21704778.9424   21704786.5544
       220.0004        220.0004
  -3305049.14347  -2549425.66945  24188000.718    24188001.9244   24188014.7304
       138.0004        142.0004
 -17297003.58849 -13447559.47747  21125213.994    21125213.9534   21125221.0574
       204.0004        205.0004
   -964280.72546   -720649.31945  24181224.868    24181224.9424   24181228.2874
       133.0004        139.0004
 -23655549.93649 -18415720.60648  20151828.890    20151829.1264   20151837.2564
       212.0004        213.0004
 21  1 31  0  7 30.0000000  0  9G03G04G07G21G27G01G09G16G08
   -814763.01548   -593347.06646  24154325.101    24154326.0844   24154336.1354
       179.0004        180.0004
 -21293984.11449 -16578819.16947  20344101.368    20344101.7264   20344107.6754
       211.0004        210.0004
  -5092740.53647  -3940864.81645  23917554.440    23917556.2324   23917561.5374
       159.0004        161.0004
 -11415365.12847  -8736019.18945  22792578.853    22792578.0934   22792586.5234
       155.0004        156.0004
 -16961328.02649 -13191924.44148  21719043.695    21719044.3724   21719052.1864
       220.0004        220.0004
  -3372433.91447  -2601933.02145  24175177.846    24175179.3554   24175192.3684
       138.0004        142.0004
 -17341250.84349 -13482037.86247  21116794.345    21116794.8164   21116801.0224
       205.0004        206.0004
   -884209.09246   -658255.81345  24196463.500    24196460.8294   24196464.4834
       133.0004        140.0004
 -23647779.30149 -18409665.55748  20153307.585    20153307.9704   20153315.6694
       212.0004        213.0004
 21  1 31  0  8  0.0000000  0  9G03G04G07G21G27G01G09G16G08
   -756385.31548   -547858.04246  24165434.802    24165434.8924   24165444.5114
       179.0004        180.0004
 -21266363.47949 -16557296.59447  20349357.349    20349357.9084   20349363.5494
       211.0004        210.0004
  -5160460.22747  -3993633.40345  23904668.741    23904668.8464   23904673.2934
       158.0004        160.0004
 -11466124.24547  -8775571.65645  22782917.282    22782918.1614   22782923.7914
       153.0004        154.0004
 -16885922.72049 -13133167.05048  21733392.149    21733393.4234   21733401.3374
       219.0004        219.0004
  -3440038.87847  -2654611.95445  24162313.256    24162314.6764   24162327.8694
       138.0004        144.0004
 -17384984.76349 -13516116.23047  21108471.858    21108472.4144   21108478.4284
       206.0004        207.0004
   -804279.91947   -595973.37045  24211671.539    24211672.3154   24211677.0524
       136.0004        143.0004
 -23639404.46149 -18403139.68847  20154901.103    20154901.4694   20154909.2274
       212.0004        212.0004
 21  1 31  0  8 30.0000000  0  9G03G04G07G21G27G01G09G16G08
   -698177.97948   -502501.78646  24176510.180    24176511.1264   24176520.7314
       178.0004        178.0004
 -21238183.59749 -16535338.25247  20354719.940    20354720.5894   20354726.1534
       211.0004        210.0004
  -5228321.07447  -4046511.98045  23891756.066    23891756.1914   23891759.5744
       159.0004        162.0004
 -11516801.01847  -8815059.98945  22773275.864    22773274.8634   22773281.0794
       153.0004        157.0004
 -16810078.50249 -13074067.67148  21747826.137    21747826.3874   21747834.2314
       219.0004        219.0004
  -3507859.41047  -2707458.86745  24149407.511    24149408.9134   24149422.6034
       142.0004        146.0004
 -17428201.13049 -13549791.32347  21100247.597    21100248.3644   21100254.7514
       207.0004        208.0004
   -724491.68247   -533800.75745  24226855.196    24226855.0414   24226859.5424
       137.0004        143.0004
 -23630423.37349 -18396141.42647  20156610.415    20156610.7214   20156618.2464
       212.0004        212.0004
 21  1 31  0  9  0.0000000  0  9G03G04G07G21G27G01G09G16G08
   -640144.09948   -457280.72346  24187554.532    24187555.0824   24187565.0114
       177.0004        178.0004
 -21209446.49149 -16512945.71447  20360188.315    20360188.7444   20360194.7094
       211.0004        209.0004
  -5296323.01947  -4099500.48846  23878814.069    23878815.7334   23878820.3844
       161.0004        164.0004
 -11567394.05847  -8854483.05445  22763648.881    22763648.2984   22763654.1764
       155.0004        158.0004
 -16733799.16349 -13014629.22648  21762341.799    21762341.8414   21762349.6524
       219.0004        219.0004
  -3575894.63747  -2760473.06945  24136461.567    24136462.3094   24136474.0804
       144.0004        148.0004
 -17470899.47849 -13583062.76547  21092122.883    21092123.0974   21092129.7704
       207.0004        208.0004
   -644846.44847   -471739.55145  24242012.438    24242011.3294   24242016.3534
       138.0004        143.0004
 -23620837.40449 -18388671.82948  20158434.680    20158434.9864   20158442.2774
       212.0004        213.0004
 21  1 31  0  9 30.0000000  0  9G03G04G07G21G27G01G09G16G08
   -582284.98648   -412195.77946  24198564.683    24198565.5354   24198575.6124
       178.0004        179.0004
 -21180152.39249 -16490119.12747  20365762.904    20365763.3484   20365769.2234
       211.0004        210.0004
  -5364464.70047  -4152597.83746  23865849.083    23865848.7944   23865852.8304
       162.0004        164.0004
 -11617900.09947  -8893838.29945  22754036.357    22754036.0014   22754043.0094
       156.0004        158.0004
 -16657086.71449 -12954853.26748  21776938.741    21776939.5884   21776947.7054
       219.0004        219.0004
  -3644141.85447  -2813652.46345  24123471.459    24123473.2254   24123488.3694
       143.0004        146.0004
 -17513077.52749 -13615928.75047  21084096.169    21084096.6044   21084103.7404
       208.0004        208.0004
   -565344.61247   -409790.04145  24257140.121    24257139.5064   24257145.1374
       138.0004        144.0004
 -23610646.66949 -18380730.96247  20160373.879    20160374.2284   20160381.7744
       212.0004        212.0004
 21  1 31  0 10  0.0000000  0  9G03G04G07G21G27G01G09G16G08
   -524601.99548   -367248.09346  24209540.214    24209541.8634   24209551.3964
       179.0004        180.0004
 -21150301.56149 -16466858.72647  20371443.548    20371443.6904   20371449.8134
       211.0004        210.0004
  -5432745.07847  -4205803.28445  23852854.849    23852855.4184   23852859.6124
       161.0004        162.0004
 -11668315.66247  -8933123.07045  22744443.734    22744443.1724   22744449.6704
       156.0004        159.0004
 -16579943.24249 -12894741.45248  21791619.884    21791619.6504   21791627.1614
       219.0004        218.0004
  -3712598.25447  -2866994.85645  24110444.521    24110445.5714   24110459.5164
       142.0004        146.0004
 -17554733.09149 -13648387.60647  21076168.952    21076169.3864   21076176.7244
       207.0004        208.0004
   -485986.15047   -347952.26245  24272239.487    24272240.5734   24272246.5794
       136.0004        142.0004
 -23599850.75749 -18372318.53447  20162427.848    20162428.3334   20162435.9564
       212.0004        212.0004
 21  1 31  0 10 30.0000000  0  9G03G04G07G21G27G01G09G16G08
   -467096.93548   -322439.09646  24220486.168    24220486.2264   24220494.7104
       181.0004        182.0004
 -21119894.85749 -16443165.20647  20377229.215    20377229.8274   20377236.1224
       211.0004        209.0004
  -5501162.61647  -4259115.65346  23839835.201    23839835.8414   23839840.0534
       161.0004        163.0004
 -11718637.67747  -8972334.96545  22734867.006    22734867.3104   22734873.0644
       156.0004        157.0004
 -16502371.31649 -12834295.79548  21806381.080    21806381.2544   21806387.9804
       218.0004        217.0004
  -3781261.74847  -2920498.65445  24097380.463    24097380.4544   24097393.0954
       144.0004        148.0004
 -17595864.55849 -13680438.10247  21068342.636    21068342.8074   21068349.5754
       207.0004        208.0004
   -406772.11647   -286227.03445  24287314.784    24287316.3074   24287318.4954
       135.0004        140.0004
 -23588450.45549 -18363435.17547  20164597.208    20164597.6024   20164605.4244
       212.0004        212.0004
 21  1 31  0 11  0.0000000  0  9G03G04G07G21G27G01G09G16G08
   -409773.62048   -277771.72246  24231392.555    24231393.6384   24231403.7644
       181.0004        181.0004
 -21088935.11749 -16419040.72947  20383120.906    20383121.2564   20383127.4654
       210.0004        209.0004
  -5569718.32147  -4312535.63546  23826788.150    23826789.7314   23826794.6484
       162.0004        164.0004
 -11768865.37347  -9011473.32045  22725307.944    22725307.1704   22725314.0564
       156.0004        157.0004
 -16424375.50949 -12773519.82148  21821222.713    21821223.1144   21821230.5624
       217.0004        217.0004
  -3850132.08047  -2974163.62245  24084274.630    24084274.5704   24084288.2444
       145.0004        148.0004
 -17636472.22449 -13712080.42347  21060615.096    21060615.6374   21060621.9774
       208.0004        208.0004
   -327705.17446   -224616.42445  24302362.999    24302359.5934   24302366.7424
       132.0004        139.0004
 -23576448.48549 -18354082.96848  20166881.024    20166881.4944   20166889.4954
       212.0004        213.0004
 21  1 31  0 11 30.0000000  0  9G03G04G07G21G27G01G09G16G08
   -352632.48748   -233246.31646  24242265.059    24242266.1234   24242277.0214
       177.0004        176.0004
 -21057421.92549 -16394485.00047  20389117.818    20389117.9674   20389124.1084
       210.0004        209.0004
  -5638409.94847  -4366061.52646  23813717.763    23813718.5144   23813723.4964
       162.0004        165.0004
 -11818994.88247  -9050535.19845  22715768.989    22715769.8854   22715775.0334
       155.0004        158.0004
 -16345957.07249 -12712414.53148  21836146.175    21836146.2054   21836153.7524
       218.0004        218.0004
  -3919205.68847  -3027986.98545  24071130.394    24071130.6224   24071143.3524
       145.0004        150.0004
 -17676553.14449 -13743312.29947  21052987.690    21052988.2884   21052994.9334
       208.0004        209.0004
   -248784.64047   -163119.90145  24317379.663    24317381.5474   24317383.7034
       136.0004        141.0004
 -23563843.46449 -18344260.86448  20169280.150    20169280.4634   20169288.0874
       212.0004        213.0004
 21  1 31  0 12  0.0000000  0  9G03G04G07G21G27G01G09G16G08
   -295675.24048   -188864.20246  24253104.638    24253105.2504   24253115.6014
       173.0004        173.0004
 -21025355.87849 -16369498.48447  20395220.029    20395220.3924   20395226.0944
       210.0004        209.0004
  -5707235.55047  -4419691.84046  23800621.544    23800622.1054   23800625.2034
       163.0004        165.0004
 -11869022.55647  -9089517.73145  22706249.317    22706248.9994   22706255.7424
       155.0004        156.0004
 -16267118.45149 -12650981.84048  21851147.879    21851148.6594   21851155.9364
       218.0004        218.0004
  -3988480.21247  -3081966.95045  24057947.467    24057947.8384   24057958.6884
       144.0004        148.0004
 -17716105.55949 -13774132.37347  21045461.899    21045462.3484   21045468.7314
       209.0004        210.0004
   -170011.16147   -101738.01045  24332369.416    24332372.3954   24332370.8484
       137.0004        140.0004
 -23550636.39949 -18333969.64648  20171793.752    20171793.9524   20171801.2934
       212.0004        213.0004
 21  1 31  0 12 30.0000000  0  9G03G04G07G21G27G01G09G16G08
   -238904.75348   -144627.57146  24263908.993    24263909.3444   24263918.8994
       174.0004        176.0004
 -20992739.12649 -16344082.82247  20401426.058    20401426.7564   20401432.5854
       210.0004        209.0004
  -5776195.55047  -4473426.86846  23787497.303    23787498.3964   23787502.6114
       162.0004        163.0004
 -11918946.67747  -9128419.55245  22696747.793    22696747.4284   22696756.6334
       155.0004        158.0004
 -16187863.38149 -12589224.63048  21866230.066    21866230.4724   21866237.2354
       218.0004        217.0004
  -4057954.39047  -3136102.49345  24044727.407    24044727.4374   24044739.3634
       143.0004        148.0004
 -17755129.04449 -13804540.25847  21038035.882    21038035.9714   21038042.4774
       209.0004        210.0004
    -91386.61646    -40472.11445  24347329.902    24347331.5434   24347333.0814
       132.0004        137.0004
 -23536828.76349 -18323210.42447  20174420.429    20174420.9514   20174428.5114
       212.0004        212.0004
 21  1 31  0 13  0.0000000  0  9G03G04G07G21G27G01G09G16G08
   -182322.47548   -100537.65446  24274676.539    24274677.2114   24274686.5414
       176.0004        177.0004
 -20959572.24949 -16318238.51147  20407737.747    20407738.8784   20407744.2244
       210.0004        208.0004
  -5845288.61347  -4527265.58145  23774349.760    23774350.9644   23774354.7364
       161.0004        162.0004
 -11968764.27247  -9167238.38345  22687268.779    22687268.3824   22687274.2674
       156.0004        159.0004
 -16108194.20049 -12527144.73548  21881390.554    21881390.7064   21881398.0014
       218.0004        217.0004
  -4127625.69847  -3190391.68245  24031467.493    24031468.5264   24031480.6714
       143.0004        146.0004
 -17793621.68849 -13834534.52947  21030710.540    21030710.8684   21030717.5204
       209.0004        209.0004
    -12911.35046     20677.49745  24362265.492    24362262.4354   24362270.0854
       130.0004        138.0004
 -23522420.51449 -18311983.21847  20177162.652    20177162.9834   20177170.4794
       212.0004        212.0004
 21  1 31  0 13 30.0000000  0  9G03G04G07G21G27G01G09G16G08
   -125931.11048    -56596.47446  24285407.262    24285407.7914   24285417.3164
       174.0004        175.0004
 -20925857.23849 -16291967.07147  20414154.589    20414153.8454   20414160.4594
       210.0004        209.0004
  -5914514.45647  -4581207.76446  23761177.629    23761178.0404   23761181.9594
       163.0004        165.0004
 -12018473.47047  -9205972.73345  22677810.341    22677809.5574   22677815.4044
       157.0004        159.0004
 -16028114.47649 -12464744.92448  21896629.285    21896629.5454   21896636.5024
       218.0004        217.0004
  -4197492.87747  -3244833.41845  24018173.920    24018174.1544   24018184.6644
       145.0004        150.0004
 -17831582.94349 -13864114.71147  21023486.452    21023486.9724   21023493.7664
       208.0004        208.0004
     65412.69446     81709.22145  24377168.463    24377167.9934   24377175.7674
       131.0004        139.0004
 -23507413.80849 -18300289.66347  20180018.760    20180018.7714   20180026.1454
       212.0004        212.0004
 21  1 31  0 14  0.0000000  0  9G03G04G07G21G27G01G09G16G08
    -69731.72348    -12804.94746  24296100.036    24296101.2244   24296111.7744
       173.0004        173.0004
 -20891594.34449 -16265268.71547  20420673.743    20420673.9144   20420680.0994
       210.0004        208.0004
  -5983870.96447  -4635251.76246  23747978.581    23747979.1984   23747983.5824
       164.0004        165.0004
 -12068070.18547  -9244619.43645  22668371.253    22668371.4784   22668377.8104
       157.0004        158.0004
 -15947626.19949 -12402026.77648  21911945.735    21911945.9414   21911952.5234
       217.0004        217.0004
  -4267552.88347  -3299425.45145  24004843.055    24004842.5404   24004852.7864
       146.0004        150.0004
 -17869010.62149 -13893279.13147  21016364.211    21016364.7304   21016371.4434
       208.0004        209.0004
    143585.84046    142623.35745  24392047.177    24392044.6174   24392048.4054
       129.0004        136.0004
 -23491808.56249 -18288129.72647  20182987.657    20182987.7654   20182995.8754
       212.0004        212.0004
 21  1 31  0 14 30.0000000  0  9G03G04G07G21G27G01G09G16G08
    -13726.98048     30834.96746  24306758.556    24306759.4664   24306770.1384
       173.0004        175.0004
 -20856785.48249 -16238144.92447  20427297.923    20427298.0514   20427303.8284
       210.0004        208.0004
  -6053358.15947  -4689397.58646  23734754.066    23734755.3764   23734760.1034
       163.0004        163.0004
 -12117553.49047  -9283177.77245  22658955.333    22658954.8434   22658962.2384
       156.0004        157.0004
 -15866732.87449 -12338992.99348  21927338.376    21927339.3854   21927346.2944
       217.0004        216.0004
  -4337804.32247  -3354166.62745  23991472.951    23991473.0794   23991485.1174
       145.0004        149.0004
 -17905904.05149 -13922027.24947  21009343.024    21009343.7924   21009350.8794
       208.0004        209.0004
    221606.58146    203418.78045  24406893.397    24406891.3714   24406895.6374
       129.0004        138.0004
 -23475605.94749 -18275504.30047  20186070.531    20186071.0274   20186078.5514
       212.0004        212.0004
 21  1 31  0 15  0.0000000  0  9G03G04G07G21G27G01G09G16G08
     42081.61848     74322.02546  24317378.927    24317379.7214   24317389.9484
       174.0004        174.0004
 -20821431.56449 -16210596.41847  20434024.999    20434025.6004   20434031.5774
       209.0004        208.0004
  -6122974.70147  -4743644.22145  23721506.355    23721507.0564   23721512.3964
       161.0004        161.0004
 -12166919.41347  -9321644.65345  22649560.894    22649560.3374   22649567.5024
       154.0004        156.0004
 -15785437.00349 -12275645.54748  21942808.706    21942809.4624   21942816.8034
       217.0004        216.0004
  -4408244.66747  -3409055.03145  23978069.072    23978068.8934   23978079.9974
       144.0004        148.0004
 -17942261.67949 -13950357.85047  21002424.695    21002425.6094   21002432.7094
       209.0004        210.0004
    299474.17346    264094.80545  24421709.649    24421710.2124   24421713.0584
       130.0004        138.0004
 -23458806.78149 -18262414.03347  20189267.748    20189268.1504   20189275.6054
       212.0004        212.0004
 21  1 31  0 15 30.0000000  0  9G03G04G07G21G27G01G09G16G08
     97693.26948    117655.63146  24327960.715    24327961.6594   24327972.7784
       171.0004        171.0004
 -20785532.68949 -16182623.26947  20440855.871    20440856.7094   20440863.1044
       209.0004        207.0004
  -6192718.51647  -4797990.01746  23708236.472    23708237.2244   23708241.5414
       162.0004        165.0004
 -12216164.35147  -9360017.23645  22640188.813    22640188.3104   22640194.8944
       154.0004        156.0004
 -15703740.33249 -12211985.78848  21958355.745    21958356.1064   21958362.7644
       216.0004        216.0004
  -4478870.65047  -3464088.12445  23964628.981    23964630.0434   23964640.7774
       143.0004        147.0004
 -17978081.06249 -13978269.04447  20995609.243    20995609.4544   20995616.4744
       210.0004        211.0004
    377188.74046    324651.59245  24436498.119    24436499.3974   24436502.2674
       128.0004        135.0004
 -23441411.03049 -18248858.89547  20192578.250    20192578.4714   20192586.0274
       212.0004        212.0004
 21  1 31  0 16  0.0000000  0  9G03G04G07G21G27G01G09G16G08
    153105.23248    160833.59446  24338505.861    24338507.0414   24338516.5904
       170.0004        172.0004
 -20749091.07949 -16154227.21347  20447791.328    20447791.5604   20447797.7434
       209.0004        208.0004
  -6262589.31448  -4852434.74446  23694940.783    23694940.9054   23694945.8384
       165.0004        168.0004
 -12265286.72547  -9398294.31845  22630842.085    22630841.6934   22630848.8404
       156.0004        159.0004
 -15621646.64449 -12148016.66648  21973977.479    21973977.5684   21973984.5304
       216.0004        215.0004
  -4549681.08847  -3519264.91445  23951153.207    23951154.8984   23951164.3834
       144.0004        149.0004
 -18013361.88949 -14005760.58947  20988895.341    20988895.3644   20988902.6274
       210.0004        211.0004
    454748.98746    385088.13845  24451257.132    24451254.5394   24451261.1194
       124.0004        133.0004
 -23423420.63849 -18234840.40047  20196001.374    20196001.6484   20196009.3284
       212.0004        212.0004
 21  1 31  0 16 30.0000000  0  9G03G04G07G21G27G01G09G16G08
    208315.01648    203853.99146  24349012.584    24349013.4304   24349023.5244
       171.0004        172.0004
 -20712108.54049 -16125409.67647  20454828.889    20454829.3624   20454835.1274
       209.0004        207.0004
  -6332586.77048  -4906978.21846  23681620.402    23681621.2714   23681625.8274
       166.0004        168.0004
 -12314283.96147  -9436473.93645  22621519.799    22621518.9294   22621524.4904
       157.0004        159.0004
 -15539159.34549 -12083740.86348  21989672.954    21989674.1184   21989681.2164
       215.0004        214.0004
  -4620674.30247  -3574584.13645  23937644.633    23937644.5144   23937655.7004
       144.0004        147.0004
 -18048103.50649 -14032832.00047  20982284.397    20982284.6924   20982291.5684
       210.0004        211.0004
    532153.20646    445403.08745  24465985.517    24465987.3844   24465991.1594
       127.0004        135.0004
 -23404836.74349 -18220359.45147  20199537.526    20199537.9724   20199545.7394
       211.0004        212.0004
 21  1 31  0 17  0.0000000  0  9G03G04G07G21G27G01G09G16G08
    263320.77048    246715.44746  24359478.922    24359480.2644   24359490.7994
       171.0004        172.0004
 -20674586.46049 -16096171.67347  20461968.931    20461969.5454   20461975.2214
       209.0004        207.0004
  -6402710.10347  -4961619.73345  23668276.405    23668276.3134   23668281.0264
       164.0004        162.0004
 -12363153.94247  -9474554.33745  22612218.029    22612218.2144   22612224.6954
       156.0004        157.0004
 -15456281.39049 -12019160.60248  22005445.755    22005445.6224   22005452.4004
       215.0004        214.0004
  -4691848.13947  -3630044.08445  23924101.740    23924101.6664   23924111.9634
       145.0004        150.0004
 -18082304.75949 -14059482.29147  20975776.055    20975776.3994   20975783.5754
       211.0004        211.0004
    609400.97946    505596.18745  24480685.090    24480683.1304   24480692.1784
       125.0004        132.0004
 -23385660.77949 -18205417.10847  20203186.988    20203187.2974   20203194.8604
       211.0004        212.0004
 21  1 31  0 17 30.0000000  0  9G03G04G07G21G27G01G09G16G08
    318122.41748    289417.83046  24369908.608    24369909.1964   24369918.1184
       172.0004        173.0004
 -20636524.33349 -16066512.89447  20469211.766    20469212.4624   20469218.2234
       209.0004        207.0004
  -6472955.94847  -5016356.72545  23654906.987    23654907.6494   23654913.3524
       161.0004        162.0004
 -12411891.28547  -9512531.41445  22602941.597    22602941.4044   22602950.4754
       155.0004        157.0004
 -15373013.77749 -11954276.74848  22021290.702    22021290.7844   22021298.0174
       214.0004        214.0004
  -4763198.57647  -3685641.64745  23910521.549    23910522.9144   23910533.9294
       146.0004        149.0004
 -18115962.64049 -14085709.21947  20969370.785    20969371.3564   20969378.2554
       211.0004        211.0004
    686493.15546    565667.99945  24495353.244    24495354.2924   24495360.4454
       124.0004        133.0004
 -23365891.54749 -18190012.52047  20206948.912    20206949.3384   20206956.7064
       211.0004        212.0004
 21  1 31  0 18  0.0000000  0  9G03G04G07G21G27G01G09G16G08
    372717.12748    331958.99146  24380297.356    24380298.3274   24380308.6544
       172.0004        173.0004
 -20597924.59049 -16036435.16447  20476557.025    20476557.4894   20476563.8144
       209.0004        207.0004
  -6543324.29347  -5071189.16346  23641518.151    23641518.0974   23641521.8944
       161.0004        163.0004
 -12460494.88047  -9550404.25845  22593694.823    22593694.3984   22593700.3844
       153.0004        155.0004
 -15289360.44949 -11889092.32548  22037208.612    22037209.2914   22037216.6834
       214.0004        214.0004
  -4834724.42747  -3741375.88545  23896910.336    23896911.2614   23896922.3114
       143.0004        146.0004
 -18149077.02749 -14111512.62547  20963069.410    20963069.7954   20963076.7324
       210.0004        211.0004
    763427.84446    625617.12545  24509997.363    24509996.5544   24509997.7774
       128.0004        136.0004
 -23345531.64549 -18174147.64147  20210823.609    20210823.7864   20210831.0814
       212.0004        212.0004
 21  1 31  0 18 30.0000000  0  9G03G04G07G21G27G01G09G16G08
    427102.66648    374337.10946  24390644.285    24390646.4184   24390659.7334
       174.0004        176.0004
 -20558789.03549 -16005939.93247  20484004.572    20484005.0544   20484011.0234
       208.0004        207.0004
  -6613814.64547  -5126116.65746  23628105.102    23628104.6434   23628109.2054
       162.0004        164.0004
 -12508962.42347  -9588171.11245  22584472.195    22584471.6794   22584478.1804
       155.0004        158.0004
 -15205324.79849 -11823609.98648  22053200.600    22053200.9494   22053208.0954
       214.0004        214.0004
  -4906423.93647  -3797245.47345  23883267.263    23883267.5384   23883277.8364
       140.0004        144.0004
 -18181647.24549 -14136892.00447  20956870.985    20956871.6594   20956878.9794
       210.0004        210.0004
    840203.58246    685442.37545  24524608.292    24524606.5144   24524609.3644
       126.0004        134.0004
 -23324582.35049 -18157823.48647  20214810.054    20214809.8284   20214817.5084
       211.0004        212.0004
 21  1 31  0 19  0.0000000  0  9G03G04G07G21G27G01G09G16G08
    481277.04048    416550.69846  24400956.326    24400956.5224   24400968.5764
       175.0004        176.0004
 -20519119.32849 -15975028.46847  20491553.371    20491554.0004   20491559.8474
       208.0004        207.0004
  -6684426.49947  -5181138.81146  23614666.911    23614667.1574   23614672.0434
       163.0004        165.0004
 -12557291.53847  -9625830.04145  22575274.726    22575274.9234   22575281.0484
       157.0004        159.0004
 -15120909.89749 -11757832.11348  22069264.749    22069264.6774   22069271.5604
       213.0004        213.0004
  -4978294.97047  -3853248.65345  23869590.494    23869590.7724   23869602.9084
       141.0004        145.0004
 -18213672.38949 -14161846.64547  20950777.227    20950777.8624   20950784.5554
       211.0004        211.0004
    916819.78046    745143.35045  24539184.084    24539186.0054   24539190.0854
       127.0004        136.0004
 -23303045.65049 -18141041.61347  20218907.678    20218908.1954   20218915.7204
       211.0004        211.0004
 21  1 31  0 19 30.0000000  0  9G03G04G07G21G27G01G09G16G08
    535238.79748    458598.56446  24411223.924    24411225.4104   24411235.8314
       172.0004        172.0004
 -20478916.44349 -15943701.55447  20499203.266    20499204.0104   20499210.0984
       208.0004        207.0004
  -6755157.86547  -5236254.14846  23601208.497    23601208.5984   23601211.3524
       164.0004        165.0004
 -12605478.06447  -9663377.90745  22566104.548    22566104.4714   22566111.1644
       157.0004        160.0004
 -15036118.23849 -11691760.68247  22085399.083    22085399.7364   22085406.9534
       212.0004        212.0004
  -5050334.96647  -3909383.56945  23855881.323    23855882.6254   23855892.3184
       141.0004        146.0004
 -18245150.95749 -14186375.39647  20944787.028    20944787.6204   20944794.7724
       211.0004        212.0004
    993276.34846    804719.88745  24553736.800    24553735.5064   24553738.2234
       128.0004        137.0004
 -23280921.62549 -18123802.10147  20223117.873    20223118.3914   20223126.0254
       211.0004        212.0004
 21  1 31  0 20  0.0000000  0  9G03G04G07G21G27G01G09G16G08
    588985.71948    500479.02946  24421453.600    24421454.0804   24421463.6104
       170.0004        170.0004
 -20438182.33749 -15911960.69547  20506955.076    20506955.3724   20506961.8614
       208.0004        207.0004
  -6826008.11347  -5291462.09746  23587725.452    23587725.3594   23587729.4344
       163.0004        164.0004
 -12653520.93547  -9700813.84545  22556965.032    22556963.4624   22556968.1074
       158.0004        160.0004
 -14950953.23649 -11625398.33647  22101605.979    22101605.8294   22101613.2304
       211.0004        211.0004
  -5122542.11647  -3965648.69345  23842139.336    23842139.2444   23842152.1804
       140.0004        143.0004
 -18276082.39149 -14210477.81547  20938901.263    20938901.8184   20938908.5244
       211.0004        211.0004
   1069571.93446    864170.95545  24568252.823    24568252.9034   24568256.4684
       127.0004        133.0004
 -23258211.83149 -18106106.13547  20227439.164    20227439.5864   20227447.4164
       211.0004        211.0004
 21  1 31  0 20 30.0000000  0  9G03G04G07G21G27G01G09G16G08
    642516.95348    542191.47746  24431640.511    24431640.4414   24431650.5044
       170.0004        171.0004
 -20396917.51449 -15879806.28847  20514807.389    20514807.9444   20514813.9574
       208.0004        207.0004
  -6896975.38447  -5346761.21146  23574219.210    23574219.4424   23574225.7574
       163.0004        164.0004
 -12701415.96847  -9738134.55945  22547850.306    22547849.3854   22547854.1634
       159.0004        162.0004
 -14865416.79649 -11558746.55247  22117882.007    22117882.5624   22117890.8274
       211.0004        212.0004
  -5194912.94347  -4022041.35445  23828364.499    23828368.4084   23828382.2944
       138.0004        142.0004
 -18306464.65649 -14234152.30147  20933119.791    20933119.8214   20933126.6544
       210.0004        210.0004
   1145706.62746    923496.70445  24582740.753    24582740.9054   24582747.3634
       127.0004        135.0004
 -23234916.66449 -18087954.03447  20231872.482    20231872.6284   20231880.0444
       211.0004        211.0004
 21  1 31  0 21  0.0000000  0  9G03G04G07G21G27G01G09G16G08
    695830.49748    583734.29946  24441785.531    24441786.6354   24441795.9414
       173.0004        175.0004
 -20355123.72949 -15847239.71147  20522760.451    20522760.8924   20522767.1574
       208.0004        206.0004
  -6968058.50547  -5402150.59946  23560692.054    23560693.2634   23560699.3084
       164.0004        165.0004
 -12749160.66547  -9775338.13945  22538762.784    22538762.5544   22538768.8834
       159.0004        161.0004
 -14779512.16949 -11491807.87447  22134229.426    22134230.0914   22134237.9324
       211.0004        211.0004
  -5267445.78047  -4078560.27645  23814563.730    23814565.8144   23814578.6054
       139.0004        143.0004
 -18336297.01349 -14257398.27947  20927442.919    20927442.9104   20927449.5894
       210.0004        210.0004
   1221679.42846    982696.31745  24597197.489    24597197.6894   24597205.4754
       127.0004        135.0004
 -23211037.70949 -18069347.02847  20236416.180    20236416.6524   20236424.4924
       211.0004        211.0004
 21  1 31  0 21 30.0000000  0  9G03G04G07G21G27G01G09G16G08
    748925.53348    625106.81546  24451889.516    24451889.9194   24451900.0154
       173.0004        174.0004
 -20312801.68349 -15814261.50147  20530814.221    20530814.4484   20530820.8674
       207.0004        206.0004
  -7039255.42848  -5457628.73346  23547145.127    23547145.5954   23547150.5864
       166.0004        169.0004
 -12796751.45147  -9812421.79345  22529706.493    22529705.8414   22529712.2944
       159.0004        161.0004
 -14693241.44749 -11424583.92947  22150646.620    22150646.7524   22150654.3974
       211.0004        211.0004
  -5340137.26947  -4135202.83445  23800733.454    23800733.6894   23800745.6074
       142.0004        147.0004
 -18365577.61749 -14280214.33247  20921870.757    20921871.2614   20921877.9024
       210.0004        210.0004
   1297490.42146   1041769.81345  24611624.293    24611624.0074   24611630.8154
       125.0004        134.0004
 -23186575.31149 -18050285.40547  20241071.299    20241071.5934   20241079.8354
       211.0004        211.0004
 21  1 31  0 22  0.0000000  0  9G03G04G07G21G27G01G09G16G08
    801798.77948    666306.52946  24461951.122    24461951.2074   24461961.9494
       172.0004        172.0004
 -20269954.38849 -15780873.99947  20538967.690    20538968.3294   20538974.6604
       207.0004        206.0004
  -7110566.57548  -5513195.82946  23533574.246    23533575.3414   23533579.6694
       167.0004        168.0004
 -12844186.73247  -9849384.27545  22520680.332    22520680.3864   22520686.1364
       160.0004        162.0004
 -14606609.00649 -11357078.11647  22167132.724    22167132.7234   22167140.0584
       211.0004        211.0004
  -5412986.61747  -4191968.36545  23786871.159    23786871.0524   23786882.7044
       143.0004        148.0004
 -18394306.98449 -14302600.84547  20916403.407    20916403.8674   20916410.8914
       210.0004        210.0004
   1373137.65046   1100715.68745  24626020.421    24626020.8504   24626024.6554
       126.0004        135.0004
 -23161532.25049 -18030771.30247  20245836.440    20245836.7354   20245844.8334
       210.0004        210.0004
 21  1 31  0 22 30.0000000  0  9G03G04G07G21G27G01G09G16G08
    854448.22348    707331.80246  24471969.972    24471970.1654   24471981.7794
       171.0004        171.0004
 -20226583.78349 -15747078.73047  20547221.446    20547221.7034   20547227.4004
       207.0004        206.0004
  -7181991.23848  -5568851.37846  23519981.658    23519982.7424   23519988.2444
       167.0004        167.0004
 -12891464.72847  -9886224.18946  22511684.378    22511683.7584   22511689.5874
       161.0004        163.0004
 -14519618.18149 -11289293.04847  22183684.798    22183686.1394   22183694.0344
       211.0004        211.0004
  -5485991.82047  -4248855.39445  23772976.275    23772977.5644   23772990.0874
       143.0004        147.0004
 -18422484.53649 -14324557.38047  20911041.046    20911041.6964   20911048.9254
       209.0004        210.0004
   1448620.46246   1159533.42744  24640382.802    24640381.7244   24640387.9164
       123.0004        131.0004
 -23135910.45049 -18010806.24847  20250712.532    20250712.4644   20250720.4114
       210.0004        211.0004
 21  1 31  0 23  0.0000000  0  9G03G04G07G21G27G01G09G16G08
    906873.13948    748182.10746  24481945.505    24481946.2664   24481958.1254
       169.0004        169.0004
 -20182690.41249 -15712876.12147  20555573.401    20555573.9964   20555580.2484
       207.0004        206.0004
  -7253526.56848  -5624593.15746  23506370.340    23506371.0774   23506375.5804
       166.0004        168.0004
 -12938581.45647  -9922938.47346  22502718.420    22502718.1784   22502724.0604
       162.0004        164.0004
 -14432270.84649 -11221230.20347  22200306.956    22200307.8944   22200315.2604
       210.0004        210.0004
  -5559149.50947  -4305861.21545  23759054.212    23759055.9614   23759068.2494
       143.0004        147.0004
 -18450108.32249 -14346082.42647  20905785.630    20905785.9264   20905792.2634
       210.0004        211.0004
   1523938.89846   1218223.15445  24654717.097    24654715.5144   24654720.8174
       124.0004        132.0004
 -23109710.06149 -17990390.35447  20255697.999    20255698.5484   20255706.0634
       210.0004        211.0004
 21  1 31  0 23 30.0000000  0  9G03G04G07G21G27G01G09G16G08
    959071.57248    788855.95746  24491879.669    24491880.2544   24491890.7044
       169.0004        171.0004
 -20138276.14949 -15678267.58947  20564025.376    20564025.6584   20564031.9334
       207.0004        205.0004
  -7325172.47548  -5680421.09046  23492738.001    23492738.6024   23492742.4054
       168.0004        171.0004
 -12985534.62147  -9959525.26946  22493783.793    22493782.2204   22493788.8644
       162.0004        164.0004
 -14344570.26849 -11152892.05947  22216996.610    22216997.2664   22217003.9534
       210.0004        211.0004
  -5632457.57147  -4362984.20545  23745104.774    23745105.6944   23745118.0644
       144.0004        148.0004
 -18477177.70049 -14367175.42847  20900633.822    20900634.1064   20900641.1544
       211.0004        211.0004
   1599091.93046   1276783.98345  24669017.144    24669017.8114   24669021.0654
       127.0004        136.0004
 -23082932.44449 -17969524.64347  20260794.075    20260794.2514   20260801.6504
       210.0004        211.0004
 21  1 31  0 24  0.0000000  0  9G03G04G07G21G27G01G09G16G08
   1011041.43548    829351.67046  24501767.806    24501769.0134   24501780.2944
       168.0004        169.0004
 -20093343.06249 -15643254.81547  20572575.791    20572576.3024   20572582.5234
       206.0004        205.0004
  -7396928.01048  -5736334.49646  23479082.638    23479083.6674   23479087.3964
       169.0004        171.0004
 -13032321.94547  -9995982.85146  22484878.171    22484878.2624   22484885.1604
       162.0004        163.0004
 -14256519.85649 -11084281.35247  22233752.108    22233752.4164   22233759.0004
       210.0004        210.0004
  -5705914.21047  -4420222.96845  23731126.267    23731127.1514   23731139.6204
       144.0004        148.0004
 -18503692.23649 -14387836.11147  20895587.932    20895588.4494   20895595.6134
       211.0004        211.0004
   1674079.02546   1335215.47545  24683289.122    24683288.2584   24683295.1194
       132.0004        138.0004
 -23055579.59849 -17948210.73547  20265998.849    20265999.2044   20266006.8424
       210.0004        210.0004
 21  1 31  0 24 30.0000000  0  9G03G04G07G21G27G01G09G16G08
   1062781.79648    869668.55546  24511614.982    24511615.7184   24511626.3334
       169.0004        171.0004
 -20047892.08249 -15607838.47947  20581224.932    20581225.5944   20581231.4484
       206.0004        204.0004
  -7468790.90748  -5792331.51446  23465406.247    23465407.0534   23465411.8884
       168.0004        169.0004
 -13078939.60347 -10032308.21946  22476006.078    22476007.3064   22476014.2414
       162.0004        164.0004
 -14168121.79349 -11015399.72347  22250574.679    22250574.1114   22250581.0204
       210.0004        210.0004
  -5779516.03947  -4477574.87345  23717120.861    23717121.9654   23717132.6624
       146.0004        150.0004
 -18529650.34649 -14408063.21147  20890648.640    20890648.9614   20890655.9204
       210.0004        211.0004
   1748900.05346   1393517.58045  24697525.646    24697526.1774   24697530.6364
       133.0004        139.0004
 -23027651.99249 -17926448.94947  20271313.334    20271313.6174   20271321.2544
       210.0004        211.0004
 21  1 31  0 25  0.0000000  0  8G03G04G07G21G27G01G09G08
   1114291.11048    909805.43546  24521416.575    24521417.2124   24521430.0734
       169.0004        170.0004
 -20001924.73949 -15572019.76647  20589972.211    20589972.4214   20589978.9804
       206.0004        204.0004
  -7540759.69848  -5848411.05846  23451711.935    23451712.0184   23451717.5344
       169.0004        170.0004
 -13125384.75947 -10068499.17246  22467169.071    22467168.8244   22467177.4164
       163.0004        165.0004
 -14079378.95049 -10946249.43847  22267461.012    22267461.1474   22267468.5424
       211.0004        210.0004
  -5853260.61147  -4535037.99245  23703085.444    23703087.8284   23703100.0804
       147.0004        151.0004
 -18555051.10249 -14427855.99847  20885815.412    20885815.5514   20885822.2304
       210.0004        211.0004
 -22999150.92749 -17904240.30047  20276736.966    20276737.1804   20276744.7864
       210.0004        211.0004
 21  1 31  0 25 30.0000000  0  8G03G04G07G21G27G01G09G08
   1165568.92348    949761.84546  24531175.032    24531175.9834   24531187.6944
       169.0004        170.0004
 -19955441.58449 -15535799.11947  20598817.041    20598817.6974   20598824.2484
       205.0004        204.0004
  -7612832.10148  -5904571.31046  23437994.439    23437996.5154   23438001.7064
       168.0004        168.0004
 -13171653.23847 -10104552.46546  22458364.780    22458364.4164   22458371.1214
       163.0004        165.0004
 -13990293.15049 -10876831.92147  22284412.840    22284413.5244   22284420.9074
       211.0004        210.0004
  -5927144.45347  -4592609.65145  23689028.972    23689028.7304   23689039.7324
       147.0004        151.0004
 -18579892.51849 -14447212.94247  20881088.506    20881088.5054   20881095.1374
       211.0004        211.0004
 -22970076.97049 -17881585.25147  20282268.792    20282269.6634   20282277.3054
       210.0004        211.0004
 21  1 31  0 26  0.0000000  0  8G03G04G07G21G27G01G09G08
   1216610.85248    989534.48946  24540889.458    24540889.5564   24540899.9214
       168.0004        168.0004
 -19908447.01049 -15499179.97547  20607760.423    20607761.0224   20607766.9454
       205.0004        204.0004
  -7685009.48948  -5960813.38246  23424261.846    23424261.7794   23424267.3054
       168.0004        171.0004
 -13217745.74447 -10140468.62446  22449593.127    22449594.0524   22449599.8274
       163.0004        165.0004
 -13900870.06249 -10807151.57947  22301430.922    22301430.9184   22301437.4094
       211.0004        210.0004
  -6001167.79147  -4650289.98745  23674941.509    23674942.3334   23674953.7014
       148.0004        152.0004
 -18604176.55149 -14466135.56147  20876466.821    20876467.1874   20876473.9404
       211.0004        211.0004
 -22940434.31549 -17858487.06647  20287910.155    20287910.7874   20287917.9724
       210.0004        211.0004
 21  1 31  0 26 30.0000000  0  8G03G04G07G21G27G01G09G08
   1267416.35248   1029122.85346  24550557.314    24550557.6424   24550569.6484
       169.0004        171.0004
 -19860941.70149 -15462162.85647  20616800.219    20616800.6824   20616806.5124
       205.0004        203.0004
  -7757289.50248  -6017135.44846  23410508.547    23410509.2584   23410513.6554
       172.0004        176.0004
 -13263657.66247 -10176244.07546  22440857.293    22440856.4994   22440862.4944
       164.0004        166.0004
 -13811111.53649 -10737209.85647  22318510.623    22318510.8714   22318518.2394
       211.0004        210.0004
  -6075327.07147  -4708076.30045  23660829.077    23660830.2954   23660840.7594
       148.0004        151.0004
 -18627901.34649 -14484622.41947  20871951.862    20871952.5734   20871958.8304
       210.0004        210.0004
 -22910223.25749 -17834945.96847  20293659.405    20293659.9504   20293667.2004
       210.0004        211.0004
 21  1 31  0 27  0.0000000  0  8G03G04G07G21G27G01G09G08
   1317983.09148   1068525.17346  24560178.732    24560179.4984   24560192.4004
       169.0004        169.0004
 -19812928.28649 -15424749.81747  20625937.118    20625937.4604   20625942.8494
       204.0004        203.0004
  -7829671.41948  -6073536.92346  23396734.133    23396734.7264   23396739.0454
       173.0004        174.0004
 -13309387.56047 -10211877.68646  22432154.360    22432155.1344   22432162.0044
       164.0004        166.0004
 -13721021.49149 -10667009.81147  22335653.300    22335654.1844   22335661.8594
       210.0004        210.0004
  -6149620.75247  -4765967.33545  23646693.701    23646693.2474   23646704.1514
       149.0004        152.0004
 -18651067.02949 -14502673.60147  20867543.991    20867544.1814   20867551.0544
       211.0004        211.0004
 -22879446.28249 -17810963.90747  20299516.333    20299516.4314   20299523.8704
       211.0004        211.0004
 21  1 31  0 27 30.0000000  0  8G03G04G07G21G27G01G09G08
   1368310.14047   1107740.72646  24569754.526    24569755.5614   24569767.6144
       164.0004        164.0004
 -19764407.70349 -15386941.58347  20635170.261    20635170.6634   20635176.5164
       204.0004        203.0004
  -7902153.79548  -6130016.64146  23382941.260    23382942.2084   23382945.5634
       172.0004        173.0004
 -13354931.91547 -10247366.71046  22423488.119    22423488.4054   22423493.8934
       164.0004        166.0004
 -13630602.04849 -10596553.10247  22352860.407    22352860.4024   22352867.3474
       210.0004        209.0004
  -6224045.57947  -4823960.53745  23632530.193    23632530.7884   23632540.2864
       149.0004        152.0004
 -18673672.12549 -14520287.96147  20863242.126    20863242.6554   20863249.6274
       211.0004        212.0004
 -22848103.81649 -17786541.19747  20305480.315    20305480.6554   20305488.1534
       210.0004        211.0004
 21  1 31  0 28  0.0000000  0  8G03G04G07G21G27G01G09G08
   1418396.77148   1146768.91346  24579288.486    24579289.0114   24579299.9114
       165.0004        167.0004
 -19715381.04649 -15348739.01447  20644499.529    20644500.3084   20644505.9854
       204.0004        203.0004
  -7974734.07048  -6186572.69646  23369130.454    23369129.9734   23369133.7594
       173.0004        173.0004
 -13400287.40747 -10282708.58846  22414856.241    22414857.4544   22414862.3304
       163.0004        164.0004
 -13539855.51149 -10525841.50847  22370128.439    22370128.9654   22370135.4394
       209.0004        207.0004
  -6298598.25747  -4882053.40445  23618342.727    23618343.5994   23618352.8074
       150.0004        153.0004
 -18695715.20149 -14537464.39547  20859047.890    20859047.9764   20859054.7764
       211.0004        212.0004
 -22816196.92549 -17761678.69447  20311552.330    20311552.0734   20311559.8374
       210.0004        211.0004
 21  1 31  0 28 30.0000000  0  8G03G04G07G21G27G01G09G08
   1468239.67548   1185607.20546  24588773.745    24588773.8364   24588784.8644
       168.0004        170.0004
 -19665851.83149 -15310144.79747  20653924.770    20653925.4854   20653931.6864
       204.0004        203.0004
  -8047412.92248  -6243205.50846  23355298.170    23355299.0604   23355303.0424
       170.0004        171.0004
 -13445452.78047 -10317902.28646  22406263.430    22406262.6194   22406268.9574
       164.0004        165.0004
 -13448786.57549 -10454878.65247  22387458.485    22387458.9554   22387465.5994
       209.0004        208.0004
  -6373278.10047  -4940245.29245  23604132.234    23604132.0654   23604141.6724
       151.0004        154.0004
 -18717197.31849 -14554203.67747  20854959.263    20854959.6504   20854967.0034
       211.0004        211.0004
 -22783728.92849 -17736378.91847  20317730.380    20317730.6904   20317738.2864
       210.0004        211.0004
 21  1 31  0 29  0.0000000  0  8G03G04G07G21G27G01G09G08
   1517839.05648   1224255.69146  24598212.405    24598212.4914   24598224.2074
       169.0004        170.0004
 -19615820.06949 -15271159.03747  20663445.475    20663445.8334   20663452.4494
       204.0004        202.0004
  -8120186.58248  -6299912.24446  23341450.828    23341450.7824   23341455.0574
       170.0004        170.0004
 -13490423.16447 -10352944.08246  22397705.545    22397705.5274   22397711.5514
       164.0004        165.0004
 -13357396.35249 -10383665.49447  22404848.976    22404849.3834   22404856.6104
       208.0004        207.0004
  -6448080.68047  -4998532.87645  23589898.700    23589898.4464   23589907.4014
       153.0004        156.0004
 -18738116.03449 -14570503.99647  20850978.749    20850979.3274   20850986.2214
       211.0004        211.0004
 -22750700.04849 -17710642.14047  20324015.569    20324015.9504   20324023.7514
       210.0004        211.0004
 21  1 31  0 29 30.0000000  0  8G03G04G07G21G27G01G09G08
   1567192.74648   1262712.74446  24607602.724    24607603.9324   24607615.9974
       169.0004        170.0004
 -19565288.33149 -15231783.65847  20673061.268    20673061.9634   20673067.7134
       204.0004        202.0004
  -8193054.70348  -6356692.57846  23327583.756    23327584.3864   23327588.6294
       170.0004        171.0004
 -13535196.77248 -10387832.53646  22389185.450    22389184.4854   22389190.3514
       165.0004        166.0004
 -13265688.62049 -10312204.90947  22422299.970    22422301.1024   22422307.8594
       207.0004        207.0004
  -6523004.31847  -5056914.77345  23575638.164    23575639.5834   23575649.5874
       153.0004        155.0004
 -18758471.44549 -14586365.34347  20847105.236    20847105.6134   20847112.6914
       211.0004        211.0004
 -22717111.65049 -17684469.34947  20330408.057    20330408.1504   20330414.8224
       210.0004        211.0004
 21  1 31  0 30  0.0000000  0  8G03G04G07G21G27G01G09G08
   1616299.26848   1300977.19546  24616949.147    24616949.4624   24616961.1134
       170.0004        171.0004
 -19514258.42449 -15192020.08147  20682771.829    20682772.5134   20682778.3464
       203.0004        202.0004
  -8266015.93848  -6413545.43246  23313699.686    23313700.2134   23313705.6504
       171.0004        172.0004
 -13579771.25448 -10422565.80246  22380703.393    22380702.3894   22380708.1154
       165.0004        166.0004
 -13173666.30149 -10240499.17547  22439812.565    22439812.8184   22439819.1244
       207.0004        207.0004
  -6598046.32447  -5115388.88145  23561359.721    23561360.5914   23561368.9004
       153.0004        155.0004
 -18778262.93049 -14601787.26047  20843338.641    20843339.1004   20843347.0514
       211.0004        212.0004
 -22682966.03249 -17657862.34447  20336905.679    20336905.6564   20336912.3524
       210.0004        211.0004
 21  1 31  0 30 30.0000000  0  8G03G04G07G21G27G01G09G08
   1665157.36248   1339048.01846  24626245.933    24626246.5614   24626259.5554
       169.0004        170.0004
 -19462731.96749 -15151869.62347  20692577.238    20692577.5214   20692583.9194
       203.0004        201.0004
  -8339068.32048  -6470469.33646  23299798.621    23299799.4494   23299802.9604
       171.0004        171.0004
 -13624143.12247 -10457141.20546  22372258.772    22372257.1094   22372265.3144
       164.0004        165.0004
 -13081332.11049 -10168550.44547  22457383.491    22457383.5294   22457389.8974
       207.0004        207.0004
  -6673203.91947  -5173953.10345  23547056.497    23547056.9224   23547067.1424
       151.0004        153.0004
 -18797489.63949 -14616769.12347  20839680.503    20839680.8234   20839687.9954
       212.0004        212.0004
 -22648264.35549 -17630822.08747  20343508.727    20343508.5954   20343516.5784
       210.0004        211.0004
 21  1 31  0 31  0.0000000  0  8G03G04G07G21G27G01G09G08
   1713765.43348   1376924.00146  24635495.921    24635496.7444   24635509.1114
       168.0004        168.0004
 -19410711.05949 -15111333.87547  20702475.951    20702476.6504   20702482.7744
       202.0004        201.0004
  -8412210.90548  -6527463.56046  23285879.223    23285880.7414   23285883.9304
       169.0004        171.0004
 -13668309.77347 -10491556.71546  22363853.330    22363853.5864   22363859.6274
       164.0004        165.0004
 -12988689.16949 -10096361.14647  22475012.389    22475013.0474   22475019.2464
       207.0004        206.0004
  -6748474.72147  -5232605.54145  23532733.318    23532733.7724   23532743.5084
       152.0004        155.0004
 -18816151.24049 -14631310.65547  20836129.384    20836129.6304   20836136.8624
       212.0004        212.0004
 -22613008.59349 -17603350.07047  20350217.297    20350217.5684   20350225.6324
       210.0004        211.0004
 21  1 31  0 31 30.0000000  0  8G03G04G07G21G27G01G09G08
   1762120.17248   1414602.62346  24644697.399    24644698.7214   24644711.5014
       167.0004        168.0004
 -19358199.40549 -15070415.67847  20712468.524    20712469.2554   20712475.5624
       202.0004        201.0004
  -8485443.99248  -6584528.23846  23271944.578    23271944.5704   23271949.9174
       170.0004        172.0004
 -13712270.10447 -10525811.43346  22355489.252    22355488.6824   22355493.8204
       164.0004        167.0004
 -12895742.34049 -10023934.99747  22492700.208    22492699.7394   22492707.0984
       206.0004        207.0004
  -6823857.95147  -5291345.52845  23518387.091    23518387.4294   23518399.5314
       152.0004        155.0004
 -18834249.00449 -14645412.78647  20832685.054    20832685.4514   20832692.6864
       212.0004        212.0004
 -22577202.44749 -17575449.13747  20357030.959    20357030.6094   20357039.1174
       210.0004        210.0004
 21  1 31  0 32  0.0000000  0  8G03G04G07G21G27G01G09G08
   1810222.34348   1452084.37146  24653853.570    24653853.9174   24653866.2554
       169.0004        171.0004
 -19305196.66349 -15029114.87047  20722555.689    20722555.6934   20722561.6794
       202.0004        201.0004
  -8558763.57948  -6641660.35346  23257992.027    23257992.7224   23257997.0444
       172.0004        173.0004
 -13756019.28648 -10559901.65146  22347163.468    22347163.3254   22347168.1954
       165.0004        166.0004
 -12802492.31549  -9951272.64047  22510445.442    22510445.2124   22510451.8294
       207.0004        207.0004
  -6899348.71647  -5350169.37545  23504022.724    23504023.2964   23504033.4874
       153.0004        156.0004
 -18851780.19149 -14659073.46447  20829349.398    20829349.6234   20829356.6134
       212.0004        212.0004
 -22540845.37749 -17547118.96047  20363949.183    20363949.6574   20363957.7344
       210.0004        210.0004
 21  1 31  0 32 30.0000000  0  8G03G04G07G21G27G01G09G08
   1858068.87648   1489366.94546  24662957.492    24662958.2954   24662971.2024
       170.0004        171.0004
 -19251706.54449 -14987434.26247  20732733.833    20732734.3864   20732740.6564
       202.0004        201.0004
  -8632170.13548  -6698860.24746  23244022.753    23244023.0274   23244027.9354
       170.0004        168.0004
 -13799556.70147 -10593826.82146  22338878.312    22338878.0294   22338884.0304
       164.0004        164.0004
 -12708943.79749  -9878377.67547  22528245.852    22528246.8274   22528253.5474
       206.0004        206.0004
  -6974946.14147  -5409076.30645  23489636.407    23489637.6054   23489647.4234
       154.0004        155.0004
 -18868746.00949 -14672293.58148  20826120.922    20826121.6624   20826128.0964
       212.0004        213.0004
 -22503940.72749 -17518362.07847  20370972.734    20370972.9974   20370979.9244
       210.0004        210.0004
 21  1 31  0 33  0.0000000  0  8G03G04G07G21G27G01G09G08
   1905659.89848   1526450.40146  24672014.861    24672015.3474   24672027.5114
       169.0004        170.0004
 -19197729.36449 -14945374.11947  20743005.598    20743006.0394   20743011.9444
       202.0004        201.0004
  -8705660.39048  -6756125.34346  23230039.152    23230039.4284   23230043.4924
       169.0004        171.0004
 -13842877.83748 -10627583.48946  22330634.609    22330635.3734   22330639.4884
       165.0004        166.0004
 -12615098.18049  -9805251.20747  22546104.158    22546104.3514   22546111.0314
       205.0004        204.0004
  -7050646.00347  -5468063.08445  23475230.976    23475231.2824   23475241.3024
       152.0004        154.0004
 -18885144.45449 -14685071.57547  20823000.499    20823000.4894   20823007.8924
       212.0004        212.0004
 -22466488.59549 -17489178.57647  20378099.144    20378099.2584   20378106.9094
       209.0004        210.0004
 21  1 31  0 33 30.0000000  0  8G03G04G07G21G27G01G09G08
   1952993.15148   1563332.98146  24681021.918    24681021.8914   24681034.3144
       168.0004        168.0004
 -19143268.01849 -14902936.72047  20753369.416    20753370.3004   20753375.8444
       202.0004        201.0004
  -8779234.04548  -6813455.42546  23216038.025    23216037.8454   23216043.0384
       171.0004        172.0004
 -13885980.11448 -10661169.61546  22322433.288    22322432.7714   22322438.5144
       166.0004        168.0004
 -12520959.32749  -9731896.24447  22564017.348    22564017.9844   22564025.3454
       203.0004        203.0004
  -7126446.59547  -5527128.32545  23460805.435    23460806.8404   23460817.9774
       152.0004        155.0004
 -18900975.93749 -14697407.78847  20819987.115    20819987.7534   20819994.8624
       212.0004        212.0004
 -22428491.49249 -17459570.42947  20385329.788    20385330.1594   20385338.0584
       210.0004        210.0004
 21  1 31  0 34  0.0000000  0  8G03G04G07G21G27G01G09G08
   2000067.44548   1600013.80946  24689978.754    24689979.6014   24689993.1954
       166.0004        167.0004
 -19088324.31849 -14860123.44647  20763824.683    20763825.1614   20763831.0464
       202.0004        201.0004
  -8852889.25848  -6870849.04846  23202019.860    23202021.3314   23202025.6324
       169.0004        169.0004
 -13928861.33948 -10694583.46746  22314272.947    22314271.6194   22314278.1864
       165.0004        165.0004
 -12426530.03549  -9658314.95347  22581987.365    22581987.3874   22581994.9494
       203.0004        203.0004
  -7202344.98647  -5586269.76745  23446362.250    23446363.8904   23446375.2924
       154.0004        157.0004
 -18916239.87049 -14709301.74947  20817083.216    20817083.4144   20817090.2484
       212.0004        212.0004
 -22389951.20649 -17429539.02047  20392664.373    20392664.1664   20392671.6334
       209.0004        210.0004
 21  1 31  0 34 30.0000000  0  8G03G04G07G21G27G01G09G08
   2046882.99148   1636492.97446  24698888.839    24698889.8514   24698903.7294
       169.0004        172.0004
 -19032898.65149 -14816934.62347  20774371.479    20774371.7024   20774378.5874
       202.0004        200.0004
  -8926622.71648  -6928303.64746  23187990.545    23187991.4484   23187996.4654
       170.0004        173.0004
 -13971516.96047 -10727821.56346  22306155.586    22306155.2124   22306161.1504
       164.0004        165.0004
 -12331811.66549  -9584508.42247  22600011.044    22600011.0424   22600019.3134
       203.0004        202.0004
  -7278336.98647  -5645484.18945  23431902.330    23431902.5164   23431913.2394
       153.0004        155.0004
 -18930934.30149 -14720751.95748  20814286.686    20814287.0504   20814294.1724
       212.0004        213.0004
 -22350868.23649 -17399084.74947  20400101.185    20400101.5494   20400108.6934
       209.0004        210.0004
 21  1 31  0 35  0.0000000  0  8G03G04G07G21G27G01G09G08
   2093435.51748   1672767.16646  24707748.235    24707749.0594   24707763.0534
       170.0004        171.0004
 -18976996.03649 -14773374.16747  20785009.410    20785009.8754   20785016.5634
       201.0004        200.0004
  -9000435.74748  -6985820.29346  23173944.012    23173944.6484   23173949.0724
       172.0004        172.0004
 -14013947.64148 -10760884.37946  22298082.021    22298082.2214   22298087.0324
       165.0004        166.0004
 -12236810.21149  -9510481.30747  22618088.817    22618089.5084   22618097.2854
       202.0004        202.0004
  -7354422.81147  -5704771.70645  23417423.094    23417424.8134   23417435.0234
       153.0004        156.0004
 -18945061.82149 -14731760.42148  20811598.715    20811599.0464   20811605.7584
       212.0004        213.0004
 -22311247.32949 -17368211.30547  20407640.590    20407640.5834   20407648.1474
       209.0004        209.0004
 21  1 31  0 35 30.0000000  0  8G03G04G07G21G27G01G09G08
   2139723.82448   1708835.50446  24716555.276    24716555.7134   24716571.4324
       168.0004        168.0004
 -18920618.34049 -14729443.50247  20795737.962    20795738.5514   20795744.0034
       201.0004        200.0004
  -9074326.87848  -7043397.76446  23159882.657    23159882.9464   23159887.7414
       170.0004        170.0004
 -14056149.96847 -10793769.24545  22290048.498    22290048.5504   22290054.7434
       163.0004        162.0004
 -12141528.39449  -9436235.72347  22636221.198    22636221.5624   22636228.6114
       202.0004        203.0004
  -7430599.64647  -5764130.13845  23402929.261    23402928.0124   23402938.7544
       153.0004        155.0004
 -18958621.94249 -14742326.74247  20809017.922    20809018.3324   20809025.2784
       212.0004        212.0004
 -22271089.67849 -17336919.61047  20415281.663    20415282.0814   20415290.4094
       209.0004        210.0004
 21  1 31  0 36  0.0000000  0  8G03G04G07G21G27G01G09G08
   2185747.79748   1744697.81046  24725316.705    24725316.9044   24725329.7354
       168.0004        170.0004
 -18863766.38749 -14685143.31547  20806557.206    20806557.4214   20806562.9754
       201.0004        200.0004
  -9148293.40648  -7101034.00046  23145807.993    23145808.3324   23145813.5574
       171.0004        173.0004
 -14098119.98547 -10826473.07946  22282060.164    22282061.2864   22282069.1164
       160.0004        163.0004
 -12045968.01649  -9361773.09347  22654405.401    22654405.1414   22654413.3214
       202.0004        201.0004
  -7506863.50547  -5823556.43545  23388414.339    23388414.8554   23388426.5074
       151.0004        153.0004
 -18971613.11749 -14752449.75548  20806545.722    20806546.3704   20806553.0434
       212.0004        213.0004
 -22230396.24349 -17305210.45247  20423026.274    20423026.7654   20423033.7604
       209.0004        210.0004
 21  1 31  0 36 30.0000000  0  8G03G04G07G21G27G01G09G08
   2231505.79448   1780352.86246  24734024.680    24734024.9754   24734037.1764
       170.0004        171.0004
 -18806442.58649 -14640475.40747  20817464.793    20817465.2614   20817471.7824
       201.0004        200.0004
  -9222333.46348  -7158727.49246  23131717.909    23131718.4814   23131723.8824
       171.0004        171.0004
 -14139855.22847 -10858993.99046  22274124.463    22274122.7324   22274127.0314
       164.0004        169.0004
 -11950132.34949  -9287095.93347  22672643.164    22672642.7754   22672650.1584
       201.0004        201.0004
  -7583211.99347  -5883048.60845  23373886.702    23373887.3704   23373898.0154
       151.0004        153.0004
 -18984035.39949 -14762129.43448  20804182.074    20804182.5194   20804189.4554
       213.0004        213.0004
 -22189169.27549 -17273085.50947  20430870.783    20430871.2784   20430879.0944
       209.0004        210.0004
 21  1 31  0 37  0.0000000  0  8G03G04G07G21G27G01G09G08
   2276995.03148   1815798.43246  24742680.167    24742680.5654   24742693.5594
       167.0004        167.0004
 -18748650.51049 -14595442.63247  20828462.461    20828462.8144   20828469.3264
       201.0004        200.0004
  -9296447.26248  -7216478.47846  23117615.204    23117615.6784   23117619.7604
       171.0004        172.0004
 -14181354.46048 -10891331.02446  22266226.083    22266225.6364   22266229.8144
       168.0004        169.0004
 -11854025.84049  -9212207.72647  22690928.891    22690930.6004   22690938.3844
       201.0004        200.0004
  -7659643.88747  -5942605.79645  23359342.295    23359342.3614   23359352.6054
       151.0004        154.0004
 -18995889.99949 -14771366.78348  20801925.586    20801926.3344   20801933.6314
       213.0004        213.0004
 -22147412.08649 -17240547.42247  20438817.516    20438817.6324   20438825.2734
       209.0004        209.0004
 21  1 31  0 37 30.0000000  0  8G03G04G07G21G27G01G09G08
   2322215.74248   1851034.79946  24751285.558    24751285.2544   24751299.1584
       166.0004        167.0004
 -18690390.74449 -14550045.43347  20839549.233    20839549.3744   20839555.4194
       201.0004        200.0004
  -9370631.61848  -7274284.45646  23103498.544    23103499.0424   23103503.2464
       173.0004        175.0004
 -14222613.51648 -10923480.90546  22258372.451    22258372.7784   22258378.1694
       166.0004        165.0004
 -11757650.00849  -9137109.66247  22709270.128    22709271.0294   22709278.1354
       201.0004        201.0004
  -7736154.91647  -6002224.63145  23344782.958    23344782.8864   23344793.1084
       152.0004        155.0004
 -19007175.20549 -14780160.46148  20799778.962    20799778.9104   20799785.9164
       212.0004        213.0004
 -22105125.39849 -17207596.75647  20446864.010    20446864.5644   20446872.0644
       209.0004        209.0004
 21  1 31  0 38  0.0000000  0  8G03G04G07G21G27G01G09G08
   2367166.78448   1886061.03146  24759840.770    24759840.7254   24759855.3314
       168.0004        170.0004
 -18631665.28749 -14504285.32847  20850723.937    20850724.5324   20850731.1094
       201.0004        200.0004
  -9444885.19748  -7332144.34346  23089368.724    23089368.1124   23089373.0184
       173.0004        174.0004
 -14263629.57047 -10955441.35946  22250564.927    22250565.1684   22250573.5034
       163.0004        163.0004
 -11661007.65549  -9061803.89247  22727662.803    22727662.3494   22727668.2654
       202.0004        202.0004
  -7812742.18547  -6061902.89145  23330207.520    23330208.7014   23330218.4614
       151.0004        153.0004
 -19017890.62949 -14788510.12748  20797739.588    20797740.1234   20797746.6594
       212.0004        213.0004
 -22062310.94949 -17174234.81947  20455011.665    20455012.1584   20455019.4514
       209.0004        210.0004
 21  1 31  0 38 30.0000000  0  8G03G04G07G21G27G01G09G08
   2411845.20748   1920874.81846  24768342.027    24768342.2204   24768357.8914
       168.0004        169.0004
 -18572477.97449 -14458165.36147  20861987.166    20861987.3174   20861993.8884
       201.0004        199.0004
  -9519207.47448  -7390057.77546  23075224.238    23075225.7274   23075229.5754
       173.0004        175.0004
 -14304401.55047 -10987211.65746  22242808.004    22242808.2494   22242814.2694
       163.0004        164.0004
 -11564103.40349  -8986294.07347  22746102.518    22746102.5334   22746107.9764
       201.0004        201.0004
  -7889404.57047  -6121639.68245  23315621.372    23315620.2804   23315630.4754
       151.0004        153.0004
 -19028037.82149 -14796417.02548  20795809.011    20795809.0834   20795815.9374
       213.0004        213.0004
 -22018971.99249 -17140464.19147  20463258.549    20463258.9654   20463266.5414
       209.0004        209.0004
 21  1 31  0 39  0.0000000  0  8G03G04G07G21G27G01G09G08
   2456251.79748   1955476.76546  24776793.104    24776793.3804   24776808.6264
       169.0004        171.0004
 -18512829.01849 -14411685.66847  20873337.540    20873338.2224   20873344.0464
       201.0004        199.0004
  -9593594.79948  -7448021.89946  23061068.889    23061069.5764   23061074.7634
       175.0004        176.0004
 -14344924.95747 -11018788.30046  22235098.079    22235097.3684   22235103.0564
       164.0004        167.0004
 -11466938.29249  -8910580.99247  22764592.450    22764591.7724   22764597.6174
       200.0004        199.0004
  -7966137.40747  -6181431.38145  23301018.453    23301018.7644   23301028.4334
       151.0004        155.0004
 -19037614.63949 -14803879.48848  20793985.763    20793986.4494   20793993.6354
       213.0004        214.0004
 -21975108.38649 -17106284.75747  20471605.380    20471605.8654   20471613.5634
       209.0004        209.0004
 21  1 31  0 39 30.0000000  0  8G03G04G07G21G27G01G09G08
   2500383.88248   1989864.79046  24785193.094    24785193.2114   24785205.8124
       169.0004        170.0004
 -18452721.97549 -14364849.02347  20884775.819    20884776.3224   20884782.5084
       201.0004        199.0004
  -9668047.36348  -7506036.86146  23046902.730    23046902.3484   23046906.7104
       176.0004        178.0004
 -14385198.54548 -11050170.25746  22227434.677    22227433.9914   22227439.4984
       167.0004        170.0004
 -11369516.69049  -8834668.03647  22783130.210    22783130.6364   22783136.1214
       199.0004        199.0004
  -8042939.21847  -6241276.83545  23286402.571    23286403.1984   23286413.6974
       152.0004        155.0004
 -19046622.35849 -14810898.49348  20792272.243    20792272.4124   20792279.3684
       213.0004        213.0004
 -21930724.53949 -17071699.92747  20480051.657    20480051.7724   20480059.4974
       209.0004        209.0004
 21  1 31  0 40  0.0000000  0  7G04G07G21G27G01G09G08
 -18392154.27049 -14317653.41147  20896301.355    20896302.0314   20896307.8434
       201.0004        199.0004
  -9742558.42548  -7564097.40446  23032723.261    23032723.4824   23032727.8594
       177.0004        178.0004
 -14425214.49548 -11081351.47346  22219820.404    22219820.2334   22219824.4684
       170.0004        171.0004
 -11271836.80449  -8758553.81747  22801718.177    22801718.7844   22801724.5374
       200.0004        200.0004
  -8119802.50347  -6301170.16045  23271775.060    23271776.5714   23271786.2244
       152.0004        155.0004
 -19055056.13449 -14817470.25948  20790667.217    20790667.5924   20790674.4394
       213.0004        213.0004
 -21885817.24349 -17036707.21047  20488596.811    20488597.4164   20488605.1774
       208.0004        209.0004
 21  1 31  0 40 30.0000000  0  7G04G07G21G27G01G09G08
 -18331128.75749 -14270101.07547  20907914.605    20907914.9984   20907920.5444
       201.0004        199.0004
  -9817126.85448  -7622202.65546  23018533.948    23018534.1274   23018537.3524
       177.0004        178.0004
 -14464970.78448 -11112330.35946  22212253.224    22212253.3594   22212259.3594
       169.0004        170.0004
 -11173902.22749  -8682241.14947  22820353.500    22820354.3844   22820360.6894
       200.0004        200.0004
  -8196725.03647  -6361109.66945  23257138.161    23257138.9704   23257148.0194
       152.0004        154.0004
 -19062916.50549 -14823595.22548  20789170.882    20789171.4604   20789178.9504
       213.0004        214.0004
 -21840389.02449 -17001308.59247  20497242.224    20497242.4034   20497249.7624
       209.0004        209.0004
 21  1 31  0 41  0.0000000  0  7G04G07G21G27G01G09G08
 -18269654.19849 -14222198.83447  20919612.751    20919613.2574   20919618.7704
       201.0004        199.0004
  -9891757.54148  -7680356.41246  23004331.084    23004331.8884   23004336.1184
       177.0004        179.0004
 -14504471.31348 -11143109.93346  22204736.561    22204737.1004   22204742.8034
       169.0004        169.0004
 -11075722.44149  -8605737.40247  22839038.524    22839038.2794   22839043.7974
       200.0004        200.0004
  -8273710.54147  -6421098.23845  23242486.577    23242488.2054   23242499.4434
       154.0004        157.0004
 -19070209.96749 -14829278.44748  20787783.629    20787784.0504   20787790.7444
       213.0004        213.0004
 -21794448.58649 -16965510.84047  20505984.094    20505984.4364   20505991.9944
       209.0004        209.0004
 21  1 31  0 41 30.0000000  0  7G04G07G21G27G01G09G08
 -18207731.75949 -14173947.60047  20931396.032    20931396.4964   20931401.9604
       200.0004        198.0004
  -9966447.84448  -7738556.62446  22990117.679    22990119.3704   22990122.6414
       179.0004        181.0004
 -14543712.25848 -11173687.24446  22197269.226    22197268.7864   22197275.2674
       168.0004        169.0004
 -10977299.40149  -8529044.11047  22857768.594    22857767.6564   22857774.0224
       201.0004        202.0004
  -8350755.13947  -6481132.87745  23227826.910    23227827.7424   23227837.3014
       155.0004        157.0004
 -19076935.44249 -14834519.08248  20786503.428    20786503.9264   20786511.0994
       213.0004        214.0004
 -21747997.15049 -16929314.90647  20514823.238    20514823.8774   20514831.1424
       209.0004        209.0004
 21  1 31  0 42  0.0000000  0  7G04G07G21G27G01G09G08
 -18145364.37049 -14125349.63447  20943264.264    20943264.7494   20943270.4064
       200.0004        199.0004
 -10041196.32448  -7796802.16646  22975893.087    22975894.2064   22975898.2554
       179.0004        179.0004
 -14582691.76848 -11204060.82246  22189850.274    22189850.9464   22189856.8954
       167.0004        167.0004
 -10878636.66949  -8452164.05347  22876541.769    22876542.2454   22876548.7314
       201.0004        201.0004
  -8427856.63347  -6541211.81145  23213153.247    23213154.5784   23213165.7984
       155.0004        158.0004
 -19083093.59449 -14839317.63848  20785331.339    20785331.9934   20785339.1204
       213.0004        214.0004
 -21701037.29649 -16892722.79147  20523759.419    20523759.8814   20523767.2974
       208.0004        208.0004
 21  1 31  0 42 30.0000000  0  7G04G07G21G27G01G09G08
 -18082551.41649 -14076404.51147  20955216.981    20955217.6474   20955223.5504
       200.0004        199.0004
 -10115998.44748  -7855089.55246  22961659.543    22961660.3894   22961664.7094
       179.0004        180.0004
 -14621404.21248 -11234226.33246  22182482.865    22182483.7494   22182490.3154
       165.0004        166.0004
 -10779734.37949  -8375097.33847  22895362.016    22895362.6644   22895369.2144
       201.0004        200.0004
  -8505009.22247  -6601330.63145  23198474.934    23198475.0004   23198483.3144
       158.0004        160.0004
 -19088681.57149 -14843671.92348  20784268.710    20784268.8464   20784275.9374
       213.0004        213.0004
 -21653568.09949 -16855733.81247  20532792.561    20532792.8554   20532800.4204
       208.0004        208.0004
 21  1 31  0 43  0.0000000  0  7G04G07G21G27G01G09G08
 -18019297.76349 -14027115.94047  20967253.532    20967253.9004   20967260.0624
       200.0004        198.0004
 -10190854.94548  -7913419.24646  22947414.611    22947414.8554   22947420.7114
       180.0004        180.0004
 -14659849.51748 -11264183.64446  22175169.270    22175168.5114   22175174.2824
       166.0004        167.0004
 -10680598.03949  -8297848.21447  22914226.134    22914227.2814   22914234.7404
       200.0004        200.0004
  -8582212.74047  -6661489.06345  23183781.624    23183781.6554   23183792.0234
       157.0004        159.0004
 -19093701.99649 -14847583.92648  20783313.068    20783313.5044   20783320.2424
       213.0004        213.0004
 -21605594.87549 -16818352.04647  20541921.274    20541921.8464   20541929.3494
       208.0004        208.0004
 21  1 31  0 43 30.0000000  0  7G04G07G21G27G01G09G08
 -17955603.86549 -13977484.36447  20979374.509    20979375.1124   20979380.9064
       200.0004        198.0004
 -10265762.52148  -7971788.78946  22933160.749    22933160.6664   22933165.2754
       180.0004        180.0004
 -14698022.85348 -11293929.04546  22167903.831    22167903.9414   22167911.0224
       167.0004        169.0004
 -10581228.77949  -8220417.63447  22933135.847    22933136.6574   22933143.6314
       199.0004        199.0004
  -8659462.40747  -6721683.52445  23169082.629    23169082.1304   23169092.6334
       158.0004        161.0004
 -19098153.14449 -14851052.37648  20782465.525    20782466.2434   20782473.4024
       213.0004        213.0004
 -21557117.31149 -16780577.33747  20551147.010    20551147.1754   20551154.3634
       208.0004        208.0004
 21  1 31  0 44  0.0000000  0  7G04G07G21G27G01G09G08
 -17891472.86349 -13927512.15547  20991578.346    20991578.8744   20991584.0544
       200.0004        198.0004
 -10340719.84448  -8030197.07346  22918896.083    22918897.0924   22918900.7134
       180.0004        181.0004
 -14735922.71048 -11323461.32846  22160693.837    22160692.7944   22160698.3464
       168.0004        170.0004
 -10481630.32149  -8142808.44147  22952088.997    22952089.6644   22952096.1244
       199.0004        198.0004
  -8736756.11747  -6781912.22945  23154373.842    23154374.7444   23154383.5864
       160.0004        162.0004
 -19102035.92049 -14854077.90248  20781726.889    20781727.5664   20781734.7004
       213.0004        214.0004
 -21508138.53549 -16742412.03547  20560468.011    20560467.9314   20560474.7514
       208.0004        209.0004
 21  1 31  0 44 30.0000000  0  7G04G07G21G27G01G09G08
 -17826906.06549 -13877200.38547  21003864.122    21003865.2064   21003871.1704
       199.0004        197.0004
 -10415724.47648  -8088642.22946  22904622.991    22904623.8104   22904628.2404
       180.0004        180.0004
 -14773545.53648 -11352777.76846  22153534.768    22153533.8864   22153538.2164
       171.0004        172.0004
 -10381804.65249  -8065022.20747  22971085.773    22971085.3924   22971092.3674
       198.0004        198.0004
  -8814089.96747  -6842172.25846  23139657.738    23139657.9894   23139667.2934
       161.0004        163.0004
 -19105349.44449 -14856659.87948  20781096.689    20781097.0884   20781103.9084
       214.0004        214.0004
 -21458659.60749 -16703857.01747  20569883.537    20569883.7994   20569890.2084
       208.0004        209.0004
 21  1 31  0 45  0.0000000  0  7G04G07G21G27G01G09G08
 -17761906.61049 -13826551.46147  21016233.421    21016233.7644   21016240.2634
       199.0004        197.0004
 -10490775.15448  -8147123.23746  22890341.767    22890342.0924   22890346.2144
       180.0004        182.0004
 -14810889.25448 -11381876.71646  22146427.674    22146427.3434   22146432.6044
       171.0004        171.0004
 -10281755.45449  -7987061.78847  22990123.862    22990124.3264   22990131.2694
       199.0004        199.0004
  -8891461.81347  -6902461.86546  23124934.521    23124934.5234   23124943.8884
       161.0004        163.0004
 -19108094.63549 -14858798.98548  20780574.270    20780574.9364   20780581.5754
       214.0004        214.0004
 -21408683.73949 -16664914.76047  20579393.579    20579393.6184   20579400.2134
       208.0004        209.0004
 21  1 31  0 45 30.0000000  0  7G04G07G21G27G01G09G08
 -17696476.74549 -13775567.16847  21028684.281    21028684.8434   21028691.0374
       198.0004        197.0004
 -10565869.76748  -8205638.50846  22876051.630    22876052.2584   22876056.2494
       181.0004        181.0004
 -14847951.53248 -11410756.37546  22139375.026    22139374.5804   22139378.6604
       171.0004        173.0004
 -10181485.65449  -7908929.46647  23009204.819    23009204.9224   23009211.7524
       198.0004        197.0004
  -8968868.68647  -6962778.78045  23110201.835    23110202.7584   23110212.4464
       159.0004        160.0004
 -19110271.62149 -14860495.35048  20780160.217    20780160.7894   20780167.1984
       214.0004        214.0004
 -21358213.53049 -16625587.31847  20588997.024    20588997.2654   20589004.3414
       208.0004        208.0004
 21  1 31  0 46  0.0000000  0  7G04G07G21G27G01G09G08
 -17630619.04849 -13724249.49247  21041217.284    21041217.6664   21041223.3044
       199.0004        198.0004
 -10641006.99448  -8264186.96746  22861753.475    22861753.7124   22861758.2524
       179.0004        179.0004
 -14884729.31348 -11439414.32846  22132375.822    22132375.3404   22132381.1274
       172.0004        173.0004
 -10080998.33849  -7830627.65247  23028326.535    23028327.0804   23028334.2394
       197.0004        195.0004
  -9046307.83647  -7023120.86245  23095467.193    23095467.1964   23095476.0214
       159.0004        161.0004
 -19111880.86249 -14861749.29748  20779853.526    20779854.0074   20779861.1774
       214.0004        214.0004
 -21307250.44849 -16585875.81447  20598694.111    20598694.3984   20598702.0864
       207.0004        206.0004
 21  1 31  0 46 30.0000000  0  7G04G07G21G27G01G09G08
 -17564336.74849 -13672600.95847  21053830.246    21053830.7694   21053836.5844
       198.0004        197.0004
 -10716185.29948  -8322767.43246  22847448.368    22847448.3754   22847452.0394
       179.0004        180.0004
 -14921221.17448 -11467849.50546  22125431.730    22125431.1544   22125437.5774
       172.0004        173.0004
  -9980297.24449  -7752159.27447  23047490.976    23047490.9874   23047497.2154
       196.0004        196.0004
  -9123777.13247  -7083486.45045  23080724.956    23080725.8974   23080734.3984
       160.0004        162.0004
 -19112923.33449 -14862561.61848  20779655.110    20779655.3814   20779662.8554
       213.0004        214.0004
 -21255798.37049 -16545783.27847  20608485.498    20608485.5474   20608493.0324
       206.0004        206.0004
 21  1 31  0 47  0.0000000  0  7G04G07G21G27G01G09G08
 -17497632.67049 -13620623.77047  21066523.137    21066524.1134   21066529.0614
       198.0004        196.0004
 -10791403.85248  -8381379.26846  22833134.263    22833134.5494   22833139.4134
       179.0004        180.0004
 -14957424.70848 -11496060.00746  22118541.844    22118541.5254   22118547.9924
       171.0004        171.0004
  -9879385.89449  -7673527.03847  23066694.019    23066693.3974   23066700.3044
       195.0004        195.0004
  -9201274.06247  -7143873.56946  23065978.616    23065978.2054   23065987.7604
       161.0004        164.0004
 -19113399.81449 -14862932.89748  20779565.305    20779565.4624   20779572.1384
       214.0004        215.0004
 -21203859.69749 -16505311.58047  20618368.737    20618369.0974   20618376.9724
       206.0004        206.0004
 21  1 31  0 47 30.0000000  0  7G04G07G21G27G01G09G08
 -17430507.50349 -13568318.45847  21079297.443    21079297.8194   21079303.2064
       198.0004        196.0004
 -10866658.88248  -8440019.52046  22818813.370    22818814.3364   22818817.9514
       179.0004        180.0004
 -14993335.72748 -11524042.57346  22111708.033    22111707.8074   22111713.9344
       170.0004        170.0004
  -9778265.24249  -7594731.73147  23085934.949    23085935.5884   23085943.0354
       195.0004        195.0004
  -9278793.94547  -7204278.55946  23051226.569    23051227.0204   23051236.8724
       162.0004        165.0004
 -19113308.81449 -14862861.99948  20779582.793    20779582.7224   20779589.6634
       215.0004        215.0004
 -21151434.86249 -16464461.06147  20628345.698    20628345.9534   20628353.2354
       206.0004        207.0004
 21  1 31  0 48  0.0000000  0  7G04G07G21G27G01G09G08
 -17362963.79249 -13515686.99047  21092150.162    21092150.8844   21092156.7454
       198.0004        196.0004
 -10941948.73848  -8498686.90946  22804487.088    22804487.4964   22804490.8734
       180.0004        180.0004
 -15028951.73548 -11551795.24346  22104930.950    22104930.6654   22104935.1824
       170.0004        170.0004
  -9676938.52048  -7515775.83547  23105216.670    23105217.2024   23105224.4484
       194.0004        195.0004
  -9356333.96147  -7264699.23046  23036470.795    23036471.4484   23036480.8184
       162.0004        164.0004
 -19112650.79749 -14862349.25248  20779707.266    20779707.7344   20779715.0274
       215.0004        215.0004
 -21098526.41949 -16423233.67547  20638413.460    20638414.3824   20638421.4704
       207.0004        208.0004
 21  1 31  0 48 30.0000000  0  7G04G07G21G27G01G09G08
 -17295004.29349 -13462731.55647  21105081.873    21105082.3954   21105089.3474
       198.0004        196.0004
 -11017271.49448  -8557379.94446  22790152.612    22790153.1274   22790156.9454
       179.0004        179.0004
 -15064270.55348 -11579316.36246  22098209.961    22098209.6894   22098214.4884
       170.0004        172.0004
  -9575408.92848  -7436661.86347  23124536.666    23124536.9904   23124544.7654
       193.0004        192.0004
  -9433891.39747  -7325133.49145  23021711.963    23021711.9904   23021721.1044
       161.0004        162.0004
 -19111426.48549 -14861395.24748  20779940.009    20779940.5644   20779948.1844
       215.0004        215.0004
 -21045136.95049 -16381631.48847  20648573.512    20648573.6294   20648580.8114
       207.0004        207.0004
 21  1 31  0 49  0.0000000  0  7G04G07G21G27G01G09G08
 -17226630.66749 -13409453.41947  21118092.727    21118093.3354   21118100.6374
       197.0004        196.0004
 -11092624.49848  -8616096.54746  22775812.985    22775813.6484   22775818.1064
       178.0004        179.0004
 -15099288.53048 -11606603.06546  22091546.499    22091545.8514   22091550.7024
       170.0004        171.0004
  -9473678.55948  -7357391.44447  23143896.594    23143896.4104   23143903.4614
       193.0004        192.0004
  -9511462.48047  -7385578.40346  23006949.449    23006950.6424   23006959.4374
       161.0004        163.0004
 -19109635.38649 -14859999.59148  20780281.187    20780281.7804   20780288.5954
       215.0004        215.0004
 -20991268.09249 -16339655.74947  20658824.261    20658824.6534   20658831.2434
       206.0004        206.0004
 21  1 31  0 49 30.0000000  0  7G04G07G21G27G01G09G08
 -17157845.91749 -13355854.91547  21131182.018    21131182.5474   21131189.3084
       197.0004        195.0004
 -11168006.47448  -8674835.69946  22761469.406    22761469.2194   22761473.4784
       178.0004        179.0004
 -15134003.65848 -11633653.75046  22084940.459    22084939.7324   22084944.9474
       170.0004        172.0004
  -9371750.93348  -7277967.30647  23163291.199    23163292.5274   23163300.1304
       192.0004        193.0004
  -9589044.77747  -7446032.03946  22992187.067    22992187.9114   22992196.9484
       161.0004        164.0004
 -19107278.48349 -14858163.03648  20780729.809    20780730.1554   20780737.2214
       215.0004        215.0004
 -20936923.03949 -16297308.94247  20669165.411    20669165.6564   20669173.1754
       205.0004        205.0004
 21  1 31  0 50  0.0000000  0  7G04G07G21G27G01G09G08
 -17088654.84249 -13301939.82747  21144349.143    21144349.6904   21144356.1574
       197.0004        196.0004
 -11243417.69048  -8733597.68746  22747118.788    22747119.7754   22747123.1344
       178.0004        179.0004
 -15168415.96848 -11660468.51946  22078392.330    22078391.5434   22078395.8914
       171.0004        172.0004
  -9269631.24048  -7198393.51747  23182723.352    23182724.9694   23182732.6534
       192.0004        191.0004
  -9666637.56847  -7506493.86246  22977422.548    22977422.5994   22977431.7394
       162.0004        163.0004
 -19104358.50449 -14855887.74448  20781285.416    20781285.6234   20781292.5204
       214.0004        214.0004
 -20882106.31249 -16254594.62847  20679595.949    20679596.3954   20679604.9494
       205.0004        205.0004
 21  1 31  0 50 30.0000000  0  7G04G07G21G27G01G09G08
 -17019059.17849 -13247709.43447  21157592.840    21157593.4974   21157599.4244
       197.0004        196.0004
 -11318855.34848  -8792380.23446  22732763.934    22732763.1124   22732767.0384
       178.0004        179.0004
 -15202522.17448 -11687044.72946  22071901.431    22071900.7744   22071906.4944
       171.0004        172.0004
  -9167321.63248  -7118671.71847  23202194.016    23202193.1164   23202202.0094
       191.0004        191.0004
  -9744237.07147  -7566960.88146  22962654.636    22962655.6194   22962664.9014
       161.0004        163.0004
 -19100875.13649 -14853173.41448  20781948.372    20781948.6034   20781955.0464
       214.0004        214.0004
 -20826819.27949 -16211513.79247  20690116.506    20690117.6744   20690125.5654
       205.0004        206.0004
 21  1 31  0 51  0.0000000  0  7G04G07G21G27G01G09G08
 -16949061.58749 -13193165.89347  21170912.641    21170913.2924   21170919.6434
       196.0004        195.0004
 -11394318.00748  -8851182.29746  22718402.471    22718403.0314   22718407.7274
       177.0004        178.0004
 -15236319.92648 -11713380.62146  22065470.147    22065469.5414   22065475.6484
       172.0004        173.0004
  -9064825.14148  -7038804.35147  23221698.156    23221698.3834   23221706.4434
       189.0004        190.0004
  -9821840.41947  -7627430.95745  22947887.698    22947887.3254   22947896.7804
       160.0004        161.0004
 -19096828.91749 -14850020.54348  20782717.797    20782718.3214   20782725.3724
       213.0004        213.0004
 -20771064.34149 -16168068.40047  20700727.772    20700728.2214   20700735.1354
       206.0004        206.0004
 21  1 31  0 51 30.0000000  0  7G04G07G21G27G01G09G08
 -16878662.16849 -13138309.19447  21184309.673    21184310.2104   21184316.3444
       196.0004        195.0004
 -11469800.82248  -8910000.01546  22704039.102    22704039.2894   22704044.0784
       178.0004        180.0004
 -15269803.77248 -11739471.86946  22059098.439    22059098.1374   22059103.4814
       173.0004        174.0004
  -8962142.35748  -6958791.76447  23241238.091    23241238.4544   23241245.7024
       189.0004        189.0004
  -9899442.14347  -7687899.72045  22933118.963    22933120.0824   22933129.7554
       159.0004        161.0004
 -19092218.15049 -14846427.72048  20783595.432    20783595.9764   20783602.6424
       213.0004        214.0004
 -20714841.88449 -16124258.65547  20711426.704    20711426.6414   20711434.2114
       206.0004        206.0004
 21  1 31  0 52  0.0000000  0  7G04G07G21G27G01G09G08
 -16807864.15749 -13083141.94047  21197782.353    21197782.9624   21197788.7184
       197.0004        196.0004
 -11545302.75448  -8968832.67946  22689671.308    22689672.3384   22689676.6094
       180.0004        182.0004
 -15302972.09248 -11765317.29446  22052786.826    22052786.1144   22052791.4724
       173.0004        174.0004
  -8859276.84848  -6878636.81047  23260812.516    23260812.9404   23260820.7864
       189.0004        189.0004
  -9977039.92147  -7748365.43945  22918352.569    22918354.6124   22918362.5974
       160.0004        161.0004
 -19087043.98649 -14842395.89948  20784580.058    20784580.4944   20784587.4854
       214.0004        214.0004
 -20658154.85149 -16080086.93447  20722213.236    20722213.7654   20722221.0494
       206.0004        205.0004
 21  1 31  0 52 30.0000000  0  7G04G07G21G27G01G09G08
 -16736671.81349 -13027667.38747  21211329.805    21211330.0264   21211336.2324
       196.0004        195.0004
 -11620823.36048  -9027679.87246  22675300.484    22675300.8114   22675304.6774
       180.0004        181.0004
 -15335823.91448 -11790916.07046  22046533.944    22046534.6994   22046540.2684
       173.0004        175.0004
  -8756233.21848  -6798343.05047  23280421.091    23280421.0944   23280428.3644
       188.0004        188.0004
 -10054632.47047  -7808827.04946  22903588.020    22903588.0384   22903598.2604
       161.0004        163.0004
 -19081308.67149 -14837926.81848  20785672.523    20785672.5624   20785678.9774
       215.0004        216.0004
 -20601007.58349 -16035556.57047  20733087.984    20733088.1494   20733095.6964
       204.0004        204.0004
 21  1 31  0 53  0.0000000  0  7G04G07G21G27G01G09G08
 -16665087.35249 -12971887.30347  21224951.205    21224952.0204   21224958.0654
       196.0004        195.0004
 -11696360.31948  -9086539.82346  22660925.802    22660926.5004   22660930.1924
       179.0004        180.0004
 -15368356.73548 -11816266.28546  22040344.664    22040344.0624   22040349.2154
       174.0004        175.0004
  -8653013.96348  -6717912.45747  23300062.997    23300062.9114   23300070.8984
       189.0004        189.0004
 -10132216.24747  -7869281.85145  22888825.123    22888824.7164   22888834.2124
       161.0004        162.0004
 -19075012.45149 -14833020.67548  20786869.236    20786869.7584   20786877.0294
       214.0004        214.0004
 -20543401.93349 -15990669.04047  20744050.103    20744050.2894   20744058.0324
       204.0004        204.0004
 21  1 31  0 53 30.0000000  0  7G04G07G21G27G01G09G08
 -16593113.75849 -12915803.99947  21238647.530    21238648.3254   21238654.3424
       196.0004        195.0004
 -11771912.29948  -9145411.48746  22646548.359    22646549.4614   22646553.3314
       179.0004        180.0004
 -15400568.29748 -11841366.17746  22034214.064    22034214.1464   22034220.0914
       174.0004        175.0004
  -8549622.42248  -6637347.63247  23319739.601    23319738.0534   23319745.1374
       189.0004        190.0004
 -10209788.71747  -7929727.84645  22874063.014    22874063.4014   22874072.0094
       159.0004        161.0004
 -19068156.39249 -14827678.29648  20788174.296    20788174.6904   20788181.3464
       214.0004        214.0004
 -20485340.78549 -15945426.57847  20755098.108    20755098.7544   20755106.6974
       204.0004        204.0004
 21  1 31  0 54  0.0000000  0  7G04G07G21G27G01G09G08
 -16520753.40449 -12859419.31147  21252417.633    21252417.7374   21252423.8964
       195.0004        193.0004
 -11847477.12848  -9204293.13646  22632169.014    22632169.4104   22632174.1874
       180.0004        182.0004
 -15432455.93248 -11866213.64446  22028145.674    22028145.2854   22028151.3464
       173.0004        174.0004
  -8446061.34048  -6556650.66346  23339445.450    23339444.6754   23339451.4144
       188.0004        187.0004
 -10287346.56147  -7990162.43145  22859304.240    22859305.0734   22859313.3424
       160.0004        162.0004
 -19060740.92549 -14821900.00848  20789585.916    20789586.1224   20789592.5064
       214.0004        214.0004
 -20426826.70149 -15899831.17347  20766233.324    20766233.6164   20766240.9854
       204.0004        204.0004
 21  1 31  0 54 30.0000000  0  7G04G07G21G27G01G09G08
 -16448009.07149 -12802735.44047  21266260.282    21266260.3884   21266266.8884
       195.0004        194.0004
 -11923052.55748  -9263183.07746  22617787.891    22617788.5604   22617792.3244
       181.0004        182.0004
 -15464017.55148 -11890807.08546  22022140.815    22022140.0634   22022145.8764
       173.0004        173.0004
  -8342333.73648  -6475823.96147  23359184.181    23359184.1394   23359191.6424
       189.0004        190.0004
 -10364886.88447  -8050583.38546  22844549.345    22844548.6624   22844557.9794
       160.0004        163.0004
 -19052766.91249 -14815686.50448  20791103.136    20791103.3174   20791109.9404
       214.0004        214.0004
 -20367862.05449 -15853884.69447  20777454.473    20777454.7894   20777461.6854
       204.0004        205.0004
 21  1 31  0 55  0.0000000  0  7G04G07G21G27G01G09G08
 -16374883.24649 -12745754.29247  21280175.028    21280175.9794   21280182.5594
       195.0004        193.0004
 -11998636.36948  -9322079.56446  22603405.933    22603406.3384   22603408.5264
       182.0004        183.0004
 -15495250.54948 -11915144.44646  22016197.576    22016196.8924   22016201.6904
       173.0004        173.0004
  -8238442.32048  -6394869.62647  23378955.404    23378954.9344   23378960.8704
       191.0004        192.0004
 -10442406.45147  -8110988.15446  22829797.955    22829798.3784   22829806.9554
       161.0004        163.0004
 -19044234.90049 -14809038.17848  20792726.311    20792726.8024   20792733.7674
       213.0004        214.0004
 -20308449.62849 -15807589.27147  20788759.945    20788760.2574   20788767.9254
       204.0004        205.0004
 21  1 31  0 55 30.0000000  0  7G04G07G21G27G01G09G08
 -16301378.90748 -12688478.21547  21294163.416    21294163.5094   21294169.3904
       194.0004        193.0004
 -12074227.19048  -9380981.53746  22589020.667    22589020.7744   22589024.6234
       182.0004        183.0004
 -15526152.71648 -11939224.03246  22010316.492    22010316.1794   22010321.6804
       173.0004        174.0004
  -8134390.36848  -6313790.18347  23398754.814    23398754.6604   23398761.6014
       191.0004        191.0004
 -10519902.55147  -8171374.65246  22815049.174    22815050.2954   22815059.6704
       161.0004        163.0004
 -19035145.97749 -14801955.92148  20794456.384    20794456.5644   20794463.3194
       214.0004        214.0004
 -20248592.07749 -15760947.02747  20800150.535    20800150.6944   20800158.6134
       204.0004        204.0004
 21  1 31  0 56  0.0000000  0  7G04G07G21G27G01G09G08
 -16227498.10849 -12630908.75547  21308222.531    21308223.4364   21308228.5634
       195.0004        194.0004
 -12149822.23748  -9439886.71046  22574635.893    22574636.1194   22574640.5784
       184.0004        185.0004
 -15556721.25348 -11963043.60646  22004499.917    22004498.7384   22004505.4464
       173.0004        173.0004
  -8030180.22948  -6232587.44147  23418585.009    23418585.2274   23418592.2194
       191.0004        191.0004
 -10597371.51947  -8231739.97346  22800309.096    22800308.9414   22800318.0074
       162.0004        164.0004
 -19025500.37549 -14794439.84148  20796291.086    20796291.5244   20796299.1684
       214.0004        214.0004
 -20188291.24849 -15713959.33947  20811625.517    20811625.4104   20811632.9234
       203.0004        203.0004
 21  1 31  0 56 30.0000000  0  7G04G07G21G27G01G09G08
 -16153244.01749 -12573048.44947  21322352.261    21322352.7424   21322358.6784
       195.0004        194.0004
 -12225419.83448  -9498793.91346  22560250.084    22560249.7674   22560254.3444
       185.0004        185.0004
 -15586954.02348 -11986601.57546  21998745.363    21998745.9134   21998752.2874
       173.0004        174.0004
  -7925815.22148  -6151264.06847  23438445.618    23438445.2814   23438452.5484
       192.0004        192.0004
 -10674810.74347  -8292082.13946  22785570.754    22785572.0624   22785581.6374
       163.0004        165.0004
 -19015299.35349 -14786490.99748  20798232.300    20798232.7134   20798240.2944
       213.0004        214.0004
 -20127550.55349 -15666628.92347  20823183.494    20823183.9104   20823191.8474
       203.0004        203.0004
 21  1 31  0 57  0.0000000  0  7G04G07G21G27G01G09G08
 -16078618.11149 -12514898.39647  21336552.705    21336553.5224   21336559.6034
       195.0004        194.0004
 -12301016.67048  -9557700.53646  22545863.835    22545864.1824   22545868.6504
       184.0004        185.0004
 -15616847.51248 -12009895.16346  21993056.498    21993056.8014   21993062.7524
       173.0004        172.0004
  -7821297.07848  -6069821.32047  23458333.723    23458333.9034   23458341.4924
       191.0004        192.0004
 -10752215.92848  -8352397.79346  22770842.603    22770842.9084   22770852.4824
       165.0004        168.0004
 -19004542.56249 -14778109.08148  20800279.691    20800280.0264   20800287.1314
       213.0004        214.0004
 -20066371.17749 -15618956.67447  20834825.926    20834826.0174   20834833.7884
       203.0004        203.0004
 21  1 31  0 57 30.0000000  0  7G04G07G21G27G01G09G08
 -16003624.08749 -12456461.49647  21350823.940    21350824.4494   21350830.6644
       195.0004        193.0004
 -12376612.10748  -9616606.04846  22531478.605    22531478.8554   22531482.3724
       184.0004        184.0004
 -15646400.35648 -12032923.32346  21987433.095    21987433.2434   21987437.5074
       171.0004        173.0004
  -7716629.64448  -5988262.28647  23478251.869    23478251.5764   23478258.4224
       190.0004        189.0004
 -10829585.02148  -8412685.30746  22756119.194    22756119.7764   22756129.0874
       167.0004        169.0004
 -18993231.87049 -14769295.54848  20802432.392    20802432.5594   20802439.0164
       213.0004        213.0004
 -20004756.72649 -15570945.38647  20846550.170    20846550.9074   20846558.2824
       202.0004        202.0004
 21  1 31  0 58  0.0000000  0  7G04G07G21G27G01G09G08
 -15928264.55248 -12397739.81247  21365164.247    21365164.8774   21365170.9054
       194.0004        193.0004
 -12452203.61448  -9675508.51846  22517093.557    22517094.1954   22517099.0044
       185.0004        187.0004
 -15675610.15848 -12055684.16446  21981875.410    21981875.0664   21981879.9874
       171.0004        172.0004
  -7611815.79248  -5906589.14447  23498197.798    23498197.8894   23498204.0124
       191.0004        192.0004
 -10906914.77948  -8472942.20746  22741404.490    22741404.5034   22741412.9684
       167.0004        167.0004
 -18981368.10849 -14760051.05848  20804689.005    20804689.6664   20804697.0434
       213.0004        213.0004
 -19942709.86049 -15522597.16747  20858357.280    20858357.8304   20858365.5544
       202.0004        202.0004
 21  1 31  0 58 30.0000000  0  8G30G04G07G21G27G01G09G08
  -1574393.67354  -1197875.36745  24418719.895
        74.0004        143.0004
 -15852543.31748 -12338736.24947  21379573.808    21379573.9194   21379580.2644
       194.0004        192.0004
 -12527789.92648  -9734406.91346  22502710.898    22502711.4504   22502714.4504
       186.0004        186.0004
 -15704474.98248 -12078176.17946  21976381.927    21976381.7014   21976387.8494
       171.0004        172.0004
  -7506859.40948  -5824804.96847  23518171.140    23518170.4284   23518176.0244
       190.0004        189.0004
 -10984203.22748  -8533166.88446  22726697.808    22726697.3824   22726705.2484
       167.0004        168.0004
 -18968953.20949 -14750377.09948  20807052.065    20807052.2274   20807059.3674
       213.0004        214.0004
 -19880234.04149 -15473914.68147  20870246.041    20870246.4334   20870254.3944
       202.0004        203.0004
 21  1 31  0 59  0.0000000  0  8G30G04G07G21G27G01G09G08
  -1657246.89246  -1262436.27545  24402952.992    24402951.4904   24402964.1674
       134.0004        145.0004
 -15776463.25548 -12279453.12347  21394050.706    21394051.5894   21394057.8154
       193.0004        192.0004
 -12603369.70348  -9793300.26346  22488328.240    22488328.8014   22488332.3334
       185.0004        185.0004
 -15732993.74048 -12100398.56546  21970955.178    21970954.7244   21970959.8174
       171.0004        173.0004
  -7401763.57648  -5742912.10947  23538169.430    23538168.7414   23538175.0594
       188.0004        189.0004
 -11061447.37248  -8593357.08246  22711997.812    22711998.2914   22712006.3664
       167.0004        168.0004
 -18955988.34449 -14740274.62948  20809519.000    20809519.4664   20809526.7824
       213.0004        214.0004
 -19817332.07349 -15424900.18247  20882216.113    20882216.4354   20882224.1834
       202.0004        202.0004
 21  1 31  0 59 30.0000000  0  8G30G04G07G21G27G01G09G08
  -1740219.80047  -1327090.49945  24387163.195    24387163.2014   24387169.2834
       139.0004        145.0004
 -15700027.34348 -12219892.68047  21408596.630    21408596.9354   21408603.1584
       193.0004        192.0004
 -12678940.76748  -9852186.77146  22473947.590    22473947.5804   22473951.9144
       186.0004        187.0004
 -15761163.90848 -12122349.30046  21965594.208    21965594.1464   21965600.5164
       172.0004        173.0004
  -7296531.39748  -5660913.01347  23558192.751    23558193.9674   23558199.9034
       189.0004        189.0004
 -11138644.33648  -8653510.47746  22697306.850    22697307.0994   22697317.0734
       167.0004        169.0004
 -18942474.65949 -14729744.47748  20812090.687    20812091.0534   20812098.0494
       214.0004        214.0004
 -19754007.28449 -15375556.17347  20894266.208    20894266.8624   20894274.3044
       202.0004        202.0004
 21  1 31  1  0  0.0000000  0  8G30G04G07G21G27G01G09G08
  -1823309.76947  -1391835.88445  24371352.337    24371352.8494   24371359.9064
       141.0004        146.0004
 -15623236.87448 -12160055.95947  21423209.356    21423209.9004   21423215.4674
       192.0004        191.0004
 -12754499.43348  -9911063.63847  22459569.890    22459569.9614   22459573.6644
       187.0004        188.0004
 -15788981.65848 -12144025.43346  21960301.002    21960300.4924   21960306.7604
       173.0004        175.0004
  -7191164.27048  -5578808.74147  23578243.968    23578244.3284   23578251.3824
       189.0004        190.0004
 -11215789.57748  -8713623.56746  22682626.245    22682627.0844   22682636.0914
       168.0004        169.0004
 -18928411.75849 -14718786.35648  20814766.818    20814767.2064   20814774.1634
       214.0004        214.0004
 -19690260.25649 -15325883.14447  20906396.758    20906397.1294   20906405.2064
       202.0004        202.0004
 21  1 31  1  0 30.0000000  0  8G30G04G07G21G27G01G09G08
  -1906514.87447  -1456671.00745  24355516.338    24355518.5204   24355525.8744
       139.0004        142.0004
 -15546093.93948 -12099944.61147  21437889.129    21437890.0124   21437895.8714
       192.0004        192.0004
 -12830042.74448  -9969928.55446  22445193.403    22445194.0214   22445197.5394
       187.0004        187.0004
 -15816444.12848 -12165424.75346  21955075.092    21955074.5334   21955081.0344
       174.0004        175.0004
  -7085664.39148  -5496601.06646  23598319.440    23598320.1964   23598326.5724
       188.0004        187.0004
 -11292879.23948  -8773693.38146  22667956.326    22667957.3194   22667966.2624
       168.0004        169.0004
 -18913799.94049 -14707400.54848  20817548.106    20817548.2904   20817554.8344
       214.0004        215.0004
 -19626093.31249 -15275882.94247  20918607.490    20918607.9014   20918615.3764
       201.0004        201.0004
 21  1 31  1  1  0.0000000  0  8G30G04G07G21G27G01G09G08
  -1989832.34547  -1521593.65545  24339661.837    24339662.3214   24339670.5104
       138.0004        143.0004
 -15468599.82848 -12039559.57847  21452635.597    21452636.2864   21452642.5924
       192.0004        191.0004
 -12905567.61648 -10028779.06047  22430821.405    22430822.2964   22430826.5844
       187.0004        188.0004
 -15843547.04648 -12186543.85146  21949917.030    21949916.5194   21949923.8304
       174.0004        175.0004
  -6980033.09348  -5414290.93746  23618419.360    23618420.6414   23618428.3594
       186.0004        186.0004
 -11369908.73248  -8833716.29646  22653297.208    22653298.6114   22653306.9454
       168.0004        170.0004
 -18898638.84849 -14695586.69248  20820432.013    20820432.7064   20820439.7694
       214.0004        213.0004
 -19561507.87949 -15225556.59647  20930897.493    20930897.9464   20930905.7964
       201.0004        201.0004
 21  1 31  1  1 30.0000000  0  8G30G04G07G21G27G01G09G08
  -2073262.46247  -1586604.09745  24323787.051    24323787.2094   24323793.4214
       140.0004        145.0004
 -15390758.78348 -11978904.24047  21467448.829    21467449.2854   21467455.2944
       192.0004        192.0004
 -12981073.35548 -10087614.67547  22416453.595    22416453.6844   22416458.3304
       187.0004        188.0004
 -15870290.52448 -12207382.89546  21944829.455    21944829.3694   21944833.3024
       175.0004        176.0004
  -6874274.79148  -5331881.89946  23638545.910    23638546.7164   23638552.6284
       184.0004        184.0004
 -11446876.42248  -8893691.05046  22638651.616    22638652.5174   22638661.4414
       169.0004        171.0004
 -18882930.98349 -14683346.79248  20823421.207    20823421.7164   20823428.5704
       213.0004        213.0004
 -19496507.71149 -15174907.10847  20943267.073    20943266.8944   20943274.5414
       200.0004        200.0004
 21  1 31  1  2  0.0000000  0  8G30G04G07G21G27G01G09G08
  -2156804.94447  -1651702.11145  24307889.729    24307890.1324   24307896.1324
       143.0004        148.0004
 -15312574.63648 -11917981.54947  21482325.879    21482327.1014   21482332.6304
       192.0004        191.0004
 -13056558.52548 -10146434.26346  22402088.557    22402089.1564   22402093.6084
       187.0004        187.0004
 -15896672.69448 -12227940.42446  21939809.034    21939807.7634   21939813.4294
       175.0004        175.0004
  -6768393.25948  -5249376.79446  23658695.392    23658695.4254   23658700.9864
       183.0004        183.0004
 -11523780.11848  -8953615.94646  22624018.199    22624018.6244   22624027.0804
       170.0004        170.0004
 -18866678.48749 -14670682.52248  20826514.895    20826515.0214   20826521.5674
       213.0004        214.0004
 -19431096.61449 -15123937.41647  20955713.958    20955714.2954   20955722.2714
       200.0004        200.0004
 21  1 31  1  2 30.0000000  0  8G30G04G07G21G27G01G09G08
  -2240459.67647  -1716887.58045  24291971.479    24291970.4584   24291978.5534
       145.0004        149.0004
 -15234051.32248 -11856794.56147  21497269.284    21497269.3914   21497275.8774
       192.0004        191.0004
 -13132022.01848 -10205236.97346  22387728.842    22387729.2544   22387732.9294
       186.0004        186.0004
 -15922692.66748 -12248215.69046  21934856.174    21934856.9434   21934861.6344
       175.0004        176.0004
  -6662392.51648  -5166778.82746  23678867.240    23678867.1014   23678872.6714
       185.0004        186.0004
 -11600617.81948  -9013489.40846  22609396.048    22609396.2794   22609406.0274
       170.0004        170.0004
 -18849883.62949 -14657595.61148  20829710.467    20829710.7814   20829717.6804
       214.0004        214.0004
 -19365278.68749 -15072650.71147  20968239.663    20968239.4004   20968246.7414
       200.0004        201.0004
 21  1 31  1  3  0.0000000  0  8G30G04G07G21G27G01G09G08
  -2324224.61047  -1782158.89945  24276032.229    24276031.1574   24276038.9004
       148.0004        153.0004
 -15155190.86748 -11795344.85847  21512275.797    21512276.1244   21512282.4974
       192.0004        191.0004
 -13207460.97848 -10264020.54646  22373373.521    22373373.3584   22373377.6474
       186.0004        187.0004
 -15948347.81948 -12268206.67646  21929975.588    21929974.8234   21929980.4504
       176.0004        177.0004
  -6556274.69048  -5084089.58046  23699060.644    23699060.8914   23699066.9804
       186.0004        187.0004
 -11677385.64748  -9073308.40946  22594787.161    22594788.2244   22594797.3134
       169.0004        170.0004
 -18832546.82849 -14644086.39448  20833009.332    20833009.7454   20833016.5144
       214.0004        214.0004
 -19299055.88049 -15021048.50047  20980840.287    20980840.8804   20980848.7924
       200.0004        200.0004
 21  1 31  1  3 30.0000000  0  8G30G04G07G21G27G01G09G08
  -2408098.14847  -1847514.88245  24260071.426    24260070.7204   24260078.3784
       151.0004        155.0004
 -15075995.82648 -11733634.46547  21527346.029    21527346.4404   21527352.6024
       192.0004        190.0004
 -13282872.84748 -10322783.05946  22359023.119    22359023.6404   22359027.4804
       187.0004        187.0004
 -15973635.41648 -12287911.31446  21925163.133    21925162.1144   21925168.5334
       176.0004        177.0004
  -6450042.22148  -5001311.05746  23719278.529    23719277.1084   23719281.9654
       187.0004        187.0004
 -11754080.13248  -9133070.30146  22580192.185    22580193.1964   22580202.2904
       169.0004        170.0004
 -18814668.91849 -14630155.58148  20836411.680    20836412.0544   20836418.8054
       214.0004        214.0004
 -19232430.47249 -14969132.61047  20993518.585    20993518.9764   20993527.2904
       199.0004        200.0004
 21  1 31  1  4  0.0000000  0  8G30G04G07G21G27G01G09G08
  -2492080.07947  -1912955.30845  24244089.748    24244089.6564   24244095.9494
       151.0004        154.0004
 -14996470.07048 -11671666.32647  21542478.381    21542479.1244   21542486.1464
       191.0004        190.0004
 -13358256.15448 -10381523.25546  22344677.638    22344677.9894   22344681.9094
       186.0004        186.0004
 -15998554.25948 -12307328.55546  21920420.629    21920420.4724   21920426.4354
       177.0004        178.0004
  -6343699.09148  -4918446.26046  23739514.014    23739512.6314   23739518.3624
       187.0004        187.0004
 -11830699.15048  -9192773.33646  22565612.928    22565613.5804   22565621.9604
       169.0004        171.0004
 -18796252.27449 -14615804.92448  20839916.386    20839916.4334   20839923.1884
       214.0004        214.0004
 -19165406.65149 -14916906.21747  21006272.318    21006272.9214   21006281.7044
       199.0004        199.0004
 21  1 31  1  4 30.0000000  0  8G30G04G07G21G27G01G09G08
  -2576166.63947  -1978477.28345  24228088.400    24228087.0824   24228094.7804
       150.0004        153.0004
 -14916614.02848 -11609440.86947  21557675.281    21557675.9254   21557682.3684
       192.0004        191.0004
 -13433607.28248 -10440238.43046  22330338.075    22330339.3614   22330343.3144
       186.0004        185.0004
 -16023099.68448 -12326454.85546  21915749.349    21915749.2444   21915755.2804
       177.0004        177.0004
  -6237245.67948  -4835495.56046  23759770.279    23759769.7824   23759776.0774
       186.0004        185.0004
 -11907237.13548  -9252413.27346  22551048.020    22551048.4704   22551057.2914
       168.0004        168.0004
 -18777295.63649 -14601033.53848  20843523.016    20843523.6634   20843530.5874
       213.0004        214.0004
 -19097984.05749 -14864369.14147  21019103.476    21019103.5694   21019111.2364
       198.0004        199.0004
 21  1 31  1  5  0.0000000  0  8G30G04G07G21G27G01G09G08
  -2660357.11447  -2044080.21645  24212066.322    24212066.3534   24212073.5044
       151.0004        154.0004
 -14836431.11848 -11546960.69747  21572934.204    21572934.5564   21572939.6164
       192.0004        191.0004
 -13508924.07748 -10498926.81746  22316004.991    22316006.4354   22316011.5144
       186.0004        187.0004
 -16047270.19748 -12345288.99446  21911150.007    21911150.8114   21911155.3064
       176.0004        177.0004
  -6130685.33348  -4752461.52646  23780046.262    23780046.7364   23780053.1674
       184.0004        183.0004
 -11983691.44248  -9311987.99846  22536498.722    22536499.4264   22536507.7134
       168.0004        169.0004
 -18757800.86549 -14585842.80548  20847233.477    20847233.6584   20847240.3464
       213.0004        214.0004
 -19030166.80749 -14811524.51247  21032009.239    21032009.2214   21032016.5474
       199.0004        200.0004
 21  1 31  1  5 30.0000000  0  8G30G04G07G21G27G01G09G08
  -2744649.51747  -2109762.56645  24196026.170    24196026.3504   24196033.5664
       152.0004        155.0004
 -14755923.50748 -11484227.49347  21588253.711    21588254.4454   21588259.8094
       191.0004        190.0004
 -13584203.49848 -10557586.08347  22301681.681    22301682.5264   22301685.9774
       187.0004        188.0004
 -16071063.13548 -12363828.91646  21906623.779    21906623.2314   21906627.0094
       177.0004        177.0004
  -6024020.21048  -4669345.85546  23800343.849    23800344.4174   23800350.7014
       183.0004        183.0004
 -12060058.25748  -9371494.53646  22521966.655    22521966.9554   22521976.3514
       168.0004        170.0004
 -18737768.58649 -14570233.22448  20851045.220    20851045.5854   20851052.3714
       213.0004        214.0004
 -18961956.60049 -14758373.68047  21044988.094    21044988.2844   21044996.8754
       199.0004        199.0004
 21  1 31  1  6  0.0000000  0  8G30G04G07G21G27G01G09G08
  -2829043.66847  -2175524.20845  24179965.926    24179966.4624   24179974.8444
       154.0004        156.0004
 -14675095.26248 -11421244.44447  21603634.194    21603635.3744   21603641.4164
       191.0004        190.0004
 -13659444.46348 -10616215.39446  22287364.203    22287363.8124   22287367.4814
       187.0004        187.0004
 -16094477.09948 -12382073.52246  21902166.928    21902166.7464   21902172.5184
       177.0004        178.0004
  -5917254.37148  -4586151.67246  23820660.720    23820661.2194   23820666.8164
       181.0004        180.0004
 -12136335.59548  -9430931.33546  22507451.487    22507452.1574   22507461.7174
       169.0004        170.0004
 -18717201.31349 -14554206.76748  20854959.011    20854959.1414   20854966.3134
       213.0004        214.0004
 -18893357.57349 -14704919.86747  21058041.469    21058042.2954   21058050.4774
       198.0004        198.0004
 21  1 31  1  6 30.0000000  0  8G30G04G07G21G27G01G09G08
  -2913538.89947  -2241364.62045  24163887.490    24163887.7674   24163895.4474
       154.0004        157.0004
 -14593949.99348 -11358014.38247  21619075.831    21619076.3304   21619082.5934
       190.0004        189.0004
 -13734645.78048 -10674813.81746  22273052.352    22273052.5964   22273057.6254
       186.0004        187.0004
 -16117511.21448 -12400022.16846  21897782.740    21897783.1394   21897789.2964
       177.0004        178.0004
  -5810391.23848  -4502881.73046  23840996.343    23840997.1874   23841003.3984
       181.0004        182.0004
 -12212521.00748  -9490296.52646  22492953.717    22492953.9884   22492963.2554
       169.0004        169.0004
 -18696101.12149 -14537765.06748  20858973.942    20858974.3614   20858981.4484
       213.0004        213.0004
 -18824373.21149 -14651165.81447  21071169.056    21071169.6084   21071177.5654
       198.0004        198.0004
 21  1 31  1  7  0.0000000  0  8G30G04G07G21G27G01G09G08
  -2998132.69447  -2307281.83545  24147790.276    24147790.3064   24147798.0034
       155.0004        158.0004
 -14512489.32348 -11294538.54247  21634577.684    21634578.3854   21634583.8844
       190.0004        189.0004
 -13809803.80748 -10733378.52446  22258751.044    22258751.7864   22258755.1524
       186.0004        187.0004
 -16140162.19348 -12417672.24946  21893474.270    21893473.2494   21893479.2604
       177.0004        178.0004
  -5703432.48348  -4419537.19846  23861350.811    23861350.8504   23861356.0104
       181.0004        181.0004
 -12288610.01148  -9549586.58646  22478474.805    22478475.2474   22478484.7184
       169.0004        171.0004
 -18674468.11249 -14520908.17148  20863091.012    20863091.0564   20863097.8674
       213.0004        213.0004
 -18755004.97049 -14597112.62347  21084369.655    21084370.0454   21084377.5354
       197.0004        198.0004
 21  1 31  1  7 30.0000000  0  8G30G04G07G21G27G01G09G08
  -3082825.20247  -2373275.98145  24131673.665    24131673.5974   24131680.8654
       156.0004        158.0004
 -14430717.70848 -11230820.41547  21650138.156    21650138.8994   21650145.2754
       190.0004        189.0004
 -13884917.90848 -10791908.98546  22244457.053    22244457.3964   22244461.5934
       187.0004        186.0004
 -16162429.45248 -12435023.32246  21889236.404    21889236.0134   21889241.5524
       177.0004        176.0004
  -5596382.38748  -4336121.57346  23881720.739    23881721.9394   23881727.3404
       182.0004        183.0004
 -12364601.02648  -9608800.29846  22464014.697    22464015.5144   22464022.5664
       170.0004        171.0004
 -18652305.26649 -14503638.41948  20867307.671    20867308.5244   20867315.2024
       212.0004        213.0004
 -18685257.21749 -14542763.71647  21097641.932    21097642.3344   21097650.3144
       197.0004        197.0004
 21  1 31  1  8  0.0000000  0  8G30G04G07G21G27G01G09G08
  -3167614.82947  -2439345.80545  24115537.733    24115538.7644   24115546.4954
       156.0004        159.0004
 -14348637.86648 -11166862.11947  21665758.004    21665757.8114   21665764.5634
       190.0004        190.0004
 -13959985.36148 -10850403.08646  22230172.153    22230172.4864   22230177.0444
       187.0004        187.0004
 -16184310.31548 -12452073.32946  21885073.122    21885073.1324   21885078.1374
       177.0004        178.0004
  -5489243.56648  -4252636.78346  23902108.543    23902108.6744   23902116.4984
       182.0004        183.0004
 -12440490.58348  -9667934.97046  22449571.794    22449573.5284   22449580.9004
       169.0004        169.0004
 -18629613.79349 -14485956.76248  20871626.277    20871626.6264   20871633.6454
       213.0004        213.0004
 -18615133.05849 -14488121.50047  21110986.582    21110986.7074   21110994.2094
       196.0004        197.0004
 21  1 31  1  8 30.0000000  0  8G30G04G07G21G27G01G09G08
  -3252498.92047  -2505489.21745  24099385.179    24099386.3424   24099392.6864
       156.0004        158.0004
 -14266251.34348 -11102664.83347  21681435.498    21681435.8584   21681442.2364
       191.0004        190.0004
 -14035002.72448 -10908858.14747  22215896.576    22215897.3404   22215901.4544
       187.0004        188.0004
 -16205801.42248 -12468819.59546  21880982.674    21880982.3634   21880987.7824
       177.0004        177.0004
  -5382017.44648  -4169083.95146  23922512.231    23922512.4634   23922520.3244
       180.0004        179.0004
 -12516274.25148  -9726987.09846  22435151.727    22435152.2774   22435160.8954
       169.0004        171.0004
 -18606393.82949 -14467863.27448  20876045.031    20876045.4244   20876052.2644
       213.0004        214.0004
 -18544633.60849 -14433186.84347  21124402.204    21124401.9704   21124409.9844
       196.0004        196.0004
 21  1 31  1  9  0.0000000  0  8G30G04G07G21G27G01G09G08
  -3337475.43547  -2571704.67345  24083216.377    24083215.9864   24083222.4134
       156.0004        157.0004
 -14183560.55348 -11038230.46547  21697170.251    21697171.2484   21697177.4924
       190.0004        189.0004
 -14109967.23048 -10967272.03747  22201630.568    22201632.1464   22201636.5544
       188.0004        189.0004
 -16226900.99748 -12485260.78146  21876967.660    21876966.9714   21876973.0054
       177.0004        177.0004
  -5274706.25448  -4085464.86346  23942932.164    23942932.6984   23942941.4844
       178.0004        177.0004
 -12591948.24648  -9785953.78046  22420752.277    22420752.1994   22420760.5354
       170.0004        172.0004
 -18582646.29549 -14449358.71048  20880563.917    20880564.0114   20880571.2344
       213.0004        213.0004
 -18473761.14349 -14377961.52747  21137887.664    21137888.2484   21137897.2514
       196.0004        196.0004
 21  1 31  1  9 30.0000000  0  8G30G04G07G21G27G01G09G08
  -3422546.19347  -2637993.53845  24067027.830    24067027.5384   24067034.1894
       156.0004        158.0004
 -14100571.56048 -10973563.72347  21712962.985    21712963.1624   21712970.4524
       190.0004        189.0004
 -14184879.70348 -11025645.38447  22187375.895    22187376.8214   22187381.1954
       189.0004        189.0004
 -16247609.57948 -12501397.30146  21873026.488    21873026.7174   21873031.2834
       177.0004        177.0004
  -5167315.95948  -4001784.11546  23963369.390    23963369.3324   23963377.2754
       179.0004        180.0004
 -12667512.54148  -9844834.99446  22406371.997    22406373.0844   22406380.5864
       171.0004        172.0004
 -18558375.87849 -14430446.69848  20885181.881    20885182.4804   20885189.7164
       213.0004        213.0004
 -18402521.70749 -14322450.26347  21151444.299    21151444.6434   21151453.4644
       195.0004        195.0004
 21  1 31  1 10  0.0000000  0  8G30G04G07G21G27G01G09G08
  -3507708.22847  -2704353.48645  24050819.740    24050820.1254   24050828.3834
       156.0004        158.0004
 -14017285.72048 -10908665.68247  21728811.964    21728812.5654   21728818.7554
       190.0004        189.0004
 -14259736.04248 -11083974.98647  22173132.474    22173132.5374   22173136.6874
       189.0004        190.0004
 -16267924.24948 -12517226.88146  21869161.022    21869161.2234   21869166.5434
       177.0004        178.0004
  -5059847.70748  -3918042.64246  23983817.585    23983818.8404   23983826.9984
       176.0004        175.0004
 -12742962.31748  -9903626.95346  22392013.909    22392014.8564   22392023.2104
       170.0004        171.0004
 -18533582.49449 -14411127.18847  20889900.196    20889900.8204   20889907.6884
       212.0004        212.0004
 -18330916.49049 -14266653.97847  21165070.053    21165070.9764   21165079.6134
       195.0004        196.0004
 21  1 31  1 10 30.0000000  0  8G30G04G07G21G27G01G09G08
  -3592957.65647  -2770781.58345  24034597.876    24034598.7014   24034606.6884
       158.0004        161.0004
 -13933703.59348 -10843536.75647  21744716.373    21744716.9574   21744723.9674
       189.0004        188.0004
 -14334531.83248 -11142257.40847  22158899.161    22158898.8184   22158902.3334
       189.0004        188.0004
 -16287840.05748 -12532745.63846  21865370.843    21865370.3554   21865376.7254
       177.0004        178.0004
  -4952301.89348  -3834240.73946  24004283.884    24004284.7234   24004291.0854
       174.0004        175.0004
 -12818291.97648  -9962325.31746  22377678.502    22377679.6304   22377688.1214
       171.0004        173.0004
 -18508265.29749 -14391399.49147  20894717.788    20894718.2364   20894725.3444
       212.0004        212.0004
 -18258946.47149 -14210573.42647  21178766.427    21178766.8144   21178774.6474
       195.0004        196.0004
 21  1 31  1 11  0.0000000  0  8G30G04G07G21G27G01G09G08
  -3678294.32047  -2837277.64546  24018359.928    24018360.2274   24018367.2214
       160.0004        163.0004
 -13849829.37148 -10778180.23046  21760677.254    21760678.2524   21760684.5474
       188.0004        187.0004
 -14409266.37648 -11200492.09747  22144677.077    22144677.4824   22144681.5504
       188.0004        189.0004
 -16307356.34548 -12547953.11046  21861657.918    21861657.5094   21861662.5244
       178.0004        178.0004
  -4844682.51248  -3750381.47246  24024762.664    24024763.3214   24024771.9714
       172.0004        173.0004
 -12893499.58148 -10020928.58746  22363367.791    22363368.2264   22363376.3064
       172.0004        173.0004
 -18482427.16349 -14371265.88548  20899634.822    20899635.5944   20899642.4024
       212.0004        213.0004
 -18186615.33949 -14154211.48547  21192531.190    21192531.1994   21192538.7744
       196.0004        196.0004
 21  1 31  1 11 30.0000000  0  8G30G04G07G21G27G01G09G08
  -3763717.52247  -2903841.16445  24002104.530    24002104.4324   24002110.5354
       158.0004        158.0004
 -13765666.68448 -10712598.94446  21776692.969    21776693.3844   21776700.0434
       188.0004        187.0004
 -14483937.54148 -11258677.40247  22130467.422    22130467.6104   22130471.7934
       190.0004        191.0004
 -16326472.05248 -12562848.43146  21858020.671    21858020.0894   21858024.6374
       178.0004        179.0004
  -4736993.03148  -3666467.64246  24045256.957    24045256.1844   24045263.2674
       173.0004        174.0004
 -12968582.58748 -10079434.78146  22349081.071    22349081.7094   22349088.8404
       173.0004        174.0004
 -18456070.37449 -14350728.13448  20904650.355    20904650.7794   20904657.8014
       212.0004        213.0004
 -18113927.07849 -14097571.27447  21206362.538    21206362.9694   21206371.1284
       196.0004        195.0004
 21  1 31  1 12  0.0000000  0  8G30G04G07G21G27G01G09G08
  -3849228.03447  -2970472.69445  23985832.696    23985832.1764   23985838.1844
       154.0004        154.0004
 -13681220.76848 -10646796.92746  21792762.961    21792763.7274   21792769.2294
       187.0004        187.0004
 -14558544.64648 -11316812.78347  22116270.085    22116270.6834   22116274.5954
       191.0004        191.0004
 -16345187.50948 -12577431.84646  21854457.638    21854457.8324   21854462.9214
       178.0004        178.0004
  -4629238.37048  -3582502.95646  24065761.860    24065760.7884   24065769.2784
       172.0004        173.0004
 -13043540.04748 -10137843.11146  22334816.649    22334816.9464   22334825.1774
       173.0004        175.0004
 -18429198.75549 -14329789.19948  20909763.959    20909764.4424   20909771.7524
       212.0004        213.0004
 -18040886.39448 -14040656.41947  21220260.379    21220261.1954   21220270.3184
       194.0004        194.0004
 21  1 31  1 12 30.0000000  0  8G30G04G07G21G27G01G09G08
  -3934821.92747  -3037169.22445  23969544.490    23969543.8674   23969550.0904
       153.0004        155.0004
 -13596492.16848 -10580774.64846  21808885.775    21808886.6994   21808893.2284
       187.0004        187.0004
 -14633083.99548 -11374895.37847  22102086.387    22102086.6394   22102090.1124
       191.0004        191.0004
 -16363498.36848 -12591700.02146  21850972.961    21850972.4574   21850978.5834
       178.0004        178.0004
  -4521418.94948  -3498487.84446  24086279.195    24086279.1354   24086285.5934
       174.0004        175.0004
 -13118366.33148 -10196149.24446  22320577.663    22320576.9844   22320586.1004
       174.0004        175.0004
 -18401811.60049 -14308448.56247  20914975.164    20914975.6454   20914983.0244
       212.0004        212.0004
 -17967494.00448 -13983467.53547  21234226.709    21234227.5474   21234236.7574
       194.0004        195.0004
 21  1 31  1 13  0.0000000  0  8G30G04G07G21G27G01G09G08
  -4020497.78847  -3103929.63045  23953240.701    23953241.2044   23953248.0084
       154.0004        157.0004
 -13511483.87848 -10514534.43746  21825062.861    21825063.3044   21825069.2214
       187.0004        186.0004
 -14707553.14648 -11432923.28747  22087915.361    22087915.5194   22087919.1974
       191.0004        191.0004
 -16381402.99148 -12605651.65546  21847565.750    21847565.7494   21847571.6234
       177.0004        178.0004
  -4413537.48648  -3414424.35446  24106806.912    24106808.0704   24106816.3194
       174.0004        175.0004
 -13193058.24248 -10254350.68046  22306363.102    22306363.6264   22306372.4994
       173.0004        174.0004
 -18373910.59049 -14286707.52147  20920284.566    20920284.8034   20920292.1844
       211.0004        211.0004
 -17893752.63549 -13926006.73447  21248260.441    21248260.9054   21248268.5854
       195.0004        195.0004
 21  1 31  1 13 30.0000000  0  8G30G04G07G21G27G01G09G08
  -4106252.92647  -3170751.77245  23936921.646    23936920.8574   23936928.9854
       154.0004        157.0004
 -13426197.61348 -10448077.62446  21841293.048    21841292.9934   21841298.6164
       187.0004        186.0004
 -14781948.34448 -11490893.53047  22073757.635    22073758.8294   22073762.5824
       191.0004        191.0004
 -16398898.23048 -12619284.26646  21844237.883    21844236.8254   21844241.4824
       177.0004        178.0004
  -4305595.42348  -3330313.66846  24127348.942    24127350.0544   24127355.5954
       174.0004        176.0004
 -13267611.25848 -10312443.88346  22292175.383    22292176.3874   22292185.9164
       173.0004        173.0004
 -18345496.14749 -14264566.39447  20925692.150    20925692.5454   20925699.3264
       211.0004        212.0004
 -17819664.29949 -13868275.54547  21262359.120    21262359.3184   21262366.5504
       195.0004        195.0004
 21  1 31  1 14  0.0000000  0  8G30G04G07G21G27G01G09G08
  -4192086.38547  -3237634.91045  23920586.996    23920586.6284   23920594.8364
       152.0004        155.0004
 -13340636.97448 -10381406.99846  21857574.057    21857574.3354   21857580.8074
       186.0004        186.0004
 -14856267.51348 -11548804.54047  22059614.472    22059615.4704   22059620.0954
       191.0004        192.0004
 -16415982.58848 -12632596.71246  21840986.336    21840986.3464   21840990.5884
       178.0004        178.0004
  -4197596.01348  -3246158.27446  24147899.996    24147901.5574   24147908.3624
       175.0004        177.0004
 -13342022.78348 -10370426.80846  22278016.980    22278017.3114   22278026.3234
       173.0004        174.0004
 -18316570.59749 -14242026.98747  20931196.174    20931196.7094   20931203.7714
       211.0004        211.0004
 -17745232.49148 -13810276.69847  21276522.504    21276522.9094   21276530.8604
       194.0004        194.0004
 21  1 31  1 14 30.0000000  0  8G30G04G07G21G27G01G09G08
  -4277997.01647  -3304578.24345  23904239.782    23904239.7234   23904246.4404
       154.0004        158.0004
 -13254805.34348 -10314525.22546  21873906.632    21873906.9004   21873913.1344
       185.0004        184.0004
 -14930509.16148 -11606655.17747  22045487.752    22045488.5254   22045492.5724
       192.0004        193.0004
 -16432654.88148 -12645588.10246  21837813.769    21837813.8184   21837818.2384
       178.0004        179.0004
  -4089542.43348  -3161960.70246  24168461.573    24168463.2194   24168469.5894
       176.0004        176.0004
 -13416289.99248 -10428297.30446  22263883.310    22263884.2864   22263893.6634
       174.0004        176.0004
 -18287136.09049 -14219091.01047  20936797.765    20936797.8934   20936805.1154
       211.0004        211.0004
 -17670460.27948 -13752012.63647  21290750.806    21290751.2314   21290759.7944
       193.0004        194.0004
 21  1 31  1 15  0.0000000  0  8G30G04G07G21G27G01G09G08
  -4363983.89947  -3371580.97445  23887878.844    23887877.0144   23887883.8374
       156.0004        159.0004
 -13168706.23348 -10247435.00446  21890290.743    21890291.4214   21890297.7544
       184.0004        184.0004
 -15004671.38348 -11664443.90047  22031375.442    22031375.6194   22031378.9304
       192.0004        192.0004
 -16448914.12348 -12658257.59246  21834720.580    21834719.7324   21834724.1994
       179.0004        180.0004
  -3981437.92348  -3077723.43446  24189034.203    24189034.8864   24189041.5264
       177.0004        178.0004
 -13490410.14648 -10486053.20646  22249778.772    22249779.5894   22249787.3664
       175.0004        175.0004
 -18257194.92949 -14195760.21447  20942494.713    20942495.1694   20942502.4104
       211.0004        211.0004
 -17595351.10248 -13693485.98047  21305043.875    21305044.3644   21305052.4824
       193.0004        194.0004
 21  1 31  1 15 30.0000000  0  8G30G04G07G21G27G01G09G08
  -4450045.86047  -3438642.21545  23871500.254    23871500.0374   23871507.2324
       157.0004        158.0004
 -13082342.99248 -10180138.99746  21906725.763    21906726.1094   21906732.4754
       185.0004        185.0004
 -15078751.98048 -11722169.03347  22017277.389    22017278.1194   22017282.5494
       191.0004        191.0004
 -16464758.49248 -12670603.83546  21831704.677    21831703.9754   21831709.6984
       179.0004        179.0004
  -3873285.47748  -2993448.83046  24209615.426    24209615.7764   24209621.6794
       176.0004        177.0004
 -13564380.40248 -10543692.33246  22235702.429    22235703.6374   22235711.7494
       174.0004        175.0004
 -18226749.22449 -14172036.30447  20948288.928    20948289.2784   20948295.9444
       211.0004        212.0004
 -17519908.67248 -13634699.67447  21319400.417    21319401.0734   21319408.5184
       193.0004        193.0004
 21  1 31  1 16  0.0000000  0  8G30G04G07G21G27G01G09G08
  -4536180.11647  -3505759.78945  23855109.806    23855109.6794   23855115.3844
       154.0004        156.0004
 -12995717.41748 -10112638.56246  21923209.919    21923210.4234   21923216.8484
       185.0004        184.0004
 -15152747.14848 -11779827.58847  22003196.819    22003197.6314   22003201.3124
       192.0004        192.0004
 -16480184.71548 -12682624.24446  21828769.456    21828768.9914   21828774.3094
       179.0004        179.0004
  -3765086.61148  -2909138.03346  24230204.469    24230205.0984   24230211.3954
       178.0004        179.0004
 -13638196.31748 -10601211.15946  22221655.880    22221656.3174   22221665.2084
       174.0004        175.0004
 -18195799.63849 -14147919.73647  20954177.892    20954178.4914   20954185.6424
       211.0004        211.0004
 -17444134.55948 -13575654.89947  21333820.169    21333820.7454   21333827.9364
       194.0004        195.0004
 21  1 31  1 16 30.0000000  0  8G30G04G07G21G27G01G09G08
  -4622385.24847  -3572932.59045  23838704.296    23838705.1614   23838712.0234
       152.0004        153.0004
 -12908832.62948 -10044936.14146  21939743.115    21939743.9424   21939750.2804
       184.0004        184.0004
 -15226654.82148 -11837417.96747  21989133.199    21989133.3844   21989137.6384
       193.0004        193.0004
 -16495191.73748 -12694318.00246  21825913.602    21825913.3754   21825918.0474
       179.0004        180.0004
  -3656844.08048  -2824793.18946  24250802.539    24250803.2564   24250809.5114
       179.0004        181.0004
 -13711854.72548 -10658607.27246  22207639.375    22207639.3444   22207648.9344
       175.0004        176.0004
 -18164348.04249 -14123411.99547  20960163.145    20960163.6854   20960170.8024
       211.0004        212.0004
 -17368031.03448 -13516353.43647  21348302.307    21348302.5434   21348310.4034
       194.0004        195.0004
 21  1 31  1 17  0.0000000  0  8G30G04G07G21G27G01G09G08
  -4708659.30447  -3640159.12045  23822287.034    23822286.3314   23822294.4554
       151.0004        154.0004
 -12821691.22648  -9977033.76946  21956326.173    21956326.7854   21956333.0744
       185.0004        185.0004
 -15300472.34248 -11894938.12047  21975085.824    21975086.2564   21975090.0704
       193.0004        193.0004
 -16509776.59848 -12705682.81546  21823138.060    21823137.7224   21823143.8664
       179.0004        180.0004
  -3548560.06648  -2740416.06846  24271408.956    24271409.1824   24271416.3104
       182.0004        183.0004
 -13785351.96148 -10715877.80646  22193653.359    22193654.4934   22193662.5834
       176.0004        177.0004
 -18132395.90549 -14098514.23447  20966243.230    20966243.4684   20966251.2074
       211.0004        211.0004
 -17291601.44048 -13456797.91447  21362845.461    21362846.3524   21362854.1894
       193.0004        193.0004
 21  1 31  1 17 30.0000000  0  9G30G04G07G21G27G01G09G17G08
  -4795001.94647  -3707439.04745  23805855.066    23805856.5774   23805863.8464
       151.0004        155.0004
 -12734297.44848  -9908934.72846  21972956.934    21972957.3254   21972963.6554
       185.0004        184.0004
 -15374198.45648 -11952387.01147  21961056.113    21961056.5164   21961060.1924
       192.0004        192.0004
 -16523939.94048 -12716719.14946  21820441.878    21820442.5464   21820447.7214
       180.0004        179.0004
  -3440238.56848  -2656009.72146  24292021.764    24292021.7484   24292027.8234
       179.0004        178.0004
 -13858686.03048 -10773021.16846  22179698.310    22179698.8784   22179707.4994
       177.0004        178.0004
 -18099946.36149 -14073228.85947  20972418.093    20972418.2694   20972425.9794
       210.0004        211.0004
   1812366.62754
        74.0004
 -17214849.86148 -13396991.47747  21377451.745    21377451.9794   21377459.4934
       193.0004        194.0004
 21  1 31  1 18  0.0000000  0  9G30G04G07G21G27G01G09G17G08
  -4881410.50147  -3774770.37145  23789414.382    23789414.1374   23789421.1734
       154.0004        157.0004
 -12646653.21348  -9840640.54646  21989635.235    21989635.2424   21989642.0354
       184.0004        183.0004
 -15447829.34848 -12009761.74447  21947045.521    21947045.9344   21947048.8094
       192.0004        192.0004
 -16537678.51848 -12727424.51746  21817828.581    21817828.2434   21817832.4964
       179.0004        179.0004
  -3331881.08948  -2571575.29346  24312641.898    24312642.0674   24312646.9414
       177.0004        176.0004
 -13931852.63648 -10830034.07846  22165774.911    22165775.4734   22165783.1614
       176.0004        176.0004
 -18067000.17749 -14047556.51847  20978687.907    20978688.5774   20978695.2574
       210.0004        211.0004
   1812366.62744   1442972.106 3                                  24709610.988
        74.0004         74.000
 -17137778.41748 -13336935.80547  21392118.166    21392118.4234   21392126.0744
       193.0004        195.0004
 21  1 31  1 18 30.0000000  0  9G30G04G07G21G27G01G09G17G08
  -4967884.14847  -3842152.42645  23772958.870    23772958.7694   23772965.5374
       156.0004        159.0004
 -12558762.39048  -9772154.18946  22006359.359    22006360.2534   22006366.6114
       184.0004        184.0004
 -15521363.59348 -12067061.13547  21933051.634    21933052.3434   21933055.9304
       193.0004        193.0004
 -16550991.21848 -12737798.01746  21815295.803    21815295.0974   21815299.2734
       179.0004        179.0004
  -3223491.08748  -2487115.53746  24333267.712    24333267.7074   24333273.7124
       175.0004        174.0004
 -14004849.30348 -10886914.52746  22151882.707    22151884.2584   22151893.4454
       176.0004        177.0004
 -18033560.11649 -14021499.31547  20985051.527    20985052.5254   20985058.3974
       210.0004        210.0004
  -1875712.51846  -1433166.95845  24285134.388                    24285139.6234
       114.0004        139.0004
 -17060390.49448 -13276633.50547  21406843.758    21406844.0434   21406852.3844
       193.0004        193.0004
 21  1 31  1 19  0.0000000  0  9G30G04G07G21G27G01G09G17G08
  -5054421.57547  -3909584.17345  23756489.801    23756490.0614   23756498.2934
       157.0004        160.0004
 -12470628.22648  -9703478.22746  22023131.427    22023132.1934   22023138.0434
       185.0004        184.0004
 -15594799.01348 -12124283.51447  21919077.652    21919078.1514   21919081.6654
       194.0004        194.0004
 -16563876.90148 -12747838.76446  21812842.363    21812842.5074   21812846.8564
       178.0004        178.0004
  -3115071.42948  -2402632.68046  24353899.573    24353899.7104   24353903.7714
       171.0004        172.0004
 -14077673.06448 -10943660.26046  22138025.168    22138026.4554   22138035.4614
       175.0004        176.0004
 -17999628.35849 -13995058.96847  20991507.672    20991508.1604   20991516.4744
       210.0004        209.0004
  -1973010.88046  -1508983.65645  24266619.494    24266619.3374   24266623.0244
       127.0004        137.0004
 -16982689.37148 -13216087.15447  21421628.921    21421630.0664   21421638.7914
       192.0004        193.0004
 21  1 31  1 19 30.0000000  0  9G30G04G07G21G27G01G09G17G08
  -5141022.35947  -3977065.24745  23740010.604    23740009.9064   23740019.3364
       157.0004        159.0004
 -12382254.92248  -9634615.94046  22039948.228    22039948.9744   22039954.5934
       184.0004        182.0004
 -15668134.11549 -12181427.75947  21905123.020    21905123.3714   21905127.2704
       195.0004        195.0004
 -16576335.27948 -12757546.58346  21810472.547    21810472.0754   21810476.4514
       178.0004        179.0004
  -3006625.92648  -2318129.65346  24374535.743    24374535.7994   24374541.6174
       173.0004        174.0004
 -14150321.79548 -11000269.62846  22124200.938    22124202.2354   22124211.0504
       176.0004        178.0004
 -17965208.02049 -13968237.92947  20998057.750    20998058.0714   20998066.1604
       209.0004        209.0004
  -2070093.26446  -1584632.15345  24248144.464    24248144.1744   24248149.1094
       131.0004        138.0004
 -16904679.38748 -13155300.15747  21436474.409    21436474.7314   21436483.3914
       192.0004        192.0004
 21  1 31  1 20  0.0000000  0  9G30G04G07G21G27G01G09G17G08
  -5227683.64847  -4044593.51345  23723519.367    23723519.8064   23723527.7184
       157.0004        159.0004
 -12293644.32048  -9565568.73046  22056810.712    22056811.1664   22056816.0874
       183.0004        182.0004
 -15741365.78948 -12238491.38347  21891186.353    21891186.9504   21891191.7264
       194.0004        195.0004
 -16588363.53748 -12766919.22546  21808184.132    21808183.3244   21808187.8854
       179.0004        180.0004
  -2898155.98148  -2233607.66946  24395175.733    24395176.8314   24395182.9794
       172.0004        173.0004
 -14222791.09148 -11056739.15346  22110411.657    22110411.8864   22110419.7974
       177.0004        178.0004
 -17930299.92249 -13941036.81647  21004700.896    21004701.0144   21004708.8114
       209.0004        210.0004
  -2166956.18947  -1660109.66245  24229711.328    24229712.0964   24229717.0284
       136.0004        143.0004
 -16826361.76148 -13094273.43247  21451378.261    21451378.5084   21451386.5274
       192.0004        192.0004
 21  1 31  1 20 30.0000000  0  9G30G04G07G21G27G01G09G17G08
  -5314402.38147  -4112166.53145  23707018.840    23707018.0544   23707025.0814
       156.0004        158.0004
 -12204797.99648  -9496337.82146  22073716.195    22073717.0564   22073724.4924
       183.0004        182.0004
 -15814489.71048 -12295471.03547  21877271.624    21877272.0174   21877276.0784
       194.0004        194.0004
 -16599958.45548 -12775954.17846  21805976.948    21805976.5014   21805981.7624
       180.0004        181.0004
  -2789662.73248  -2149067.47046  24415821.662    24415822.8024   24415827.9954
       172.0004        172.0004
 -14295076.21648 -11113065.15246  22096655.353    22096656.2934   22096664.4654
       177.0004        179.0004
 -17894904.59049 -13913456.02547  21011436.330    21011436.7604   21011443.9884
       210.0004        210.0004
  -2263596.08247  -1735413.27345  24211320.999    24211320.6064   24211327.8914
       141.0004        146.0004
 -16747738.83648 -13033008.79247  21466339.866    21466340.1324   21466347.6594
       192.0004        192.0004
 21  1 31  1 21  0.0000000  0  9G30G04G07G21G27G01G09G17G08
  -5401175.19247  -4179781.69145  23690506.565    23690506.4374   23690513.3034
       156.0004        158.0004
 -12115717.26248  -9426924.27446  22090667.919    22090668.3664   22090675.4514
       183.0004        182.0004
 -15887501.77648 -12352363.54147  21863378.128    21863378.2604   21863382.4754
       194.0004        195.0004
 -16611116.82648 -12784648.97646  21803852.929    21803852.6254   21803859.1344
       181.0004        181.0004
  -2681147.07048  -2064509.80146  24436471.117    24436472.4944   24436477.6324
       170.0004        170.0004
 -14367172.18848 -11169243.77946  22082936.142    22082937.0944   22082945.8014
       178.0004        178.0004
 -17859022.34749 -13885495.83047  21018264.350    21018265.0354   21018272.2034
       209.0004        210.0004
  -2360009.07747  -1810540.14245  24192973.600    24192974.1354   24192980.8134
       141.0004        145.0004
 -16668811.49948 -12971506.96047  21481359.164    21481359.1454   21481367.2084
       192.0004        192.0004
 21  1 31  1 21 30.0000000  0  9G30G04G07G21G27G01G09G17G08
  -5488002.32847  -4247439.20145  23673983.916    23673983.1984   23673990.2814
       156.0004        159.0004
 -12026407.11448  -9357331.97246  22107662.800    22107663.5014   22107670.6594
       183.0004        182.0004
 -15960401.55848 -12409168.55247  21849505.430    21849506.0354   21849509.8644
       194.0004        195.0004
 -16621838.98648 -12793003.89146  21801812.934    21801812.7414   21801818.3454
       181.0004        181.0004
  -2572613.50748  -1979938.23846  24457123.861    24457125.3324   24457132.2674
       169.0004        169.0004
 -14439077.74548 -11225274.04046  22069253.405    22069253.6354   22069262.6304
       178.0004        179.0004
 -17822657.18749 -13857159.34147  21025185.007    21025185.2924   21025191.6914
       210.0004        210.0004
  -2456194.95947  -1885490.04445  24174671.062    24174671.3674   24174677.1544
       143.0004        147.0004
 -16589584.46148 -12909771.59747  21496435.193    21496435.8934   21496443.5464
       191.0004        191.0004
 21  1 31  1 22  0.0000000  0  9G30G04G07G21G27G01G09G17G08
  -5574881.54047  -4315137.27245  23657450.287    23657450.7774   23657458.0924
       157.0004        159.0004
 -11936869.94648  -9287562.77146  22124701.396    22124702.1754   22124709.3724
       183.0004        182.0004
 -16033185.99449 -12465883.69647  21835654.757    21835655.4274   21835659.7144
       195.0004        195.0004
 -16632122.66148 -12801017.11646  21799856.588    21799856.4444   21799860.9284
       181.0004        180.0004
  -2464064.05448  -1895354.22946  24477780.271    24477781.7374   24477787.4664
       170.0004        171.0004
 -14510788.93748 -11281152.85546  22055606.558    22055607.4084   22055616.3584
       178.0004        179.0004
 -17785810.48449 -13828447.62747  21032196.395    21032196.8504   21032203.6574
       209.0004        210.0004
  -2552150.95147  -1960260.82245  24156409.319    24156410.0894   24156417.8864
       143.0004        147.0004
 -16510060.20348 -12847804.64447  21511568.922    21511568.8224   21511576.0594
       190.0004        190.0004
 21  1 31  1 22 30.0000000  0  9G30G04G07G21G27G01G09G17G08
  -5661810.99447  -4382874.51545  23640908.145    23640908.9324   23640915.7734
       158.0004        161.0004
 -11847108.66548  -9217618.94246  22141783.493    22141783.8804   22141790.1924
       183.0004        184.0004
 -16105852.31948 -12522506.79447  21821827.230    21821827.5314   21821831.8564
       194.0004        194.0004
 -16641966.42348 -12808687.54746  21797982.582    21797982.0794   21797986.9044
       179.0004        179.0004
  -2355501.04548  -1810759.70646  24498440.396    24498440.0794   24498447.2554
       170.0004        171.0004
 -14582302.39448 -11336877.58546  22041998.846    22041998.6954   22042006.3194
       177.0004        178.0004
 -17748484.21749 -13799362.21847  21039299.432    21039300.2514   21039307.2284
       210.0004        210.0004
  -2647874.71747  -2034850.65045  24138195.717    24138195.6454   24138201.8234
       144.0004        148.0004
 -16430241.71948 -12785608.41847  21526758.552    21526758.5574   21526765.4934
       190.0004        190.0004
 21  1 31  1 23  0.0000000  0 10G14G30G04G07G21G27G01G09G17G08
    730716.73656    643551.060 3                                  24937964.563
       114.0004         74.000
  -5748790.57047  -4450650.75745  23624355.274    23624356.0174   23624363.5714
       158.0004        159.0004
 -11757127.87748  -9147504.02346  22158905.325    22158906.4914   22158912.3344
       183.0004        181.0004
 -16178399.46849 -12579037.00447  21808021.956    21808022.4644   21808027.2164
       195.0004        195.0004
 -16651370.25448 -12816015.17646  21796193.528    21796192.5694   21796196.9154
       178.0004        178.0004
  -2246928.65948  -1726157.87746  24519100.235    24519101.0034   24519107.0784
       170.0004        171.0004
 -14653616.43248 -11392446.89246  22028426.558    22028427.9494   22028436.2744
       177.0004        178.0004
 -17710682.08749 -13769905.98947  21046493.183    21046493.5444   21046501.2774
       210.0004        211.0004
  -2743365.91947  -2109259.24945  24120024.672    24120024.5474   24120028.4224
       145.0004        148.0004
 -16350133.24448 -12723186.20247  21542001.974    21542002.1384   21542009.2834
       190.0004        191.0004
 21  1 31  1 23 30.0000000  0 10G14G30G04G07G21G27G01G09G17G08
  -1385500.07546  -1057514.71445  23599769.445    23599768.7254   23599775.0894
       131.0004        140.0004
  -5835816.88247  -4518463.45645  23607795.841    23607795.9394   23607803.2234
       157.0004        159.0004
 -11666928.91048  -9077219.14146  22176070.103    22176070.4054   22176076.8934
       182.0004        181.0004
 -16250823.18249 -12635471.06747  21794239.724    21794240.5434   21794244.7674
       195.0004        195.0004
 -16660331.06448 -12822997.60746  21794487.744    21794488.2394   21794491.5824
       178.0004        178.0004
  -2138347.73648  -1641549.32646  24539759.547    24539762.6464   24539770.2354
       171.0004        171.0004
 -14724726.08648 -11447856.97846  22014894.307    22014895.7474   22014905.3764
       177.0004        178.0004
 -17672404.49549 -13740079.29747  21053776.711    21053777.2294   21053784.4984
       210.0004        210.0004
  -2838620.48147  -2183483.48345  24101897.539    24101898.2414   24101903.4754
       145.0004        150.0004
 -16269736.19248 -12660539.14647  21557301.193    21557300.8434   21557308.5994
       190.0004        191.0004
 21  1 31  1 24  0.0000000  0 10G14G30G04G07G21G27G01G09G17G08
  -1412663.42547  -1078680.96145  23594598.916    23594599.3934   23594605.5054
       136.0004        142.0004
  -5922890.67547  -4586313.12146  23591226.139    23591226.2694   23591234.6124
       159.0004        163.0004
 -11576517.28948  -9006768.52446  22193275.041    22193275.7574   22193281.8764
       182.0004        181.0004
 -16323123.62649 -12691809.04947  21780481.916    21780482.1864   21780486.3864
       195.0004        195.0004
 -16668849.84048 -12829635.57746  21792866.953    21792866.7444   21792870.4014
       178.0004        179.0004
  -2029763.24648  -1556938.07246  24560424.137    24560425.5224   24560432.9954
       168.0004        168.0004
 -14795630.59248 -11503107.17746  22001401.370    22001403.3024   22001412.1644
       178.0004        179.0004
 -17633656.04749 -13709885.67447  21061150.749    21061150.9434   21061158.2354
       210.0004        210.0004
  -2933638.72347  -2257523.59045  24083817.798    24083817.2124   24083821.1664
       146.0004        149.0004
 -16189055.99248 -12597671.43147  21572652.796    21572653.7994   21572661.8564
       190.0004        191.0004
 21  1 31  1 24 30.0000000  0  9G14G30G04G07G21G01G09G17G08
  -1439765.06547  -1099799.05445  23589439.947    23589439.8484   23589444.8644
       136.0004        140.0004
  -6010009.07147  -4654197.58945  23574648.643    23574648.8774   23574655.8494
       161.0004        162.0004
 -11485894.94748  -8936153.73146  22210519.103    22210520.0694   22210526.5184
       181.0004        181.0004
 -16395297.16749 -12748048.17047  21766747.590    21766747.8504   21766751.8894
       195.0004        194.0004
 -16676923.99748 -12835927.11046  21791331.008    21791330.3244   21791335.0424
       179.0004        180.0004
 -14866325.52148 -11558194.09146  21987949.455    21987950.5344   21987958.1884
       178.0004        179.0004
 -17594437.76549 -13679325.98347  21068613.535    21068614.0394   21068621.1694
       210.0004        210.0004
  -3028417.44047  -2331377.03045  24065779.988    24065780.5444   24065785.1654
       145.0004        148.0004
 -16108094.78449 -12534584.78047  21588059.546    21588060.0694   21588068.0124
       206.0004        208.0004
 21  1 31  1 25  0.0000000  0  9G14G30G04G07G21G01G09G17G08
  -1466804.40046  -1120868.59545  23584293.374    23584293.9024   23584296.9324
       134.0004        140.0004
  -6097168.41847  -4722113.94445  23558063.033    23558062.3314   23558069.8194
       160.0004        162.0004
 -11395062.94748  -8865375.57246  22227804.314    22227804.9994   22227811.9544
       181.0004        181.0004
 -16467339.40049 -12804184.99347  21753038.030    21753038.7204   21753043.1334
       195.0004        194.0004
 -16684550.15748 -12841869.55546  21789879.393    21789878.6824   21789884.2754
       181.0004        182.0004
 -14936805.64948 -11613113.63746  21974538.852    21974539.0384   21974547.1694
       179.0004        180.0004
 -17554749.89749 -13648400.37247  21076165.737    21076166.2474   21076173.2624
       209.0004        209.0004
  -3122952.80847  -2405040.87445  24047790.353    24047791.3934   24047796.0864
       146.0004        149.0004
 -16026853.43549 -12471279.83547  21603520.183    21603520.3364   21603527.0354
       209.0004        208.0004
 21  1 31  1 25 30.0000000  0  9G14G30G04G07G21G01G09G17G08
  -1493784.28647  -1141891.83645  23579161.526    23579161.5754   23579164.7864
       136.0004        142.0004
  -6184368.56747  -4790062.10946  23541469.208    23541469.7724   23541476.2194
       162.0004        165.0004
 -11304025.96948  -8794437.67046  22245127.529    22245128.5124   22245135.0204
       180.0004        180.0004
 -16539249.28649 -12860218.64347  21739354.022    21739354.7014   21739358.8094
       195.0004        195.0004
 -16691728.40948 -12847462.95246  21788512.613    21788511.9944   21788518.3174
       181.0004        182.0004
 -15007069.36248 -11667864.50846  21961166.557    21961167.6074   21961176.0234
       178.0004        178.0004
 -17514596.17949 -13617111.74747  21083806.274    21083807.1104   21083814.1524
       209.0004        209.0004
  -3217244.27047  -2478514.66145  24029846.942    24029846.8934   24029853.1504
       148.0004        152.0004
 -15945336.69949 -12407760.26648  21619033.385    21619032.9734   21619039.2344
       219.0004        222.0004
 21  1 31  1 26  0.0000000  0  9G14G30G04G07G21G01G09G17G08
  -1520706.04947  -1162869.77745  23574040.142    23574038.9284   23574041.9544
       138.0004        143.0004
  -6271607.66747  -4858040.59646  23524868.559    23524868.0064   23524875.5914
       163.0004        165.0004
 -11212786.96648  -8723342.35346  22262490.660    22262490.8454   22262496.9944
       179.0004        177.0004
 -16611024.10249 -12916147.05647  21725695.877    21725696.2464   21725700.6394
       195.0004        195.0004
 -16698457.51448 -12852706.36846  21787232.357    21787232.6514   21787238.4754
       181.0004        181.0004
 -15077113.29348 -11722444.13746  21947837.820    21947838.8834   21947847.8594
       178.0004        179.0004
 -17473978.81149 -13585461.84347  21091536.564    21091536.5904   21091543.3554
       209.0004        209.0004
  -3311289.52047  -2551796.57045  24011951.669    24011951.3704   24011957.1074
       151.0004        154.0004
 -15863547.13349 -12344028.12748  21634596.655    21634596.7364   21634603.2604
       222.0004        222.0004
 21  1 31  1 26 30.0000000  0  9G14G30G04G07G21G01G09G17G08
  -1547570.29047  -1183802.89445  23568926.624    23568926.8794   23568935.1414
       142.0004        148.0004
  -6358883.37447  -4926047.61846  23508260.709    23508260.8214   23508267.0494
       163.0004        165.0004
 -11121348.32348  -8652091.48846  22279890.599    22279890.3444   22279897.2524
       177.0004        176.0004
 -16682660.59749 -12971967.67447  21712064.066    21712064.5324   21712068.6624
       195.0004        196.0004
 -16704735.37348 -12857598.17846  21786037.960    21786037.8624   21786043.1404
       181.0004        181.0004
 -15146933.55748 -11776849.51046  21934552.599    21934552.9504   21934561.1724
       179.0004        179.0004
 -17432899.34649 -13553451.87947  21099353.023    21099353.2284   21099360.2634
       209.0004        209.0004
  -3405085.79247  -2624884.47645  23994101.905    23994102.3734   23994108.5464
       153.0004        156.0004
 -15781487.25249 -12280085.36748  21650211.691    21650212.0014   21650218.9604
       222.0004        221.0004
 21  1 31  1 27  0.0000000  0  9G14G30G04G07G21G01G09G17G08
  -1574378.89347  -1204692.72345  23563823.017    23563824.5214   23563833.0354
       148.0004        153.0004
  -6446194.46147  -4994082.20846  23491645.337    23491645.8094   23491652.0124
       164.0004        166.0004
 -11029713.70148  -8580687.90146  22297326.504    22297328.0354   22297335.7894
       176.0004        175.0004
 -16754157.02749 -13027679.16947  21698459.012    21698459.7334   21698463.2554
       196.0004        196.0004
 -16710561.44648 -12862137.94646  21784929.478    21784929.4844   21784934.6594
       181.0004        182.0004
 -15216527.46148 -11831078.48946  21921308.775    21921309.4514   21921317.6224
       179.0004        180.0004
 -17391360.66149 -13521084.06747  21107258.027    21107258.2274   21107264.8714
       208.0004        209.0004
  -3498631.47247  -2697777.09745  23976300.854    23976301.5654   23976306.7154
       155.0004        157.0004
 -15699160.65549 -12215934.76448  21665877.990    21665878.1214   21665884.9144
       221.0004        220.0004
 21  1 31  1 27 30.0000000  0  9G14G30G04G07G21G01G09G17G08
  -1601132.23547  -1225539.46645  23558733.802    23558734.6604   23558742.3114
       152.0004        156.0004
  -6533538.18147  -5062142.23646  23475024.012    23475024.0764   23475031.9674
       164.0004        165.0004
 -10937885.19448  -8509133.22546  22314802.260    22314802.9064   22314809.2714
       175.0004        176.0004
 -16825509.87349 -13083278.77847  21684881.639    21684881.5874   21684885.0634
       196.0004        196.0004
 -16715933.31948 -12866323.78746  21783906.513    21783906.4974   21783911.3104
       181.0004        180.0004
 -15285890.84848 -11885127.81346  21908109.328    21908110.1754   21908118.9724
       179.0004        181.0004
 -17349364.06749 -13488359.43947  21115249.745    21115250.0964   21115256.7344
       208.0004        209.0004
  -3591923.67547  -2770472.22745  23958547.925    23958548.2344   23958554.0214
       154.0004        155.0004
 -15616569.45849 -12151577.97248  21681594.983    21681595.0834   21681601.7524
       221.0004        221.0004
 21  1 31  1 28  0.0000000  0  9G14G30G04G07G21G01G09G17G08
  -1627831.98547  -1246344.47445  23553653.857    23553653.7984   23553659.3734
       152.0004        154.0004
  -6620913.09647  -5130226.57146  23458396.661    23458396.8284   23458404.1284
       164.0004        164.0004
 -10845866.21548  -8437430.14646  22332313.922    22332314.3484   22332319.5954
       177.0004        178.0004
 -16896716.84549 -13138764.71647  21671330.065    21671330.8844   21671335.3924
       196.0004        196.0004
 -16720849.85748 -12870154.85246  21782971.396    21782971.5144   21782975.1424
       180.0004        180.0004
 -15355020.77348 -11938995.24746  21894954.689    21894955.0704   21894963.8584
       181.0004        182.0004
 -17306912.17449 -13455280.03947  21123327.852    21123328.4424   21123334.8944
       208.0004        209.0004
  -3684960.82047  -2842968.59745  23940842.948    23940843.5594   23940849.1734
       152.0004        154.0004
 -15533716.70449 -12087017.38148  21697361.988    21697361.6794   21697368.4054
       222.0004        222.0004
 21  1 31  1 28 30.0000000  0  9G14G30G04G07G21G01G09G17G08
  -1654480.23447  -1267109.31845  23548582.639    23548582.6474   23548587.9934
       151.0004        152.0004
  -6708318.12847  -5198334.39745  23441762.527    23441762.8944   23441771.2964
       162.0004        161.0004
 -10753660.53248  -8365581.59846  22349859.346    22349859.7734   22349866.1274
       177.0004        177.0004
 -16967776.15749 -13194135.61447  21657808.521    21657809.0814   21657812.9674
       196.0004        196.0004
 -16725310.82048 -12873630.90846  21782123.369    21782122.8544   21782126.6214
       180.0004        181.0004
 -15423914.72248 -11992678.80746  21881843.886    21881844.7444   21881853.4464
       180.0004        181.0004
 -17264008.03849 -13421848.24047  21131491.796    21131492.2494   21131499.7834
       209.0004        209.0004
  -3777741.49947  -2915265.15545  23923188.238    23923189.0094   23923194.4024
       155.0004        158.0004
 -15450606.62449 -12022256.28848  21713176.069    21713176.3144   21713183.9884
       222.0004        221.0004
 21  1 31  1 29  0.0000000  0  9G14G30G04G07G21G01G09G17G08
  -1681077.37047  -1287834.31945  23543520.162    23543520.7704   23543524.6214
       150.0004        152.0004
  -6795750.60047  -5266463.58745  23425124.994    23425126.3214   23425133.3314
       160.0004        161.0004
 -10661270.33848  -8293589.25246  22367440.853    22367441.1424   22367446.2234
       176.0004        176.0004
 -17038684.21249 -13249388.62947  21644315.092    21644315.3354   21644319.1784
       196.0004        196.0004
 -16729314.02448 -12876750.25846  21781360.913    21781360.1594   21781364.5184
       181.0004        181.0004
 -15492568.56248 -12046175.26246  21868779.611    21868780.5344   21868788.6604
       180.0004        181.0004
 -17220653.08549 -13388065.15947  21139742.698    21139743.0294   21139749.7104
       209.0004        209.0004
  -3870262.83547  -2987359.64645  23905581.416    23905581.1984   23905587.5494
       156.0004        158.0004
 -15367240.76149 -11957295.87548  21729041.132    21729041.1784   21729047.4134
       222.0004        221.0004
 21  1 31  1 29 30.0000000  0  9G14G30G04G07G21G01G09G17G08
  -1707624.73847  -1308520.52345  23538469.012    23538469.2994   23538474.6644
       154.0004        157.0004
  -6883208.77347  -5334612.77946  23408483.565    23408484.3344   23408491.3574
       161.0004        164.0004
 -10568698.73148  -8221455.52846  22385055.351    22385056.8034   22385063.0424
       175.0004        175.0004
 -17109438.59349 -13304521.88847  21630850.108    21630850.7804   21630855.4214
       196.0004        197.0004
 -16732858.18648 -12879511.90946  21780685.744    21780685.5624   21780690.5754
       181.0004        182.0004
 -15560979.09948 -12099482.12146  21855762.075    21855762.6444   21855771.0464
       181.0004        181.0004
 -17176849.73649 -13353932.66147  21148078.402    21148078.2174   21148085.1454
       209.0004        209.0004
  -3962523.03347  -3059250.60645  23888025.465    23888025.7744   23888031.1194
       155.0004        157.0004
 -15283622.29449 -11892138.60248  21744952.857    21744952.6474   21744959.6174
       221.0004        220.0004
 21  1 31  1 30  0.0000000  0  9G14G30G04G07G21G01G09G17G08
  -1734124.25847  -1329169.45145  23533426.709    23533427.0614   23533431.4494
       156.0004        159.0004
  -6970691.31847  -5402780.97446  23391836.463    23391837.3884   23391844.0854
       164.0004        167.0004
 -10475949.32648  -8149183.27846  22402706.810    22402706.3274   22402713.2024
       176.0004        176.0004
 -17180037.33749 -13359533.88147  21617415.991    21617416.7344   21617421.0024
       197.0004        197.0004
 -16735942.90848 -12881915.56846  21780099.030    21780098.6274   21780104.5324
       183.0004        183.0004
 -15629143.67648 -12152597.32346  21842789.578    21842790.6644   21842799.2774
       181.0004        181.0004
 -17132600.92649 -13319453.05947  21156497.784    21156498.3034   21156505.4204
       209.0004        209.0004
  -4054520.13147  -3130936.58945  23870519.466    23870518.5074   23870523.3664
       156.0004        158.0004
 -15199755.00149 -11826787.45548  21760911.213    21760911.8964   21760919.0224
       220.0004        220.0004
 21  1 31  1 30 30.0000000  0  9G14G30G04G07G21G01G09G17G08
  -1760577.80647  -1349782.57345  23528392.805    23528392.8484   23528397.6654
       157.0004        159.0004
  -7058196.99947  -5470967.19646  23375185.193    23375184.9014   23375191.4934
       164.0004        165.0004
 -10383025.76448  -8076775.33046  22420389.281    22420389.8294   22420396.2204
       176.0004        176.0004
 -17250478.30549 -13414422.92247  21604011.852    21604012.1184   21604016.0114
       196.0004        196.0004
 -16738567.49248 -12883960.65146  21779599.916    21779599.2514   21779605.6944
       184.0004        185.0004
 -15697059.62848 -12205518.78646  21829866.089    21829866.8054   21829875.7124
       181.0004        182.0004
 -17087909.60649 -13284628.63547  21165002.230    21165002.8494   21165009.8474
       208.0004        208.0004
  -4146253.48647  -3202417.08145  23853062.228    23853062.4274   23853067.8764
       156.0004        159.0004
 -15115642.12249 -11761244.93848  21776918.501    21776918.4194   21776925.3084
       221.0004        221.0004
 21  1 31  1 31  0.0000000  0  9G14G30G04G07G21G01G09G17G08
  -1786985.22547  -1370359.77245  23523366.683    23523367.3294   23523372.3774
       157.0004        159.0004
  -7145722.53547  -5539168.95746  23358529.031    23358529.3434   23358536.8444
       161.0004        163.0004
 -10289929.67448  -8004232.96946  22438104.864    22438105.0504   22438111.6064
       176.0004        176.0004
 -17320757.47449 -13469185.94147  21590638.188    21590638.5494   21590642.6164
       196.0004        197.0004
 -16740729.42748 -12885645.27246  21779189.059    21779188.8574   21779194.5054
       185.0004        186.0004
 -15764722.25748 -12258242.90946  21816990.123    21816991.1944   21816999.4094
       181.0004        182.0004
 -17042776.74649 -13249460.19747  21173591.258    21173591.5904   21173598.8624
       208.0004        209.0004
  -4237719.36747  -3273689.12945  23835654.702    23835655.8954   23835662.1334
       154.0004        154.0004
 -15031285.07049 -11695512.18848  21792971.187    21792970.9754   21792977.8464
       221.0004        220.0004
 21  1 31  1 31 30.0000000  0  9G14G30G04G07G21G01G09G17G08
  -1813347.46147  -1390901.74645  23518350.402    23518350.8824   23518356.2924
       159.0004        162.0004
  -7233265.66047  -5607384.31946  23341869.839    23341870.2074   23341877.5814
       161.0004        164.0004
 -10196663.71948  -7931558.17546  22455852.321    22455853.0524   22455858.6884
       176.0004        176.0004
 -17390871.90249 -13523820.52247  21577295.524    21577296.5424   21577300.6874
       198.0004        198.0004
 -16742427.18248 -12886968.15046  21778865.711    21778865.2264   21778872.1184
       186.0004        186.0004
 -15832127.98648 -12310766.78346  21804163.675    21804164.0994   21804172.7404
       182.0004        183.0004
 -16997204.37449 -13213949.22847  21182263.288    21182263.6774   21182270.2784
       208.0004        208.0004
  -4328915.19747  -3344750.68545  23818300.353    23818301.4644   23818307.7924
       150.0004        152.0004
 -14946687.33949 -11629591.84548  21809069.495    21809069.2354   21809076.0594
       220.0004        219.0004
 21  1 31  1 32  0.0000000  0  9G14G30G04G07G21G01G09G17G08
  -1839666.24547  -1411409.84946  23513342.803    23513342.8324   23513347.8274
       162.0004        164.0004
  -7320824.99047  -5675612.34646  23325209.000    23325208.5914   23325215.3994
       164.0004        166.0004
 -10103231.40248  -7858753.79046  22473631.428    22473632.3554   22473637.9784
       175.0004        175.0004
 -17460819.02849 -13578324.76447  21563985.415    21563985.9684   21563990.0974
       198.0004        198.0004
 -16743660.13648 -12887928.86746  21778629.274    21778629.6044   21778637.3054
       186.0004        186.0004
 -15899273.98948 -12363088.30946  21791385.504    21791386.3974   21791395.3214
       182.0004        183.0004
 -16951195.35249 -13178098.03647  21191019.085    21191019.4164   21191025.4834
       208.0004        208.0004
  -4419839.46047  -3415600.68745  23801000.352    23801000.3654   23801005.4874
       151.0004        155.0004
 -14861851.51649 -11563486.00948  21825213.013    21825213.0614   21825219.8414
       220.0004        219.0004
 21  1 31  1 32 30.0000000  0  9G14G30G04G07G21G01G09G17G08
  -1865943.06847  -1431885.27646  23508342.555    23508342.6484   23508347.5324
       163.0004        165.0004
  -7408398.74847  -5743851.61746  23308542.481    23308544.0934   23308551.5814
       163.0004        165.0004
 -10009635.89748  -7785822.25746  22491443.415    22491443.9024   22491449.2014
       176.0004        176.0004
 -17530596.95749 -13632697.18847  21550707.700    21550708.1594   21550711.4294
       198.0004        198.0004
 -16744427.00048 -12888526.42246  21778484.505    21778484.4474   21778491.2604
       186.0004        186.0004
 -15966157.20448 -12415205.06646  21778658.342    21778659.3914   21778667.5494
       183.0004        183.0004
 -16904752.27249 -13141908.63447  21199855.893    21199856.3624   21199863.5064
       208.0004        208.0004
  -4510490.57747  -3486237.83945  23783749.202    23783749.4004   23783755.8694
       153.0004        155.0004
 -14776781.00649 -11497197.32348  21841400.806    21841401.1214   21841407.9824
       219.0004        218.0004
 21  1 31  1 33  0.0000000  0  9G14G30G04G07G21G01G09G17G08
  -1892179.17647  -1452328.95646  23503348.692    23503349.3224   23503355.0944
       162.0004        163.0004
  -7495985.01747  -5812100.61346  23291876.797    23291876.7444   23291883.8914
       164.0004        166.0004
  -9915880.26248  -7712765.92446  22509283.793    22509284.6714   22509289.7484
       176.0004        176.0004
 -17600203.34149 -13686935.91247  21537461.043    21537461.8734   21537466.0204
       198.0004        198.0004
 -16744727.03848 -12888760.16946  21778427.208    21778427.2994   21778434.0824
       185.0004        186.0004
 -16032774.36248 -12467114.49346  21765981.244    21765982.1344   21765990.6214
       183.0004        183.0004
 -16857877.57149 -13105382.87147  21208775.571    21208776.1744   21208783.7324
       208.0004        208.0004
  -4600866.50147  -3556660.54945  23766550.819    23766551.0394   23766558.5194
       154.0004        157.0004
 -14691478.89949 -11430728.13948  21857633.528    21857633.9574   21857640.6464
       219.0004        218.0004
 21  1 31  1 33 30.0000000  0  9G14G30G04G07G21G01G09G17G08
  -1918375.72447  -1472741.84645  23498363.557    23498364.2394   23498370.0834
       161.0004        162.0004
  -7583581.77847  -5880357.81146  23275206.242    23275205.6964   23275213.8934
       163.0004        164.0004
  -9821967.36548  -7639587.08246  22527154.732    22527155.0164   22527161.9814
       176.0004        175.0004
 -17669634.73749 -13741038.30047  21524249.147    21524249.5474   21524253.6354
       198.0004        198.0004
 -16744558.93748 -12888629.15946  21778458.191    21778458.9734   21778466.0324
       185.0004        185.0004
 -16099122.10348 -12518813.98546  21753356.427    21753356.7704   21753365.1204
       183.0004        184.0004
 -16810573.58749 -13068522.62847  21217778.482    21217778.8494   21217784.7294
       207.0004        207.0004
  -4690965.04047  -3626867.14145  23749405.925    23749407.2184   23749413.0204
       156.0004        159.0004
 -14605947.65849 -11364080.42448  21873910.434    21873910.3424   21873916.6474
       219.0004        218.0004
 21  1 31  1 34  0.0000000  0  9G14G30G04G07G21G01G09G17G08
  -1944532.79747  -1493123.95745  23493386.011    23493387.2614   23493392.5824
       159.0004        160.0004
  -7671185.82848  -5948620.69246  23258536.170    23258536.9314   23258543.3664
       165.0004        168.0004
  -9727899.06948  -7566287.12446  22545055.819    22545056.3354   22545062.1664
       176.0004        176.0004
 -17738887.61349 -13795001.57047  21511070.761    21511071.2394   21511075.4904
       199.0004        199.0004
 -16743920.44148 -12888131.61946  21778580.424    21778580.6204   21778586.6204
       184.0004        184.0004
 -16165195.95548 -12570300.07446  21740783.532    21740783.9724   21740791.1134
       183.0004        184.0004
 -16762841.54549 -13031328.83247  21226860.604    21226861.1354   21226867.7804
       207.0004        207.0004
  -4780783.27147  -3696855.33245  23732315.572    23732315.5764   23732320.5634
       155.0004        157.0004
 -14520189.36349 -11297255.77048  21890228.899    21890229.1994   21890235.8794
       219.0004        218.0004
 21  1 31  1 34 30.0000000  0  9G14G30G04G07G21G01G09G17G08
  -1970654.14147  -1513478.18746  23488417.059    23488416.7874   23488422.0534
       160.0004        163.0004
  -7758797.72048  -6016889.65146  23241864.821    23241864.5274   23241872.6554
       167.0004        170.0004
  -9633680.79348  -7492870.28646  22562985.222    22562985.1954   22562991.4594
       175.0004        175.0004
 -17807961.76549 -13848825.56647  21497927.062    21497927.1854   21497930.7544
       199.0004        199.0004
 -16742813.17748 -12887268.77246  21778791.176    21778790.3504   21778797.6064
       184.0004        183.0004
 -16230995.14348 -12621572.10446  21728260.470    21728261.8494   21728270.6404
       183.0004        184.0004
 -16714686.41949 -12993805.33647  21236024.522    21236025.1634   21236032.3394
       207.0004        208.0004
  -4870321.29547  -3766625.13145  23715275.802    23715275.7294   23715282.7094
       153.0004        155.0004
 -14434209.28149 -11230258.28048  21906590.297    21906590.5814   21906597.5104
       218.0004        218.0004
 21  1 31  1 35  0.0000000  0  9G14G30G04G07G21G01G09G17G08
  -1996739.79847  -1533804.64845  23483450.737    23483451.8904   23483457.2404
       161.0004        162.0004
  -7846414.34648  -6085162.31846  23225191.977    23225191.3304   23225198.7644
       166.0004        167.0004
  -9539314.43248  -7419338.08046  22580940.855    22580942.4684   22580948.2184
       175.0004        174.0004
 -17876853.22549 -13902507.22047  21484816.165    21484817.2444   21484821.5554
       199.0004        199.0004
 -16741234.82548 -12886038.87146  21779091.289    21779090.8564   21779096.7064
       183.0004        183.0004
 -16296515.30348 -12672626.73846  21715793.765    21715794.0564   21715801.9174
       184.0004        185.0004
 -16666109.56149 -12955953.23647  21245268.645    21245268.9754   21245276.1234
       207.0004        208.0004
  -4959576.44347  -3836174.56845  23698290.295    23698290.6604   23698296.5974
       152.0004        154.0004
 -14348009.27749 -11163089.45248  21922994.081    21922994.3014   21923001.1694
       218.0004        218.0004
 21  1 31  1 35 30.0000000  0  9G14G30G04G07G21G01G09G17G08
  -2022789.45047  -1554103.07046  23478495.733    23478496.0224   23478500.1534
       161.0004        163.0004
  -7934032.18048  -6153435.95646  23208518.118    23208518.3654   23208525.9314
       165.0004        167.0004
  -9444801.41648  -7345691.60346  22598926.333    22598927.5784   22598934.0254
       175.0004        175.0004
 -17945557.46949 -13956042.99847  21471743.883    21471744.1894   21471747.1184
       199.0004        199.0004
 -16739182.78448 -12884439.86646  21779482.535    21779482.2624   21779486.7394
       182.0004        181.0004
 -16361751.58248 -12723460.17946  21703380.536    21703380.8114   21703388.4304
       184.0004        185.0004
 -16617111.88749 -12917773.24147  21254592.950    21254592.8304   21254599.5004
       207.0004        206.0004
  -5048544.86947  -3905500.60245  23681360.658    23681360.8734   23681366.5164
       154.0004        157.0004
 -14261590.84849 -11095750.42648  21939438.779    21939439.2444   21939445.8814
       219.0004        218.0004
 21  1 31  1 36  0.0000000  0  9G14G30G04G07G21G01G09G17G08
  -2048806.11547  -1574375.75146  23473543.892    23473544.4504   23473549.2814
       161.0004        163.0004
  -8021650.86948  -6221710.21546  23191845.402    23191845.5384   23191852.6894
       167.0004        169.0004
  -9350146.49148  -7271934.49846  22616938.858    22616939.4334   22616947.3254
       175.0004        174.0004
 -18014073.58549 -14009432.15247  21458704.763    21458705.0184   21458708.8684
       199.0004        198.0004
 -16736657.53648 -12882472.08546  21779964.195    21779962.9574   21779966.9824
       181.0004        181.0004
 -16426702.46748 -12774071.18746  21691019.755    21691020.7304   21691027.7884
       184.0004        185.0004
 -16567697.62649 -12879268.58847  21263995.945    21263996.1154   21264003.0554
       207.0004        207.0004
  -5137226.55647  -3974603.11845  23664486.114    23664486.1644   23664490.9654
       157.0004        160.0004
 -14174958.26949 -11028244.48048  21955924.374    21955924.4484   21955931.2624
       218.0004        217.0004
 21  1 31  1 36 30.0000000  0  9G14G30G04G07G21G01G09G17G08
  -2074791.33247  -1594623.95046  23468600.491    23468600.8994   23468604.8614
       162.0004        163.0004
  -8109268.74448  -6289983.88046  23175172.616    23175172.5784   23175179.8264
       168.0004        169.0004
  -9255352.89048  -7198069.40746  22634977.481    22634978.2084   22634985.5264
       174.0004        174.0004
 -18082399.51249 -14062673.14847  21445702.122    21445702.9524   21445706.7724
       198.0004        198.0004
 -16733658.98448 -12880135.54546  21780533.682    21780533.3854   21780537.4764
       181.0004        181.0004
 -16491365.01348 -12824457.55846  21678713.590    21678714.8024   21678723.2654
       184.0004        184.0004
 -16517869.59049 -12840441.56147  21273477.642    21273478.0194   21273484.6684
       206.0004        206.0004
  -5225620.02847  -4043481.11145  23647664.672    23647664.6844   23647670.4694
       156.0004        157.0004
 -14088114.86349 -10960574.31248  21972449.893    21972450.2944   21972456.5714
       217.0004        216.0004
 21  1 31  1 37  0.0000000  0  9G14G30G04G07G21G01G09G17G08
  -2100746.20547  -1614848.47945  23463660.046    23463661.4834   23463665.9494
       161.0004        162.0004
  -8196883.66548  -6358255.25346  23158499.162    23158499.9524   23158507.1524
       168.0004        170.0004
  -9160423.58348  -7124098.52946  22653043.053    22653043.1154   22653049.0834
       174.0004        174.0004
 -18150532.42549 -14115763.72147  21432737.282    21432737.3614   21432742.1324
       199.0004        199.0004
 -16730185.66648 -12877429.04446  21781195.716    21781194.8714   21781197.8634
       180.0004        180.0004
 -16555735.87348 -12874616.62046  21666464.870    21666466.1494   21666474.0734
       184.0004        184.0004
 -16467630.20749 -12801293.98247  21283037.816    21283038.3874   21283044.9664
       206.0004        206.0004
  -5313722.85147  -4112132.61745  23630900.494    23630899.6434   23630903.5144
       155.0004        157.0004
 -14001063.56249 -10892742.12548  21989015.380    21989015.5504   21989022.6424
       216.0004        216.0004
 21  1 31  1 37 30.0000000  0  9G14G30G04G07G21G01G09G17G08
  -2126670.79247  -1635049.43745  23458726.649    23458727.3974   23458732.2444
       161.0004        162.0004
  -8284492.37248  -6426521.76646  23141828.469    23141828.3394   23141835.6274
       170.0004        172.0004
  -9065360.27148  -7050023.24646  22671131.830    22671133.1104   22671139.8994
       173.0004        174.0004
 -18218468.33349 -14168700.78547  21419809.182    21419809.6564   21419813.9724
       199.0004        199.0004
 -16726235.71748 -12874351.14746  21781945.659    21781945.5184   21781949.4814
       179.0004        179.0004
 -16619810.58648 -12924544.93846  21654272.793    21654273.1644   21654281.3954
       185.0004        185.0004
 -16416980.83349 -12761826.92947  21292675.699    21292676.2704   21292683.3204
       206.0004        206.0004
  -5401532.26547  -4180555.50545  23614190.709    23614191.4834   23614195.7224
       156.0004        159.0004
 -13913805.82049 -10824749.08948  22005619.919    22005619.9094   22005627.0884
       217.0004        216.0004
 21  1 31  1 38  0.0000000  0  9G14G30G04G07G21G01G09G17G08
  -2152567.30147  -1655228.52045  23453798.147    23453798.9244   23453804.0324
       160.0004        160.0004
  -8372093.94748  -6494782.69946  23125158.558    23125158.9754   23125166.4494
       171.0004        172.0004
  -8970167.03948  -6975846.72846  22689247.656    22689248.0424   22689254.1144
       173.0004        172.0004
 -18286205.62149 -14221483.07647  21406919.095    21406919.6124   21406923.9654
       199.0004        198.0004
 -16721809.27848 -12870901.94546  21782788.307    21782788.9134   21782792.1594
       179.0004        180.0004
 -16683586.98548 -12974240.77546  21642135.761    21642136.1074   21642144.7014
       185.0004        185.0004
 -16365925.06549 -12722043.20547  21302392.132    21302392.0054   21302399.1914
       206.0004        206.0004
  -5489047.65947  -4248749.24145  23597535.418    23597536.1354   23597542.2964
       156.0004        158.0004
 -13826345.96549 -10756598.54148  22022262.569    22022262.8794   22022270.2294
       217.0004        216.0004
 21  1 31  1 38 30.0000000  0  9G14G30G04G07G21G01G09G17G08
  -2178435.88847  -1675385.82245  23448875.845    23448876.8614   23448881.2974
       159.0004        160.0004
  -8459685.13048  -6563035.54946  23108490.623    23108490.5054   23108497.7894
       171.0004        172.0004
  -8874845.72948  -6901570.39046  22707385.821    22707386.4034   22707392.8514
       172.0004        172.0004
 -18353740.35749 -14274107.53347  21394068.076    21394068.3144   21394072.3314
       199.0004        199.0004
 -16716904.50848 -12867080.01746  21783721.734    21783721.4294   21783725.0304
       180.0004        180.0004
 -16747060.69948 -13023700.77346  21630056.730    21630057.5254   21630065.8544
       185.0004        185.0004
 -16314464.36749 -12681943.95547  21312184.305    21312184.7434   21312191.4794
       206.0004        205.0004
  -5576265.85147  -4316711.38545  23580939.788    23580939.2434   23580944.9274
       157.0004        158.0004
 -13738685.56849 -10688291.73048  22038944.677    22038944.4314   22038951.5124
       217.0004        216.0004
 21  1 31  1 39  0.0000000  0  9G14G30G04G07G21G01G09G17G08
  -2204277.56747  -1695522.16645  23443958.982    23443959.2594   23443964.5014
       160.0004        161.0004
  -8547263.72348  -6631278.60546  23091824.156    23091824.4744   23091830.9304
       169.0004        168.0004
  -8779399.13148  -6827196.45146  22725549.131    22725549.9244   22725556.4554
       172.0004        172.0004
 -18421069.64049 -14326571.92147  21381255.336    21381256.0834   21381260.2514
       200.0004        200.0004
 -16711520.01348 -12862884.30246  21784745.574    21784745.5934   21784749.4074
       179.0004        179.0004
 -16810228.34448 -13072922.28946  21618037.078    21618037.7264   21618045.8564
       185.0004        186.0004
 -16262601.09249 -12641531.02347  21322053.104    21322053.7734   21322061.0034
       205.0004        205.0004
  -5663184.71047  -4384440.34745  23564398.069    23564399.1084   23564405.1174
       156.0004        158.0004
 -13650827.38549 -10619830.82048  22055663.623    22055663.6244   22055670.0094
       216.0004        215.0004
 21  1 31  1 39 30.0000000  0  9G14G30G04G07G21G01G09G17G08
  -2230094.46547  -1715639.23045  23439044.689    23439045.8734   23439051.9354
       160.0004        161.0004
  -8634828.53048  -6699510.93846  23075161.027    23075161.5254   23075168.8654
       167.0004        168.0004
  -8683831.12748  -6752727.92346  22743735.162    22743735.2064   22743742.0064
       170.0004        169.0004
 -18488191.91549 -14378874.98847  21368482.805    21368483.0814   21368487.3964
       200.0004        200.0004
 -16705656.00548 -12858314.92746  21785861.321    21785861.6484   21785865.6044
       179.0004        179.0004
 -16873087.58748 -13121903.47546  21606075.498    21606075.9344   21606083.7404
       186.0004        187.0004
 -16210338.82049 -12600807.17847  21331999.119    21331999.1164   21332006.2504
       205.0004        206.0004
  -5749803.21047  -4451935.21145  23547915.525    23547915.9984   23547922.4874
       156.0004        158.0004
 -13562775.38049 -10551218.87048  22072418.650    22072418.8824   22072425.4804
       215.0004        214.0004
 21  1 31  1 40  0.0000000  0  9G14G30G04G07G21G01G09G17G08
  -2255886.36247  -1735736.81045  23434138.363    23434138.4654   23434143.1354
       159.0004        160.0004
  -8722376.04048  -6767729.77646  23058501.725    23058501.3254   23058509.3564
       169.0004        171.0004
  -8588143.23248  -6678165.96546  22761944.500    22761944.2054   22761951.4574
       169.0004        169.0004
 -18555102.64149 -14431013.20447  21355749.744    21355750.3414   21355754.7324
       200.0004        200.0004
 -16699310.30348 -12853370.20546  21787069.819    21787069.6824   21787073.3484
       180.0004        180.0004
 -16935633.78148 -13170640.73046  21594172.922    21594173.8994   21594181.4804
       186.0004        187.0004
 -16157678.72649 -12559773.33247  21342019.675    21342019.9984   21342026.9654
       205.0004        205.0004
  -5836118.22347  -4519193.60145  23531489.614    23531490.0484   23531494.9654
       154.0004        156.0004
 -13474530.48849 -10482456.61848  22089211.108    22089211.5524   22089218.6384
       215.0004        216.0004
 21  1 31  1 40 30.0000000  0  9G14G30G04G07G21G01G09G17G08
  -2281657.60147  -1755818.25245  23429233.725    23429234.5274   23429239.4994
       157.0004        158.0004
  -8809907.26548  -6835935.89846  23041845.785    23041845.6554   23041852.9644
       171.0004        172.0004
  -8492341.52148  -6603515.32146  22780175.085    22780175.8904   22780180.7344
       168.0004        168.0004
 -18621802.33149 -14482987.00347  21343058.011    21343058.3574   21343062.0634
       200.0004        201.0004
 -16692485.40248 -12848052.08346  21788368.372    21788367.7984   21788373.4264
       180.0004        181.0004
 -16997866.84148 -13219133.99846  21582331.257    21582331.1104   21582338.6714
       187.0004        187.0004
 -16104626.44849 -12518433.90347  21352115.173    21352115.2294   21352122.3684
       204.0004        204.0004
  -5922130.97347  -4586216.48845  23515122.651    23515122.0184   23515126.4084
       153.0004        155.0004
 -13386099.14449 -10413549.08648  22106038.854    22106039.5334   22106046.4824
       216.0004        215.0004
 21  1 31  1 41  0.0000000  0  9G14G30G04G07G21G01G09G17G08
  -2307407.34847  -1775882.94845  23424333.732    23424334.3644   23424339.3014
       157.0004        159.0004
  -8897418.11348  -6904126.15846  23025193.251    23025193.3274   23025199.1974
       171.0004        172.0004
  -8396427.00248  -6528776.72646  22798426.258    22798427.1474   22798433.0874
       168.0004        169.0004
 -18688286.00649 -14534792.45247  21330406.123    21330406.5794   21330410.5064
       201.0004        201.0004
 -16685178.32748 -12842358.23546  21789758.323    21789758.7364   21789763.1904
       181.0004        183.0004
 -17059781.53048 -13267379.17746  21570548.189    21570549.0364   21570556.3864
       186.0004        186.0004
 -16051182.71049 -12476789.42647  21362285.245    21362285.8044   21362292.2404
       204.0004        205.0004
  -6007837.40547  -4653000.66845  23498811.112    23498811.5324   23498817.3024
       151.0004        153.0004
 -13297482.01449 -10344496.76948  22122902.495    22122902.6084   22122909.5974
       215.0004        215.0004
 21  1 31  1 41 30.0000000  0  9G14G30G04G07G21G01G09G17G08
  -2333135.53047  -1795930.86345  23419437.694    23419438.4714   23419443.3064
       157.0004        159.0004
  -8984905.17448  -6972297.89646  23008544.994    23008545.1164   23008551.1984
       172.0004        172.0004
  -8300401.32348  -6453951.56846  22816700.035    22816700.7014   22816705.5054
       168.0004        168.0004
 -18754550.07949 -14586426.78747  21317796.507    21317797.3754   21317801.0004
       201.0004        201.0004
 -16677387.19548 -12836287.19546  21791242.241    21791241.1054   21791246.4534
       182.0004        182.0004
 -17121373.42748 -13315372.82546  21558827.025    21558827.6534   21558835.7044
       186.0004        186.0004
 -15997348.84349 -12434840.94747  21372530.002    21372530.1294   21372536.9984
       204.0004        205.0004
  -6093234.72247  -4719543.96245  23482562.692    23482563.1834   23482567.3064
       153.0004        157.0004
 -13208680.90949 -10275301.10848  22139800.833    22139801.1174   22139807.7404
       215.0004        214.0004
 21  1 31  1 42  0.0000000  0  9G14G30G04G07G21G01G09G17G08
  -2358845.75147  -1815964.78245  23414545.019    23414545.5634   23414550.6534
       157.0004        158.0004
  -9072368.76148  -7040451.34446  22991901.119    22991900.1834   22991907.4194
       171.0004        172.0004
  -8204269.91248  -6379044.00146  22834992.278    22834992.5414   22834998.7714
       167.0004        168.0004
 -18820594.25049 -14637889.78547  21305229.206    21305229.5214   21305232.8674
       201.0004        201.0004
 -16669113.83548 -12829840.39946  21792815.981    21792814.9264   21792820.2434
       182.0004        183.0004
 -17182641.71548 -13363114.31246  21547169.017    21547169.7334   21547177.7364
       186.0004        187.0004
 -15943129.97149 -12392592.47147  21382846.255    21382846.6644   21382854.1094
       204.0004        204.0004
  -6178323.68847  -4785846.99645  23466371.444    23466371.5124   23466375.4504
       157.0004        161.0004
 -13119701.10349 -10205966.19548  22156732.879    22156732.7694   22156739.8494
       214.0004        213.0004
 21  1 31  1 42 30.0000000  0  9G14G30G04G07G21G01G09G17G08
  -2384538.49647  -1835985.05145  23409656.114    23409656.3894   23409661.9754
       158.0004        160.0004
  -9159806.00148  -7108584.23446  22975261.593    22975261.9384   22975269.2394
       171.0004        173.0004
  -8108034.89348  -6304055.70046  22853305.160    22853304.7664   22853312.0414
       166.0004        166.0004
 -18886414.84149 -14689178.54247  21292703.508    21292703.6844   21292707.9554
       201.0004        202.0004
 -16660356.24148 -12823016.27446  21794481.932    21794481.7194   21794487.7834
       182.0004        183.0004
 -17243582.45448 -13410600.56346  21535572.945    21535573.1894   21535579.9984
       186.0004        186.0004
 -15888528.00349 -12350045.47347  21393236.898    21393237.3854   21393244.5994
       203.0004        203.0004
  -6263101.53747  -4851907.60846  23450238.452    23450238.6144   23450244.2184
       160.0004        163.0004
 -13030544.52049 -10136493.53148  22173699.046    22173698.9994   22173705.8394
       213.0004        213.0004
 21  1 31  1 43  0.0000000  0  9G14G30G04G07G21G01G09G17G08
  -2410213.82647  -1855991.77245  23404769.566    23404769.9844   23404774.8924
       158.0004        159.0004
  -9247213.59748  -7176694.01946  22958627.886    22958627.9054   22958635.8784
       171.0004        172.0004
  -8011698.17048  -6228988.15346  22871638.329    22871638.0604   22871645.6514
       166.0004        167.0004
 -18952008.02549 -14740290.11047  21280220.994    21280221.8314   21280225.7524
       201.0004        201.0004
 -16651112.84548 -12815813.61046  21796241.046    21796240.7264   21796245.8234
       183.0004        183.0004
 -17304191.39248 -13457828.28346  21524039.136    21524038.9934   21524047.2014
       186.0004        186.0004
 -15833544.47149 -12307201.16247  21403701.205    21403701.1984   21403707.9214
       204.0004        205.0004
  -6347565.51147  -4917723.61945  23434163.550    23434164.5514   23434171.2964
       160.0004        162.0004
 -12941213.00049 -10066884.55348  22190697.198    22190698.0854   22190705.2634
       213.0004        213.0004
 21  1 31  1 43 30.0000000  0  9G14G30G04G07G21G01G09G17G08
  -2435872.50047  -1875985.53145  23399888.294    23399888.1714   23399892.8144
       158.0004        160.0004
  -9334589.07048  -7244778.78746  22942000.388    22942000.7524   22942007.6174
       168.0004        167.0004
  -7915262.23648  -6153843.30946  22889989.579    22889989.9664   22889996.1444
       168.0004        169.0004
 -19017370.54649 -14791221.95247  21267783.597    21267783.7824   21267787.6164
       201.0004        201.0004
 -16641383.05248 -12808231.94246  21798092.230    21798092.0894   21798098.1394
       183.0004        183.0004
 -17364464.93248 -13504794.63546  21512567.905    21512568.5704   21512578.1744
       185.0004        186.0004
 -15778181.70449 -12264061.35747  21414235.415    21414235.9914   21414243.3404
       204.0004        204.0004
  -6431713.54247  -4983293.46446  23418151.969    23418152.3444   23418157.8114
       161.0004        163.0004
 -12851708.58149  -9997140.86848  22207730.864    22207730.9584   22207737.4324
       213.0004        213.0004
 21  1 31  1 44  0.0000000  0  9G14G30G04G07G21G01G09G17G08
  -2461517.46947  -1895968.61145  23395006.833    23395007.9514   23395012.3994
       156.0004        156.0004
  -9421931.90348  -7312838.12046  22925378.444    22925378.7544   22925387.2444
       167.0004        169.0004
  -7818731.77648  -6078624.78946  22908358.959    22908359.0084   22908364.4864
       168.0004        168.0004
 -19082501.38349 -14841973.25047  21255389.858    21255390.0984   21255393.8324
       201.0004        201.0004
 -16631167.57248 -12800271.79546  21800036.455    21800036.4364   21800041.9284
       183.0004        184.0004
 -17424401.65948 -13551498.51847  21501162.695    21501163.3594   21501172.2674
       186.0004        188.0004
 -15722444.14949 -12220629.48347  21424841.518    21424842.0054   21424849.3184
       203.0004        203.0004
  -6515545.51147  -5048616.98246  23402199.263    23402199.9554   23402205.5004
       162.0004        165.0004
 -12762036.42249  -9927266.45547  22224794.132    22224794.5624   22224801.3274
       213.0004        212.0004
 21  1 31  1 44 30.0000000  0 10G14G30G28G04G07G21G01G09G17G08
  -2487149.58547  -1915941.67245  23390130.377    23390130.0474   23390136.2774
       155.0004        156.0004
  -9509239.61348  -7380870.09046  22908765.853    22908766.2004   22908773.1814
       168.0004        169.0004
  -1286706.20754   -994007.793 3                                  23713992.618
        74.0004         74.000
  -7722109.40648  -6003334.67846  22926744.131    22926745.0444   22926750.9074
       167.0004        167.0004
 -19147397.47449 -14892541.64947  21243039.783    21243040.6864   21243044.6424
       202.0004        202.0004
 -16620465.83648 -12791932.76746  21802073.554    21802073.0114   21802078.7074
       183.0004        183.0004
 -17483998.04448 -13597937.25047  21489823.962    21489824.6634   21489831.1324
       189.0004        191.0004
 -15666334.18349 -12176907.45147  21435519.244    21435519.7194   21435526.9164
       203.0004        203.0004
  -6599059.21747  -5113692.52346  23386307.167    23386307.1654   23386314.1744
       164.0004        166.0004
 -12672199.06449  -9857263.33447  22241889.290    22241889.6624   22241897.1464
       212.0004        212.0004
 21  1 31  1 45  0.0000000  0 10G14G30G28G04G07G21G01G09G17G08
  -2512769.83447  -1935905.45845  23385252.942    23385254.7644   23385258.0844
       152.0004        154.0004
  -9596509.78848  -7448872.82746  22892159.173    22892159.8084   22892166.1284
       169.0004        171.0004
  -1286706.20744   -994007.793 3                                  23713992.618
        74.0004         74.000
  -7625397.84548  -5927975.04646  22945147.795    22945148.8474   22945154.7284
       166.0004        167.0004
 -19212055.99349 -14942924.89547  21230736.273    21230736.3274   21230740.4104
       201.0004        202.0004
 -16609276.69848 -12783213.93346  21804202.924    21804201.9674   21804207.3664
       184.0004        184.0004
 -17543250.73548 -13644108.15147  21478548.353    21478548.7374   21478555.3894
       191.0004        190.0004
 -15609854.27749 -12132897.11847  21446266.839    21446267.1504   21446274.4024
       202.0004        202.0004
  -6682252.85448  -5178518.62846  23370474.014    23370475.7314   23370482.8254
       165.0004        167.0004
 -12582198.77349  -9787133.23547  22259015.601    22259015.9194   22259023.4644
       212.0004        211.0004
 21  1 31  1 45 30.0000000  0 10G14G30G28G04G07G21G01G09G17G08
  -2538377.54347  -1955859.54145  23380381.237    23380382.3294   23380387.2244
       153.0004        155.0004
  -9683738.55948  -7516843.28346  22875559.952    22875560.0714   22875567.8734
       169.0004        171.0004
  -1286706.20744   -994007.793 3                                  23713992.618
        74.0004         74.000
  -7528598.26548  -5852546.86846  22963568.316    22963569.4814   22963575.6174
       166.0004        167.0004
 -19276472.46949 -14993119.57347  21218478.114    21218478.8964   21218482.0854
       202.0004        202.0004
 -16597598.10648 -12774113.73046  21806425.043    21806424.3624   21806429.8264
       184.0004        184.0004
 -17602154.90548 -13690007.50847  21467337.793    21467338.5474   21467346.4924
       189.0004        188.0004
 -15553005.49349 -12088599.38847  21457085.099    21457085.4274   21457092.6864
       202.0004        203.0004
  -6765123.27148  -5243092.90946  23354706.225    23354706.8004   23354713.4754
       167.0004        168.0004
 -12492036.60049  -9716877.02347  22276174.172    22276173.6854   22276180.7974
       212.0004        211.0004
 21  1 31  1 46  0.0000000  0  9G14G30G04G07G21G01G09G17G08
  -2563976.65947  -1975806.88745  23375509.622    23375509.9354   23375515.8644
       153.0004        156.0004
  -9770926.38448  -7584781.81746  22858970.170    22858969.4714   22858975.6194
       170.0004        172.0004
  -7431716.33648  -5777054.45846  22982004.734    22982004.9704   22982011.2074
       166.0004        167.0004
 -19340646.45649 -15043125.26247  21206266.424    21206266.8284   21206270.3404
       202.0004        202.0004
 -16585432.26848 -12764633.82546  21808739.765    21808739.9554   21808744.3514
       184.0004        185.0004
 -17660710.12548 -13735634.89146  21456194.486    21456194.5954   21456203.4834
       187.0004        187.0004
 -15495793.26349 -12044018.41547  21467971.881    21467972.4824   21467979.7854
       202.0004        202.0004
  -6847671.07848  -5307415.80046  23338996.665    23338997.2824   23339004.4774
       166.0004        167.0004
 -12401718.58749  -9646499.32547  22293360.362    22293360.6084   22293367.4654
       212.0004        211.0004
 21  1 31  1 46 30.0000000  0  9G14G30G04G07G21G01G09G17G08
  -2589567.67947  -1995747.93745  23370639.815    23370640.5474   23370645.3004
       153.0004        155.0004
  -9858070.41448  -7652686.24946  22842386.456    22842386.4554   22842393.3224
       171.0004        172.0004
  -7334754.27448  -5701499.64546  23000457.757    23000457.1534   23000462.5864
       167.0004        169.0004
 -19404574.88749 -15092939.62747  21194100.046    21194100.8214   21194105.0024
       202.0004        201.0004
 -16572777.82248 -12754773.19946  21811147.428    21811147.4074   21811153.5074
       184.0004        184.0004
 -17718912.59448 -13780987.41346  21445118.071    21445118.5764   21445128.5284
       186.0004        186.0004
 -15438219.68149 -11999155.89847  21478927.979    21478928.2264   21478935.1964
       201.0004        201.0004
  -6929894.19148  -5371485.69046  23323351.914    23323352.3484   23323357.6554
       166.0004        168.0004
 -12311246.41149  -9576001.53447  22310577.027    22310576.4764   22310584.2624
       210.0004        209.0004
 21  1 31  1 47  0.0000000  0  9G14G30G04G07G21G01G09G17G08
  -2615151.52747  -2015683.38445  23365771.080    23365770.9064   23365778.1574
       153.0004        155.0004
  -9945168.20148  -7720554.65846  22825811.079    22825811.6004   22825818.5544
       170.0004        169.0004
  -7237714.83248  -5625884.52946  23018922.392    23018923.0024   23018928.7354
       168.0004        168.0004
 -19468254.63449 -15142560.20847  21181982.865    21181983.4184   21181987.3444
       202.0004        202.0004
 -16559634.11548 -12744531.33146  21813648.717    21813648.2444   21813654.2974
       184.0004        184.0004
 -17776758.97348 -13826062.48847  21434112.166    21434112.5884   21434120.2404
       187.0004        189.0004
 -15380287.33449 -11954013.81447  21489952.127    21489952.2154   21489960.0464
       201.0004        202.0004
  -7011790.68648  -5435301.05146  23307766.853    23307766.9724   23307773.0344
       165.0004        164.0004
 -12220622.95149  -9505385.86147  22327821.657    22327821.4794   22327829.1174
       209.0004        208.0004
 21  1 31  1 47 30.0000000  0 10G14G30G28G04G07G21G01G09G17G08
  -2640728.80047  -2035613.68445  23360904.692    23360905.7384   23360910.0404
       154.0004        157.0004
 -10032216.94848  -7788384.82146  22809247.426    22809247.5524   22809254.4024
       171.0004        174.0004
  -1109358.48254   -856397.153 3                                  23697093.482
        74.0004         74.000
  -7140600.24648  -5550210.85146  23037402.158    23037403.1524   23037408.8404
       166.0004        167.0004
 -19531682.51349 -15191984.52647  21169913.640    21169913.9154   21169917.2524
       202.0004        203.0004
 -16546000.00048 -12733907.32246  21816243.521    21816242.5884   21816248.7004
       184.0004        184.0004
 -17834245.53148 -13870857.17547  21423173.642    21423174.0994   21423181.1874
       189.0004        191.0004
 -15321998.38149 -11908593.83647  21501043.819    21501044.2234   21501051.6394
       200.0004        201.0004
  -7093358.23147  -5498860.09246  23292245.055    23292246.6564   23292249.7534
       163.0004        164.0004
 -12129850.20149  -9434653.84247  22345094.911    22345095.0874   22345102.6174
       209.0004        208.0004
 21  1 31  1 48  0.0000000  0 10G14G30G28G04G07G21G01G09G17G08
  -2666300.10147  -2055539.35745  23356037.989    23356039.1494   23356043.6114
       156.0004        159.0004
 -10119213.89148  -7856174.65146  22792692.483    22792692.4654   22792698.8144
       175.0004        177.0004
  -1109358.48244   -856397.153 3                                  23697093.482
        74.0004         74.000
  -7043413.00248  -5474480.60146  23055896.135    23055897.6824   23055903.6284
       167.0004        168.0004
 -19594855.06549 -15241209.91047  21157891.592    21157891.9134   21157895.9804
       202.0004        202.0004
 -16531874.96648 -12722900.80646  21818930.987    21818931.0874   21818936.4054
       184.0004        184.0004
 -17891368.72648 -13915368.74647  21412302.777    21412303.5434   21412310.6614
       191.0004        192.0004
 -15263355.14949 -11862897.83147  21512203.734    21512204.1374   21512210.7244
       200.0004        201.0004
  -7174594.41847  -5562160.98145  23276786.339    23276787.3454   23276790.3524
       162.0004        162.0004
 -12038930.51249  -9363807.35247  22362397.606    22362396.8524   22362404.0484
       209.0004        209.0004
 21  1 31  1 48 30.0000000  0 10G14G30G28G04G07G21G01G09G17G08
  -2691868.02047  -2075462.38745  23351173.442    23351173.8414   23351178.1294
       158.0004        160.0004
 -10206158.24948  -7923923.49046  22776148.503    22776147.7744   22776153.9724
       176.0004        178.0004
  -1140353.04444   -880547.650 4                                  23691298.665
        74.0004        109.000
  -6946157.41248  -5398697.05746  23074403.752    23074404.1494   23074411.4794
       167.0004        167.0004
 -19657771.20949 -15290235.46347  21145919.173    21145919.7244   21145923.4064
       202.0004        202.0004
 -16517259.83748 -12711512.36346  21821712.593    21821712.5244   21821717.4534
       183.0004        183.0004
 -17948126.92948 -13959595.88247  21401502.889    21401503.0744   21401510.2434
       191.0004        191.0004
 -15204361.84349 -11816929.03047  21523430.049    21523430.3574   21523436.7964
       200.0004        200.0004
  -7255499.48247  -5625203.83045  23261389.694    23261390.9644   23261394.3194
       160.0004        160.0004
 -11947867.89349  -9292849.46647  22379725.796    22379725.6394   22379732.5714
       209.0004        208.0004
 21  1 31  1 49  0.0000000  0  9G14G30G04G07G21G01G09G17G08
  -2717432.79247  -2095382.96045  23346308.642    23346308.3104   23346312.7384
       158.0004        159.0004
 -10293046.87048  -7991628.88246  22759612.566    22759612.3784   22759619.6614
       176.0004        176.0004
  -6848835.47748  -5322861.82346  23092924.333    23092924.5814   23092930.2644
       167.0004        167.0004
 -19720427.08249 -15339058.22247  21133996.472    21133996.5754   21134000.7394
       202.0004        203.0004
 -16502153.17548 -12699740.93046  21824587.568    21824587.1994   21824591.9744
       183.0004        184.0004
 -18004516.09648 -14003535.48247  21390771.347    21390772.3064   21390779.4924
       191.0004        191.0004
 -15145020.40649 -11770688.94647  21534722.182    21534722.5004   21534729.6194
       201.0004        201.0004
  -7336071.18547  -5687986.88945  23246057.079    23246057.9004   23246061.1944
       160.0004        161.0004
 -11856664.83349  -9221782.13047  22397078.631    22397079.9234   22397088.2844
       208.0004        207.0004
 21  1 31  1 49 30.0000000  0 10G14G30G28G04G07G21G01G09G17G08
  -2742994.85747  -2115301.42545  23341444.778    23341444.7324   23341449.6924
       158.0004        160.0004
 -10379876.69948  -8059288.48146  22743090.421    22743090.3434   22743096.4204
       177.0004        178.0004
   -960051.42954   -736539.77943  23685261.360
        74.0004         74.0004
  -6751449.32048  -5246976.55146  23111455.502    23111455.8714   23111462.2714
       165.0004        165.0004
 -19782819.16349 -15387675.43947  21122123.312    21122123.6184   21122128.1514
       203.0004        203.0004
 -16486553.85248 -12687585.61446  21827555.885    21827555.3604   21827560.5654
       183.0004        184.0004
 -18060532.45548 -14047184.57747  21380111.526    21380111.9204   21380119.8624
       190.0004        190.0004
 -15085332.84849 -11724179.17247  21546079.775    21546080.6654   21546087.0864
       200.0004        201.0004
  -7416306.46047  -5750507.81345  23230788.494    23230789.6384   23230793.0394
       158.0004        159.0004
 -11765322.96649  -9150606.67047  22414461.277    22414462.0964   22414469.3124
       206.0004        205.0004
 21  1 31  1 50  0.0000000  0 10G14G30G28G04G07G21G01G09G17G08
  -2768555.87247  -2135219.09545  23336580.089    23336579.6464   23336584.5744
       158.0004        160.0004
 -10466646.07548  -8126900.97046  22726577.885    22726578.2674   22726584.6904
       179.0004        180.0004
   -974983.71044   -748175.58345  23682421.066
        74.0004        139.0004
  -6654002.42447  -5171043.95646  23129998.845    23129999.2654   23130006.1884
       163.0004        163.0004
 -19844945.34749 -15436085.44547  21110300.938    21110301.7404   21110305.6344
       203.0004        203.0004
 -16470462.33748 -12675046.75646  21830616.877    21830616.9264   21830622.8774
       183.0004        183.0004
 -18116173.54348 -14090541.23947  21369523.469    21369523.6934   21369531.6054
       189.0004        188.0004
 -15025302.64749 -11677402.39447  21557504.125    21557504.1944   21557510.7784
       201.0004        202.0004
  -7496204.85447  -5812766.27045  23215584.975    23215585.7674   23215589.8404
       159.0004        162.0004
 -11673845.58949  -9079325.60547  22431870.526    22431869.8864   22431877.0614
       206.0004        206.0004
 21  1 31  1 50 30.0000000  0 10G14G30G28G04G07G21G01G09G17G08
  -2794117.73247  -2155137.41345  23331715.680    23331716.3914   23331720.0884
       158.0004        159.0004
 -10553353.43448  -8194465.13846  22710078.358    22710079.0824   22710085.3964
       180.0004        180.0004
   -989902.48046   -759800.65145  23679582.076                    23679587.2554
       113.0004        144.0004
  -6556498.38347  -5095066.82645  23148552.044    23148553.4574   23148561.2234
       161.0004        162.0004
 -19906803.59149 -15484286.66247  21098530.172    21098530.3834   21098534.2944
       203.0004        203.0004
 -16453878.76848 -12662124.46146  21833773.358    21833772.8424   21833778.4564
       183.0004        184.0004
 -18171437.01248 -14133603.65047  21359006.807    21359007.4844   21359015.6654
       188.0004        189.0004
 -14964933.37649 -11630361.39947  21568992.558    21568992.4904   21568998.6344
       202.0004        203.0004
  -7575765.55647  -5874761.55946  23200445.946    23200446.2264   23200450.0024
       161.0004        164.0004
 -11582236.24449  -9007941.68847  22449302.391    22449302.0984   22449310.0644
       207.0004        207.0004
 21  1 31  1 51  0.0000000  0 10G14G30G28G04G07G21G01G09G17G08
  -2819680.39747  -2175056.36745  23326851.588    23326852.1634   23326855.8904
       158.0004        160.0004
 -10639995.40548  -8261978.34846  22693589.613    22693590.3214   22693597.7054
       177.0004        176.0004
  -1004807.86947   -771415.24845  23676743.446    23676744.6024   23676748.9654
       135.0004        144.0004
  -6458938.95547  -5019046.56246  23167118.095    23167118.5784   23167126.2824
       161.0004        163.0004
 -19968390.04749 -15532276.11747  21086810.109    21086810.9064   21086814.7864
       203.0004        203.0004
 -16436802.05348 -12648817.93246  21837022.826    21837022.8854   21837028.0764
       184.0004        184.0004
 -18226318.72248 -14176368.59747  21348562.293    21348563.4184   21348571.5394
       188.0004        189.0004
 -14904226.73549 -11583057.52947  21580543.608    21580543.9704   21580551.2714
       202.0004        202.0004
  -7654985.59847  -5936491.38846  23185370.146    23185370.9274   23185376.5584
       162.0004        165.0004
 -11490496.75149  -8936456.37547  22466758.945    22466759.4114   22466768.0254
       207.0004        207.0004
 21  1 31  1 51 30.0000000  0 10G14G30G28G04G07G21G01G09G17G08
  -2845247.13447  -2194978.47245  23321985.949    23321985.9154   23321991.1604
       158.0004        160.0004
 -10726571.77148  -8329440.43146  22677115.130    22677114.6264   22677121.9204
       176.0004        176.0004
  -1019703.42547   -783022.15045  23673910.664    23673910.5684   23673915.0554
       140.0004        146.0004
  -6361329.18647  -4942987.03546  23185692.291    23185693.5104   23185700.8154
       161.0004        163.0004
 -20029703.78549 -15580053.03847  21075141.984    21075142.9824   21075146.9444
       202.0004        202.0004
 -16419233.86248 -12635128.40046  21840366.844    21840366.6194   21840371.0244
       184.0004        184.0004
 -18280817.73848 -14218835.31847  21338191.848    21338192.7294   21338200.9034
       188.0004        189.0004
 -14843187.68049 -11535494.62447  21592159.886    21592159.7384   21592166.3284
       202.0004        202.0004
  -7733865.51148  -5997956.17246  23170360.451    23170360.7474   23170366.6824
       165.0004        168.0004
 -11398631.78049  -8864873.27847  22484241.951    22484241.7274   22484248.8864
       206.0004        206.0004
 21  1 31  1 52  0.0000000  0 10G14G30G28G04G07G21G01G09G17G08
  -2870819.12547  -2214904.70145  23317119.284    23317119.5504   23317125.8284
       158.0004        160.0004
 -10813080.34848  -8396849.72446  22660654.567    22660653.9174   22660659.8154
       176.0004        178.0004
  -1034591.10747   -794622.90145  23671077.453    23671077.1714   23671081.1954
       142.0004        146.0004
  -6263671.97847  -4866890.57445  23204277.414    23204277.5884   23204284.8394
       161.0004        161.0004
 -20090742.12249 -15627615.39047  21063527.472    21063528.3844   21063531.8334
       202.0004        203.0004
 -16401174.07148 -12621055.83446  21843803.752    21843802.5924   21843807.1604
       183.0004        184.0004
 -18334931.18748 -14261001.62547  21327894.577    21327895.5944   21327903.1254
       189.0004        190.0004
 -14781819.21149 -11487675.04847  21603837.032    21603837.6594   21603844.6604
       202.0004        202.0004
  -7812404.32148  -6059155.20346  23155413.797    23155414.9424   23155420.7704
       166.0004        167.0004
 -11306644.24649  -8793194.69647  22501746.728    22501746.2134   22501753.2674
       206.0004        206.0004
 21  1 31  1 52 30.0000000  0 10G14G30G28G04G07G21G01G09G17G08
  -2896396.52847  -2234835.13745  23312252.823    23312252.6414   23312257.5254
       157.0004        158.0004
 -10899517.76548  -8464203.54946  22644205.663    22644205.4584   22644213.1014
       179.0004        181.0004
  -1049471.49347   -806217.99045  23668246.572    23668246.8204   23668250.2154
       145.0004        149.0004
  -6165969.24547  -4790758.64745  23222869.003    23222868.9794   23222876.4554
       160.0004        161.0004
 -20151501.81349 -15674960.60647  21051966.003    21051966.1634   21051969.6364
       203.0004        204.0004
 -16382621.65348 -12606599.39346  21847333.195    21847332.8494   21847337.8434
       183.0004        183.0004
 -18388655.06448 -14302864.37247  21317671.955    21317672.1954   21317679.7024
       190.0004        191.0004
 -14720123.20249 -11439600.23847  21615578.256    21615578.4214   21615585.0014
       202.0004        202.0004
  -7890599.19048  -6120086.20546  23140534.391    23140534.9694   23140542.0124
       167.0004        169.0004
 -11214536.32649  -8721422.29947  22519272.797    22519273.1964   22519281.3794
       205.0004        205.0004
 21  1 31  1 53  0.0000000  0 10G14G30G28G04G07G21G01G09G17G08
  -2921978.81547  -2254769.37845  23307384.325    23307384.7604   23307389.9024
       156.0004        158.0004
 -10985880.26648  -8531498.98346  22627771.053    22627771.1314   22627778.0424
       180.0004        180.0004
  -1064344.45847   -817807.28445  23665415.741    23665415.4984   23665420.6824
       147.0004        151.0004
  -6068222.28547  -4714592.23645  23241470.620    23241470.4294   23241476.9854
       161.0004        162.0004
 -20211978.51649 -15722085.31047  21040456.544    21040457.5394   21040461.5424
       203.0004        204.0004
 -16363574.66548 -12591757.57346  21850958.225    21850957.2414   21850962.5914
       183.0004        184.0004
 -18441984.83248 -14344420.01447  21307522.654    21307523.5824   21307531.4834
       190.0004        192.0004
 -14658100.97549 -11391271.22747  21627379.581    21627380.6014   21627387.1494
       202.0004        201.0004
  -7968447.08648  -6180746.83946  23125720.973    23125721.8614   23125726.5904
       168.0004        170.0004
 -11122308.61049  -8649556.53547  22536823.056    22536823.2544   22536831.1894
       204.0004        203.0004
 21  1 31  1 53 30.0000000  0 10G14G30G28G04G07G21G01G09G17G08
  -2947567.68047  -2274708.73045  23302516.218    23302515.6064   23302520.6964
       157.0004        159.0004
 -11072165.93048  -8598734.56146  22611351.557    22611352.0734   22611358.1724
       180.0004        181.0004
  -1079212.18747   -829392.50345  23662585.401    23662585.6434   23662590.9994
       147.0004        150.0004
  -5970434.43047  -4638393.95145  23260078.062    23260079.3414   23260085.9114
       161.0004        162.0004
 -20272169.85049 -15768987.64747  21029003.724    21029004.0554   21029007.5404
       204.0004        204.0004
 -16344033.65848 -12576530.79846  21854676.765    21854675.6454   21854680.8594
       183.0004        183.0004
 -18494917.99348 -14385666.60747  21297449.946    21297450.9414   21297458.8464
       191.0004        192.0004
 -14595755.93849 -11342690.67547  21639243.595    21639243.9294   21639251.0694
       201.0004        200.0004
  -8045947.62248  -6241136.77746  23110972.739    23110973.4834   23110978.6504
       168.0004        169.0004
 -11029964.67149  -8577600.21847  22554395.936    22554395.8994   22554403.4274
       204.0004        203.0004
 21  1 31  1 54  0.0000000  0 10G14G30G28G04G07G21G01G09G17G08
  -2973162.59047  -2294652.83145  23297644.644    23297644.7604   23297650.0954
       157.0004        160.0004
 -11158370.94448  -8665907.29146  22594947.429    22594947.2344   22594954.5184
       181.0004        181.0004
  -1094074.37947   -840973.43445  23659758.194    23659757.5364   23659761.8994
       147.0004        150.0004
  -5872606.99847  -4562164.86445  23278693.930    23278695.0484   23278701.6674
       160.0004        161.0004
 -20332071.19249 -15815664.01747  21017603.923    21017604.2964   21017608.7164
       203.0004        203.0004
 -16323996.73648 -12560917.61046  21858489.343    21858488.8934   21858493.9224
       183.0004        183.0004
 -18547450.04948 -14426600.66747  21287453.432    21287454.6284   21287463.1874
       192.0004        193.0004
 -14533089.43049 -11293859.63847  21651168.397    21651169.1664   21651176.4384
       200.0004        200.0004
  -8123097.21748  -6301253.29246  23096290.527    23096290.4904   23096296.0494
       165.0004        163.0004
 -10937505.55349  -8505554.15747  22571989.646    22571989.9624   22571998.0304
       204.0004        204.0004
 21  1 31  1 54 30.0000000  0 10G14G30G28G04G07G21G01G09G17G08
  -2998766.06247  -2314603.59245  23292772.564    23292772.1644   23292777.3104
       157.0004        158.0004
 -11244494.29548  -8733016.39946  22578559.216    22578558.8944   22578564.8584
       180.0004        179.0004
  -1108934.04047   -852552.37945  23656931.184    23656930.8014   23656935.2754
       149.0004        152.0004
  -5774744.17247  -4485908.19345  23297317.191    23297317.5904   23297323.8264
       159.0004        161.0004
 -20391681.14149 -15862113.32947  21006261.112    21006261.4934   21006265.3334
       204.0004        204.0004
 -16303465.20648 -12544919.00646  21862396.910    21862396.6284   21862400.8964
       183.0004        184.0004
 -18599579.43348 -14467220.94847  21277534.401    21277534.7814   21277543.0194
       193.0004        193.0004
 -14470105.73849 -11244781.44347  21663153.715    21663154.3934   21663160.9454
       199.0004        199.0004
  -8199895.75947  -6361096.27146  23081677.580    23081677.7194   23081682.2484
       164.0004        166.0004
 -10844935.06049  -8433421.31447  22589604.963    22589605.5954   22589614.0694
       204.0004        204.0004
 21  1 31  1 55  0.0000000  0 10G14G30G28G04G07G21G01G09G17G08
  -3024379.54547  -2334562.13045  23287898.016    23287898.3444   23287903.0494
       157.0004        159.0004
 -11330534.08648  -8800060.37646  22562185.582    22562185.0694   22562192.1124
       179.0004        178.0004
  -1123792.63047   -864130.48845  23654101.902    23654101.9814   23654106.6224
       148.0004        151.0004
  -5676849.27147  -4409626.51045  23315944.471    23315945.0374   23315953.1754
       160.0004        161.0004
 -20450997.64549 -15908333.97547  20994973.420    20994973.9294   20994978.0454
       204.0004        204.0004
 -16282439.24148 -12528535.11946  21866397.776    21866397.1004   21866401.4974
       183.0004        183.0004
 -18651303.62448 -14507525.49847  21267691.583    21267691.8114   21267699.4144
       192.0004        192.0004
 -14406808.21649 -11195458.70147  21675199.850    21675199.9404   21675207.0384
       199.0004        200.0004
  -8276342.37547  -6420664.99546  23067127.914    23067128.7374   23067135.0474
       164.0004        164.0004
 -10752256.96249  -8361204.62947  22607241.613    22607241.9464   22607250.0654
       203.0004        203.0004
 21  1 31  1 55 30.0000000  0 10G14G30G28G04G07G21G01G09G17G08
  -3050003.11547  -2354528.54745  23283023.159    23283023.0574   23283026.4694
       158.0004        160.0004
 -11416486.88848  -8867036.59546  22545828.813    22545829.3884   22545835.8654
       177.0004        177.0004
  -1138651.23647   -875708.60845  23651275.394    23651275.0014   23651279.5284
       150.0004        153.0004
  -5578924.02447  -4333321.18245  23334579.178    23334579.1734   23334587.6974
       159.0004        160.0004
 -20510016.86049 -15954322.97347  20983741.965    20983742.4624   20983746.4894
       204.0004        203.0004
 -16260917.63948 -12511765.03246  21870492.845    21870492.1394   21870497.2494
       183.0004        183.0004
 -18702618.66848 -14547511.23147  21257926.776    21257927.1494   21257934.4654
       193.0004        193.0004
 -14343198.71849 -11145892.86647  21687303.293    21687304.0114   21687311.5944
       199.0004        199.0004
  -8352434.24547  -6479957.31946  23052649.796    23052650.1784   23052654.4864
       164.0004        167.0004
 -10659472.54549  -8288905.09647  22624898.166    22624898.2134   22624906.5664
       202.0004        202.0004
 21  1 31  1 56  0.0000000  0 10G14G30G28G04G07G21G01G09G17G08
  -3075639.22647  -2374504.72745  23278143.396    23278143.9544   23278149.5604
       158.0004        160.0004
 -11502351.74448  -8933944.24946  22529489.597    22529489.2014   22529496.4504
       177.0004        177.0004
  -1153512.67547   -887288.95245  23648447.359    23648447.9944   23648451.0404
       151.0004        153.0004
  -5480972.64347  -4256995.50045  23353219.070    23353220.1734   23353226.9934
       159.0004        161.0004
 -20568737.35049 -16000079.19947  20972567.979    20972568.7904   20972572.2834
       203.0004        204.0004
 -16238902.29248 -12494610.21246  21874681.534    21874682.1084   21874687.5024
       183.0004        183.0004
 -18753523.00048 -14587176.91947  21248239.323    21248239.5824   21248247.9124
       193.0004        193.0004
 -14279281.56349 -11096087.29947  21699466.609    21699467.0504   21699474.1154
       199.0004        199.0004
  -8428171.69648  -6538973.46246  23038238.223    23038238.6294   23038241.5854
       167.0004        169.0004
 -10566585.75149  -8216525.77647  22642574.017    22642574.1114   22642581.8184
       202.0004        202.0004
 21  1 31  1 56 30.0000000  0 10G14G30G28G04G07G21G01G09G17G08
  -3101288.59347  -2394491.21745  23273262.294    23273263.5654   23273266.9824
       158.0004        161.0004
 -11588125.91148  -9000781.26546  22513166.219    22513166.9224   22513173.7844
       176.0004        176.0004
  -1168378.22447   -898872.45345  23645618.238    23645618.5774   23645622.9134
       150.0004        152.0004
  -5382997.65547  -4180651.41945  23371863.952    23371864.5554   23371870.9584
       159.0004        161.0004
 -20627155.95749 -16045600.19047  20961451.597    20961452.1994   20961455.7764
       204.0004        204.0004
 -16216392.31048 -12477069.94946  21878965.045    21878965.0294   21878970.1074
       183.0004        183.0004
 -18804013.40748 -14626520.08747  21238631.213    21238632.2554   21238639.7664
       192.0004        193.0004
 -14215059.35849 -11046044.03647  21711688.624    21711688.4674   21711694.4674
       198.0004        199.0004
  -8503553.56248  -6597712.50646  23023892.714    23023892.7734   23023897.0804
       166.0004        167.0004
 -10473598.84949  -8144068.45147  22660269.330    22660269.3404   22660276.8654
       202.0004        203.0004
 21  1 31  1 57  0.0000000  0 10G14G30G28G04G07G21G01G09G17G08
  -3126951.44247  -2414488.21846  23268379.593    23268380.1994   23268385.2574
       160.0004        163.0004
 -11673806.16248  -9067545.07946  22496862.367    22496862.1384   22496870.6384
       176.0004        178.0004
  -1183248.25047   -910459.46845  23642789.660    23642789.0614   23642793.5864
       151.0004        154.0004
  -5285000.96547  -4104290.44445  23390512.439    23390512.8844   23390518.2834
       159.0004        159.0004
 -20685269.32849 -16090883.33447  20950392.740    20950393.3274   20950396.8084
       204.0004        204.0004
 -16193387.15048 -12459143.83446  21883343.433    21883343.2434   21883348.3664
       183.0004        183.0004
 -18854086.14548 -14665537.77847  21229102.753    21229103.6204   21229111.6064
       192.0004        192.0004
 -14150534.18349 -10995764.67947  21723966.237    21723966.7084   21723974.1694
       198.0004        198.0004
  -8578577.23348  -6656172.43846  23009616.239    23009616.5194   23009619.9994
       166.0004        168.0004
 -10380514.17749  -8071534.93547  22677982.260    22677982.1914   22677990.7934
       202.0004        202.0004
 21  1 31  1 57 30.0000000  0 10G14G30G28G04G07G21G01G09G17G08
  -3152629.87247  -2434497.39545  23263492.842    23263493.1204   23263498.2414
       160.0004        161.0004
 -11759391.16348  -9134234.72746  22480576.904    22480576.8554   22480583.7074
       177.0004        179.0004
  -1198125.57147   -922052.18845  23639957.766    23639957.7724   23639960.6974
       150.0004        153.0004
  -5186986.49347  -4027915.61545  23409163.940    23409164.3804   23409171.3004
       158.0004        158.0004
 -20743075.74349 -16135927.31947  20939392.481    20939392.9714   20939396.8264
       203.0004        204.0004
 -16169887.78448 -12440832.65646  21887814.839    21887814.7844   21887819.4494
       183.0004        183.0004
 -18903739.39948 -14704228.62647  21219654.464    21219654.8754   21219662.8314
       192.0004        192.0004
 -14085710.04349 -10945252.40747  21736302.576    21736302.9544   21736309.6824
       199.0004        199.0004
  -8653242.47048  -6714353.12246  22995408.195    22995408.5964   22995412.9824
       167.0004        168.0004
 -10287335.09549  -7998927.89347  22695713.471    22695713.6754   22695722.1174
       201.0004        201.0004
 21  1 31  1 58  0.0000000  0 10G14G30G28G04G07G21G01G09G17G08
  -3178324.86347  -2454519.43245  23258602.598    23258603.2714   23258607.4744
       157.0004        158.0004
 -11844878.45548  -9200848.15646  22464307.354    22464308.5144   22464317.2524
       178.0004        177.0004
  -1213011.46147   -933651.54645  23637124.660    23637124.1734   23637129.0334
       148.0004        150.0004
  -5088956.86947  -3951528.93845  23427818.635    23427819.0804   23427825.4474
       156.0004        157.0004
 -20800572.26849 -16180729.77947  20928450.379    20928451.1404   20928455.7424
       203.0004        204.0004
 -16145894.02148 -12422136.20146  21892381.021    21892380.7404   21892385.5794
       183.0004        183.0004
 -18952970.23848 -14742590.27847  21210285.122    21210285.6884   21210294.1124
       191.0004        191.0004
 -14020589.82349 -10894509.35947  21748694.233    21748694.6604   21748702.1674
       199.0004        199.0004
  -8727547.86448  -6772253.36446  22981268.211    22981268.4574   22981272.2354
       166.0004        167.0004
 -10194064.64849  -7926249.60547  22713461.325    22713461.9564   22713471.2554
       200.0004        200.0004
 21  1 31  1 58 30.0000000  0 10G14G30G28G04G07G21G01G09G17G08
  -3204036.15147  -2474554.23745  23253710.033    23253710.1364   23253714.7504
       156.0004        159.0004
 -11930264.33048  -9267382.60446  22448059.907    22448060.2584   22448067.2194
       177.0004        179.0004
  -1227906.31947   -945257.97745  23634290.110    23634290.3264   23634295.5634
       147.0004        150.0004
  -4990913.65247  -3875131.74145  23446475.111    23446476.1254   23446483.1984
       156.0004        157.0004
 -20857754.79249 -16225287.60947  20917569.718    20917570.1774   20917574.5964
       204.0004        205.0004
 -16121404.74148 -12403053.64946  21897041.350    21897040.9724   21897045.3784
       183.0004        184.0004
 -19001774.50648 -14780619.58247  21200998.835    21200999.4604   21201007.0754
       192.0004        192.0004
 -13955175.22049 -10843536.95847  21761142.161    21761142.5334   21761149.9254
       199.0004        199.0004
  -8801490.39348  -6829870.93146  22967196.889    22967197.4904   22967202.7114
       168.0004        171.0004
 -10100703.75149  -7853500.88747  22731227.182    22731228.2294   22731236.8664
       200.0004        201.0004
 21  1 31  1 59  0.0000000  0 10G14G30G28G04G07G21G01G09G17G08
  -3229765.15247  -2494602.80045  23248815.025    23248815.4644   23248819.6154
       159.0004        162.0004
 -12015546.73348  -9333836.41446  22431832.569    22431832.6624   22431839.5954
       180.0004        182.0004
  -1242811.64247   -956872.49145  23631454.077    23631455.0954   23631457.9184
       148.0004        151.0004
  -4892859.99847  -3798726.37145  23465134.673    23465135.6864   23465141.3544
       156.0004        158.0004
 -20914621.02749 -16269598.95547  20906749.033    20906749.1054   20906752.7754
       204.0004        204.0004
 -16096420.51248 -12383585.40946  21901795.639    21901794.5914   21901800.1754
       183.0004        183.0004
 -19050149.75848 -14818314.56747  21191793.034    21191793.6934   21191801.6704
       192.0004        192.0004
 -13889469.52249 -10792337.71547  21773645.359    21773645.6884   21773652.8054
       198.0004        197.0004
  -8875069.58448  -6887205.29446  22953195.327    22953195.3944   22953199.6124
       169.0004        169.0004
 -10007255.24549  -7780683.86147  22749011.469    22749010.9614   22749019.3274
       201.0004        201.0004
 21  1 31  1 59 30.0000000  0 10G14G30G28G04G07G21G01G09G17G08
  -3255514.39247  -2514667.12445  23243913.684    23243914.0684   23243920.7564
       161.0004        162.0004
 -12100724.75248  -9400208.88746  22415623.318    22415623.5884   22415630.5124
       180.0004        181.0004
  -1257730.48247   -968497.55645  23628614.648    23628614.4804   23628618.8554
       150.0004        152.0004
  -4794800.20147  -3722316.21745  23483795.374    23483795.1994   23483801.6394
       156.0004        157.0004
 -20971169.89449 -16313662.99847  20895987.674    20895987.9334   20895992.2914
       204.0004        205.0004
 -16070943.23748 -12363732.96646  21906643.571    21906643.0174   21906648.2444
       183.0004        183.0004
 -19098094.70648 -14855674.24247  21182668.781    21182670.2494   21182677.6904
       192.0004        193.0004
 -13823477.23149 -10740915.15047  21786202.187    21786203.2484   21786210.7634
       196.0004        196.0004
  -8948285.63648  -6944256.70646  22939262.921    22939263.1824   22939267.8994
       170.0004        173.0004
  -9913723.72149  -7707802.13347  22766809.318    22766808.7704   22766817.2994
       200.0004        199.0004
 21  1 31  2  0  0.0000000  0 10G14G30G28G04G07G21G01G09G17G08
  -3281282.85947  -2534746.43845  23239010.515    23239011.6664   23239016.0334
       161.0004        162.0004
 -12185793.87848  -9466496.51846  22399434.192    22399434.8274   22399442.1014
       181.0004        181.0004
  -1272662.45847   -980132.89545  23625775.172    23625774.4414   23625777.3944
       149.0004        152.0004
  -4696734.92647  -3645901.83045  23502455.706    23502456.3174   23502461.9324
       154.0004        155.0004
 -21027396.36149 -16357475.85647  20885288.143    20885288.7894   20885292.4604
       205.0004        205.0004
 -16044971.03548 -12343494.91346  21911585.047    21911585.7424   21911590.6904
       182.0004        183.0004
 -19145604.39248 -14892694.78047  21173629.839    21173629.6404   21173637.3374
       194.0004        195.0004
 -13757199.21049 -10689269.96947  21798816.127    21798816.3644   21798823.4304
       196.0004        197.0004
  -9021135.03848  -7001022.45046  22925399.051    22925399.3684   22925406.0784
       171.0004        172.0004
  -9820109.25249  -7634855.81847  22784621.629    22784623.1224   22784631.8714
       198.0004        197.0004
 21  1 31  2  0 30.0000000  0 10G14G30G28G04G07G21G01G09G17G08
  -3307072.54847  -2554842.26046  23234103.893    23234104.1684   23234109.6884
       162.0004        165.0004
 -12270752.75548  -9532698.22546  22383268.208    22383267.9114   22383274.1384
       180.0004        180.0004
  -1287610.14047   -991780.39345  23622929.605    23622929.1724   23622933.5584
       148.0004        151.0004
  -4598668.00147  -3569486.12345  23521118.309    23521118.2114   23521123.3444
       154.0004        156.0004
 -21083299.09849 -16401036.41747  20874650.417    20874650.7394   20874654.7984
       204.0004        204.0004
 -16018504.46348 -12322871.58646  21916622.324    21916622.4164   21916626.6994
       182.0004        183.0004
 -19192677.13748 -14929374.81947  21164671.524    21164672.1424   21164680.0094
       194.0004        195.0004
 -13690639.56749 -10637405.28647  21811481.945    21811482.0464   21811489.1614
       196.0004        197.0004
  -9093617.60448  -7057502.31746  22911607.111    22911607.0664   22911612.8974
       173.0004        176.0004
  -9726415.95149  -7561848.05147  22802453.149    22802452.4184   22802461.5654
       196.0004        196.0004
 21  1 31  2  1  0.0000000  0 10G14G30G28G04G07G21G01G09G17G08
  -3332884.30747  -2574955.32946  23229192.738    23229192.5124   23229196.9964
       164.0004        166.0004
 -12355598.74348  -9598811.96946  22367122.842    22367122.6794   22367128.6644
       181.0004        182.0004
  -1302574.35947  -1003440.84745  23620082.124    23620081.4414   23620087.0054
       151.0004        155.0004
  -4500602.00647  -3493071.15645  23539779.928    23539779.3204   23539785.9894
       154.0004        156.0004
 -21138874.68549 -16444342.06947  20864074.470    20864075.0854   20864078.7864
       205.0004        205.0004
 -15991543.51248 -12301863.03346  21921752.357    21921751.8154   21921757.5584
       182.0004        183.0004
 -19239309.98449 -14965712.07647  21155797.112    21155797.8964   21155806.0584
       195.0004        196.0004
 -13623801.05649 -10585323.33847  21824199.872    21824200.7524   21824208.2574
       196.0004        196.0004
  -9165731.61648  -7113695.00846  22897883.518    22897884.2644   22897889.6544
       174.0004        174.0004
  -9632646.02549  -7488780.59647  22820297.258    22820296.7474   22820304.5834
       196.0004        196.0004
 21  1 31  2  1 30.0000000  0 10G14G30G28G04G07G21G01G09G17G08
  -3358720.71348  -2595087.57646  23224275.446    23224276.0464   23224280.2674
       165.0004        167.0004
 -12440330.91348  -9664837.04846  22350998.281    22350998.5354   22351004.6474
       182.0004        182.0004
  -1317558.50647  -1015116.77645  23617229.907    23617230.1404   23617235.6524
       152.0004        155.0004
  -4402541.19147  -3416660.23645  23558439.287    23558438.3484   23558446.7754
       153.0004        154.0004
 -21194122.13549 -16487392.03447  20853561.077    20853561.5994   20853565.8144
       205.0004        205.0004
 -15964089.73048 -12280470.47946  21926976.264    21926976.8124   21926981.9754
       182.0004        183.0004
 -19285501.66249 -15001705.57947  21147007.638    21147008.0324   21147015.4634
       195.0004        196.0004
 -13556688.20649 -10533027.62547  21836971.374    21836972.0394   21836978.8184
       196.0004        196.0004
  -9237478.18248  -7169601.38946  22884230.182    22884231.1924   22884236.5694
       172.0004        172.0004
  -9538803.86749  -7415656.82647  22838154.275    22838154.6024   22838162.3164
       197.0004        198.0004
 21  1 31  2  2  0.0000000  0 10G14G30G28G04G07G21G01G09G17G08
  -3384579.46148  -2615237.26846  23219354.991    23219355.4844   23219358.7654
       165.0004        166.0004
 -12524943.57848  -9730768.97346  22334896.326    22334896.3134   22334903.8284
       182.0004        183.0004
  -1332560.33347  -1026806.49745  23614376.232    23614375.6944   23614380.5674
       152.0004        155.0004
  -4304485.07847  -3340252.97945  23577098.776    23577099.5864   23577106.2154
       152.0004        155.0004
 -21249035.50149 -16530181.66247  20843111.300    20843111.7144   20843116.0794
       204.0004        205.0004
 -15936141.41948 -12258692.55546  21932296.110    21932294.8964   21932300.7354
       182.0004        184.0004
 -19331246.24649 -15037350.69147  21138301.694    21138303.0764   21138310.4274
       195.0004        195.0004
 -13489300.92049 -10480518.04747  21849795.570    21849795.9484   21849802.0314
       196.0004        196.0004
  -9308852.70748  -7225217.85146  22870648.908    22870648.7714   22870654.9984
       172.0004        173.0004
  -9444888.66249  -7342476.15047  22856025.166    22856026.0244   22856034.3184
       198.0004        199.0004
 21  1 31  2  2 30.0000000  0 10G14G30G28G04G07G21G01G09G17G08
  -3410463.60047  -2635406.72546  23214428.955    23214428.9204   23214433.6714
       164.0004        164.0004
 -12609436.31148  -9796607.46646  22318818.374    22318818.9564   22318824.9634
       183.0004        185.0004
  -1347583.66947  -1038512.96745  23611516.933    23611516.9084   23611521.4714
       153.0004        156.0004
  -4206438.45047  -3263853.13145  23595757.805    23595757.8864   23595764.8364
       152.0004        155.0004
 -21303614.30749 -16572710.62247  20832726.324    20832726.3244   20832729.7514
       205.0004        205.0004
 -15907699.85748 -12236530.28946  21937708.358    21937707.4284   21937713.2414
       183.0004        183.0004
 -19376543.00449 -15072646.86147  21129682.553    21129683.3794   21129691.3004
       195.0004        196.0004
 -13421643.96449 -10427798.35347  21862670.730    21862671.0524   21862676.9694
       196.0004        197.0004
  -9379855.65948  -7280544.80046  22857138.135    22857138.1234   22857143.0224
       173.0004        175.0004
  -9350904.87449  -7269242.03847  22873910.050    22873909.9414   22873918.1854
       197.0004        196.0004
 21  1 31  2  3  0.0000000  0 10G14G30G28G04G07G21G01G09G17G08
  -3436373.28647  -2655596.06545  23209497.892    23209497.8894   23209503.7724
       162.0004        162.0004
 -12693805.76248  -9862349.87346  22302763.751    22302763.4824   22302770.5344
       185.0004        186.0004
  -1362629.16347  -1050236.70945  23608653.776    23608654.0734   23608658.2174
       153.0004        155.0004
  -4108403.13447  -3187462.07445  23614411.910    23614412.4744   23614419.7684
       152.0004        155.0004
 -21357854.70349 -16614975.84247  20822403.886    20822404.4094   20822408.3694
       205.0004        205.0004
 -15878764.14748 -12213982.96346  21943214.256    21943214.0284   21943218.2164
       182.0004        182.0004
 -19421388.37049 -15107591.27447  21121147.893    21121148.7934   21121157.3334
       196.0004        196.0004
 -13353719.60549 -10374870.26347  21875596.075    21875595.8764   21875602.8334
       196.0004        195.0004
  -9450485.18148  -7335580.73546  22843698.450    22843697.7234   22843703.0724
       175.0004        178.0004
  -9256854.02649  -7195955.65047  22891806.671    22891807.3124   22891815.2524
       195.0004        195.0004
 21  1 31  2  3 30.0000000  0 10G14G30G28G04G07G21G01G09G17G08
  -3462309.78047  -2675806.31145  23204561.563    23204562.2984   23204567.3054
       160.0004        162.0004
 -12778049.82548  -9927994.59346  22286732.197    22286732.0504   22286738.9904
       184.0004        185.0004
  -1377698.60247  -1061979.11645  23605786.058    23605785.9394   23605790.9064
       153.0004        156.0004
  -4010382.21647  -3111082.26945  23633063.846    23633064.9854   23633073.7564
       152.0004        153.0004
 -21411754.57149 -16656975.74947  20812147.130    20812147.9254   20812151.9444
       206.0004        206.0004
 -15849335.72348 -12191051.72046  21948814.130    21948813.7464   21948818.6114
       182.0004        183.0004
 -19465779.95249 -15142182.11147  21112700.336    21112701.7634   21112710.2974
       196.0004        197.0004
 -13285531.14348 -10321736.41247  21888570.763    21888571.1934   21888578.4234
       194.0004        193.0004
  -9520740.24548  -7390324.91846  22830327.607    22830328.2954   22830333.7614
       175.0004        174.0004
  -9162739.42148  -7122619.60247  22909716.134    22909716.3954   22909724.8314
       194.0004        194.0004
 21  1 31  2  4  0.0000000  0 10G14G30G28G04G07G21G01G09G17G08
  -3488274.00447  -2696038.15446  23199621.259    23199622.5814   23199628.0044
       162.0004        166.0004
 -12862165.85648  -9993539.56546  22270726.146    22270725.7844   22270732.6114
       185.0004        185.0004
  -1392793.39247  -1073741.27845  23602914.774    23602914.2294   23602917.9524
       153.0004        156.0004
  -3912378.27247  -3034715.69245  23651714.171    23651714.0974   23651722.1644
       151.0004        152.0004
 -21465310.89249 -16698707.97247  20801956.248    20801956.5684   20801960.1424
       206.0004        206.0004
 -15819414.79448 -12167736.70846  21954507.931    21954507.3814   21954513.0164
       182.0004        182.0004
 -19509715.04549 -15176417.24347  21104341.314    21104342.0264   21104349.6464
       197.0004        197.0004
 -13217081.55048 -10268399.07847  21901596.354    21901596.2924   21901604.5344
       192.0004        192.0004
  -9590619.67648  -7444776.40946  22817030.569    22817031.2484   22817035.5604
       173.0004        174.0004
  -9068563.37349  -7049235.68647  22927639.571    22927638.4904   22927646.3504
       195.0004        195.0004
 21  1 31  2  4 30.0000000  0 10G14G30G28G04G07G21G01G09G17G08
  -3514266.95647  -2716292.39646  23194675.270    23194675.5594   23194679.9264
       162.0004        163.0004
 -12946151.50748 -10058982.92046  22254744.006    22254743.6584   22254751.1074
       186.0004        187.0004
  -1407914.85447  -1085524.21545  23600037.600    23600036.8244   23600040.1184
       153.0004        155.0004
  -3814394.21647  -2958364.61045  23670359.776    23670359.2754   23670368.1964
       151.0004        153.0004
 -21518521.08049 -16740170.45647  20791830.294    20791830.6574   20791834.8044
       206.0004        207.0004
 -15789001.20648 -12144037.79046  21960294.973    21960294.7114   21960299.6304
       182.0004        182.0004
 -19553191.03749 -15210294.61447  21096068.290    21096068.0384   21096075.8294
       196.0004        196.0004
 -13148373.85948 -10214860.62647  21914670.198    21914670.2704   21914678.9444
       190.0004        189.0004
  -9660122.46848  -7498934.38546  22803804.921    22803804.5954   22803809.7704
       173.0004        172.0004
  -8974328.89548  -6975806.23247  22945571.732    22945570.8974   22945578.4164
       194.0004        195.0004
 21  1 31  2  5  0.0000000  0 10G14G30G28G04G07G21G01G09G17G08
  -3540289.63447  -2736569.80145  23189721.496    23189723.1474   23189729.5514
       159.0004        160.0004
 -13030004.31648 -10124322.77346  22238787.174    22238787.1824   22238793.7094
       187.0004        187.0004
  -1423064.42747  -1097329.07245  23597153.180    23597154.1954   23597158.2014
       152.0004        153.0004
  -3716432.60447  -2882031.03945  23689002.239    23689002.8484   23689008.5844
       152.0004        156.0004
 -21571382.57149 -16781361.25347  20781771.282    20781771.7624   20781775.4574
       206.0004        207.0004
 -15758095.55248 -12119955.49046  21966176.761    21966176.1084   21966181.1254
       182.0004        182.0004
 -19596205.27749 -15243812.21947  21087882.321    21087883.3114   21087890.2824
       196.0004        196.0004
 -13079411.17148 -10161123.51747  21927793.139    21927794.1434   21927800.9614
       189.0004        189.0004
  -9729247.55648  -7552798.07846  22790649.748    22790650.7704   22790655.9474
       172.0004        173.0004
  -8880038.11649  -6902332.91847  22963513.693    22963513.9324   22963521.6494
       196.0004        196.0004
 21  1 31  2  5 30.0000000  0 10G14G30G28G04G07G21G01G09G17G08
  -3566343.06447  -2756871.17445  23184765.270    23184765.8784   23184770.3924
       158.0004        159.0004
 -13113721.76848 -10189557.15347  22222856.237    22222856.6304   22222863.3794
       187.0004        189.0004
  -1438243.53747  -1109156.93145  23594264.998    23594264.6764   23594269.7084
       152.0004        155.0004
  -3618496.26947  -2805717.15245  23707638.327    23707639.2504   23707646.6944
       154.0004        158.0004
 -21623893.06449 -16822278.49147  20771778.354    20771778.6974   20771783.4064
       206.0004        207.0004
 -15726698.60848 -12095490.32146  21972150.789    21972150.7114   21972155.4354
       181.0004        182.0004
 -19638755.23549 -15276968.00747  21079785.341    21079785.9294   21079793.3864
       196.0004        196.0004
 -13010196.57248 -10107190.07047  21940965.136    21940965.2284   21940972.9264
       190.0004        192.0004
  -9797994.18748  -7606366.85246  22777568.370    22777568.7134   22777573.6294
       172.0004        173.0004
  -8785693.42949  -6828817.58047  22981467.076    22981466.7754   22981474.4714
       195.0004        195.0004
 21  1 31  2  6  0.0000000  0 10G14G30G28G04G07G21G01G09G17G08
  -3592427.86147  -2777197.02245  23179801.674    23179802.2354   23179806.9624
       159.0004        161.0004
 -13197301.08748 -10254683.87947  22206951.315    22206951.4264   22206958.8314
       188.0004        188.0004
  -1453453.16047  -1121008.59145  23591370.097    23591370.8444   23591374.1944
       152.0004        153.0004
  -3520587.59047  -2729424.82645  23726269.720    23726270.6754   23726278.5624
       155.0004        157.0004
 -21676048.85249 -16862919.36047  20761853.499    20761854.1974   20761858.5974
       206.0004        207.0004
 -15694810.07648 -12070642.09846  21978219.467    21978218.9704   21978224.1934
       182.0004        182.0004
 -19680837.98749 -15309759.75047  21071776.987    21071777.7474   21071785.2504
       195.0004        195.0004
 -12940732.80848 -10053062.46647  21954184.029    21954184.7874   21954192.2554
       192.0004        194.0004
  -9866360.84548  -7659639.53246  22764558.538    22764558.7504   22764562.6324
       172.0004        172.0004
  -8691297.71748  -6755262.48247  22999428.935    22999428.4944   22999437.9774
       194.0004        194.0004
 21  1 31  2  6 30.0000000  0 10G14G30G28G04G07G21G01G09G17G08
  -3618544.26647  -2797547.45746  23174832.309    23174833.1044   23174837.2364
       161.0004        163.0004
 -13280739.01948 -10319700.42646  22191073.141    22191073.2064   22191080.7294
       187.0004        187.0004
  -1468694.33547  -1132884.80145  23588470.069    23588470.3584   23588475.1594
       150.0004        152.0004
  -3422708.45447  -2653155.51045  23744896.301    23744896.3424   23744904.5534
       155.0004        157.0004
 -21727846.85649 -16903281.43947  20751996.790    20751997.2964   20752001.2904
       206.0004        207.0004
 -15662430.18548 -12045411.00446  21984380.512    21984380.9394   21984386.2144
       182.0004        182.0004
 -19722450.18549 -15342184.82647  21063858.345    21063859.1334   21063866.7884
       195.0004        195.0004
 -12871022.12449  -9998742.43747  21967450.842    21967450.6614   21967457.3774
       195.0004        195.0004
  -9934345.60348  -7712614.63846  22751621.354    22751621.7434   22751626.4834
       171.0004        173.0004
  -8596852.18148  -6681668.57347  23017401.017    23017401.6664   23017409.6224
       193.0004        194.0004
 21  1 31  2  7  0.0000000  0 10G14G30G28G04G07G21G01G09G17G08
  -3644692.77847  -2817922.92346  23169855.899    23169857.0984   23169861.9054
       163.0004        165.0004
 -13364032.70348 -10384604.60146  22175222.553    22175223.0474   22175230.2204
       186.0004        187.0004
  -1483968.16147  -1144786.50745  23585562.877    23585563.4694   23585566.4054
       148.0004        150.0004
  -3324861.23947  -2576911.09845  23763515.170    23763515.7824   23763524.3674
       153.0004        155.0004
 -21779284.07849 -16943362.39947  20742208.444    20742209.4244   20742213.1244
       206.0004        207.0004
 -15629558.31148 -12019796.55746  21990636.020    21990636.0464   21990640.7054
       181.0004        181.0004
 -19763588.92149 -15374240.97847  21056030.189    21056030.1194   21056038.1214
       195.0004        195.0004
 -12801067.20949  -9944232.11847  21980763.101    21980763.3294   21980768.7294
       196.0004        196.0004
 -10001947.66348  -7765291.54046  22738755.740    22738756.2024   22738760.8164
       170.0004        170.0004
  -8502359.16448  -6608037.66747  23035381.205    23035382.5094   23035391.2454
       194.0004        195.0004
 21  1 31  2  7 30.0000000  0 10G14G30G28G04G07G21G01G09G17G08
  -3670875.41148  -2838324.92846  23164874.823    23164875.0694   23164878.9334
       165.0004        167.0004
 -13447180.55648 -10449395.13646  22159400.630    22159401.1134   22159407.8194
       187.0004        187.0004
  -1499276.69947  -1156715.23245  23582650.538    23582650.3014   23582653.0994
       145.0004        147.0004
  -3227049.51047  -2500694.29945  23782129.062    23782129.3834   23782137.4234
       152.0004        154.0004
 -21830358.87749 -16983160.94747  20732489.448    20732489.6404   20732494.1654
       206.0004        207.0004
 -15596196.39548 -11993800.25346  21996985.643    21996984.8914   21996989.2614
       181.0004        181.0004
 -19804252.61848 -15405926.97047  21048292.637    21048292.9144   21048299.9604
       194.0004        194.0004
 -12730872.08949  -9889534.61947  21994120.605    21994121.0914   21994126.7004
       197.0004        197.0004
 -10069166.46648  -7817669.83046  22725966.814    22725966.4574   22725969.9664
       171.0004        173.0004
  -8407822.28049  -6534372.56747  23053374.789    23053374.1374   23053380.5334
       195.0004        196.0004
 21  1 31  2  8  0.0000000  0 10G14G30G28G04G07G21G01G09G17G08
  -3697094.14748  -2858755.07846  23159886.952    23159886.8034   23159889.6544
       168.0004        169.0004
 -13530181.24248 -10514070.99146  22143606.336    22143606.1494   22143614.1014
       187.0004        187.0004
  -1514622.40647  -1168672.92945  23579730.497    23579729.8814   23579734.9994
       146.0004        150.0004
  -3129277.14347  -2424508.23945  23800734.280    23800734.6734   23800742.3114
       151.0004        153.0004
 -21881069.84449 -17022676.00547  20722839.718    20722839.9444   20722844.2544
       206.0004        207.0004
 -15562346.10348 -11967423.41346  22003427.363    22003426.8354   22003431.9054
       182.0004        182.0004
 -19844439.87148 -15437241.71647  21040644.619    21040645.3484   21040653.0244
       194.0004        194.0004
 -12660440.93749  -9834653.21447  22007522.978    22007523.4204   22007529.2724
       197.0004        197.0004
 -10136002.07948  -7869749.49346  22713247.373    22713248.0434   22713252.1414
       171.0004        172.0004
  -8313244.66249  -6460675.74047  23071369.801    23071370.6534   23071378.1954
       195.0004        194.0004
 21  1 31  2  8 30.0000000  0 10G14G30G28G04G07G21G01G09G17G08
  -3723349.76848  -2879213.94846  23154889.087    23154889.1604   23154893.7824
       167.0004        167.0004
 -13613032.06948 -10578630.04246  22127840.762    22127841.1574   22127847.3154
       187.0004        187.0004
  -1530006.68447  -1180660.66145  23576802.720    23576802.9664   23576806.8024
       146.0004        148.0004
  -3031546.67247  -2348354.75245  23819330.429    23819332.1134   23819340.3024
       153.0004        156.0004
 -21931414.01849 -17061905.20747  20713259.545    20713260.1564   20713263.5164
       207.0004        207.0004
 -15528007.91648 -11940666.34346  22009960.391    22009959.7834   22009965.9604
       182.0004        182.0004
 -19884148.03448 -15468183.10447  21033087.539    21033088.4314   21033096.5524
       194.0004        194.0004
 -12589776.68449  -9779590.13647  22020968.735    22020968.9434   22020976.0724
       195.0004        193.0004
 -10202453.51948  -7921529.80646  22700602.764    22700603.1584   22700606.5564
       172.0004        173.0004
  -8218629.45748  -6386949.59047  23089374.036    23089374.6264   23089384.2124
       194.0004        194.0004
 21  1 31  2  9  0.0000000  0 10G14G30G28G04G07G21G01G09G17G08
  -3749639.71647  -2899699.65945  23149882.873    23149883.8244   23149891.1494
       163.0004        161.0004
 -13695727.08848 -10643067.74946  22112104.366    22112104.4124   22112110.9784
       187.0004        187.0004
  -1545427.51647  -1192676.90545  23573868.019    23573867.7054   23573872.4484
       143.0004        144.0004
  -2933857.24547  -2272233.32945  23837921.285    23837922.1754   23837930.5214
       154.0004        157.0004
 -21981385.13949 -17100843.77047  20703750.219    20703750.7894   20703754.6254
       207.0004        208.0004
 -15493178.53148 -11913526.59046  22016588.433    22016588.0684   22016592.8844
       182.0004        183.0004
 -19923371.20348 -15498746.62247  21025624.645    21025624.7314   21025632.9534
       194.0004        195.0004
 -12518878.92948  -9724345.15447  22034459.771    22034460.3474   22034467.8934
       193.0004        191.0004
 -10268516.49748  -7973007.45146  22688030.725    22688031.0324   22688035.5984
       173.0004        174.0004
  -8123975.10048  -6313192.98347  23107386.839    23107386.3984   23107396.2694
       193.0004        193.0004
 21  1 31  2  9 30.0000000  0 10G14G30G28G04G07G21G01G09G17G08
  -3775967.43447  -2920214.79645  23144873.482    23144875.5064   23144879.9544
       160.0004        160.0004
 -13778266.25748 -10707383.95947  22096397.243    22096397.6714   22096405.0954
       187.0004        188.0004
  -1560888.80847  -1204724.63145  23570926.894    23570925.5854   23570930.0184
       142.0004        147.0004
  -2836214.02347  -2196147.88745  23856504.053    23856503.8834   23856511.6684
       155.0004        157.0004
 -22030983.48149 -17139491.82147  20694311.974    20694312.4484   20694316.4084
       207.0004        208.0004
 -15457860.92048 -11886006.35246  22023309.958    22023309.3324   22023313.3034
       182.0004        182.0004
 -19962109.37748 -15528932.19447  21018251.384    21018252.5794   21018261.5404
       194.0004        195.0004
 -12447753.24448  -9668922.54547  22047994.171    22047994.6514   22048003.1454
       191.0004        192.0004
 -10334192.18248  -8024183.27346  22675531.239    22675532.7814   22675538.4054
       171.0004        171.0004
  -8029286.79548  -6239409.88947  23125405.919    23125405.4814   23125413.9924
       192.0004        192.0004
 21  1 31  2 10  0.0000000  0 10G14G30G28G04G07G21G01G09G17G08
  -3802333.62247  -2940759.88246  23139859.737    23139860.1274   23139863.4304
       161.0004        164.0004
 -13860646.77048 -10771576.57346  22080720.477    22080720.5154   22080728.2194
       186.0004        186.0004
  -1576391.49647  -1216804.65645  23567976.750    23567976.3244   23567979.8034
       145.0004        151.0004
  -2738619.33047  -2120100.30145  23875075.789    23875076.3924   23875084.3944
       153.0004        155.0004
 -22080206.11749 -17177847.13747  20684945.674    20684946.0424   20684949.3964
       208.0004        208.0004
 -15422056.21948 -11858106.58646  22030123.151    22030122.4234   22030126.4274
       181.0004        181.0004
 -20000359.82748 -15558737.73947  21010973.769    21010974.4354   21010982.2264
       194.0004        195.0004
 -12376402.42148  -9613324.52947  22061571.911    22061572.1254   22061580.1614
       191.0004        190.0004
 -10399480.01248  -8075056.91446  22663110.187    22663109.5654   22663113.7304
       173.0004        174.0004
  -7934566.59848  -6165601.96647  23143428.763    23143429.8494   23143439.6614
       193.0004        195.0004
 21  1 31  2 10 30.0000000  0 10G14G30G28G04G07G21G01G09G17G08
  -3828740.25247  -2961336.40446  23134835.043    23134834.8714   23134838.8384
       164.0004        166.0004
 -13942867.20248 -10835644.42846  22065074.897    22065074.5654   22065081.7474
       186.0004        187.0004
  -1591938.14547  -1228918.90345  23565016.930    23565016.9214   23565022.7574
       149.0004        152.0004
  -2641076.94847  -2044093.44345  23893637.712    23893637.5724   23893646.3824
       151.0004        152.0004
 -22129051.81049 -17215908.72147  20675650.391    20675651.1104   20675654.6924
       208.0004        209.0004
 -15385765.75248 -11829828.29646  22037027.518    22037028.3984   22037032.9454
       181.0004        181.0004
 -20038121.25048 -15588162.20347  21003787.849    21003788.5344   21003796.3814
       194.0004        195.0004
 -12304830.62848  -9557554.30647  22075191.468    22075191.9904   22075199.6614
       190.0004        190.0004
 -10464380.26348  -8125628.52046  22650759.754    22650759.7924   22650764.5354
       174.0004        175.0004
  -7839817.98848  -6091771.86347  23161458.443    23161459.7364   23161469.6124
       193.0004        194.0004
 21  1 31  2 11  0.0000000  0 10G14G30G28G04G07G21G01G09G17G08
  -3855186.93747  -2981944.20146  23129801.325    23129800.8764   23129805.0214
       164.0004        164.0004
 -14024923.73848 -10899584.56747  22049460.161    22049460.0284   22049466.6914
       187.0004        188.0004
  -1607529.05047  -1241067.66845  23562051.185    23562050.4594   23562055.1904
       149.0004        151.0004
  -2543588.28047  -1968128.43445  23912188.208    23912189.1214   23912197.3164
       149.0004        151.0004
 -22177516.16249 -17253673.14947  20666427.970    20666428.4074   20666432.1504
       208.0004        208.0004
 -15348988.69148 -11801170.83346  22044027.332    22044026.6584   22044031.2304
       182.0004        181.0004
 -20075390.02349 -15617202.79147  20996696.506    20996697.2324   20996704.5884
       195.0004        196.0004
 -12233039.70948  -9501613.33847  22088854.622    22088854.7564   22088860.6764
       191.0004        192.0004
 -10528890.58148  -8175896.28346  22638483.907    22638484.0234   22638488.7744
       175.0004        177.0004
  -7745042.48448  -6017920.81447  23179497.013    23179496.3044   23179504.4624
       193.0004        193.0004
 21  1 31  2 11 30.0000000  0 10G14G30G28G04G07G21G01G09G17G08
  -3881673.91347  -3002583.41746  23124758.978    23124760.3274   23124765.5714
       163.0004        165.0004
 -14106813.20548 -10963394.55946  22033876.400    22033877.2714   22033882.9884
       187.0004        187.0004
  -1623164.91847  -1253251.46945  23559075.441    23559075.0754   23559079.3444
       148.0004        151.0004
  -2446155.27147  -1892206.84645  23930728.659    23930730.0974   23930736.9954
       147.0004        151.0004
 -22225596.01449 -17291137.98547  20657278.506    20657279.0624   20657283.0354
       208.0004        209.0004
 -15311725.35048 -11772134.46346  22051118.587    22051118.2104   22051122.4354
       182.0004        182.0004
 -20112163.11649 -15645857.15447  20989698.306    20989699.0214   20989706.9024
       195.0004        195.0004
 -12161032.12048  -9445503.53547  22102557.688    22102557.4864   22102563.7424
       191.0004        192.0004
 -10593009.34848  -8225858.96846  22626281.469    22626281.8924   22626286.3014
       175.0004        174.0004
  -7650241.74648  -5944050.13847  23197536.378    23197536.6474   23197544.3754
       193.0004        193.0004
 21  1 31  2 12  0.0000000  0 10G14G30G28G04G07G21G01G09G17G08
  -3908202.58247  -3023255.10246  23119711.763    23119711.8654   23119717.5294
       163.0004        164.0004
 -14188533.55548 -11027072.73246  22018325.777    22018326.3134   22018332.6944
       186.0004        186.0004
  -1638847.22247  -1265471.42645  23556092.104    23556091.1924   23556094.2884
       148.0004        150.0004
  -2348781.02347  -1816330.98645  23949259.826    23949260.7844   23949267.1064
       147.0004        151.0004
 -22273289.58149 -17328301.79247  20648202.532    20648203.1344   20648206.9724
       208.0004        209.0004
 -15273977.27448 -11742720.35446  22058301.679    22058301.4384   22058304.9124
       181.0004        181.0004
 -20148438.64049 -15674123.76047  20982796.281    20982796.9144   20982803.8594
       196.0004        197.0004
 -12088811.41148  -9389227.64047  22116299.925    22116300.1314   22116307.1774
       191.0004        191.0004
 -10656736.19048  -8275516.22146  22614154.201    22614154.9894   22614159.5614
       174.0004        175.0004
  -7555418.40748  -5870161.84047  23215581.652    23215581.0744   23215588.0574
       192.0004        192.0004
 21  1 31  2 12 30.0000000  0 10G14G30G28G04G07G21G01G09G17G08
  -3934774.39847  -3043960.38946  23114655.934    23114655.6834   23114661.1724
       162.0004        163.0004
 -14270082.81748 -11090617.61947  22002807.993    22002808.1754   22002814.6564
       186.0004        188.0004
  -1654578.32147  -1277729.41945  23553096.973    23553096.3834   23553100.8034
       146.0004        149.0004
  -2251468.72747  -1740503.44945  23967778.209    23967779.3054   23967786.0734
       148.0004        151.0004
 -22320594.86249 -17365163.07347  20639200.309    20639201.1704   20639205.2614
       208.0004        209.0004
 -15235745.39048 -11712929.28146  22065576.706    22065575.7934   22065580.8254
       181.0004        180.0004
 -20184214.86749 -15702001.33947  20975987.042    20975987.8164   20975996.0194
       196.0004        196.0004
 -12016381.21448  -9332788.55947  22130081.045    22130081.7614   22130089.7644
       189.0004        189.0004
 -10720070.77448  -8324867.83446  22602103.152    22602103.2554   22602108.1774
       176.0004        178.0004
  -7460576.00448  -5796258.67847  23233629.769    23233628.8094   23233635.8094
       191.0004        191.0004
 21  1 31  2 13  0.0000000  0 11G14G30G28G04G07G21G19G01G09G17G08
  -3961389.79347  -3064699.61945  23109589.887    23109590.7554   23109596.5714
       160.0004        161.0004
 -14351457.98848 -11154026.81547  21987321.956    21987322.2194   21987329.5674
       187.0004        188.0004
  -1670359.04747  -1290026.06445  23550095.175    23550093.8764   23550099.5724
       146.0004        150.0004
  -2154220.56447  -1664725.87145  23986282.848    23986283.0864   23986292.4064
       147.0004        149.0004
 -22367508.94349 -17401719.48447  20630273.677    20630273.8384   20630277.8064
       208.0004        209.0004
 -15197029.72148 -11682761.19246  22072943.794    22072943.9324   22072947.7224
       181.0004        181.0004
  -1231461.80857   -940209.07345  24860475.492                    24860479.5824
       139.0004        151.0004
 -20219489.04149 -15729487.68247  20969274.443    20969275.5774   20969283.1874
       196.0004        197.0004
 -11943744.22048  -9276188.29147  22143903.440    22143904.1774   22143912.6004
       189.0004        189.0004
 -10783012.35548  -8373913.18946  22590125.346    22590125.6814   22590129.3254
       176.0004        176.0004
  -7365716.16348  -5722341.90447  23251679.382    23251679.2644   23251687.6314
       190.0004        190.0004
 21  1 31  2 13 30.0000000  0 11G14G30G28G04G07G21G19G01G09G17G08
  -3988048.52347  -3085472.63345  23104517.144    23104517.1274   23104522.9094
       159.0004        160.0004
 -14432655.41848 -11217297.53847  21971871.633    21971871.7784   21971877.7644
       188.0004        189.0004
  -1686189.24347  -1302361.27145  23547081.610    23547081.7204   23547086.3164
       147.0004        151.0004
  -2057037.98047  -1588999.45145  24004777.959    24004777.9534   24004785.5814
       146.0004        150.0004
 -22414027.69149 -17437967.86447  20621420.929    20621421.8014   20621425.3114
       209.0004        209.0004
 -15157830.01148 -11652215.96346  22080403.531    22080402.6434   22080408.1934
       181.0004        181.0004
  -1323028.24947  -1011559.42345  24843047.114    24843047.4464   24843054.7934
       147.0004        152.0004
 -20254257.77549 -15756580.18647  20962658.208    20962659.2384   20962666.9994
       196.0004        197.0004
 -11870902.41548  -9219428.45647  22157766.336    22157766.4704   22157773.1954
       189.0004        190.0004
 -10845558.95948  -8422650.79246  22578222.498    22578223.3244   22578228.0544
       175.0004        176.0004
  -7270840.28148  -5648412.63247  23269731.509    23269732.1154   23269741.7894
       190.0004        190.0004
 21  1 31  2 14  0.0000000  0 11G14G30G28G04G07G21G19G01G09G17G08
  -4014751.57747  -3106280.23046  23099435.569    23099435.8154   23099440.8674
       160.0004        164.0004
 -14513672.67648 -11280427.90847  21956455.432    21956455.2814   21956461.1024
       190.0004        191.0004
  -1702070.72747  -1314736.48045  23544058.782    23544058.3034   23544063.3994
       149.0004        152.0004
  -1959923.78847  -1513326.33945  24023257.426    24023258.3964   24023265.5614
       144.0004        147.0004
 -22460149.04449 -17473906.61547  20612644.330    20612644.8364   20612648.9924
       209.0004        209.0004
 -15118147.39848 -11621294.46146  22087954.628    22087954.1804   22087958.8824
       181.0004        180.0004
  -1414389.30047  -1082749.73745  24825662.560    24825662.9904   24825669.1164
       148.0004        151.0004
 -20288518.91449 -15783277.18947  20956139.072    20956139.6184   20956147.2724
       197.0004        197.0004
 -11797859.03148  -9162511.56647  22171665.140    22171666.1414   22171673.2294
       188.0004        188.0004
 -10907709.95648  -8471080.15646  22566396.251    22566395.8774   22566401.1344
       176.0004        177.0004
  -7175951.14148  -5574473.07547  23287787.336    23287788.3704   23287799.0434
       189.0004        188.0004
 21  1 31  2 14 30.0000000  0 11G14G30G28G04G07G21G19G01G09G17G08
  -4041501.28447  -3127124.13846  23094346.286    23094346.1034   23094351.2044
       163.0004        165.0004
 -14594508.71248 -11343417.00747  21941072.052    21941072.0504   21941078.7734
       190.0004        191.0004
  -1718006.38547  -1327153.84245  23541028.022    23541027.1774   23541031.1544
       150.0004        153.0004
  -1862881.94547  -1437709.52745  24041724.245    24041725.2804   24041731.2804
       143.0004        147.0004
 -22505872.00149 -17509534.88247  20603943.382    20603944.0014   20603948.4984
       208.0004        209.0004
 -15077984.91648 -11589998.99446  22095597.171    22095597.1914   22095601.5494
       180.0004        180.0004
  -1505544.92747  -1153779.96145  24808316.797    24808315.7614   24808320.9664
       146.0004        148.0004
 -20322271.72449 -15809578.05147  20949716.123    20949717.0494   20949724.3964
       197.0004        198.0004
 -11724618.57748  -9105441.08647  22185603.745    22185603.8684   22185610.2534
       188.0004        189.0004
 -10969465.94548  -8519201.68046  22554643.769    22554644.3444   22554649.5044
       177.0004        178.0004
  -7081052.34648  -5500525.94947  23305845.860    23305847.5694   23305857.3404
       188.0004        188.0004
 21  1 31  2 15  0.0000000  0 11G14G30G28G04G07G21G19G01G09G17G08
  -4068295.92047  -3148003.06246  23089246.694    23089248.0424   23089252.8024
       164.0004        165.0004
 -14675158.37248 -11406260.88847  21925723.624    21925724.0824   21925731.7824
       190.0004        189.0004
  -1733994.86947  -1339612.40345  23537984.860    23537984.9024   23537989.1394
       151.0004        154.0004
  -1765912.45447  -1362149.14345  24060177.499    24060178.4154   24060185.9944
       143.0004        147.0004
 -22551191.49149 -17544848.77947  20595320.419    20595320.4704   20595323.9974
       209.0004        209.0004
 -15037340.05048 -11558327.65146  22103332.705    22103331.4734   22103335.6664
       180.0004        180.0004
  -1596491.11747  -1224646.97145  24791008.656    24791008.0484   24791015.0614
       143.0004        146.0004
 -20355511.40249 -15835479.08847  20943390.365    20943391.2064   20943399.4944
       197.0004        198.0004
 -11651181.67048  -9048217.52447  22199577.435    22199577.8874   22199585.4284
       188.0004        188.0004
 -11030823.64548  -8567012.85846  22542967.107    22542968.3464   22542973.6774
       177.0004        178.0004
  -6986143.53548  -5426571.03946  23323907.413    23323908.5424   23323917.7134
       187.0004        187.0004
 21  1 31  2 15 30.0000000  0 11G14G30G28G04G07G21G19G01G09G17G08
  -4095138.61547  -3168919.42546  23084138.914    23084138.9384   23084145.4344
       163.0004        164.0004
 -14755621.34148 -11468959.30947  21910412.830    21910412.7234   21910419.5094
       189.0004        190.0004
  -1750039.86647  -1352114.98445  23534930.872    23534930.0374   23534936.7154
       149.0004        150.0004
  -1669020.22247  -1286648.96145  24078616.861    24078615.4694   24078624.7404
       143.0004        147.0004
 -22596107.21449 -17579848.05347  20586772.316    20586772.9764   20586776.9944
       209.0004        209.0004
 -14996215.88148 -11526282.84546  22111157.654    22111157.9024   22111161.9784
       180.0004        180.0004
  -1687228.45647  -1295351.23245  24773742.718    24773742.0624   24773746.5824
       141.0004        145.0004
 -20388237.96149 -15860980.29247  20937164.534    20937164.2674   20937171.4174
       198.0004        199.0004
 -11577553.61148  -8990845.02747  22213589.174    22213589.0284   22213596.3454
       189.0004        190.0004
 -11091784.88248  -8614515.11146  22531369.234    22531368.4664   22531372.9484
       179.0004        181.0004
  -6891229.61648  -5352612.17746  23341972.379    23341971.5584   23341979.1954
       186.0004        187.0004
 21  1 31  2 16  0.0000000  0 11G14G30G28G04G07G21G19G01G09G17G08
  -4122028.98747  -3189872.94446  23079022.344    23079022.1374   23079026.9694
       163.0004        164.0004
 -14835893.83148 -11531509.29347  21895137.505    21895137.1114   21895144.9994
       190.0004        192.0004
  -1766141.38347  -1364661.61545  23531867.738    23531868.1734   23531871.4084
       147.0004        151.0004
  -1572206.51247  -1211209.97845  24097039.290    24097038.9384   24097046.5024
       144.0004        148.0004
 -22640615.67449 -17614529.97547  20578302.913    20578303.3244   20578307.2644
       209.0004        209.0004
 -14954612.22448 -11493864.39646  22119073.835    22119073.9224   22119078.0794
       179.0004        180.0004
  -1777754.19847  -1365890.69745  24756516.056    24756516.3884   24756519.5364
       141.0004        145.0004
 -20420448.08549 -15886079.07847  20931034.280    20931034.9544   20931042.3224
       199.0004        199.0004
 -11503736.31048  -8933325.05647  22227635.122    22227635.7614   22227642.9064
       189.0004        189.0004
 -11152347.66048  -8661706.88246  22519843.300    22519843.4454   22519848.0254
       180.0004        181.0004
  -6796311.81548  -5278650.26047  23360036.516    23360034.9804   23360042.3714
       187.0004        188.0004
 21  1 31  2 16 30.0000000  0 11G14G30G28G04G07G21G19G01G09G17G08
  -4148968.78347  -3210864.98446  23073895.739    23073895.7304   23073900.6674
       164.0004        165.0004
 -14915974.23448 -11593909.59847  21879898.380    21879898.6164   21879906.3554
       192.0004        193.0004
  -1782301.69147  -1377254.06745  23528791.602    23528791.2664   23528796.4604
       146.0004        149.0004
  -1475474.93347  -1135834.99645  24115444.504    24115446.1904   24115454.8224
       145.0004        148.0004
 -22684715.13749 -17648893.19347  20569910.959    20569911.6434   20569915.4654
       209.0004        209.0004
 -14912531.11248 -11461073.91246  22127081.621    22127081.6964   22127086.2714
       179.0004        179.0004
  -1868067.96947  -1436264.92245  24739329.217    24739328.8264   24739334.2784
       141.0004        144.0004
 -20452140.52349 -15910774.47247  20925003.036    20925003.9914   20925011.3774
       199.0004        199.0004
 -11429733.81548  -8875660.78047  22241717.660    22241717.8924   22241724.8604
       188.0004        188.0004
 -11212512.13348  -8708588.28346  22508394.126    22508394.2844   22508398.9064
       180.0004        180.0004
  -6701393.40748  -5204687.88947  23378099.999    23378098.0154   23378104.0184
       188.0004        189.0004
 21  1 31  2 17  0.0000000  0 11G14G30G28G04G07G21G19G01G09G17G08
  -4175957.24147  -3231894.93746  23068758.561    23068759.4774   23068765.1024
       163.0004        164.0004
 -14995858.38248 -11656156.98447  21864697.692    21864697.9464   21864704.9154
       194.0004        194.0004
  -1798520.36047  -1389891.96345  23525706.632    23525707.2184   23525710.8734
       148.0004        151.0004
  -1378826.33647  -1060524.70845  24133838.660    24133838.9154   24133846.5624
       146.0004        149.0004
 -22728401.64849 -17682934.63947  20561598.406    20561598.3424   20561602.1334
       209.0004        209.0004
 -14869972.13348 -11427911.06846  22135180.632    22135180.1374   22135185.1924
       178.0004        178.0004
  -1958166.51047  -1506471.46545  24722185.629    24722184.5244   24722187.5444
       139.0004        143.0004
 -20483311.55549 -15935063.57447  20919072.026    20919072.1744   20919079.9104
       199.0004        199.0004
 -11355547.64448  -8817853.38847  22255834.213    22255835.0364   22255842.4344
       188.0004        188.0004
 -11272276.36748  -8755157.80446  22497021.844    22497022.1964   22497026.2734
       181.0004        181.0004
  -6606474.84848  -5130725.39447  23396159.616    23396159.7644   23396165.4524
       189.0004        189.0004
 21  1 31  2 17 30.0000000  0 11G14G30G28G04G07G21G19G01G09G17G08
  -4202995.64847  -3252963.78346  23063613.899    23063614.8754   23063619.6684
       164.0004        165.0004
 -15075544.22448 -11718249.82847  21849533.838    21849533.7124   21849540.5214
       192.0004        192.0004
  -1814799.55347  -1402577.01445  23522608.300    23522608.3854   23522612.2594
       148.0004        150.0004
  -1282263.81747   -985281.49645  24152215.183    24152214.0424   24152221.8434
       147.0004        151.0004
 -22771673.40549 -17716652.88747  20553362.921    20553363.8644   20553368.0024
       209.0004        209.0004
 -14826936.23548 -11394376.57746  22143370.009    22143369.0514   22143374.5304
       178.0004        178.0004
  -2048048.83347  -1576509.54345  24705082.998    24705081.5544   24705084.8854
       141.0004        145.0004
 -20513959.63149 -15958945.17047  20913239.603    20913239.9914   20913247.3384
       199.0004        198.0004
 -11281181.36148  -8759905.63147  22269986.768    22269986.9344   22269994.1734
       187.0004        188.0004
 -11331639.63148  -8801414.88046  22485725.392    22485725.8654   22485730.5834
       181.0004        181.0004
  -6511558.68848  -5056764.73346  23414220.227    23414219.9584   23414227.3174
       187.0004        186.0004
 21  1 31  2 18  0.0000000  0 11G14G30G28G04G07G21G19G01G09G17G08
  -4230083.29847  -3274071.04346  23058459.391    23058459.9244   23058465.2144
       163.0004        164.0004
 -15155027.61748 -11780184.96547  21834407.633    21834408.2834   21834414.6964
       192.0004        192.0004
  -1831138.77347  -1415308.87245  23519499.078    23519499.0474   23519502.0234
       147.0004        150.0004
  -1185788.31647   -910106.12645  24170572.697    24170572.9484   24170581.9084
       147.0004        150.0004
 -22814526.16049 -17750044.66147  20545208.683    20545209.3434   20545213.2794
       209.0004        210.0004
 -14783423.00648 -11360470.16746  22151650.966    22151650.1224   22151654.8874
       178.0004        180.0004
  -2137711.90647  -1646376.75245  24688019.078    24688018.3274   24688020.7834
       141.0004        144.0004
 -20544081.01449 -15982416.38447  20907506.922    20907508.3094   20907515.5284
       199.0004        199.0004
 -11206636.53748  -8701818.77746  22284172.352    22284172.7634   22284179.6304
       187.0004        187.0004
 -11390600.12348  -8847358.11246  22474505.348    22474506.1514   22474511.2234
       181.0004        181.0004
  -6416646.47548  -4982807.21446  23432281.146    23432281.1084   23432289.8714
       186.0004        186.0004
 21  1 31  2 18 30.0000000  0 11G14G30G28G04G07G21G19G01G09G17G08
  -4257222.30747  -3295218.33846  23053294.349    23053296.0494   23053300.8194
       164.0004        166.0004
 -15234307.27248 -11841961.34247  21819321.884    21819322.0564   21819328.9134
       192.0004        193.0004
  -1847540.59947  -1428089.55345  23516378.140    23516378.9334   23516382.0674
       148.0004        152.0004
  -1089403.69047   -835001.59345  24188913.886    24188914.1064   24188921.8604
       145.0004        148.0004
 -22856958.79749 -17783109.08347  20537134.523    20537134.8234   20537138.4604
       209.0004        210.0004
 -14739434.73648 -11326193.61346  22160020.151    22160020.4834   22160025.4544
       179.0004        179.0004
  -2227155.51947  -1716072.98645  24670997.676    24670996.6804   24671002.2244
       140.0004        144.0004
 -20573675.05749 -16005476.68847  20901876.147    20901876.6384   20901884.1994
       199.0004        199.0004
 -11131917.61548  -8643596.27046  22298390.443    22298391.1314   22298397.3904
       186.0004        185.0004
 -11449159.40548  -8892988.74246  22463362.116    22463362.4084   22463367.2694
       180.0004        180.0004
  -6321741.43848  -4908855.26846  23450340.672    23450340.9744   23450348.5114
       184.0004        184.0004
 21  1 31  2 19  0.0000000  0 11G14G30G28G04G07G21G19G01G09G17G08
  -4284412.49548  -3316405.46646  23048121.588    23048122.1294   23048127.0694
       165.0004        167.0004
 -15313379.70748 -11903576.22247  21804275.033    21804275.3214   21804281.8894
       193.0004        194.0004
  -1864005.44647  -1440919.29145  23513244.350    23513244.3034   23513249.5444
       150.0004        152.0004
   -993111.50747   -759969.04045  24207237.896    24207238.9584   24207246.2104
       146.0004        149.0004
 -22898968.12349 -17815843.62947  20529140.427    20529140.8524   20529144.6264
       209.0004        210.0004
 -14694971.57648 -11291546.98746  22168481.663    22168481.3914   22168486.0584
       178.0004        178.0004
  -2316377.27747  -1785596.33045  24654017.528    24654018.0274   24654024.6394
       137.0004        141.0004
 -20602738.74349 -16028123.70547  20896344.831    20896345.5224   20896353.3494
       199.0004        199.0004
 -11057026.75748  -8585239.76246  22312641.301    22312641.1074   22312648.7084
       184.0004        184.0004
 -11507315.19048  -8938304.92546  22452294.390    22452294.7024   22452300.3824
       180.0004        180.0004
  -6226844.84048  -4834909.89146  23468399.416    23468398.8514   23468407.7944
       184.0004        185.0004
 21  1 31  2 19 30.0000000  0 11G14G30G28G04G07G21G19G01G09G17G08
  -4311654.94148  -3337633.29946  23042936.310    23042937.1764   23042942.8124
       166.0004        167.0004
 -15392242.56648 -11965027.76747  21789268.324    21789267.6304   21789275.1674
       194.0004        195.0004
  -1880534.91047  -1453799.36145  23510097.888    23510097.8734   23510102.8494
       146.0004        147.0004
   -896914.56047   -685010.72145  24225545.179    24225545.8984   24225550.9214
       147.0004        151.0004
 -22940552.16149 -17848246.75047  20521226.597    20521227.3014   20521231.2824
       209.0004        210.0004
 -14650034.85148 -11256531.32546  22177033.026    22177032.5064   22177037.1654
       178.0004        178.0004
  -2405376.04546  -1854945.94145  24637083.373    24637083.5684   24637085.7674
       134.0004        139.0004
 -20631270.32449 -16050356.07047  20890915.691    20890916.4214   20890924.2674
       199.0004        199.0004
 -10981967.34148  -8526751.88646  22326924.972    22326925.1524   22326932.2794
       184.0004        184.0004
 -11565067.18348  -8983306.45546  22441305.628    22441306.1634   22441309.8074
       180.0004        181.0004
  -6131959.85748  -4760973.53546  23486452.954    23486453.9174   23486463.3634
       183.0004        183.0004
 21  1 31  2 20  0.0000000  0 11G14G30G28G04G07G21G19G01G09G17G08
  -4338950.39648  -3358902.49346  23037742.646    23037743.3394   23037748.7164
       165.0004        166.0004
 -15470893.34549 -12026314.10347  21774301.327    21774301.3494   21774308.1254
       195.0004        194.0004
  -1897130.08747  -1466730.66645  23506941.195    23506941.4944   23506945.7724
       146.0004        150.0004
   -800815.32647   -610128.55145  24243831.450    24243832.0114   24243839.8234
       147.0004        150.0004
 -22981708.28749 -17880316.47547  20513394.822    20513395.4404   20513399.6274
       209.0004        210.0004
 -14604625.78648 -11221147.63246  22185674.493    22185674.0444   22185679.3604
       178.0004        179.0004
  -2494150.35646  -1924120.61445  24620189.133    24620188.7144   24620192.6954
       133.0004        138.0004
 -20659267.89149 -16072172.35447  20885588.136    20885588.6734   20885596.3104
       199.0004        198.0004
 -10906742.46448  -8468135.11346  22341239.392    22341240.3204   22341247.8144
       184.0004        185.0004
 -11622415.02348  -9027993.05846  22430392.173    22430393.0094   22430395.8234
       180.0004        180.0004
  -6037088.08648  -4687047.47946  23504508.280    23504509.1124   23504517.2234
       185.0004        187.0004
 21  1 31  2 20 30.0000000  0 11G14G30G28G04G07G21G19G01G09G17G08
  -4366301.24648  -3380214.87446  23032538.253    23032539.1474   23032543.3304
       165.0004        165.0004
 -15549330.93448 -12087434.32347  21759375.111    21759374.9104   21759382.0274
       194.0004        194.0004
  -1913793.60147  -1479715.22545  23503770.597    23503770.2834   23503774.9894
       147.0004        151.0004
   -704817.83947   -535325.69045  24262098.150    24262098.4084   24262107.8914
       147.0004        150.0004
 -23022435.64649 -17912052.10447  20505645.170    20505645.3064   20505649.5194
       209.0004        210.0004
 -14558747.24948 -11185398.13046  22194404.478    22194405.3164   22194409.9514
       178.0004        178.0004
  -2582700.43346  -1993120.60845  24603337.805    24603337.0664   24603342.2054
       133.0004        139.0004
 -20686730.96849 -16093572.16447  20880361.653    20880362.2674   20880369.9744
       198.0004        198.0004
 -10831356.78048  -8409393.06046  22355585.083    22355585.7114   22355593.1944
       184.0004        185.0004
 -11679360.18148  -9072365.94246  22419556.721    22419556.6574   22419559.5504
       180.0004        180.0004
  -5942233.67048  -4613134.98946  23522558.173    23522559.2684   23522567.7394
       186.0004        187.0004
 21  1 31  2 21  0.0000000  0 11G14G30G28G04G07G21G19G01G09G17G08
  -4393707.13448  -3401570.03046  23027322.151    23027322.6774   23027329.3534
       165.0004        166.0004
 -15627551.70548 -12148385.54847  21744489.857    21744489.9874   21744496.6884
       194.0004        194.0004
  -1930526.25347  -1492753.61945  23500585.393    23500585.3634   23500590.2894
       147.0004        150.0004
   -608923.50647   -460603.17745  24280345.099    24280346.2204   24280356.3734
       146.0004        149.0004
 -23062730.88449 -17943450.96747  20497976.577    20497977.4654   20497981.4054
       209.0004        210.0004
 -14512398.60748 -11149282.28046  22203224.682    22203224.2524   22203228.5234
       178.0004        178.0004
  -2671023.56247  -2061943.70145  24586532.937    24586532.4964   24586535.4704
       137.0004        144.0004
 -20713656.56149 -16114553.10847  20875237.204    20875238.2394   20875246.2014
       198.0004        198.0004
 -10755812.33248  -8350527.24146  22369960.689    22369961.1864   22369968.4204
       185.0004        186.0004
 -11735900.54348  -9116423.32546  22408796.817    22408798.0994   22408801.1024
       180.0004        182.0004
  -5847398.03448  -4539237.09246  23540606.458    23540606.6534   23540614.0234
       186.0004        186.0004
 21  1 31  2 21 30.0000000  0 11G14G30G28G04G07G21G19G01G09G17G08
  -4421168.31148  -3422968.34246  23022096.338    23022097.8154   23022102.2254
       165.0004        165.0004
 -15705552.57148 -12209165.44747  21729645.472    21729646.7414   21729653.8254
       194.0004        194.0004
  -1947328.55647  -1505846.30845  23497388.942    23497388.3504   23497391.6544
       148.0004        152.0004
   -513134.30147   -385962.62445  24298575.404    24298575.9014   24298585.2904
       145.0004        148.0004
 -23102591.05049 -17974510.84847  20490392.020    20490392.2544   20490396.4214
       210.0004        211.0004
 -14465581.06848 -11112801.06246  22212133.817    22212132.9334   22212137.7334
       178.0004        179.0004
  -2759117.85147  -2130588.48845  24569769.068    24569769.1824   24569773.0204
       141.0004        147.0004
 -20740042.27849 -16135113.40047  20870216.983    20870217.5444   20870225.0774
       197.0004        198.0004
 -10680111.75548  -8291539.79246  22384366.388    22384367.1624   22384374.0564
       185.0004        185.0004
 -11792035.66348  -9160164.96246  22398114.686    22398115.2304   22398119.8824
       182.0004        183.0004
  -5752582.45448  -4465354.83446  23558649.580    23558649.9934   23558657.5484
       186.0004        187.0004
