     2.11           OBSERVATION DATA    G (GPS)             RINEX VERSION / TYPE
teqc  2018Jun8                          20210202 03:10:42UTCPGM / RUN BY / DATE
Linux2.6.32-573.12.1.el6.x86_64|x86_64|gcc|Win64-MinGW64|=+ COMMENT
BIT 2 OF LLI FLAGS DATA COLLECTED UNDER A/S CONDITION       COMMENT
-Unknown-                                                   MARKER NAME
CRNO                                                        MARKER NUMBER
-Unknown-           -Unknown-                               OBSERVER / AGENCY
-Unknown-           ASHTECH             -Unknown-           REC # / TYPE / VERS
-Unknown-           -Unknown-                               ANT # / TYPE
   408074.7555 -6158364.6200  1605159.5447                  APPROX POSITION XYZ
        0.0000        0.0000        0.0000                  ANTENNA: DELTA H/E/N
     1     1                                                WAVELENGTH FACT L1/2
     7    L1    L2    C1    P1    P2    S1    S2            # / TYPES OF OBSERV
    30.0000                                                 INTERVAL
Forced Modulo Decimation to 30 seconds                      COMMENT
 SNR is mapped to RINEX snr flag value [1-9]                COMMENT
  L1: 1 -> 1;  90 -> 5; 210 -> 9                            COMMENT
  L2: 1 -> 1; 150 -> 5; 250 -> 9                            COMMENT
pseudorange smoothing corrections not applied               COMMENT
  2021     2     6     0     0   30.0000000     GPS         TIME OF FIRST OBS
                                                            END OF HEADER
 21  2  6  0  0 30.0000000  0  7G21G04G27G07G08G09G01
  -1239841.10548   -955450.69146  22020429.487    22020428.9454   22020433.6094
       174.0004        175.0004
   -488203.25448   -472647.07647  21266386.423    21266387.3004   21266392.7294
       194.0004        193.0004
   -274416.43648   -222971.40447  23324886.939    23324886.5394   23324893.8264
       189.0004        189.0004
  -1490704.26148  -1144062.61246  22621342.098    22621342.7524   22621346.5774
       180.0004        181.0004
   -602430.42844   -574324.95046  20728563.086
        74.0004        164.0004
   -959561.12949   -744930.96948  20781660.441    20781660.7154   20781667.1004
       214.0004        214.0004
  -1539450.59147  -1173615.54345  22877302.142    22877302.9494   22877310.6054
       160.0004        161.0004
 21  2  6  0  1  0.0000000  0  7G21G04G27G07G08G09G01
  -1272324.37648   -980762.31646  22014248.324    22014247.5284   22014252.6334
       175.0004        176.0004
   -414991.06148   -415598.62447  21280318.291    21280318.8434   21280325.0244
       194.0004        193.0004
   -170775.74848   -142212.42447  23344608.307    23344608.7524   23344615.8464
       188.0004        188.0004
  -1566058.58248  -1202780.28146  22607003.789    22607004.1524   22607006.5394
       181.0004        181.0004
   -544730.16344   -528993.23345  20739542.580
        74.0004        135.0004
   -950944.45149   -738216.66748  20783299.180    20783299.9054   20783306.6304
       213.0004        214.0004
  -1617120.34847  -1234137.40145  22862522.023    22862521.3664   22862530.3224
       160.0004        162.0004
 21  2  6  0  1 30.0000000  0  7G21G04G27G07G08G09G01
  -1304483.73348  -1005821.54346  22008128.579    22008127.6824   22008132.5274
       174.0004        174.0004
   -341400.87349   -358255.62247  21294323.034    21294322.9494   21294328.9404
       195.0004        193.0004
    -66970.44948    -61325.18447  23364361.605    23364362.2184   23364370.6144
       189.0004        190.0004
  -1641422.14848  -1261505.13046  22592662.521    22592662.4944   22592666.2444
       182.0004        183.0004
   -486577.04244   -483162.93244  20750608.240
        74.0004        115.0004
   -941771.39649   -731068.82648  20785045.609    20785045.9314   20785052.6664
       213.0004        214.0004
  -1694774.40247  -1294647.01846  22847745.089    22847745.6384   22847754.0614
       161.0004        164.0004
 21  2  6  0  2  0.0000000  0  7G21G04G27G07G08G09G01
  -1336315.64648  -1030625.60646  22002071.583    22002071.0294   22002075.6474
       174.0004        175.0004
   -267434.49949   -300619.48547  21308397.347    21308398.0834   21308403.9644
       195.0004        193.0004
     36997.31148     19688.64047  23384147.740    23384147.6534   23384154.0594
       191.0004        191.0004
  -1716791.76748  -1320234.66946  22578319.675    22578320.3414   22578325.0784
       184.0004        184.0004
   -427972.84748   -494764.33547  20761760.071                    20761767.8404
       194.0004        204.0004
   -932041.92049   -723487.41148  20786895.977    20786896.7574   20786903.7564
       213.0004        213.0004
  -1772408.96347  -1355141.43446  22832970.559    22832971.4764   22832980.3624
       162.0004        164.0004
 21  2  6  0  2 30.0000000  0  7G21G04G27G07G08G09G01
  -1367816.83048  -1055171.96046  21996076.279    21996075.7804   21996081.1944
       174.0004        175.0004
   -193093.74949   -242691.63747  21322544.006    21322544.6444   21322551.2174
       195.0004        193.0004
    141125.43748    100827.42747  23403963.382    23403962.8304   23403969.5214
       191.0004        192.0004
  -1792164.27848  -1378966.48046  22563976.991    22563977.9204   22563981.2594
       184.0004        184.0004
   -368919.09349   -448748.41047  20772998.517    20772999.1634   20773005.7344
       203.0004        205.0004
   -921756.01849   -715472.41848  20788854.107    20788854.4794   20788861.1264
       213.0004        213.0004
  -1850020.07447  -1415617.61446  22818202.034    22818202.3714   22818211.5224
       162.0004        164.0004
 21  2  6  0  3  0.0000000  0  7G21G04G27G07G08G09G01
  -1398984.06448  -1079458.09946  21990146.048    21990144.5894   21990150.2694
       174.0004        175.0004
   -118380.55449   -184473.56547  21336761.747    21336762.3174   21336768.3344
       195.0004        193.0004
    245411.95248    182089.65047  23423806.547    23423806.7224   23423814.4354
       191.0004        191.0004
  -1867537.59648  -1437698.90746  22549633.852    22549634.6814   22549638.2414
       184.0004        184.0004
   -309417.79149   -402383.73747  20784321.910    20784321.7274   20784328.5354
       205.0004        205.0004
   -910913.71649   -707023.86948  20790917.390    20790917.8554   20790924.4864
       213.0004        214.0004
  -1927603.81147  -1476072.44146  22803438.262    22803438.5744   22803448.3424
       163.0004        165.0004
 21  2  6  0  3 30.0000000  0  7G21G04G27G07G08G09G01
  -1429815.38048  -1103482.48246  21984277.604    21984277.4994   21984282.7274
       173.0004        174.0004
    -43297.85648   -125967.56747  21351049.527    21351050.1804   21351056.0064
       194.0004        192.0004
    349853.54348    263472.70547  23443681.990    23443682.1534   23443688.9204
       192.0004        191.0004
  -1942909.58248  -1496430.31546  22535291.011    22535291.1404   22535295.4734
       184.0004        184.0004
   -249471.63749   -355672.43347  20795728.676    20795728.7434   20795735.9924
       205.0004        205.0004
   -899516.15549   -698142.65048  20793085.902    20793086.4804   20793093.3754
       213.0004        214.0004
  -2005157.44247  -1536503.81746  22788680.090    22788681.5014   22788689.3514
       164.0004        165.0004
 21  2  6  0  4  0.0000000  0  7G21G04G27G07G08G09G01
  -1460309.02248  -1127243.75946  21978475.032    21978474.5194   21978480.1674
       173.0004        173.0004
     32151.02448    -67176.26147  21365406.774    21365407.2024   21365413.6554
       194.0004        193.0004
    454446.69048    344973.86347  23463584.805    23463585.0844   23463592.4184
       191.0004        191.0004
  -2018278.84148  -1555159.61246  22520949.186    22520948.7584   22520953.2224
       185.0004        186.0004
   -189084.19849   -308617.29647  20807219.719    20807220.0714   20807227.3054
       204.0004        204.0004
   -887564.83149   -688829.94248  20795360.527    20795360.8184   20795367.8694
       213.0004        213.0004
  -2082678.52147  -1596909.84046  22773928.209    22773929.2164   22773937.8814
       164.0004        166.0004
 21  2  6  0  4 30.0000000  0  7G21G04G27G07G08G09G01
  -1490462.51248  -1150739.93946  21972735.851    21972736.6414   21972742.3654
       173.0004        174.0004
    107963.34048     -8101.71847  21379833.700    21379833.6864   21379840.1564
       194.0004        192.0004
    559188.53548    426590.88747  23483517.409    23483516.8664   23483523.1814
       189.0004        189.0004
  -2093643.28548  -1613885.12246  22506606.743    22506607.5294   22506611.5254
       185.0004        185.0004
   -128257.88949   -261220.14047  20818794.909    20818795.1434   20818802.1894
       204.0004        204.0004
   -875060.67949   -679086.42548  20797739.740    20797740.3644   20797746.8434
       213.0004        214.0004
  -2160163.90648  -1657288.03146  22759183.933    22759184.2204   22759193.1274
       165.0004        167.0004
 21  2  6  0  5  0.0000000  0  7G21G04G27G07G08G09G01
  -1520274.07948  -1173969.72446  21967064.675    21967064.7224   21967069.8824
       173.0004        173.0004
    184136.01548     51253.59147  21394328.777    21394329.4204   21394335.0764
       193.0004        191.0004
    664075.84448    508321.24947  23503475.550    23503476.1764   23503483.0154
       190.0004        190.0004
  -2169001.22048  -1672605.60246  22492266.811    22492267.0044   22492271.1514
       184.0004        185.0004
    -66995.72549   -213483.40047  20830452.304    20830452.7894   20830459.7074
       203.0004        203.0004
   -862005.02849   -668913.20148  20800223.929    20800224.4704   20800231.6584
       213.0004        214.0004
  -2237610.93548  -1717636.34746  22744446.252    22744446.5064   22744454.7774
       166.0004        169.0004
 21  2  6  0  5 30.0000000  0  7G21G04G27G07G08G09G01
  -1549741.06648  -1196930.97846  21961456.189    21961455.7884   21961461.0504
       172.0004        173.0004
    260666.21348    110887.51347  21408892.562    21408892.9564   21408899.0584
       194.0004        193.0004
    769105.61348    590162.61147  23523462.996    23523462.8264   23523468.6424
       189.0004        188.0004
  -2244350.51748  -1731319.31546  22477928.872    22477928.7434   22477933.1834
       185.0004        186.0004
     -5300.51149   -165409.18047  20842192.430    20842193.3604   20842199.4674
       203.0004        204.0004
   -848398.89349   -658311.00648  20802813.535    20802813.9934   20802820.5964
       213.0004        214.0004
  -2315016.53448  -1777952.38146  22729716.676    22729717.6744   22729725.5094
       167.0004        169.0004
 21  2  6  0  6  0.0000000  0  7G21G04G27G07G08G09G01
  -1578861.71548  -1219622.37946  21955914.898    21955914.5524   21955920.0184
       172.0004        172.0004
    337550.91048    170797.66247  21423522.650    21423522.9114   21423529.7754
       194.0004        193.0004
    874274.67548    672112.51446  23543476.188    23543475.4094   23543482.0964
       187.0004        187.0004
  -2319689.58848  -1790025.08646  22463592.162    22463592.6044   22463595.8404
       185.0004        186.0004
     56825.05249   -116999.64247  20854015.573    20854015.5474   20854021.6004
       204.0004        205.0004
   -834243.62049   -647280.92848  20805507.362    20805507.6244   20805514.2224
       213.0004        214.0004
  -2392377.94948  -1838233.99546  22714995.987    22714996.1244   22715003.0194
       168.0004        170.0004
 21  2  6  0  6 30.0000000  0  7G21G04G27G07G08G09G01
  -1607632.99748  -1242041.53746  21950439.734    21950440.0734   21950445.5444
       172.0004        173.0004
    414787.88548    230982.31447  21438220.352    21438220.9564   21438227.5524
       194.0004        192.0004
    979580.67248    754169.13147  23563514.595    23563514.8514   23563521.4724
       188.0004        189.0004
  -2395015.56848  -1848720.65046  22449257.815    22449258.1644   22449262.5714
       186.0004        186.0004
    119378.94849    -68256.32747  20865918.669    20865918.6764   20865925.9124
       204.0004        204.0004
   -819539.65849   -635823.28448  20808305.233    20808305.7274   20808312.6024
       214.0004        214.0004
  -2469691.50948  -1898478.29746  22700282.827    22700283.6904   22700291.8914
       168.0004        170.0004
 21  2  6  0  7  0.0000000  0  7G21G04G27G07G08G09G01
  -1636052.00548  -1264186.19546  21945032.097    21945031.9434   21945037.4084
       172.0004        173.0004
    492375.36148    291440.08047  21452984.949    21452984.8864   21452991.1304
       193.0004        192.0004
   1085021.77048    836331.01947  23583579.046    23583579.7264   23583586.7554
       189.0004        190.0004
  -2470324.96148  -1907403.27946  22434926.986    22434927.6274   22434931.6464
       186.0004        186.0004
    182359.25249    -19180.77047  20877902.669    20877902.6944   20877910.3604
       203.0004        203.0004
   -804287.09949   -623938.17248  20811207.617    20811208.2024   20811214.7994
       214.0004        214.0004
  -2546953.09248  -1958682.11146  22685579.624    22685580.7294   22685589.5414
       169.0004        171.0004
 21  2  6  0  7 30.0000000  0  7G21G04G27G07G08G09G01
  -1664116.80048  -1286054.87246  21939691.052    21939691.7214   21939697.1544
       173.0004        174.0004
    570309.82148    352168.19647  21467815.525    21467815.3684   21467821.8214
       193.0004        191.0004
   1190594.39548    918595.37046  23603667.823    23603668.9444   23603675.8164
       187.0004        185.0004
  -2545617.08548  -1966072.46446  22420599.062    22420599.2414   22420604.2614
       186.0004        186.0004
    245763.05749     30224.78047  20889967.697    20889968.2414   20889976.2594
       202.0004        203.0004
   -788487.71149   -611626.98748  20814214.861    20814214.9204   20814221.1864
       214.0004        214.0004
  -2624160.24948  -2018843.54146  22670887.265    22670888.0314   22670896.8464
       170.0004        170.0004
 21  2  6  0  8  0.0000000  0  7G21G04G27G07G08G09G01
  -1691825.42648  -1307645.95646  21934418.602    21934418.1924   21934424.5674
       174.0004        174.0004
    648588.20848    413164.36547  21482711.180    21482711.4894   21482717.6394
       192.0004        191.0004
   1296295.29348   1000959.74246  23623782.088    23623783.5334   23623790.7004
       185.0004        185.0004
  -2620889.96748  -2024726.60246  22406274.711    22406275.3944   22406280.5464
       186.0004        186.0004
    309586.97549     79957.74247  20902113.262    20902113.7554   20902121.7324
       202.0004        203.0004
   -772142.89549   -598890.72948  20817324.059    20817324.7084   20817331.5824
       213.0004        213.0004
  -2701310.22348  -2078960.33846  22656205.382    22656206.6614   22656215.7134
       170.0004        170.0004
 21  2  6  0  8 30.0000000  0  7G21G04G27G07G08G09G01
  -1719174.32348  -1328956.77446  21929214.559    21929214.3894   21929219.4254
       174.0004        175.0004
    727209.06048    474427.33547  21497671.997    21497672.5584   21497678.7544
       192.0004        192.0004
   1402123.07848   1083422.91946  23643922.841    23643922.6524   23643928.5374
       185.0004        185.0004
  -2696139.86748  -2083362.89946  22391955.696    22391955.9314   22391959.7514
       186.0004        187.0004
    373829.31849    130016.69647  20914339.317    20914339.4914   20914345.9704
       203.0004        203.0004
   -755252.42349   -585729.34048  20820538.423    20820538.6474   20820545.7374
       213.0004        213.0004
  -2778398.47548  -2139029.11346  22641535.318    22641537.5464   22641546.2934
       169.0004        170.0004
 21  2  6  0  9  0.0000000  0  7G21G04G27G07G08G09G01
  -1746162.90748  -1349986.81346  21924079.573    21924078.8654   21924084.2654
       175.0004        176.0004
    806167.85648    535953.67747  21512696.616    21512697.6914   21512704.4944
       192.0004        191.0004
   1508073.06948   1165981.36346  23664083.240    23664083.4674   23664090.6714
       183.0004        183.0004
  -2771366.33548  -2141980.89546  22377640.122    22377640.6694   22377645.1014
       185.0004        186.0004
    438486.31749    180398.80747  20926642.332    20926642.8114   20926649.6834
       202.0004        202.0004
   -737819.19549   -572144.98548  20823856.036    20823856.6164   20823863.3074
       213.0004        213.0004
  -2855423.59148  -2199048.65146  22626880.450    22626880.2324   22626889.9304
       169.0004        172.0004
 21  2  6  0  9 30.0000000  0  7G21G04G27G07G08G09G01
  -1772789.06248  -1370734.45046  21919012.568    21919011.9674   21919017.3604
       176.0004        177.0004
    885461.77948    597741.12147  21527786.521    21527787.1484   21527793.4674
       192.0004        191.0004
   1614142.42848   1248632.77046  23684269.730    23684268.9084   23684273.5674
       184.0004        184.0004
  -2846567.36448  -2200579.11646  22363330.799    22363330.9834   22363334.8154
       186.0004        187.0004
    503555.09949    231101.74647  20939023.788    20939024.3344   20939031.8444
       201.0004        201.0004
   -719844.41049   -558138.67448  20827277.098    20827277.1674   20827283.9334
       213.0004        214.0004
  -2932382.46048  -2259016.60446  22612235.904    22612236.2314   22612243.7484
       170.0004        171.0004
 21  2  6  0 10  0.0000000  0  7G21G04G27G07G08G09G01
  -1799052.34648  -1391199.31946  21914014.674    21914013.9014   21914019.0824
       176.0004        177.0004
    965086.11348    659786.05047  21542939.255    21542939.1594   21542945.2934
       192.0004        190.0004
   1720326.47448   1331373.58646  23704476.206    23704475.7714   23704481.4964
       185.0004        186.0004
  -2921742.23748  -2259156.91246  22349024.936    22349025.4394   22349029.2384
       186.0004        186.0004
    569030.50749    282121.56047  20951483.399    20951483.7144   20951491.6834
       201.0004        201.0004
   -701331.14049   -543712.73748  20830799.294    20830799.7304   20830806.5494
       213.0004        213.0004
  -3009273.77348  -2318931.89146  22597603.715    22597603.9674   22597612.8784
       169.0004        170.0004
 21  2  6  0 10 30.0000000  0  7G21G04G27G07G08G09G01
  -1824950.87548  -1411379.97446  21909085.693    21909085.3454   21909091.2204
       176.0004        177.0004
   1045037.74348    722086.01847  21558153.007    21558153.4104   21558159.1344
       191.0004        190.0004
   1826622.16348   1414201.40846  23724704.541    23724702.9734   23724708.8064
       185.0004        184.0004
  -2996889.31448  -2317713.07546  22334724.546    22334724.8594   22334729.1104
       185.0004        185.0004
    634909.95849    333456.20047  20964020.063    20964020.0864   20964027.6864
       201.0004        201.0004
   -682280.89049   -528868.38748  20834424.888    20834425.1504   20834432.4734
       213.0004        214.0004
  -3086094.65648  -2378792.28046  22582984.297    22582984.5844   22582993.3424
       169.0004        170.0004
 21  2  6  0 11  0.0000000  0  7G21G04G27G07G08G09G01
  -1850478.29748  -1431271.48046  21904228.120    21904228.3504   21904233.2834
       177.0004        177.0004
   1125317.95548    784642.00347  21573428.808    21573430.5664   21573436.8074
       191.0004        190.0004
   1933030.68648   1497117.07946  23744952.338    23744951.4834   23744957.5384
       186.0004        187.0004
  -3072002.34548  -2376242.68746  22320430.755    22320431.3174   22320436.1964
       185.0004        187.0004
    701195.12449    385106.98647  20976633.786    20976633.9464   20976641.0154
       200.0004        201.0004
   -662690.78549   -513603.37748  20838153.142    20838153.2744   20838159.9154
       214.0004        214.0004
  -3162837.85948  -2438592.16146  22568379.799    22568380.8644   22568389.9294
       169.0004        170.0004
 21  2  6  0 11 30.0000000  0  7G21G04G27G07G08G09G01
  -1875633.39248  -1450872.85046  21899441.067    21899441.0604   21899447.4274
       177.0004        179.0004
   1205922.78148    847450.93647  21588768.864    21588768.8744   21588775.1504
       191.0004        190.0004
   2039548.05148   1580117.61846  23765219.504    23765219.6014   23765227.2724
       184.0004        182.0004
  -3147080.36348  -2434745.04647  22306145.296    22306145.4164   22306148.6114
       187.0004        188.0004
    767881.53949    437070.41247  20989323.985    20989324.4184   20989331.3654
       200.0004        200.0004
   -642563.26449   -497919.62348  20841982.718    20841983.3424   20841989.8874
       214.0004        214.0004
  -3239501.29248  -2498329.89546  22553792.552    22553792.3884   22553800.8524
       169.0004        171.0004
 21  2  6  0 12  0.0000000  0  8G21G30G04G27G07G08G09G01
  -1900414.21148  -1470182.53646  21894726.746    21894725.8254   21894731.7704
       178.0004        178.0004
   -343551.53057   -242950.79445  24256189.952                    24256197.2384
       143.0004        154.0004
   1286849.45048    910510.69447  21604167.630    21604168.7764   21604174.9994
       191.0004        189.0004
   2146171.59148   1663200.92046  23785507.914    23785508.5494   23785516.6884
       182.0004        182.0004
  -3222120.69048  -2493218.00146  22291864.584    22291864.7444   22291868.5714
       186.0004        186.0004
    834966.55749    489344.48447  21002089.500    21002089.8144   21002097.4734
       200.0004        200.0004
   -621899.55549   -481818.00848  20845914.880    20845915.2444   20845922.2474
       213.0004        214.0004
  -3316081.73948  -2558002.94146  22539219.925    22539220.1554   22539228.5424
       169.0004        170.0004
 21  2  6  0 12 30.0000000  0  8G21G30G04G27G07G08G09G01
  -1924818.73848  -1489199.03046  21890081.992    21890082.3404   21890086.8794
       178.0004        179.0004
   -427982.16147   -308740.88345  24240122.640    24240123.0694   24240130.1994
       150.0004        155.0004
   1368094.78548    973818.72947  21619629.198    21619629.2104   21619635.5174
       190.0004        189.0004
   2252898.26348   1746364.51546  23805818.535    23805818.5364   23805826.1094
       182.0004        182.0004
  -3297121.35748  -2551660.07546  22277592.197    22277593.1274   22277597.5764
       186.0004        186.0004
    902447.76749    541927.24147  21014931.054    21014931.0024   21014938.6494
       199.0004        200.0004
   -600701.26349   -465299.86748  20849948.805    20849949.2514   20849955.7874
       213.0004        213.0004
  -3392576.24648  -2617609.04546  22524662.679    22524663.0294   22524672.2724
       169.0004        170.0004
 21  2  6  0 13  0.0000000  0  8G21G30G04G27G07G08G09G01
  -1948848.00648  -1507923.10846  21885508.834    21885509.1764   21885514.0744
       178.0004        179.0004
   -512519.85647   -374614.36045  24224035.829    24224035.6144   24224043.0414
       152.0004        155.0004
   1449652.57648   1037370.24647  21635148.882    21635149.1204   21635155.0484
       190.0004        189.0004
   2359721.85748   1829603.71346  23826146.706    23826147.0034   23826152.9894
       181.0004        180.0004
  -3372083.61948  -2610072.21046  22263328.249    22263327.9034   22263331.9824
       186.0004        187.0004
    970318.52549    594813.57447  21027845.412    21027846.2684   21027853.7914
       199.0004        199.0004
   -578973.10349   -448368.82348  20854083.941    20854084.2754   20854090.6194
       213.0004        213.0004
  -3468985.03248  -2677148.32146  22510123.030    22510123.7434   22510132.4464
       169.0004        170.0004
 21  2  6  0 13 30.0000000  0  8G21G30G04G27G07G08G09G01
  -1972497.91648  -1526351.60246  21881009.004    21881008.6734   21881012.9014
       178.0004        178.0004
   -597160.91047   -440568.40145  24207929.578    24207929.2544   24207936.1854
       153.0004        156.0004
   1531522.25648   1101164.78947  21650727.870    21650728.5514   21650734.4804
       190.0004        189.0004
   2466641.83448   1912917.92246  23846492.919    23846493.7604   23846499.0654
       179.0004        180.0004
  -3447003.12248  -2668451.04946  22249071.439    22249071.4554   22249075.7824
       186.0004        187.0004
   1038578.16049    648002.88547  21040835.699    21040835.9974   21040843.0914
       199.0004        199.0004
   -556714.17449   -431024.21547  20858319.425    20858319.7804   20858326.0594
       212.0004        212.0004
  -3545302.61848  -2736616.54646  22495600.519    22495600.7174   22495608.8984
       169.0004        171.0004
 21  2  6  0 14  0.0000000  0  8G21G30G04G27G07G08G09G01
  -1995764.57548  -1544481.44346  21876580.766    21876580.2044   21876586.2754
       178.0004        178.0004
   -681902.64547   -506600.89945  24191802.442    24191803.1624   24191811.5424
       155.0004        158.0004
   1613702.28548   1165201.17047  21666366.417    21666366.9884   21666373.5664
       191.0004        191.0004
   2573656.83848   1996306.28546  23866857.081    23866857.6764   23866864.7374
       180.0004        181.0004
  -3521875.99748  -2726793.53246  22234822.732    22234822.6684   22234828.0534
       186.0004        186.0004
   1107225.83349    701494.58747  21053899.467    21053899.3364   21053906.1824
       199.0004        199.0004
   -533924.51449   -413266.04348  20862656.188    20862656.4774   20862663.3754
       212.0004        213.0004
  -3621524.42448  -2796010.13846  22481095.635    22481096.1384   22481104.1924
       169.0004        171.0004
 21  2  6  0 14 30.0000000  0  8G21G30G04G27G07G08G09G01
  -2018645.42448  -1562310.65346  21872226.301    21872226.4174   21872232.0614
       178.0004        179.0004
   -766742.75647   -572710.03745  24175658.646    24175659.4964   24175666.7474
       155.0004        157.0004
   1696190.67448   1229477.81447  21682063.078    21682063.8354   21682070.1694
       191.0004        190.0004
   2680764.92548   2079767.09546  23887239.618    23887239.9234   23887246.2844
       181.0004        182.0004
  -3596699.33948  -2785097.42547  22220584.372    22220585.1914   22220589.7764
       187.0004        188.0004
   1176258.92549    755286.61347  21067035.733    21067035.8724   21067042.8624
       199.0004        200.0004
   -510604.65649   -395094.73347  20867093.169    20867093.7454   20867100.4724
       212.0004        212.0004
  -3697646.32448  -2855325.89546  22466609.471    22466610.9594   22466619.5554
       170.0004        171.0004
 21  2  6  0 15  0.0000000  0  8G21G30G04G27G07G08G09G01
  -2041138.90448  -1579838.01546  21867946.339    21867945.4994   21867952.0854
       178.0004        178.0004
   -851680.45447   -638895.21545  24159495.348    24159495.9894   24159503.3564
       156.0004        158.0004
   1778983.92648   1293992.03847  21697818.082    21697818.8314   21697825.0154
       190.0004        189.0004
   2787962.81248   2163297.91646  23907638.263    23907638.0464   23907646.4784
       180.0004        180.0004
  -3671471.38148  -2843361.33547  22206355.816    22206356.4184   22206360.5174
       188.0004        189.0004
   1245674.28849    809376.52347  21080244.388    21080244.3794   21080252.5714
       199.0004        198.0004
   -486756.63349   -376511.85448  20871631.749    20871632.4554   20871638.9174
       212.0004        213.0004
  -3773665.70348  -2914561.74746  22452144.955    22452144.9954   22452152.1704
       170.0004        170.0004
 21  2  6  0 15 30.0000000  0  8G21G30G04G27G07G08G09G01
  -2063243.24048  -1597062.16946  21863739.251    21863739.5164   21863745.8844
       178.0004        178.0004
   -936714.84247   -705155.77045  24143314.889    24143315.0304   24143321.7234
       157.0004        159.0004
   1862078.69748   1358741.19147  21713631.433    21713632.0954   21713637.2574
       189.0004        188.0004
   2895247.20248   2246896.13146  23928054.173    23928053.6354   23928061.8174
       178.0004        178.0004
  -3746190.04948  -2901583.67147  22192137.468    22192137.7224   22192142.5174
       188.0004        189.0004
   1315468.90449    863761.92247  21093526.232    21093526.1344   21093534.0234
       197.0004        197.0004
   -462382.40849   -357518.96148  20876269.973    20876270.2734   20876277.4794
       213.0004        213.0004
  -3849579.83248  -2973715.59946  22437697.264    22437697.9994   22437706.4514
       169.0004        170.0004
 21  2  6  0 16  0.0000000  0  8G21G30G04G27G07G08G09G01
  -2084957.37148  -1613982.27046  21859609.424    21859609.0944   21859613.0954
       179.0004        179.0004
  -1021845.30247   -771491.18545  24127114.611    24127114.9644   24127121.8294
       157.0004        159.0004
   1945471.21548   1423722.34147  21729500.823    21729500.7124   21729506.8254
       190.0004        189.0004
   3002614.54748   2330558.95746  23948485.741    23948485.4104   23948492.5824
       177.0004        177.0004
  -3820853.82948  -2959763.27147  22177929.339    22177929.9914   22177934.1404
       188.0004        189.0004
   1385639.01449    918439.91647  21106878.913    21106878.9044   21106887.1394
       197.0004        198.0004
   -437484.30949   -338117.87947  20881007.990    20881008.4834   20881015.0164
       212.0004        212.0004
  -3925386.33448  -3032785.60546  22423271.944    22423273.3474   22423281.1494
       170.0004        171.0004
 21  2  6  0 16 30.0000000  0  8G21G30G04G27G07G08G09G01
  -2106279.17948  -1630596.61046  21855550.712    21855550.4134   21855555.9564
       178.0004        178.0004
  -1107070.44347   -837900.33945  24110896.884    24110896.7284   24110903.3664
       156.0004        159.0004
   2029158.64748   1488933.34847  21745425.374    21745425.5074   21745431.7944
       189.0004        188.0004
   3110062.02648   2414284.30546  23968933.035    23968932.3474   23968939.0964
       178.0004        178.0004
  -3895460.49148  -3017898.29546  22163732.727    22163732.6694   22163736.0984
       188.0004        187.0004
   1456181.36449    973408.01947  21120302.050    21120302.6114   21120310.8014
       197.0004        198.0004
   -412063.82649   -318309.67547  20885845.258    20885845.4704   20885852.4654
       212.0004        212.0004
  -4001081.91748  -3091769.12046  22408868.199    22408868.8024   22408878.1324
       170.0004        171.0004
 21  2  6  0 17  0.0000000  0  8G21G30G04G27G07G08G09G01
  -2127206.17948  -1646903.37146  21851566.879    21851567.0614   21851572.3644
       177.0004        177.0004
  -1192388.35547   -904381.79245  24094662.274    24094661.4114   24094667.9024
       156.0004        157.0004
   2113138.49348   1554372.16246  21761406.335    21761406.7094   21761412.3724
       189.0004        187.0004
   3217587.54948   2498070.39246  23989393.052    23989393.0604   23989400.1944
       175.0004        174.0004
  -3970007.15848  -3075986.60847  22149545.934    22149546.8074   22149551.2254
       187.0004        188.0004
   1527094.22949   1028664.79347  21133796.730    21133797.2604   21133805.1364
       197.0004        198.0004
   -386122.04249   -298095.31647  20890781.610    20890782.2114   20890788.8774
       212.0004        212.0004
  -4076662.89248  -3150663.37746  22394485.239    22394485.6744   22394494.5184
       171.0004        172.0004
 21  2  6  0 17 30.0000000  0  8G21G30G04G27G07G08G09G01
  -2147736.18848  -1662900.76246  21847661.061    21847661.0284   21847666.4944
       177.0004        177.0004
  -1277797.36747   -970934.26345  24078408.256    24078408.6314   24078414.5664
       155.0004        158.0004
   2197408.02348   1620036.73146  21777441.526    21777442.0904   21777448.7794
       188.0004        187.0004
   3325188.43348   2581915.20546  24009867.691    24009868.4704   24009875.2844
       172.0004        172.0004
  -4044491.58448  -3134026.40747  22135372.169    22135373.0174   22135377.4664
       189.0004        191.0004
   1598374.78049   1084208.08447  21147361.729    21147361.2814   21147369.1714
       197.0004        197.0004
   -359660.33249   -277475.80047  20895817.622    20895817.7074   20895824.3974
       212.0004        212.0004
  -4152125.85848  -3209465.67646  22380125.337    22380125.2124   22380134.0664
       171.0004        172.0004
 21  2  6  0 18  0.0000000  0  8G21G30G04G27G07G08G09G01
  -2167867.09348  -1678587.15546  21843831.535    21843830.3694   21843836.0674
       178.0004        178.0004
  -1363296.03647  -1037556.54145  24062139.288    24062138.6514   24062145.6564
       156.0004        159.0004
   2281964.45248   1685924.85246  21793532.201    21793532.9694   21793538.6744
       187.0004        186.0004
   3432862.08848   2665816.73646  24030357.892    24030358.6874   24030365.6694
       171.0004        173.0004
  -4118911.07848  -3192015.61047  22121211.028    22121212.0244   22121215.6774
       190.0004        192.0004
   1670020.12749   1140035.63147  21160994.519    21160994.8274   21161002.8674
       196.0004        196.0004
   -332680.20049   -256452.32247  20900951.523    20900951.9164   20900958.6644
       211.0004        212.0004
  -4227467.48848  -3268173.41146  22365787.241    22365788.3194   22365797.2664
       172.0004        173.0004
 21  2  6  0 18 30.0000000  0  8G21G30G04G27G07G08G09G01
  -2187596.86448  -1693960.99746  21840076.726    21840076.2244   21840081.4544
       178.0004        179.0004
  -1448882.45847  -1104247.23345  24045851.054    24045851.7604   24045859.8304
       157.0004        160.0004
   2366805.20348   1752034.52046  21809676.974    21809677.1414   21809683.4664
       187.0004        186.0004
   3540606.18948   2749773.15946  24050859.110    24050860.1794   24050867.7174
       172.0004        172.0004
  -4193262.93148  -3249952.10747  22107062.535    22107062.8774   22107067.0474
       191.0004        191.0004
   1742027.86649   1196145.55447  21174697.499    21174697.8644   21174705.3104
       196.0004        197.0004
   -305182.81349   -235025.80247  20906184.328    20906184.6314   20906190.9114
       211.0004        212.0004
  -4302684.09948  -3326783.75846  22351475.137    22351476.1234   22351483.7004
       172.0004        174.0004
 21  2  6  0 19  0.0000000  0  8G21G30G04G27G07G08G09G01
  -2206924.35048  -1709021.35746  21836398.629    21836397.9794   21836403.3024
       178.0004        178.0004
  -1534556.36547  -1171006.08546  24029548.412    24029549.0904   24029556.9814
       160.0004        163.0004
   2451926.07548   1818362.46346  21825875.207    21825875.8454   21825881.6254
       187.0004        186.0004
   3648416.73648   2833781.35546  24071377.029    24071376.6154   24071385.0024
       173.0004        175.0004
  -4267546.23048  -3307835.19147  22092927.406    22092927.3134   22092931.7814
       190.0004        190.0004
   1814394.10349   1252534.83847  21188468.329    21188468.5064   21188475.9994
       196.0004        197.0004
   -277171.09949   -213198.49347  20911514.666    20911514.8294   20911521.8924
       211.0004        211.0004
  -4377773.74648  -3385295.15546  22337186.293    22337186.6724   22337194.7114
       172.0004        174.0004
 21  2  6  0 19 30.0000000  0  8G21G30G04G27G07G08G09G01
  -2225847.41248  -1723766.59246  21832797.201    21832797.2034   21832802.6274
       178.0004        179.0004
  -1620315.84747  -1237831.62545  24013230.342    24013230.1614   24013236.3004
       161.0004        162.0004
   2537324.64248   1884906.79346  21842125.653    21842126.4354   21842132.0384
       186.0004        185.0004
   3756291.42948   2917839.55646  24091903.683    24091904.8514   24091911.0994
       174.0004        175.0004
  -4341758.19048  -3365662.68747  22078804.642    22078805.2824   22078809.9624
       190.0004        191.0004
   1887115.97349   1309201.24547  21202307.273    21202307.2274   21202314.4144
       196.0004        196.0004
   -248646.27649   -190971.37047  20916942.280    20916942.8034   20916949.9824
       211.0004        212.0004
  -4452732.69648  -3443704.70446  22322922.037    22322922.5364   22322930.7004
       173.0004        174.0004
 21  2  6  0 20  0.0000000  0  8G21G30G04G27G07G08G09G01
  -2244364.25548  -1738195.29846  21829273.814    21829273.6274   21829279.2594
       179.0004        180.0004
  -1706159.64247  -1304722.88845  23996893.589    23996893.7074   23996900.5774
       158.0004        158.0004
   2622997.67648   1951664.98146  21858428.305    21858428.9204   21858434.7314
       185.0004        184.0004
   3864227.47048   3001945.53546  24112442.516    24112443.8834   24112452.4244
       171.0004        171.0004
  -4415896.34648  -3423432.67847  22064696.757    22064697.3974   22064701.4304
       191.0004        192.0004
   1960190.54349   1366142.46447  21216212.560    21216212.6854   21216219.9614
       196.0004        195.0004
   -219610.26649   -168345.91347  20922467.818    20922468.4984   20922475.4024
       211.0004        212.0004
  -4527557.90848  -3502010.04946  22308682.697    22308682.6804   22308691.5064
       173.0004        175.0004
 21  2  6  0 20 30.0000000  0  8G21G30G04G27G07G08G09G01
  -2262473.40948  -1752306.30146  21825828.254    21825827.9244   21825833.7894
       179.0004        180.0004
  -1792086.64647  -1371678.96745  23980543.502    23980542.8654   23980548.5714
       155.0004        157.0004
   2708941.85548   2018634.49446  21874783.726    21874784.1474   21874789.6714
       185.0004        184.0004
   3972221.86148   3086097.03946  24132994.076    24132995.4744   24133001.6794
       172.0004        174.0004
  -4489958.63448  -3481143.52247  22050603.402    22050603.8924   22050607.2644
       192.0004        192.0004
   2033614.40949   1423355.87347  21230184.555    21230184.7244   21230192.2254
       195.0004        195.0004
   -190065.08949   -145323.68747  20928090.092    20928090.5384   20928097.4134
       211.0004        211.0004
  -4602246.48948  -3560208.91646  22294468.473    22294469.9624   22294479.5664
       173.0004        174.0004
 21  2  6  0 21  0.0000000  0  8G21G30G04G27G07G08G09G01
  -2280172.68348  -1766097.95746  21822459.984    21822459.5894   21822465.5504
       179.0004        179.0004
  -1878094.92147  -1438698.41745  23964175.870    23964176.3334   23964182.9744
       155.0004        158.0004
   2795154.64048   2085813.24146  21891188.573    21891189.4954   21891196.2114
       185.0004        184.0004
   4080272.18448   3170292.07146  24153555.431    24153556.7764   24153564.5784
       175.0004        176.0004
  -4563942.60848  -3538793.40547  22036524.201    22036524.7854   22036528.1604
       191.0004        191.0004
   2107385.23249   1480839.61247  21244222.532    21244223.1054   21244230.3664
       195.0004        195.0004
   -160012.13049   -121905.83447  20933809.113    20933809.5634   20933816.2394
       211.0004        211.0004
  -4676794.85248  -3618298.56046  22280283.495    22280284.1574   22280292.9254
       173.0004        174.0004
 21  2  6  0 21 30.0000000  0  8G21G30G04G27G07G08G09G01
  -2297459.24448  -1779567.97946  21819170.220    21819169.4254   21819174.8524
       179.0004        179.0004
  -1964182.21247  -1505779.41045  23947792.986    23947793.6854   23947801.2474
       156.0004        158.0004
   2881633.74048   2153199.54746  21907645.677    21907646.2894   21907652.3864
       185.0004        185.0004
   4188376.49648   3254529.16646  24174126.737    24174127.5924   24174134.6214
       173.0004        172.0004
  -4637844.98848  -3596379.66047  22022460.137    22022461.4504   22022465.7844
       191.0004        191.0004
   2181500.87749   1538592.07847  21258326.496    21258326.6904   21258334.7354
       195.0004        196.0004
   -129452.42249    -98093.07647  20939624.324    20939624.8894   20939632.0434
       211.0004        211.0004
  -4751198.94848  -3676275.76046  22266125.144    22266126.1284   22266135.0954
       174.0004        175.0004
 21  2  6  0 22  0.0000000  0  8G21G30G04G27G07G08G09G01
  -2314332.75648  -1792716.16846  21815958.556    21815958.7844   21815964.0644
       179.0004        179.0004
  -2050348.56247  -1572921.96645  23931396.156    23931395.7454   23931404.7154
       155.0004        157.0004
   2968374.75948   2220789.94246  21924151.429    21924152.2314   21924159.2184
       184.0004        183.0004
   4296530.75948   3338805.19046  24194708.519    24194709.3364   24194716.4344
       174.0004        175.0004
  -4711664.69048  -3653901.50347  22008414.059    22008414.0374   22008418.2494
       191.0004        192.0004
   2255957.21349   1596609.99047  21272495.434    21272495.6664   21272503.0974
       195.0004        196.0004
    -98389.23049    -73888.00547  20945535.064    20945535.9234   20945542.4884
       210.0004        210.0004
  -4825457.01648  -3734139.18246  22251995.088    22251995.5034   22252003.9574
       175.0004        176.0004
 21  2  6  0 22 30.0000000  0  8G21G30G04G27G07G08G09G01
  -2330789.91248  -1805539.88946  21812827.475    21812827.3084   21812833.0664
       180.0004        181.0004
  -2136590.75447  -1640123.60945  23914984.636    23914984.5924   23914992.8274
       154.0004        158.0004
   3055376.29048   2288583.35646  21940708.468    21940708.6574   21940714.7244
       184.0004        184.0004
   4404733.82348   3423119.25746  24215298.633    24215299.8374   24215305.9634
       175.0004        176.0004
  -4785397.96548  -3711355.96647  21994382.421    21994382.8384   21994387.6464
       192.0004        192.0004
   2330752.61449   1654892.15447  21286728.297    21286728.2524   21286736.0614
       195.0004        196.0004
    -66822.72449    -49290.70847  20951542.698    20951543.1254   20951549.5914
       211.0004        211.0004
  -4899564.18948  -3791884.98946  22237891.711    22237892.7074   22237901.8254
       175.0004        176.0004
 21  2  6  0 23  0.0000000  0  8G21G30G04G27G07G08G09G01
  -2346829.44548  -1818038.22446  21809776.765    21809775.6104   21809780.6554
       180.0004        181.0004
  -2222907.58947  -1707383.49245  23898559.944    23898560.6634   23898565.8054
       157.0004        160.0004
   3142634.94948   2356577.11246  21957312.403    21957312.2804   21957318.6814
       184.0004        183.0004
   4512982.64448   3507468.96046  24235898.245    24235899.1214   24235905.5794
       177.0004        177.0004
  -4859042.67548  -3768741.45847  21980369.410    21980369.2684   21980372.9574
       192.0004        192.0004
   2405883.74549   1713435.90147  21301023.935    21301024.5414   21301032.9004
       195.0004        194.0004
    -34755.14349    -24302.99347  20957644.904    20957645.1994   20957652.3354
       211.0004        212.0004
  -4973517.59748  -3849511.01246  22223819.935    22223820.1974   22223828.3154
       175.0004        175.0004
 21  2  6  0 23 30.0000000  0  8G21G30G04G27G07G08G09G01
  -2362451.50348  -1830211.24246  21806801.874    21806801.5624   21806807.7464
       180.0004        181.0004
  -2309299.68447  -1774701.97145  23882120.701    23882120.4634   23882126.8334
       158.0004        161.0004
   3230145.71448   2424767.29246  21973965.712    21973965.7714   21973972.2514
       184.0004        183.0004
   4621272.39348   3591850.60146  24256505.264    24256506.2674   24256512.4634
       177.0004        178.0004
  -4932598.36048  -3826057.56547  21966370.740    21966371.5184   21966375.6444
       192.0004        191.0004
   2481345.76548   1772237.46847  21315384.660    21315385.0184   21315392.7144
       194.0004        194.0004
     -2190.38949      1072.12747  20963841.529    20963842.2124   20963849.1954
       211.0004        212.0004
  -5047316.10248  -3907016.31646  22209776.704    22209776.6504   22209784.8064
       175.0004        177.0004
 21  2  6  0 24  0.0000000  0  9G21G30G04G27G07G08G09G01G17
  -2377651.72148  -1842055.57546  21803910.072    21803910.2654   21803914.9984
       180.0004        180.0004
  -2395762.77847  -1842075.79145  23865666.471    23865665.9264   23865673.2894
       157.0004        158.0004
   3317908.15648   2493153.60146  21990665.624    21990665.9394   21990673.3424
       183.0004        183.0004
   4729603.19548   3676264.16046  24277120.171    24277120.9264   24277127.4614
       178.0004        179.0004
  -5006059.94148  -3883300.37647  21952392.486    21952392.9914   21952396.1974
       191.0004        192.0004
   2557138.16049   1831296.46547  21329808.695    21329809.0624   21329815.4464
       195.0004        196.0004
     30872.24249     26835.19847  20970133.781    20970133.9064   20970140.4664
       211.0004        212.0004
  -5120953.79948  -3964396.33246  22195762.990    22195763.9654   22195773.4004
       175.0004        176.0004
  -1058563.93854   -798006.49945  24241669.917
        74.0004        138.0004
 21  2  6  0 24 30.0000000  0  9G21G30G04G27G07G08G09G01G17
  -2392429.49048  -1853570.71446  21801098.336    21801097.8244   21801103.7084
       180.0004        181.0004
  -2482296.68547  -1909504.79045  23849199.452    23849199.6684   23849207.1814
       155.0004        157.0004
   3405917.95348   2561732.65246  22007413.082    22007413.7974   22007420.7434
       183.0004        183.0004
   4837971.05348   3760706.64346  24297740.836    24297741.9574   24297748.3564
       175.0004        174.0004
  -5079426.20448  -3940468.89547  21938431.180    21938431.7714   21938435.7974
       192.0004        193.0004
   2633256.44049   1890609.40247  21344293.559    21344293.8884   21344300.8274
       196.0004        197.0004
     64429.51349     52983.71147  20976518.760    20976519.8364   20976525.7214
       211.0004        211.0004
  -5194428.73748  -4021649.54646  22181780.634    22181781.9024   22181790.1574
       176.0004        177.0004
  -1155980.73546   -873915.50045  24223129.278    24223131.5484   24223137.5494
       124.0004        136.0004
 21  2  6  0 25  0.0000000  0  9G21G30G04G27G07G08G09G01G17
  -2406784.02248  -1864756.00546  21798367.020    21798365.9974   21798370.8434
       181.0004        181.0004
  -2568900.38347  -1976988.15445  23832719.582    23832719.6514   23832726.2024
       153.0004        155.0004
   3494171.53548   2630501.68246  22024208.167    22024208.4674   22024214.7624
       184.0004        183.0004
   4946372.77548   3845175.54446  24318371.006    24318370.5884   24318375.6064
       174.0004        173.0004
  -5152695.50248  -3997561.82247  21924488.553    21924489.3864   21924493.3124
       193.0004        194.0004
   2709697.90349   1950174.21247  21358839.587    21358840.0254   21358846.8364
       195.0004        195.0004
     98478.96849     79515.77947  20982999.316    20982999.4704   20983005.6104
       211.0004        211.0004
  -5267738.22948  -4078773.77146  22167831.206    22167831.7704   22167838.6954
       176.0004        176.0004
  -1253179.86846   -949654.97245  24204634.313    24204634.7884   24204640.4954
       130.0004        138.0004
 21  2  6  0 25 30.0000000  0  9G21G30G04G27G07G08G09G01G17
  -2420714.33248  -1875610.78746  21795715.305    21795715.2064   21795719.7884
       180.0004        180.0004
  -2655573.31947  -2044525.50045  23816225.223    23816225.9204   23816232.3524
       152.0004        154.0004
   3582664.87548   2699457.51246  22041048.055    22041047.7364   22041054.9154
       183.0004        182.0004
   5054804.64448   3929667.87946  24339005.113    24339004.5904   24339010.6274
       171.0004        170.0004
  -5225866.59548  -4054578.26647  21910565.422    21910564.9524   21910568.9934
       194.0004        194.0004
   2786457.81548   2009987.11147  21373447.062    21373447.0984   21373453.9494
       194.0004        195.0004
    133017.62949    106428.99847  20989571.612    20989572.2084   20989577.7634
       211.0004        211.0004
  -5340880.08148  -4135767.42046  22153911.648    22153912.7744   22153922.2924
       176.0004        176.0004
  -1350159.56547  -1025223.41645  24186181.950    24186181.9974   24186187.0694
       139.0004        146.0004
 21  2  6  0 26  0.0000000  0  9G21G30G04G27G07G08G09G01G17
  -2434217.62048  -1886132.82646  21793144.964    21793145.2194   21793150.8134
       180.0004        181.0004
  -2742312.54747  -2112114.46245  23799719.023    23799719.9594   23799727.3504
       153.0004        155.0004
   3671396.28848   2768598.85946  22057932.436    22057932.5054   22057940.0164
       183.0004        182.0004
   5163265.40348   4014182.76546  24359644.565    24359644.3654   24359648.7364
       170.0004        171.0004
  -5298935.33648  -4111514.95047  21896658.647    21896659.6664   21896664.5464
       193.0004        193.0004
   2863534.89348   2070047.16847  21388113.611    21388113.8424   21388121.0274
       194.0004        195.0004
    168044.82849    133722.89447  20996236.145    20996236.7214   20996244.0564
       211.0004        210.0004
  -5413849.59848  -4192626.79346  22140026.180    22140026.9754   22140035.8344
       176.0004        177.0004
  -1446916.30847  -1100618.14145  24167769.688    24167768.4134   24167775.4624
       142.0004        147.0004
 21  2  6  0 26 30.0000000  0  9G21G30G04G27G07G08G09G01G17
  -2447291.07748  -1896319.91146  21790657.580    21790657.3714   21790663.6454
       180.0004        181.0004
  -2829115.26147  -2179752.91645  23783202.293    23783201.8824   23783209.5614
       155.0004        158.0004
   3760363.89448   2837924.25846  22074861.038    22074861.9404   22074868.7924
       183.0004        182.0004
   5271753.60948   4098719.06146  24380289.457    24380289.0934   24380294.8634
       171.0004        172.0004
  -5371898.14648  -4168369.08047  21882774.815    21882775.4044   21882780.0684
       193.0004        193.0004
   2940927.38148   2130353.00147  21402840.918    21402841.4104   21402848.4304
       194.0004        194.0004
    203559.79549    161396.89247  21002994.344    21002994.7654   21003002.3364
       210.0004        210.0004
  -5486642.44148  -4249348.47346  22126174.600    22126175.2254   22126185.3974
       176.0004        178.0004
  -1543447.19047  -1175836.87545  24149398.414    24149398.6564   24149406.0394
       143.0004        148.0004
 21  2  6  0 27  0.0000000  0  9G21G30G04G27G07G08G09G01G17
  -2459931.24948  -1906169.36246  21788252.446    21788252.3784   21788257.7154
       180.0004        180.0004
  -2915977.99447  -2247438.16545  23766673.433    23766673.2134   23766679.8504
       157.0004        159.0004
   3849566.52248   2907432.81246  22091836.943    22091837.5254   22091844.0754
       182.0004        182.0004
   5380268.52748   4183276.10046  24400937.401    24400937.9394   24400944.8584
       170.0004        171.0004
  -5444751.14648  -4225137.62247  21868912.039    21868912.2864   21868916.6004
       193.0004        193.0004
   3018633.71948   2190903.41647  21417628.519    21417628.5234   21417635.5864
       194.0004        194.0004
    239562.33049    189450.83147  21009845.729    21009846.1264   21009853.1464
       210.0004        211.0004
  -5559253.50248  -4305928.47546  22112357.881    22112358.1854   22112366.1524
       177.0004        178.0004
  -1639748.00547  -1250876.33545  24131073.197    24131073.0514   24131080.1244
       145.0004        149.0004
 21  2  6  0 27 30.0000000  0  9G21G30G04G27G07G08G09G01G17
  -2472137.56548  -1915680.77246  21785930.563    21785929.7214   21785935.0394
       180.0004        180.0004
  -3002900.34247  -2315169.84045  23750131.158    23750131.3154   23750140.2354
       158.0004        160.0004
   3938999.96248   2977121.17946  22108856.763    22108857.2884   22108862.5524
       183.0004        183.0004
   5488806.34248   4267850.99646  24421590.777    24421592.1034   24421598.1204
       170.0004        170.0004
  -5517492.44848  -4281819.16547  21855069.481    21855070.1974   21855074.2284
       193.0004        194.0004
   3096650.48348   2251695.68947  21432474.247    21432474.4114   21432481.5404
       194.0004        194.0004
    276049.20749    217882.14347  21016789.242    21016789.5644   21016796.2024
       210.0004        211.0004
  -5631680.65948  -4362365.22246  22098575.536    22098575.7154   22098583.6574
       177.0004        178.0004
  -1735817.59747  -1325735.64245  24112792.053    24112792.3064   24112797.6814
       147.0004        150.0004
 21  2  6  0 28  0.0000000  0  9G21G30G04G27G07G08G09G01G17
  -2483907.69648  -1924852.26946  21783690.460    21783690.5854   21783695.5884
       181.0004        181.0004
  -3089879.93247  -2382946.10545  23733581.102    23733580.4374   23733587.8044
       159.0004        161.0004
   4028661.96048   3046987.67846  22125918.316    22125918.7114   22125924.4924
       183.0004        182.0004
   5597365.35148   4352442.43146  24442249.314    24442250.3484   24442256.7894
       168.0004        168.0004
  -5590119.29449  -4338411.50347  21841249.833    21841250.2924   21841254.3734
       195.0004        195.0004
   3174974.92148   2312727.72747  21447377.749    21447378.8554   21447386.5234
       193.0004        193.0004
    313019.20949    246689.93447  21023824.149    21023824.6614   21023831.4914
       210.0004        210.0004
  -5703919.89748  -4418655.49446  22084827.919    22084829.0064   22084837.7204
       177.0004        178.0004
  -1831653.23647  -1400412.64045  24094554.454    24094555.1714   24094561.3134
       147.0004        152.0004
 21  2  6  0 28 30.0000000  0  9G21G30G04G27G07G08G09G01G17
  -2495241.83848  -1933684.06046  21781533.648    21781533.3364   21781538.8634
       182.0004        183.0004
  -3176916.78147  -2450767.02345  23717017.508    23717017.4004   23717024.3224
       158.0004        159.0004
   4118547.73348   3117028.52246  22143023.345    22143023.4014   22143029.4994
       184.0004        183.0004
   5705941.25548   4437046.96646  24462911.179    24462911.8824   24462918.0034
       167.0004        169.0004
  -5662630.53548  -4394913.76647  21827450.973    21827451.6014   21827456.1294
       194.0004        194.0004
   3253602.41648   2373995.89447  21462340.666    21462341.5414   21462348.7714
       193.0004        194.0004
    350468.42549    275871.13847  21030949.919    21030950.5714   21030958.0594
       209.0004        209.0004
  -5775969.66248  -4474798.15446  22071118.252    22071118.4334   22071128.2904
       178.0004        180.0004
  -1927254.91647  -1474907.33945  24076362.196    24076362.8844   24076369.6024
       150.0004        154.0004
 21  2  6  0 29  0.0000000  0  9G21G30G04G27G07G08G09G01G17
  -2506139.20948  -1942175.49546  21779459.784    21779459.0034   21779465.0924
       182.0004        182.0004
  -3264009.80347  -2518631.69045  23700444.463    23700444.6844   23700451.7114
       157.0004        158.0004
   4208653.70748   3187240.96646  22160169.618    22160169.9034   22160175.5744
       183.0004        182.0004
   5814530.70248   4521662.13346  24483574.723    24483575.2814   24483581.9374
       169.0004        171.0004
  -5735024.40348  -4451324.55747  21813674.940    21813675.3914   21813679.5964
       194.0004        194.0004
   3332529.58548   2435497.58547  21477361.012    21477361.0814   21477367.7974
       193.0004        194.0004
    388394.24849    305423.72547  21038166.919    21038167.5824   21038174.5934
       209.0004        209.0004
  -5847827.37948  -4530791.17046  22057442.948    22057444.0994   22057453.6454
       178.0004        179.0004
  -2022620.39847  -1549218.02145  24058216.071    24058216.0774   24058221.8664
       153.0004        156.0004
 21  2  6  0 29 30.0000000  0  9G21G30G04G27G07G08G09G01G17
  -2516595.72948  -1950323.42046  21777468.905    21777468.9924   21777475.2034
       181.0004        181.0004
  -3351155.21447  -2586537.16645  23683861.201    23683861.2924   23683868.6004
       157.0004        159.0004
   4298979.04948   3257624.34346  22177357.320    22177358.4144   22177364.0064
       181.0004        180.0004
   5923133.40648   4606287.56646  24504239.541    24504240.8024   24504248.8114
       167.0004        168.0004
  -5807296.44948  -4507640.42747  21799922.663    21799923.0504   21799926.9114
       194.0004        196.0004
   3411755.76448   2497232.28347  21492437.173    21492437.0884   21492444.2004
       193.0004        192.0004
    426796.71649    335347.72247  21045475.257    21045475.4394   21045482.3364
       209.0004        209.0004
  -5919487.45448  -4586630.17546  22043807.287    22043807.8904   22043815.0044
       178.0004        179.0004
  -2117744.93747  -1623340.94845  24040114.066    24040113.9814   24040119.1624
       153.0004        156.0004
 21  2  6  0 30  0.0000000  0  9G21G30G04G27G07G08G09G01G17
  -2526611.08948  -1958127.57646  21775564.009    21775563.5484   21775568.7324
       181.0004        180.0004
  -3438352.59547  -2654483.18945  23667268.898    23667268.4144   23667275.0914
       157.0004        159.0004
   4389519.34448   3328175.21046  22194586.597    22194587.5874   22194592.8694
       181.0004        180.0004
   6031745.46948   4690920.31446  24524908.834    24524909.4614   24524916.1284
       166.0004        166.0004
  -5879445.03049  -4563860.10147  21786192.783    21786192.7394   21786197.2774
       195.0004        195.0004
   3491276.43248   2559196.43247  21507568.024    21507568.7334   21507575.8384
       192.0004        191.0004
    465672.41649    365640.46447  21052873.220    21052873.7924   21052880.4014
       209.0004        209.0004
  -5990948.03248  -4642313.72646  22030207.695    22030207.9294   22030217.0894
       178.0004        178.0004
  -2212628.46247  -1697276.04545  24022058.632    24022058.8414   24022063.3044
       150.0004        152.0004
 21  2  6  0 30 30.0000000  0  9G21G30G04G27G07G08G09G01G17
  -2536184.67048  -1965587.48446  21773742.654    21773741.7004   21773746.0354
       181.0004        181.0004
  -3525600.66647  -2722468.68945  23650665.940    23650665.8494   23650672.3834
       159.0004        162.0004
   4480271.16548   3398890.93246  22211856.824    22211857.1014   22211862.9094
       180.0004        179.0004
   6140363.99848   4775558.14846  24545576.247    24545578.5514   24545587.0534
       166.0004        166.0004
  -5951468.20149  -4619982.03847  21772486.709    21772487.0774   21772491.5834
       195.0004        195.0004
   3571088.19348   2621387.42047  21522756.436    21522757.0134   21522763.7574
       191.0004        191.0004
    505018.75549    396299.95047  21060360.871    21060361.1044   21060367.3664
       209.0004        209.0004
  -6062206.22848  -4697839.58146  22016648.441    22016649.1864   22016657.9304
       178.0004        179.0004
  -2307268.93547  -1771021.84045  24004049.067    24004049.2734   24004054.1464
       149.0004        151.0004
 21  2  6  0 31  0.0000000  0  9G21G30G04G27G07G08G09G01G17
  -2545313.84448  -1972701.10446  21772005.502    21772004.6954   21772009.9194
       181.0004        182.0004
  -3612896.54647  -2790491.44845  23634053.015    23634053.6474   23634060.5094
       160.0004        162.0004
   4571232.68548   3469770.01446  22229165.600    22229165.9834   22229172.5984
       180.0004        180.0004
   6248987.79348   4860199.99746  24566247.112    24566248.6914   24566257.0974
       165.0004        167.0004
  -6023362.33948  -4676003.44147  21758805.702    21758806.3874   21758810.5564
       194.0004        194.0004
   3651189.00648   2683803.63947  21537999.489    21537999.9074   21538006.3964
       191.0004        192.0004
    544834.80749    427325.44347  21067937.106    21067937.5564   21067944.4404
       209.0004        209.0004
  -6133257.57448  -4753204.24646  22003126.813    22003127.9274   22003136.7764
       178.0004        179.0004
  -2401663.55247  -1844575.98745  23986086.097    23986086.1984   23986090.6924
       150.0004        154.0004
 21  2  6  0 31 30.0000000  0  8G21G30G04G07G08G09G01G17
  -2553997.88148  -1979467.88246  21770352.551    21770352.2254   21770356.0634
       181.0004        182.0004
  -3700239.50947  -2858550.89345  23617432.079    23617432.1384   23617439.4504
       159.0004        159.0004
   4662399.81348   3540809.32146  22246514.140    22246514.4084   22246520.7614
       179.0004        178.0004
  -6095126.02249  -4731923.20047  21745150.376    21745150.5864   21745154.3384
       195.0004        195.0004
   3731575.48748   2746442.44747  21553296.566    21553297.0114   21553303.6434
       192.0004        192.0004
    585117.35949    458714.42647  21075603.204    21075603.3174   21075609.8814
       209.0004        209.0004
  -6204099.78548  -4808405.96646  21989647.433    21989647.9084   21989656.5024
       179.0004        180.0004
  -2495810.48147  -1917937.14845  23968169.359    23968170.3964   23968175.0394
       152.0004        155.0004
 21  2  6  0 32  0.0000000  0  8G21G30G04G07G08G09G01G17
  -2562233.63948  -1985885.34046  21768784.625    21768784.7064   21768789.2794
       181.0004        182.0004
  -3787626.26047  -2926644.42945  23600802.772    23600802.1824   23600810.3934
       158.0004        161.0004
   4753771.17348   3612007.77246  22263901.525    22263901.9574   22263909.4034
       179.0004        179.0004
  -6166754.95449  -4787737.94947  21731519.359    21731519.7164   21731523.9694
       196.0004        196.0004
   3812245.47848   2809302.17447  21568647.860    21568648.1954   21568654.0304
       192.0004        192.0004
    625865.80149    490466.45247  21083356.400    21083357.1854   21083363.8494
       208.0004        209.0004
  -6274728.03048  -4863440.94146  21976207.475    21976207.6664   21976215.3644
       178.0004        179.0004
  -2589706.45947  -1991102.77045  23950301.405    23950301.7674   23950308.4144
       153.0004        155.0004
 21  2  6  0 32 30.0000000  0  9G21G30G14G04G07G08G09G01G17
  -2570021.13948  -1991953.49746  21767302.010    21767302.6334   21767307.8374
       181.0004        182.0004
  -3875056.42547  -2994771.80546  23584167.191    23584167.1184   23584173.6364
       160.0004        164.0004
   -298223.25956   -218919.47545  23598116.615                    23598116.9264
       129.0004        142.0004
   4845342.22548   3683361.83446  22281327.050    22281327.4144   22281332.9274
       178.0004        177.0004
  -6238247.90649  -4843446.73147  21717914.807    21717915.2604   21717919.6854
       196.0004        196.0004
   3893195.47548   2872380.10247  21584051.935    21584052.0394   21584058.4254
       191.0004        190.0004
    667076.41549    522578.62647  21091198.793    21091199.0664   21091206.3384
       208.0004        208.0004
  -6345140.48748  -4918307.76646  21962808.146    21962808.2584   21962816.7834
       179.0004        179.0004
  -2683350.93347  -2064072.36545  23932481.887    23932482.2094   23932488.0794
       155.0004        158.0004
 21  2  6  0 33  0.0000000  0  9G21G30G14G04G07G08G09G01G17
  -2577359.58948  -1997671.76246  21765906.471    21765906.3924   21765911.6364
       182.0004        183.0004
  -3962528.80747  -3062932.09945  23567521.074    23567521.0724   23567528.0264
       161.0004        162.0004
   -325385.76447   -240085.00745  23592947.276    23592947.6464   23592949.1354
       137.0004        144.0004
   4937109.50948   3754868.79646  22298789.862    22298790.3184   22298795.4774
       177.0004        176.0004
  -6309602.71749  -4899047.88147  21704336.312    21704336.9664   21704340.7584
       196.0004        195.0004
   3974421.39148   2935673.00947  21599508.391    21599508.7764   21599515.5014
       190.0004        189.0004
    708746.56349    555048.85247  21099128.677    21099128.9804   21099135.9564
       208.0004        210.0004
  -6415334.33348  -4973004.26246  21949450.470    21949451.1514   21949459.6764
       179.0004        179.0004
  -2776741.92047  -2136844.49045  23914710.619    23914710.3764   23914716.2294
       155.0004        156.0004
 21  2  6  0 33 30.0000000  0  9G21G30G14G04G07G08G09G01G17
  -2584247.25448  -2003038.76146  21764597.013    21764595.5774   21764601.0414
       183.0004        183.0004
  -4050041.02647  -3131123.44446  23550867.661    23550867.7344   23550874.9494
       162.0004        165.0004
   -352491.52147   -261206.35845  23587788.996    23587789.4214   23587792.8364
       139.0004        144.0004
   5029070.56348   3826526.73946  22316290.036    22316290.2874   22316295.3414
       176.0004        177.0004
  -6380816.49949  -4954539.15647  21690785.059    21690785.3784   21690789.4714
       196.0004        196.0004
   4055921.29948   2999179.42747  21615017.888    21615018.3164   21615024.5314
       190.0004        191.0004
    750874.58549    587875.86247  21107145.576    21107145.7434   21107152.7544
       209.0004        209.0004
  -6485305.70348  -5027527.39946  21936135.893    21936136.3194   21936144.7834
       179.0004        180.0004
  -2869876.91247  -2209417.13445  23896987.077    23896987.5144   23896993.8504
       155.0004        157.0004
 21  2  6  0 34  0.0000000  0  9G21G30G14G04G07G08G09G01G17
  -2590682.05248  -2008052.85946  21763372.589    21763371.9824   21763377.2994
       183.0004        184.0004
  -4137590.86747  -3199344.10046  23534207.049    23534207.5154   23534214.6684
       164.0004        167.0004
   -379541.42247   -282284.14745  23582640.442    23582640.6464   23582648.2834
       140.0004        146.0004
   5121222.68948   3898333.59146  22333826.285    22333826.3894   22333832.1894
       178.0004        177.0004
  -6451886.21649  -5009918.14847  21677260.118    21677260.7774   21677265.0284
       196.0004        195.0004
   4137691.77348   3062896.68547  21630578.405    21630578.5584   21630584.9274
       191.0004        191.0004
    793458.54749    621058.17947  21115248.112    21115248.5964   21115255.9534
       208.0004        208.0004
  -6555050.94648  -5081874.31046  21922863.473    21922863.7364   21922871.8954
       179.0004        180.0004
  -2962753.54647  -2281788.42945  23879314.561    23879314.1404   23879319.4154
       157.0004        160.0004
 21  2  6  0 34 30.0000000  0  9G21G30G14G04G07G08G09G01G17
  -2596663.11148  -2012713.39246  21762232.774    21762232.3264   21762239.3784
       183.0004        183.0004
  -4225176.90348  -3267592.91946  23517539.904    23517539.8984   23517548.0704
       165.0004        166.0004
   -406537.00747   -303319.66545  23577503.611    23577504.9824   23577513.1614
       148.0004        153.0004
   5213562.65448   3970286.80346  22351396.809    22351397.3604   22351403.8634
       178.0004        178.0004
  -6522809.81349  -5065183.27547  21663764.333    21663765.0244   21663768.6164
       196.0004        196.0004
   4219730.28348   3126822.79947  21646188.969    21646189.7234   21646196.5974
       191.0004        190.0004
    836495.92749    654593.80347  21123438.346    21123438.8394   21123445.4624
       208.0004        209.0004
  -6624567.06148  -5136042.69646  21909634.762    21909635.0914   21909643.7024
       179.0004        180.0004
  -3055370.32447  -2353957.25845  23861688.578    23861689.4114   23861694.7554
       155.0004        156.0004
 21  2  6  0 35  0.0000000  0  9G21G30G14G04G07G08G09G01G17
  -2602188.02948  -2017018.51246  21761181.349    21761181.3494   21761187.3494
       183.0004        183.0004
  -4312796.31648  -3335867.74946  23500866.978    23500866.8944   23500874.3824
       165.0004        167.0004
   -433478.70347   -324313.19345  23572377.218    23572377.7194   23572386.4364
       153.0004        157.0004
   5306088.40648   4042384.79246  22369002.624    22369004.0254   22369010.9414
       177.0004        176.0004
  -6593583.56249  -5120331.65347  21650296.305    21650296.5254   21650300.7944
       196.0004        196.0004
   4302034.75048   3190956.15147  21661851.286    21661850.9574   21661858.4074
       190.0004        189.0004
    879985.38349    688481.69047  21131714.565    21131714.6524   21131720.9734
       208.0004        208.0004
  -6693849.79248  -5190029.21646  21896451.270    21896451.8764   21896460.1574
       180.0004        182.0004
  -3147723.62447  -2425920.78245  23844113.749    23844114.7264   23844121.3014
       155.0004        159.0004
 21  2  6  0 35 30.0000000  0  9G21G30G14G04G07G08G09G01G17
  -2607256.91548  -2020968.27646  21760216.735    21760216.8304   21760222.4124
       183.0004        183.0004
  -4400448.56048  -3404168.18846  23484187.937    23484188.3334   23484194.8374
       166.0004        167.0004
   -460368.97547   -345266.64045  23567260.753    23567261.7824   23567267.6324
       155.0004        157.0004
   5398795.60348   4114624.15546  22386645.414    22386645.6654   22386652.8244
       175.0004        174.0004
  -6664205.93649  -5175362.06647  21636856.587    21636857.2444   21636862.1664
       196.0004        196.0004
   4384601.00648   3255293.49947  21677562.470    21677562.5824   21677570.7574
       189.0004        189.0004
    923923.26249    722718.99347  21140075.180    21140075.5424   21140082.6834
       208.0004        208.0004
  -6762897.19548  -5243832.37046  21883311.598    21883312.0064   21883320.7694
       181.0004        182.0004
  -3239812.40447  -2497678.17545  23826590.636    23826591.7014   23826596.3274
       157.0004        159.0004
 21  2  6  0 36  0.0000000  0  9G21G30G14G04G07G08G09G01G17
  -2611867.29048  -2024560.76746  21759340.598    21759340.0824   21759344.5054
       183.0004        182.0004
  -4488130.96148  -3472492.13946  23467502.913    23467502.1414   23467508.7734
       166.0004        168.0004
   -487208.30747   -366180.39445  23562153.977    23562154.5314   23562158.7774
       154.0004        156.0004
   5491682.05148   4187003.19746  22404322.441    22404322.6474   22404328.2214
       176.0004        177.0004
  -6734673.28049  -5230271.67747  21623447.754    21623447.9574   21623452.3074
       196.0004        196.0004
   4467426.96548   3319833.19847  21693324.233    21693324.7524   21693331.7124
       190.0004        191.0004
    968308.15549    757304.62147  21148522.146    21148522.2354   21148528.9554
       209.0004        209.0004
  -6831705.08548  -5297448.89846  21870216.602    21870218.0444   21870226.5054
       181.0004        181.0004
  -3331634.60247  -2569227.89045  23809118.009    23809117.1734   23809123.0964
       156.0004        157.0004
 21  2  6  0 36 30.0000000  0  9G21G30G14G04G07G08G09G01G17
  -2616019.21048  -2027796.02846  21758550.216    21758549.1674   21758553.7464
       183.0004        182.0004
  -4575842.64848  -3540838.91246  23450811.356    23450810.5694   23450816.8924
       166.0004        166.0004
   -513998.97347   -387056.20745  23557053.938    23557054.6424   23557059.5804
       151.0004        153.0004
   5584743.77848   4259518.80646  22422030.885    22422030.8754   22422037.4354
       176.0004        176.0004
  -6804984.23549  -5285059.43847  21610067.969    21610068.1274   21610072.5504
       196.0004        196.0004
   4550508.43449   3384571.98547  21709134.921    21709135.2344   21709141.3984
       205.0004        209.0004
   1013136.71749    792235.95747  21157051.702    21157052.5604   21157059.5894
       209.0004        208.0004
  -6900271.18448  -5350877.01546  21857169.988    21857170.5264   21857178.6864
       181.0004        182.0004
  -3423189.00247  -2640568.91645  23791694.290    23791694.8154   23791700.6304
       153.0004        153.0004
 21  2  6  0 37  0.0000000  0  9G21G30G14G04G07G08G09G01G17
  -2619710.91848  -2030672.67246  21757847.353    21757847.0084   21757851.6034
       183.0004        182.0004
  -4663581.20947  -3609206.60646  23434114.060    23434113.7044   23434121.4734
       163.0004        163.0004
   -540741.61047   -407894.58845  23551966.169    23551966.7574   23551971.7224
       153.0004        157.0004
   5677978.34548   4332169.12646  22439772.517    22439772.5224   22439779.6214
       176.0004        176.0004
  -6875135.64649  -5339722.88147  21596719.211    21596719.5414   21596723.8394
       196.0004        197.0004
   4633843.07449   3449508.07147  21724993.104    21724992.8144   21724999.4314
       209.0004        208.0004
   1058407.18549    827511.64647  21165665.888    21165667.0714   21165674.0194
       208.0004        208.0004
  -6968591.59848  -5404113.69046  21844169.435    21844170.1324   21844177.7614
       181.0004        182.0004
  -3514472.88447  -2711699.07445  23774323.807    23774323.8464   23774328.6434
       150.0004        152.0004
 21  2  6  0 37 30.0000000  0  9G21G30G14G04G07G08G09G01G17
  -2622938.60148  -2033187.73646  21757233.174    21757232.7024   21757237.6094
       183.0004        183.0004
  -4751342.42047  -3677591.95646  23417412.173    23417413.9444   23417420.8514
       162.0004        163.0004
   -567435.11347   -428694.71345  23546885.889    23546886.5264   23546891.6644
       156.0004        159.0004
   5771385.09048   4404953.61146  22457546.938    22457547.7504   22457554.3274
       176.0004        177.0004
  -6945122.74449  -5394258.27947  21583401.335    21583401.8354   21583405.5904
       198.0004        198.0004
   4717430.47049   3514641.12648  21740898.314    21740898.3344   21740905.6614
       216.0004        220.0004
   1104119.53049    863131.64247  21174365.928    21174366.1804   21174372.6554
       208.0004        208.0004
  -7036660.71948  -5457154.53746  21831215.787    21831216.3254   21831225.1364
       181.0004        181.0004
  -3605481.56947  -2782614.88345  23757006.623    23757006.7634   23757011.2764
       153.0004        158.0004
 21  2  6  0 38  0.0000000  0  9G21G30G14G04G07G08G09G01G17
  -2625703.55948  -2035342.25546  21756707.130    21756706.7274   21756711.5464
       183.0004        184.0004
  -4839126.97847  -3745995.51146  23400708.814    23400709.3104   23400716.9244
       162.0004        165.0004
   -594083.32847   -449459.51945  23541816.279    23541815.9204   23541820.6604
       156.0004        157.0004
   5864958.47948   4477867.90946  22475354.529    22475354.0334   22475359.8764
       175.0004        175.0004
  -7014945.07449  -5448665.29847  21570113.835    21570114.7654   21570118.7354
       198.0004        198.0004
   4801264.57249   3579966.37848  21756851.330    21756851.4664   21756858.9174
       219.0004        220.0004
   1150268.84149    899092.13047  21183147.629    21183148.0264   21183154.9634
       208.0004        209.0004
  -7104477.80948  -5509999.02346  21818310.200    21818311.1524   21818319.6324
       182.0004        182.0004
  -3696215.91047  -2853316.87845  23739739.909    23739740.0264   23739744.5764
       156.0004        158.0004
 21  2  6  0 38 30.0000000  0  9G21G30G14G04G07G08G09G01G17
  -2628003.70248  -2037134.55846  21756270.362    21756268.9744   21756275.6344
       185.0004        186.0004
  -4926932.02847  -3814415.01746  23384000.663    23384001.4804   23384007.6734
       164.0004        165.0004
   -620686.62547   -470189.35045  23536753.245    23536753.4154   23536757.9174
       154.0004        157.0004
   5958696.35248   4550910.39546  22493192.051    22493192.0264   22493197.0934
       175.0004        175.0004
  -7084599.18949  -5502941.23747  21556860.253    21556860.5604   21556863.8644
       198.0004        198.0004
   4885344.05449   3645482.84448  21772851.172    21772851.6074   21772858.5894
       221.0004        221.0004
   1196853.60249    935391.94347  21192012.229    21192012.7654   21192019.2824
       208.0004        208.0004
  -7172038.69648  -5562643.86746  21805454.856    21805455.1794   21805463.8704
       182.0004        183.0004
  -3786672.90147  -2923802.75945  23722524.515    23722525.8214   23722531.0924
       155.0004        158.0004
 21  2  6  0 39  0.0000000  0  9G21G30G14G04G07G08G09G01G17
  -2629839.57348  -2038565.06447  21755920.694    21755920.0024   21755926.9744
       186.0004        188.0004
  -5014757.39047  -3882850.36046  23367287.155    23367287.0984   23367294.3364
       162.0004        163.0004
   -647248.01247   -490886.48545  23531697.762    23531698.7674   23531704.5474
       157.0004        160.0004
   6052594.02448   4624077.43946  22511059.478    22511060.0574   22511066.5294
       175.0004        176.0004
  -7154084.03149  -5557085.24647  21543636.018    21543636.9314   21543641.1684
       197.0004        197.0004
   4969663.90249   3711186.65248  21788897.119    21788897.5354   21788903.7504
       221.0004        221.0004
   1243869.66449    972027.85447  21200959.677    21200959.7484   21200966.1704
       208.0004        208.0004
  -7239341.83148  -5615087.81346  21792646.434    21792647.0074   21792656.0254
       183.0004        184.0004
  -3876852.30547  -2994072.32645  23705366.185    23705366.9404   23705372.0224
       158.0004        161.0004
 21  2  6  0 39 30.0000000  0  9G21G30G14G04G07G08G09G01G17
  -2631207.95248  -2039631.35046  21755660.074    21755659.2604   21755666.2924
       187.0004        186.0004
  -5102599.17247  -3951298.53746  23350572.199    23350572.8504   23350580.0784
       162.0004        165.0004
   -673766.63047   -511550.34446  23526652.673    23526653.0654   23526658.3374
       161.0004        164.0004
   6146650.50048   4697368.16046  22528957.627    22528957.9604   22528964.7624
       176.0004        176.0004
  -7223394.96349  -5611093.79047  21530447.002    21530447.4304   21530451.9314
       197.0004        197.0004
   5054223.36249   3777077.10748  21804988.699    21804988.5224   21804994.8634
       221.0004        219.0004
   1291316.63849   1008999.48747  21209988.386    21209988.5584   21209995.1594
       208.0004        208.0004
  -7306381.87748  -5667326.82946  21779889.879    21779890.5654   21779898.9544
       184.0004        184.0004
  -3966750.20447  -3064122.62245  23688259.853    23688259.2974   23688264.9724
       159.0004        160.0004
 21  2  6  0 40  0.0000000  0  9G21G30G14G04G07G08G09G01G17
  -2632109.48948  -2040333.82946  21755488.598    21755487.7374   21755495.1784
       187.0004        187.0004
  -5190456.71948  -4019758.92046  23333853.600    23333854.2594   23333861.2804
       165.0004        167.0004
   -700245.10647   -532182.91146  23521613.598    23521614.1434   23521619.1554
       164.0004        166.0004
   6240861.47248   4770779.29146  22546886.050    22546886.4034   22546892.4224
       176.0004        176.0004
  -7292530.78549  -5664965.85747  21517291.792    21517292.5214   21517296.4404
       198.0004        199.0004
   5139017.80049   3843150.69348  21821123.759    21821124.1614   21821130.8804
       220.0004        219.0004
   1339190.75549   1046303.99547  21219098.669    21219099.2274   21219105.1794
       208.0004        208.0004
  -7373156.88548  -5719359.29546  21767183.202    21767183.7464   21767192.1544
       183.0004        183.0004
  -4056365.86347  -3133952.92145  23671205.415    23671205.4854   23671210.0944
       156.0004        157.0004
 21  2  6  0 40 30.0000000  0  9G21G30G14G04G07G08G09G01G17
  -2632542.17148  -2040670.91946  21755406.741    21755405.4424   21755412.5174
       187.0004        187.0004
  -5278327.49048  -4088229.62546  23317131.713    23317132.3174   23317139.4904
       165.0004        166.0004
   -726684.10948   -552784.68746  23516582.718    23516583.1024   23516588.2384
       165.0004        166.0004
   6335224.52448   4844308.96546  22564842.324    22564842.9334   22564848.4454
       175.0004        175.0004
  -7361488.08649  -5718698.79747  21504169.852    21504169.7194   21504173.5954
       199.0004        199.0004
   5224045.02549   3909405.69048  21837304.171    21837304.0834   21837310.9954
       219.0004        218.0004
   1387490.15149   1083939.90447  21228289.531    21228289.7704   21228296.1714
       207.0004        207.0004
  -7439662.99848  -5771182.19646  21754526.659    21754527.5484   21754536.6484
       183.0004        183.0004
  -4145696.55947  -3203561.16445  23654205.314    23654205.6384   23654211.1094
       154.0004        156.0004
 21  2  6  0 41  0.0000000  0  9G21G30G14G04G07G08G09G01G17
  -2632503.36748  -2040640.67747  21755412.819    21755412.5934   21755420.3884
       187.0004        188.0004
  -5366208.05348  -4156707.97546  23300408.131    23300408.8994   23300416.8114
       165.0004        167.0004
   -753083.47247   -573355.60846  23511558.579    23511559.6584   23511564.5714
       164.0004        165.0004
   6429738.09948   4917955.89146  22582827.338    22582828.2764   22582835.0064
       175.0004        176.0004
  -7430262.77449  -5772289.47247  21491081.718    21491082.4974   21491086.5504
       198.0004        199.0004
   5309303.68049   3975840.98948  21853527.887    21853528.2924   21853535.1334
       219.0004        218.0004
   1436213.76749   1121906.34747  21237560.909    21237561.3974   21237568.4994
       207.0004        207.0004
  -7505895.50248  -5822791.93946  21741924.339    21741924.5194   21741932.4574
       184.0004        185.0004
  -4234739.18947  -3272944.96745  23637260.001    23637261.1904   23637267.1194
       155.0004        158.0004
 21  2  6  0 41 30.0000000  0  9G21G30G14G04G07G08G09G01G17
  -2631993.73448  -2040243.53746  21755509.816    21755509.4114   21755517.2924
       187.0004        187.0004
  -5454098.28348  -4225193.84146  23283683.609    23283683.3674   23283691.8814
       165.0004        167.0004
   -779446.12347   -593897.91846  23506542.368    23506542.5474   23506547.9454
       163.0004        163.0004
   6524397.49448   4991716.44746  22600840.393    22600841.4414   22600846.7214
       175.0004        176.0004
  -7498854.05649  -5825737.22147  21478029.159    21478029.6184   21478033.2264
       198.0004        198.0004
   5394789.52549   4042453.33348  21869795.771    21869796.0294   21869802.7994
       219.0004        218.0004
   1485357.44849   1160200.13247  21246912.618    21246912.9494   21246920.2014
       207.0004        207.0004
  -7571852.85148  -5874187.25546  21729371.314    21729371.9854   21729381.0814
       184.0004        183.0004
  -4323493.31447  -3342103.93545  23620371.956    23620371.8084   23620376.2924
       155.0004        157.0004
 21  2  6  0 42  0.0000000  0  9G21G30G14G04G07G08G09G01G17
  -2631011.96048  -2039478.51446  21755696.445    21755696.1064   21755703.3744
       187.0004        186.0004
  -5541996.05747  -4293685.61246  23266957.735    23266957.8774   23266965.1084
       164.0004        166.0004
   -805773.22947   -614412.52846  23501533.325    23501533.0434   23501538.2504
       162.0004        164.0004
   6619199.84548   5065588.38046  22618882.176    22618882.2724   22618888.2874
       175.0004        176.0004
  -7567259.08449  -5879039.85747  21465011.866    21465012.4634   21465016.6914
       198.0004        197.0004
   5480499.19249   4109240.06948  21886106.177    21886106.4354   21886112.7944
       219.0004        218.0004
   1534918.81249   1198819.34947  21256344.294    21256344.5044   21256351.3514
       207.0004        207.0004
  -7637531.65448  -5925365.54046  21716873.114    21716873.8654   21716883.0764
       183.0004        184.0004
  -4411957.15047  -3411036.76445  23603538.000    23603537.4084   23603542.9014
       155.0004        156.0004
 21  2  6  0 42 30.0000000  0  9G21G30G14G04G07G08G09G01G17
  -2629558.55748  -2038345.96746  21755973.275    21755972.9454   21755978.9684
       186.0004        185.0004
  -5629900.37448  -4362182.45846  23250228.843    23250230.1704   23250237.6104
       167.0004        169.0004
   -832066.89947   -634901.05146  23496528.720    23496528.4964   23496534.4664
       164.0004        165.0004
   6714141.16448   5139568.63546  22636947.752    22636948.2544   22636955.2454
       174.0004        172.0004
  -7635476.05249  -5932195.92747  21452030.804    21452031.3484   21452035.5414
       198.0004        198.0004
   5566428.67349   4176198.11148  21902458.364    21902458.0544   21902464.4324
       219.0004        217.0004
   1584894.31149   1237761.29647  21265853.396    21265854.4284   21265861.5724
       206.0004        207.0004
  -7702929.61248  -5976324.96746  21704429.179    21704429.8694   21704437.7524
       184.0004        184.0004
  -4500129.70047  -3479742.54545  23586758.612    23586758.5464   23586764.1174
       153.0004        156.0004
 21  2  6  0 43  0.0000000  0  9G21G30G14G04G07G08G09G01G17
  -2627630.18248  -2036843.30446  21756340.792    21756340.0154   21756345.9864
       185.0004        185.0004
  -5717807.21648  -4430681.25646  23233500.753    23233501.5154   23233509.1134
       168.0004        169.0004
   -858326.44947   -655363.00946  23491531.605    23491531.6694   23491537.0264
       163.0004        163.0004
   6809220.49148   5213656.42946  22655040.699    22655042.0594   22655046.4714
       173.0004        173.0004
  -7703500.39649  -5985201.89647  21439085.716    21439086.5384   21439090.8744
       198.0004        198.0004
   5652577.20849   4243326.84848  21918850.463    21918851.2824   21918857.6274
       218.0004        217.0004
   1635283.44849   1277025.57747  21275442.266    21275442.7134   21275450.1264
       206.0004        207.0004
  -7768041.49848  -6027061.47946  21692038.995    21692039.8744   21692047.3934
       184.0004        185.0004
  -4588006.79847  -3548218.14745  23570037.437    23570037.7284   23570041.1314
       155.0004        159.0004
 21  2  6  0 43 30.0000000  0  9G21G30G14G04G07G08G09G01G17
  -2625226.86448  -2034970.56346  21756797.455    21756797.5044   21756802.9544
       184.0004        183.0004
  -5805715.59948  -4499181.27846  23216772.420    23216772.8044   23216780.0614
       166.0004        167.0004
   -884554.10747   -675800.12146  23486540.145    23486541.0054   23486546.6094
       163.0004        165.0004
   6904433.83048   5287848.63046  22673159.539    22673159.4634   22673167.1394
       173.0004        173.0004
  -7771330.10449  -6038056.20647  21426178.711    21426179.2844   21426183.3874
       198.0004        199.0004
   5738941.17149   4310623.43648  21935285.919    21935285.8294   21935292.2134
       218.0004        217.0004
   1686082.67649   1316609.39047  21285109.432    21285110.1274   21285116.9344
       206.0004        207.0004
  -7832865.05848  -6077573.32246  21679702.561    21679703.6314   21679712.1804
       185.0004        185.0004
  -4675587.63347  -3616462.88645  23553369.566    23553370.0314   23553375.9024
       157.0004        159.0004
 21  2  6  0 44  0.0000000  0  9G21G30G14G04G07G08G09G01G17
  -2622346.46548  -2032726.08746  21757345.251    21757344.9294   21757349.6414
       183.0004        182.0004
  -5893622.54648  -4567680.20746  23200045.775    23200045.7954   23200052.5974
       167.0004        170.0004
   -910750.20347   -696212.63046  23481557.170    23481557.1944   23481561.4444
       164.0004        165.0004
   6999779.07748   5362143.61446  22691302.995    22691303.6864   22691309.6364
       173.0004        172.0004
  -7838961.52249  -6090756.01347  21413308.622    21413309.1994   21413313.6094
       199.0004        199.0004
   5825518.07049   4378085.94848  21951761.083    21951761.3584   21951767.8164
       218.0004        217.0004
   1737290.33549   1356511.45747  21294854.130    21294854.0524   21294861.1984
       206.0004        205.0004
  -7897396.13248  -6127857.26946  21667422.785    21667423.6564   21667431.6964
       185.0004        186.0004
  -4762869.44747  -3684474.63045  23536762.622    23536762.7164   23536767.0324
       159.0004        162.0004
 21  2  6  0 44 30.0000000  0  9G21G30G14G04G07G08G09G01G17
  -2618990.45148  -2030111.00746  21757984.228    21757984.0034   21757988.3654
       182.0004        181.0004
  -5981527.90748  -4636177.86146  23183317.833    23183317.3564   23183324.6394
       169.0004        171.0004
   -936917.79147   -716602.91546  23476575.800    23476576.3074   23476582.6394
       164.0004        165.0004
   7095251.46548   5436537.67646  22709470.853    22709471.2274   22709477.4884
       171.0004        170.0004
  -7906394.19649  -6143300.95547  21400476.771    21400477.3114   21400481.0864
       199.0004        199.0004
   5912303.83649   4445711.22548  21968275.189    21968275.5314   21968282.4794
       217.0004        216.0004
   1788902.06349   1396728.38647  21304674.694    21304675.2764   21304682.9264
       205.0004        205.0004
  -7961633.29148  -6177912.17746  21655199.739    21655200.1354   21655208.4204
       185.0004        186.0004
  -4849851.85447  -3752253.06545  23520210.106    23520210.0424   23520213.9364
       158.0004        159.0004
 21  2  6  0 45  0.0000000  0  9G21G30G14G04G07G08G09G01G17
  -2615156.93748  -2027123.84146  21758713.700    21758713.5214   21758717.7324
       181.0004        181.0004
  -6069428.91548  -4704672.17246  23166591.684    23166590.7084   23166596.6634
       169.0004        170.0004
   -963057.39147   -736971.40246  23471600.923    23471601.1494   23471607.8164
       162.0004        163.0004
   7190848.70148   5511029.01846  22727662.706    22727663.7104   22727669.6014
       170.0004        169.0004
  -7973624.49949  -6195688.20347  21387683.120    21387683.4634   21387688.0904
       199.0004        199.0004
   5999295.78249   4513497.14848  21984829.847    21984829.5724   21984836.9824
       217.0004        216.0004
   1840915.94449   1437258.67247  21314572.797    21314573.5054   21314580.6324
       204.0004        205.0004
  -8025572.61548  -6227735.01146  21643032.071    21643032.8144   21643040.8894
       186.0004        186.0004
  -4936532.69947  -3819796.53345  23503713.489    23503714.6724   23503721.1454
       156.0004        157.0004
 21  2  6  0 45 30.0000000  0  9G21G30G14G04G07G08G09G01G17
  -2610843.90748  -2023763.04046  21759535.272    21759534.7764   21759538.8094
       182.0004        182.0004
  -6157322.41648  -4773160.61446  23149864.140    23149864.3634   23149872.1864
       170.0004        171.0004
   -989168.96347   -757318.10545  23466633.892    23466633.7424   23466638.1904
       161.0004        162.0004
   7286568.98248   5585616.22746  22745877.874    22745877.7804   22745884.5814
       169.0004        170.0004
  -8040648.47149  -6247914.68147  21374928.681    21374929.3434   21374933.5094
       199.0004        199.0004
   6086492.07649   4581442.28548  22001422.806    22001422.6404   22001429.4094
       217.0004        217.0004
   1893330.54349   1478101.19347  21324547.681    21324547.8824   21324554.6484
       205.0004        205.0004
  -8089209.73348  -6277322.37346  21630921.191    21630922.3044   21630930.8154
       186.0004        186.0004
  -5022909.09447  -3887102.73245  23487276.544    23487277.4184   23487283.8624
       157.0004        159.0004
 21  2  6  0 46  0.0000000  0  9G21G30G14G04G07G08G09G01G17
  -2606050.47748  -2020027.89246  21760447.670    21760446.9594   21760450.4744
       182.0004        182.0004
  -6245206.35048  -4841641.59046  23133139.743    23133140.6404   23133148.3624
       170.0004        171.0004
  -1015253.84647   -777643.97446  23461670.256    23461669.7114   23461675.0824
       161.0004        163.0004
   7382409.29048   5660296.98246  22764114.938    22764115.3114   22764122.1504
       169.0004        170.0004
  -8107463.42549  -6299978.28947  21362214.805    21362215.3824   21362219.1394
       200.0004        200.0004
   6173890.15549   4649544.67148  22018053.640    22018053.8844   22018060.5944
       217.0004        217.0004
   1946143.27149   1519253.95847  21334596.624    21334597.4804   21334604.8834
       205.0004        205.0004
  -8152541.34948  -6326671.68346  21618870.611    21618871.3504   21618879.2744
       186.0004        186.0004
  -5108979.19447  -3954170.30945  23470899.058    23470898.3424   23470903.8474
       156.0004        157.0004
 21  2  6  0 46 30.0000000  0  9G21G30G14G04G07G08G09G01G17
  -2600776.48148  -2015918.25746  21761450.389    21761449.6894   21761453.7394
       181.0004        180.0004
  -6333079.44048  -4910114.10546  23116418.814    23116420.3414   23116426.7314
       171.0004        173.0004
  -1041314.07847   -797950.59446  23456710.319    23456710.7564   23456716.1424
       162.0004        165.0004
   7478365.90348   5735068.36646  22782375.062    22782375.2024   22782381.7394
       169.0004        169.0004
  -8174067.46949  -6351877.52547  21349540.882    21349540.9764   21349545.1004
       200.0004        200.0004
   6261485.99649   4717801.19648  22034722.778    22034722.6174   22034729.1974
       217.0004        216.0004
   1999350.63349   1560714.26547  21344722.528    21344723.1624   21344730.1984
       205.0004        206.0004
  -8215565.11748  -6375781.06546  21606878.299    21606878.5564   21606886.3724
       186.0004        187.0004
  -5194741.87547  -4020998.26545  23454579.554    23454579.3264   23454583.6904
       155.0004        157.0004
 21  2  6  0 47  0.0000000  0  9G21G30G14G04G07G08G09G01G17
  -2595020.03848  -2011432.73046  21762545.048    21762545.7004   21762548.9504
       181.0004        181.0004
  -6420938.31148  -4978575.56846  23099700.038    23099700.2104   23099706.9574
       171.0004        171.0004
  -1067349.50547   -818237.94946  23451755.351    23451756.0484   23451761.4044
       163.0004        164.0004
   7574437.19248   5809929.09646  22800655.807    22800656.9934   22800664.3134
       168.0004        169.0004
  -8240456.52649  -6403609.27247  21336906.561    21336907.7074   21336911.6574
       200.0004        201.0004
   6349278.24749   4786210.71848  22051428.403    22051428.9424   22051435.7634
       216.0004        215.0004
   2052951.40249   1602481.07647  21354922.731    21354923.1374   21354929.3364
       205.0004        205.0004
  -8278276.44448  -6424647.04046  21594944.593    21594944.9274   21594953.6294
       186.0004        187.0004
  -5280193.71447  -4087584.07645  23438317.488    23438317.3984   23438321.6064
       157.0004        160.0004
 21  2  6  0 47 30.0000000  0  9G21G30G14G04G07G08G09G01G17
  -2588780.67148  -2006570.86146  21763733.822    21763732.7354   21763737.1124
       181.0004        181.0004
  -6508781.81148  -5047025.05346  23082983.444    23082984.5044   23082990.6604
       169.0004        170.0004
  -1093362.36247   -838507.72045  23446805.517    23446805.5864   23446811.1854
       161.0004        162.0004
   7670619.22948   5884876.11746  22818959.070    22818959.8474   22818966.8484
       166.0004        166.0004
  -8306629.00249  -6455172.24147  21324315.215    21324315.4484   21324319.2114
       201.0004        201.0004
   6437262.93649   4854770.21448  22068171.046    22068171.5544   22068178.7964
       215.0004        213.0004
   2106941.93249   1644551.62647  21365196.040    21365196.4414   21365203.7734
       204.0004        204.0004
  -8340673.07148  -6473267.76947  21583070.895    21583071.9574   21583079.8054
       188.0004        189.0004
  -5365334.20247  -4153927.27645  23422116.238    23422116.5384   23422119.4894
       158.0004        161.0004
 21  2  6  0 48  0.0000000  0  9G21G30G14G04G07G08G09G01G17
  -2582057.82648  -2001332.25346  21765011.858    21765011.7064   21765016.5634
       181.0004        182.0004
  -6596607.37848  -5115460.56046  23066271.635    23066271.5214   23066278.6944
       169.0004        171.0004
  -1119353.23347   -858760.32945  23441860.146    23441860.6134   23441865.7174
       159.0004        160.0004
   7766909.53748   5959907.53446  22837282.652    22837284.0194   22837289.3574
       167.0004        168.0004
  -8372581.35949  -6506563.68647  21311764.739    21311764.7784   21311768.5434
       201.0004        201.0004
   6525437.93649   4923478.00348  22084950.394    22084950.7464   22084958.3454
       215.0004        215.0004
   2161320.08649   1686924.21847  21375543.840    21375544.4594   21375551.4934
       203.0004        204.0004
  -8402751.31948  -6521640.41847  21571257.859    21571258.3224   21571265.4064
       188.0004        188.0004
  -5450160.93147  -4220025.97745  23405974.461    23405973.7404   23405979.1744
       159.0004        162.0004
 21  2  6  0 48 30.0000000  0  9G21G30G14G04G07G08G09G01G17
  -2574852.23048  -1995717.49346  21766383.204    21766383.0134   21766388.2324
       182.0004        183.0004
  -6684414.51748  -5183881.68546  23049562.452    23049562.8224   23049570.8964
       172.0004        174.0004
  -1145324.91447   -878997.93745  23436916.477    23436916.7744   23436922.2754
       158.0004        160.0004
   7863303.63948   6035019.84246  22855627.194    22855626.5144   22855633.8184
       167.0004        168.0004
  -8438312.57449  -6557782.80947  21299255.611    21299256.3174   21299260.9484
       201.0004        201.0004
   6613798.74249   4992330.57548  22101766.140    22101765.9374   22101772.7824
       215.0004        215.0004
   2216081.63049   1729595.55447  21385964.910    21385965.2584   21385972.6374
       203.0004        204.0004
  -8464509.50248  -6569763.66346  21559504.357    21559505.3064   21559513.6054
       186.0004        186.0004
  -5534673.64047  -4285879.99246  23389889.899    23389891.7544   23389897.4014
       161.0004        164.0004
 21  2  6  0 49  0.0000000  0  9G21G30G14G04G07G08G09G01G17
  -2567161.68748  -1989724.83846  21767846.723    21767846.6474   21767851.4484
       182.0004        183.0004
  -6772199.83648  -5252285.80546  23032856.800    23032857.6204   23032865.1564
       172.0004        172.0004
  -1171277.53047   -899220.75145  23431978.373    23431979.2334   23431984.2814
       158.0004        160.0004
   7959799.66748   6110211.54246  22873989.311    22873989.7614   22873996.2094
       168.0004        169.0004
  -8503818.74249  -6608826.57047  21286790.822    21286791.2664   21286795.5254
       201.0004        201.0004
   6702343.16949   5061326.23048  22118614.558    22118615.2824   22118622.3434
       215.0004        215.0004
   2271224.95849   1772564.38747  21396459.440    21396459.1984   21396465.3704
       203.0004        203.0004
  -8525943.38948  -6617634.20046  21547814.701    21547815.2294   21547823.7504
       186.0004        187.0004
  -5618869.75447  -4351487.29546  23373869.988    23373869.6994   23373874.5774
       164.0004        165.0004
 21  2  6  0 49 30.0000000  0  9G21G30G14G04G07G08G09G01G17
  -2558985.54548  -1983353.79946  21769403.239    21769402.5524   21769407.7134
       183.0004        184.0004
  -6859961.11048  -5320671.21746  23016157.924    23016157.5604   23016164.2844
       172.0004        173.0004
  -1197212.11147   -919429.49745  23427042.481    23427043.6314   23427049.1564
       157.0004        159.0004
   8056394.82848   6185480.48246  22892370.871    22892370.7184   22892377.5224
       168.0004        170.0004
  -8569096.70949  -6659692.51947  21274368.692    21274369.0874   21274373.1974
       201.0004        201.0004
   6791068.94249   5130463.19248  22135499.018    22135498.7854   22135505.9724
       214.0004        213.0004
   2326747.53049   1815828.72147  21407024.088    21407024.2944   21407031.1434
       203.0004        203.0004
  -8587049.59248  -6665249.41046  21536187.547    21536187.9274   21536195.0614
       187.0004        187.0004
  -5702746.92647  -4416846.08046  23357907.900    23357908.5724   23357912.6854
       163.0004        165.0004
 21  2  6  0 50  0.0000000  0  9G21G30G14G04G07G08G09G01G17
  -2550323.56648  -1976604.19446  21771051.005    21771051.4764   21771056.1434
       183.0004        184.0004
  -6947696.65748  -5389036.58546  22999462.250    22999461.9234   22999469.4034
       172.0004        173.0004
  -1223130.19247   -939625.37845  23422111.640    23422112.1744   23422116.6894
       158.0004        160.0004
   8153085.75548   6260824.05746  22910769.693    22910770.3234   22910775.5134
       168.0004        167.0004
  -8634144.74049  -6710379.30047  21261990.728    21261991.0464   21261994.7554
       201.0004        201.0004
   6879972.52349   5199738.69647  22152416.137    22152416.4024   22152423.4764
       213.0004        211.0004
   2382646.24849   1859386.17147  21417660.977    21417661.5164   21417667.9934
       203.0004        202.0004
  -8647825.35948  -6712607.14346  21524621.832    21524622.7664   21524629.9714
       187.0004        187.0004
  -5786303.99247  -4481955.41146  23342007.131    23342007.8664   23342012.7854
       164.0004        166.0004
 21  2  6  0 50 30.0000000  0  9G21G30G14G04G07G08G09G01G17
  -2541175.01848  -1969475.43046  21772792.303    21772791.6614   21772797.5494
       184.0004        183.0004
  -7035404.39548  -5457380.28546  22982771.669    22982771.8954   22982778.0664
       171.0004        172.0004
  -1249033.14947   -959809.47445  23417181.379    23417181.9334   23417187.5504
       159.0004        161.0004
   8249869.47548   6336239.95346  22929186.931    22929187.3514   22929194.0884
       167.0004        167.0004
  -8698959.83249  -6760884.56447  21249656.622    21249656.9074   21249661.3954
       201.0004        201.0004
   6969051.28449   5269150.70447  22169367.021    22169367.0524   22169374.1854
       211.0004        211.0004
   2438918.34749   1903234.55847  21428369.605    21428370.1584   21428376.3454
       203.0004        203.0004
  -8708267.56848  -6759704.94946  21513119.663    21513119.7404   21513128.1644
       187.0004        186.0004
  -5869539.43747  -4546814.14446  23326167.882    23326168.7294   23326174.3644
       164.0004        166.0004
 21  2  6  0 51  0.0000000  0  9G21G30G14G04G07G08G09G01G17
  -2531538.38848  -1961966.34746  21774625.811    21774625.2104   21774630.1844
       184.0004        184.0004
  -7123081.21748  -5525699.85446  22966087.591    22966088.1754   22966094.8754
       172.0004        175.0004
  -1274921.03047   -979981.82345  23412255.964    23412256.1634   23412260.9764
       159.0004        161.0004
   8346744.06148   6411726.62246  22947622.955    22947622.4004   22947628.1344
       167.0004        168.0004
  -8763538.29749  -6811205.44647  21237367.700    21237368.4654   21237372.0664
       201.0004        202.0004
   7058303.29049   5338697.71647  22186350.917    22186351.1514   22186358.5194
       211.0004        211.0004
   2495562.05749   1947372.50847  21439147.858    21439148.5194   21439155.2444
       202.0004        202.0004
  -8768372.07248  -6806539.59946  21501680.910    21501681.8524   21501691.3574
       186.0004        187.0004
  -5952450.44348  -4611420.07246  23310390.763    23310390.7554   23310397.0614
       166.0004        168.0004
 21  2  6  0 51 30.0000000  0  9G21G30G14G04G07G08G09G01G17
  -2521414.53348  -1954077.61046  21776551.627    21776551.5744   21776557.7804
       184.0004        185.0004
  -7210726.30248  -5593994.72046  22949408.995    22949407.7354   22949414.8564
       171.0004        169.0004
  -1300796.44247  -1000144.48845  23407332.789    23407332.3214   23407337.9924
       159.0004        160.0004
   8443705.15748   6487280.71346  22966071.899    22966073.2744   22966079.3484
       167.0004        168.0004
  -8827878.70749  -6861340.83947  21225125.089    21225125.2154   21225128.3694
       202.0004        202.0004
   7147724.23449   5408376.35547  22203366.399    22203367.5314   22203375.1354
       211.0004        211.0004
   2552573.24349   1991796.80347  21449997.531    21449998.3004   21450004.6914
       202.0004        203.0004
  -8828137.09548  -6853109.73147  21490309.315    21490310.3394   21490318.6124
       188.0004        191.0004
  -6035036.49548  -4675772.78146  23294676.433    23294675.7154   23294681.5474
       167.0004        169.0004
 21  2  6  0 52  0.0000000  0  9G21G30G14G04G07G08G09G01G17
  -2510801.66548  -1945807.81946  21778571.417    21778571.0994   21778576.6974
       185.0004        185.0004
  -7298336.56248  -5662262.42846  22932736.347    22932736.1284   22932744.1944
       168.0004        170.0004
  -1326659.55447  -1020297.54645  23402410.708    23402411.2484   23402416.2884
       157.0004        158.0004
   8540750.89848   6562900.77746  22984541.159    22984540.2654   22984545.7874
       166.0004        166.0004
  -8891977.30849  -6911287.79847  21212926.157    21212926.9514   21212931.2904
       202.0004        202.0004
   7237312.11249   5478185.08847  22220416.802    22220416.4864   22220423.4144
       211.0004        211.0004
   2609950.21149   2036506.13747  21460915.766    21460915.8794   21460923.2614
       202.0004        202.0004
  -8887558.39648  -6899412.04747  21479004.663    21479004.5054   21479010.9054
       192.0004        194.0004
  -6117295.19348  -4739870.42746  23279021.455    23279021.8904   23279029.1594
       167.0004        169.0004
 21  2  6  0 52 30.0000000  0  9G21G30G14G04G07G08G09G01G17
  -2499700.23348  -1937157.33646  21780684.081    21780684.1124   21780690.0814
       185.0004        186.0004
  -7385910.67248  -5730501.97246  22916070.779    22916071.1974   22916079.3824
       169.0004        170.0004
  -1352512.60947  -1040442.76945  23397489.969    23397489.9364   23397495.9684
       155.0004        156.0004
   8637877.31848   6638583.70246  23003022.054    23003022.8394   23003029.5064
       166.0004        167.0004
  -8955832.18449  -6961044.83747  21200775.203    21200775.8664   21200779.9474
       201.0004        202.0004
   7327063.32249   5548121.08847  22237495.022    22237495.4134   22237502.7724
       211.0004        211.0004
   2667689.20149   2081497.56247  21471901.196    21471902.3684   21471909.9324
       201.0004        200.0004
  -8946633.88948  -6945444.89947  21467760.703    21467761.4164   21467768.7544
       192.0004        191.0004
  -6199225.66648  -4803712.30646  23263430.437    23263431.2474   23263436.6334
       165.0004        166.0004
 21  2  6  0 53  0.0000000  0  9G21G30G14G04G07G08G09G01G17
  -2488109.18948  -1928125.32646  21782890.475    21782889.7914   21782895.1514
       185.0004        186.0004
  -7473445.85648  -5798711.21046  22899414.024    22899414.5474   22899421.2394
       169.0004        171.0004
  -1378356.09747  -1060580.55845  23392573.295    23392573.0084   23392578.3494
       154.0004        155.0004
   8735082.15648   6714327.71146  23021519.675    23021520.4584   23021528.1164
       166.0004        167.0004
  -9019440.18149  -7010609.51047  21188671.618    21188671.7044   21188675.5654
       201.0004        202.0004
   7416975.24749   5618182.30847  22254604.343    22254604.2384   22254612.0214
       210.0004        209.0004
   2725788.02649   2126769.36847  21482959.116    21482958.9234   21482966.1924
       201.0004        201.0004
  -9005359.90948  -6991205.41246  21456583.772    21456584.6664   21456593.4034
       189.0004        187.0004
  -6280825.68148  -4867296.68046  23247903.949    23247903.6884   23247908.3844
       165.0004        166.0004
 21  2  6  0 53 30.0000000  0  9G21G30G14G04G07G08G09G01G17
  -2476026.96348  -1918710.58446  21785190.239    21785188.9864   21785194.3964
       186.0004        185.0004
  -7560938.63548  -5866887.39146  22882763.396    22882763.9484   22882773.4824
       170.0004        172.0004
  -1404189.93947  -1080710.83745  23387657.127    23387657.7574   23387663.7464
       154.0004        156.0004
   8832363.75348   6790131.53946  23040032.093    23040033.1694   23040038.7984
       166.0004        166.0004
  -9082797.25249  -7059978.67047  21176615.140    21176615.4684   21176619.0584
       202.0004        201.0004
   7507046.97449   5688368.06447  22271744.465    22271744.5404   22271752.0724
       210.0004        210.0004
   2784245.22749   2172320.42747  21494083.285    21494083.1744   21494090.0884
       200.0004        201.0004
  -9063731.98248  -7036690.12246  21445474.829    21445475.7834   21445485.6024
       186.0004        186.0004
  -6362092.39747  -4930621.37446  23232439.675    23232439.1884   23232442.7864
       164.0004        166.0004
 21  2  6  0 54  0.0000000  0  9G21G30G14G04G07G08G09G01G17
  -2463454.07448  -1908913.51846  21787582.050    21787581.4304   21787587.1274
       186.0004        186.0004
  -7648388.31748  -5935029.97646  22866123.364    22866123.9864   22866131.3204
       171.0004        173.0004
  -1430016.63047  -1100835.52845  23382742.203    23382743.0024   23382747.1234
       154.0004        156.0004
   8929717.78748   6865991.82546  23058558.851    23058559.1004   23058563.6714
       166.0004        167.0004
  -9145902.01549  -7109151.20947  21164606.017    21164606.5934   21164610.5914
       202.0004        202.0004
   7597273.89849   5758674.74547  22288914.419    22288914.3024   22288921.7864
       210.0004        209.0004
   2843056.51349   2218147.40247  21505273.827    21505274.4594   21505281.5264
       201.0004        202.0004
  -9121748.39848  -7081897.69547  21434435.743    21434437.0034   21434445.2594
       187.0004        188.0004
  -6443025.76347  -4993686.28046  23217038.233    23217038.6864   23217041.6224
       163.0004        163.0004
 21  2  6  0 54 30.0000000  0  9G21G30G14G04G07G08G09G01G17
  -2450389.92248  -1898733.64346  21790067.211    21790067.6764   21790072.8494
       186.0004        186.0004
  -7735792.43748  -6003137.05746  22849490.296    22849491.2744   22849498.6854
       171.0004        172.0004
  -1455837.17447  -1120955.42845  23377828.787    23377829.0774   23377833.9834
       153.0004        154.0004
   9027141.60348   6941906.49046  23077098.127    23077098.2024   23077103.4774
       166.0004        166.0004
  -9208751.36949  -7158124.73547  21152646.363    21152647.0054   21152651.0214
       202.0004        202.0004
   7687653.18249   5829100.15247  22306112.107    22306112.6344   22306120.0704
       209.0004        208.0004
   2902219.35549   2264248.30847  21516533.014    21516533.0954   21516540.0644
       201.0004        202.0004
  -9179405.86248  -7126825.58847  21423465.170    21423465.8644   21423473.5384
       189.0004        191.0004
  -6523623.64947  -5056489.79545  23201699.883    23201700.7064   23201704.1554
       160.0004        160.0004
 21  2  6  0 55  0.0000000  0  9G21G30G14G04G07G08G09G01G17
  -2436833.76648  -1888170.39846  21792647.437    21792647.1954   21792652.6444
       186.0004        186.0004
  -7823148.40748  -6071206.64746  22832869.812    22832869.0764   22832874.9654
       172.0004        172.0004
  -1481652.46247  -1141071.23545  23372916.092    23372916.1354   23372922.0304
       153.0004        155.0004
   9124632.47448   7017873.38446  23095648.957    23095650.1684   23095655.2004
       165.0004        165.0004
  -9271342.50849  -7206897.05647  21140735.977    21140736.5254   21140740.3504
       202.0004        203.0004
   7778182.78049   5899642.68147  22323339.821    22323339.5824   22323347.4444
       208.0004        207.0004
   2961731.13449   2310621.12447  21527857.379    21527857.7354   21527864.5354
       201.0004        202.0004
  -9236701.02648  -7171471.17047  21412563.010    21412563.3764   21412570.2674
       191.0004        192.0004
  -6603884.34947  -5119030.57245  23186426.971    23186427.9004   23186427.9954
       158.0004        158.0004
 21  2  6  0 55 30.0000000  0  9G21G30G14G04G07G08G09G01G17
  -2422785.33448  -1877223.54246  21795320.261    21795320.3244   21795326.0074
       185.0004        185.0004
  -7910453.92948  -6139236.91646  22816254.488    22816255.1924   22816260.9444
       171.0004        172.0004
  -1507463.40247  -1161183.62545  23368004.717    23368005.8194   23368009.5244
       154.0004        157.0004
   9222187.83347   7093890.51846  23114212.724    23114214.1614   23114219.1304
       163.0004        163.0004
  -9333672.35049  -7255465.75647  21128874.692    21128874.9964   21128879.5404
       202.0004        202.0004
   7868859.93949   5970300.20247  22340594.016    22340594.9584   22340602.5874
       207.0004        207.0004
   3021589.34549   2357263.89047  21539248.805    21539248.9924   21539255.3924
       202.0004        203.0004
  -9293630.52648  -7215831.80047  21401729.626    21401729.9314   21401737.5064
       192.0004        193.0004
  -6683805.76247  -5181306.96445  23171217.645    23171218.3254   23171220.3534
       156.0004        158.0004
 21  2  6  0 56  0.0000000  0 10G21G30G14G04G28G07G08G09G01G17
  -2408243.43748  -1865892.18146  21798087.595    21798087.5164   21798093.4884
       185.0004        185.0004
  -7997706.39948  -6207225.85746  22799652.123    22799651.7384   22799658.6394
       174.0004        177.0004
  -1533270.88147  -1181293.30945  23363093.682    23363094.2114   23363098.9884
       155.0004        159.0004
   9319804.94447   7169955.78946  23132789.350    23132789.9074   23132795.7334
       162.0004        163.0004
   -232990.60456   -176187.72445  23685409.522                    23685413.2964
       118.0004        140.0004
  -9395738.13649  -7303828.71647  21117063.966    21117064.5894   21117068.7874
       202.0004        203.0004
   7959682.11649   6041070.71747  22357878.634    22357878.3214   22357885.4584
       207.0004        207.0004
   3081791.34349   2404174.54247  21550704.682    21550704.6414   21550711.7404
       202.0004        202.0004
  -9350191.04148  -7259904.92047  21390966.606    21390967.1964   21390974.3094
       192.0004        192.0004
  -6763386.48547  -5243317.90545  23156074.448    23156075.5854   23156077.3694
       155.0004        158.0004
 21  2  6  0 58 30.0000000  0  4G30G09G14G04
    -31719.86654     -7357.69044  18550525.161
        74.0004        125.0004
     15829.17257      5714.73847  17442683.838                    17442690.5774
       160.0004        202.0004
    -14267.28454     -3632.97543  19172270.135
        74.0004         74.0004
     13900.01854      3872.82743  19059567.186
        74.0004         74.0004
 21  2  6  0 59  0.0000000  0  9G21G01G30G17G08G09G07G14G04
    -18897.36758    -11372.54246  17643896.406                    17643899.8094
       176.0004        186.0004
   -104581.48358    -60423.17947  17155115.458                    17155124.6504
       179.0004        190.0004
   -152783.77548   -101693.28746  18527485.582    18527485.6014   18527492.4304
       173.0004        179.0004
    -76133.70254    -41395.69943  18893811.364
        74.0004         74.0004
     61262.52254     39282.78643  18289359.035
        74.0004         92.0004
     43857.18449     27554.73047  17448017.332    17448017.4254   17448023.9504
       197.0004        202.0004
   -111905.24058    -64621.01547  16874508.456                    16874512.1484
       193.0004        203.0004
    -74254.81747    -50376.43546  19160854.109                    19160859.2174
       139.0004        163.0004
     77650.62644     53549.06545  19071699.204
        74.0004        148.0004
 21  2  6  0 59 30.0000000  0  9G21G01G30G17G08G09G07G14G04
    -35155.12148    -24040.91046  21837895.356    21837895.0204   21837900.1624
       183.0004        185.0004
   -192702.04048   -129088.53547  21335442.603    21335442.2384   21335449.7814
       188.0004        190.0004
   -273814.39648   -196002.85046  22701549.408    22701547.9154   22701555.7104
       177.0004        178.0004
   -187503.24447   -128177.33646  23069713.264                    23069718.6104
       159.0004        174.0004
    118725.21944     84213.96646  22497389.036
        74.0004        165.0004
     72103.47649     49564.82747  21650485.895    21650486.6384   21650493.7774
       200.0004        201.0004
   -206268.24649   -138150.64647  21053646.402    21053646.6904   21053649.9774
       202.0004        204.0004
   -134310.98447    -97173.44245  23346520.661    23346521.2934   23346526.9834
       157.0004        162.0004
    141320.98647    103162.20145  23280907.682                    23280912.9594
       147.0004        161.0004
 21  2  6  1  0  0.0000000  0  9G21G01G30G17G08G09G07G14G04
    -50950.16048    -36348.71046  21834889.121    21834889.3944   21834894.9924
       184.0004        184.0004
   -280495.81148   -197499.24747  21318734.092    21318735.7604   21318743.8774
       191.0004        191.0004
   -394855.47848   -290320.57746  22678515.345    22678515.3094   22678520.6194
       176.0004        178.0004
   -298597.04148   -214743.89146  23048571.667    23048571.8214   23048577.6954
       169.0004        171.0004
    176312.42844    129242.81546  22508347.795
        74.0004        171.0004
    100658.53249     71815.52747  21655920.251    21655920.6204   21655927.0554
       200.0004        200.0004
   -300414.47749   -211511.33947  21035730.515    21035731.0354   21035735.0214
       204.0004        204.0004
   -194425.85247   -144016.19145  23335081.491    23335081.7874   23335085.9114
       160.0004        162.0004
    205034.77847    152809.31845  23293032.014    23293032.4584   23293039.3224
       158.0004        162.0004
 21  2  6  1  0 30.0000000  0 10G21G01G30G28G17G08G09G07G14G04
    -91251.84648    -67752.60846  21827220.673    21827219.9284   21827225.3984
       184.0004        185.0004
   -392895.69948   -285083.56047  21297346.966    21297346.7284   21297354.9064
       192.0004        192.0004
   -540825.26748   -404063.29046  22650738.307    22650738.2294   22650743.8434
       179.0004        180.0004
    -62725.48954    -37672.25543  23659855.504
        74.0004         74.0004
   -434338.88048   -320516.70846  23022741.209    23022741.6134   23022747.0724
       169.0004        171.0004
    209017.64347     16879.74247  22514571.009                    22514578.1284
       135.0004        200.0004
    104529.26649     74831.68947  21656656.094    21656656.6904   21656663.9704
       199.0004        199.0004
   -419273.79149   -304128.97647  21013112.575    21013112.7144   21013116.5444
       204.0004        204.0004
   -279549.65747   -210346.40545  23318882.167    23318882.9924   23318887.4374
       158.0004        157.0004
    243782.38247    183002.23046  23300405.678    23300406.1944   23300412.5684
       162.0004        164.0004
 21  2  6  1  1  0.0000000  0 10G21G01G30G28G17G08G09G07G14G04
    -71760.16548    -52564.27446  21830929.455    21830929.3304   21830934.5604
       184.0004        184.0004
   -445598.68548   -326150.79347  21287316.847    21287317.2624   21287326.1944
       192.0004        194.0004
   -627421.35848   -471540.72346  22634259.158    22634259.5414   22634267.0614
       181.0004        183.0004
    -77602.66944    -49264.71445  23657022.822
        74.0004        151.0004
   -510427.47748   -379806.46646  23008262.195    23008261.9044   23008266.8814
       170.0004        170.0004
    301137.55449     88661.49947  22532100.946    22532100.5774   22532109.0024
       196.0004        202.0004
    168012.65149    124299.27247  21668736.202    21668736.8644   21668744.7914
       199.0004        198.0004
   -478543.64549   -350313.27047  21001833.501    21001833.6214   21001837.4304
       204.0004        203.0004
   -305383.42647   -230476.58245  23313966.773    23313967.4594   23313973.2054
       157.0004        158.0004
    341860.78447    259426.96946  23319068.434    23319069.6964   23319075.8974
       163.0004        163.0004
 21  2  6  1  1 30.0000000  0 10G21G01G30G28G17G08G09G07G14G04
    -51776.85548    -36992.84046  21834732.871    21834732.2454   21834737.9644
       185.0004        184.0004
   -497904.15248   -366908.27847  21277364.672    21277364.5894   21277373.1894
       193.0004        194.0004
   -713943.81348   -538960.80446  22617794.609    22617794.9304   22617801.2094
       181.0004        181.0004
    -92482.08447    -60859.08545  23654193.642    23654193.2344   23654197.3784
       145.0004        154.0004
   -586163.39848   -438821.43446  22993849.725    22993849.8684   22993854.3034
       169.0004        170.0004
    393367.52949    160529.00147  22549651.181    22549651.5674   22549659.9844
       201.0004        203.0004
    231803.52149    174006.45247  21680875.989    21680876.6654   21680882.8814
       198.0004        199.0004
   -537523.22549   -396271.37647  20990609.085    20990609.9454   20990613.8574
       203.0004        203.0004
   -331230.53147   -250617.17745  23309047.783    23309049.1944   23309053.7744
       157.0004        160.0004
    439964.95147    335871.76045  23337737.216    23337737.6924   23337743.6454
       161.0004        162.0004
 21  2  6  1  2  0.0000000  0 10G21G01G30G28G17G08G09G07G14G04
    -31297.63448    -21034.98746  21838629.233    21838628.7704   21838634.9474
       185.0004        184.0004
   -549804.84048   -407350.35447  21267488.209    21267488.3794   21267495.8964
       194.0004        194.0004
   -800385.98848   -606318.33246  22601346.011    22601345.2084   22601352.4044
       181.0004        181.0004
   -107361.00647    -72453.02045  23651360.892    23651361.0874   23651365.3374
       149.0004        153.0004
   -661540.81148   -497557.03046  22979505.771    22979506.0254   22979510.3714
       170.0004        172.0004
    485709.04649    232483.42947  22567224.007    22567223.7034   22567231.7064
       203.0004        203.0004
    295903.29949    223954.31547  21693074.023    21693074.6994   21693081.5864
       199.0004        199.0004
   -596205.60749   -441997.91047  20979443.431    20979444.1534   20979447.5874
       204.0004        204.0004
   -357087.77347   -270765.68545  23304127.840    23304128.2274   23304132.9164
       158.0004        160.0004
    538096.40447    412337.81445  23356410.904    23356412.6994   23356418.1504
       160.0004        160.0004
 21  2  6  1  2 30.0000000  0 10G21G01G30G28G17G08G09G07G14G04
    -10324.33348     -4692.12846  21842620.648    21842620.2244   21842625.3654
       185.0004        185.0004
   -601299.82848   -447476.29947  21257688.055    21257688.9844   21257696.8614
       194.0004        194.0004
   -886747.46348   -673612.98446  22584910.655    22584910.6164   22584918.1084
       180.0004        180.0004
   -122242.82647    -84049.22645  23648529.556    23648529.2294   23648534.2834
       151.0004        155.0004
   -736560.78648   -556014.12246  22965229.810    22965230.7904   22965233.7374
       169.0004        168.0004
    578157.41949    304521.12047  22584814.251    22584815.8014   22584823.9194
       202.0004        203.0004
    360307.01049    274139.03947  21705329.524    21705329.7114   21705337.0944
       198.0004        198.0004
   -654590.19349   -487492.38347  20968332.841    20968333.3024   20968337.1034
       204.0004        204.0004
   -382958.32947   -290924.52745  23299203.304    23299204.1234   23299209.3794
       157.0004        157.0004
    636250.28147    488821.36745  23375090.869    23375090.7954   23375095.8994
       160.0004        162.0004
 21  2  6  1  3  0.0000000  0 10G21G01G30G28G17G08G09G07G14G04
     11144.28248     12036.67046  21846706.089    21846706.1564   21846710.7344
       185.0004        185.0004
   -652384.85248   -487282.79447  21247967.172    21247967.5864   21247975.8104
       194.0004        193.0004
   -973024.58748   -740841.89746  22568492.537    22568493.1504   22568499.7514
       180.0004        181.0004
   -137127.92147    -95647.99245  23645697.396    23645697.3434   23645700.2804
       151.0004        153.0004
   -811220.43548   -614190.43946  22951023.586    22951023.7864   22951026.7744
       168.0004        169.0004
    670711.16349    376640.91747  22602427.130    22602427.9964   22602437.1414
       202.0004        202.0004
    425013.05349    324559.34347  21717642.496    21717642.9414   21717650.0834
       199.0004        199.0004
   -712672.87949   -532751.61447  20957280.033    20957280.4544   20957284.3984
       204.0004        204.0004
   -408841.83947   -311093.49745  23294280.270    23294279.8204   23294284.0334
       157.0004        159.0004
    734425.13947    565321.27745  23393772.745    23393773.1834   23393778.7324
       160.0004        161.0004
 21  2  6  1 10 30.0000000  0 10G01G14G04G28G30G07G08G09G17G21
    -47477.52558    -29413.33947  18124430.062                    18124439.1294
       165.0004        197.0004
    -21926.61954     -3575.15843  20232516.554
        74.0004         74.0004
     33863.29254     13604.28643  20686681.556
        74.0004         74.0004
    -45883.00854    -26318.49843  20615491.705
        74.0004         74.0004
    -98441.36354    -63088.88344  19337007.155
        74.0004        117.0004
    -75525.68558    -46426.11647  17811286.760                    17811291.2914
       193.0004        207.0004
     36266.80054     21918.82743  19881236.880
        74.0004         74.0004
     35183.82058     23408.21947  18921415.554                    18921423.9944
       177.0004        191.0004
    -82052.34954    -38506.15943  19758854.829
        74.0004         74.0004
     -5134.49854     -3290.49345  18931846.711
        74.0004        136.0004
 21  2  6  1 11  0.0000000  0 10G01G14G04G28G30G07G08G09G17G21
   -126470.98348    -90966.65647  18109398.668    18109399.3004   18109407.3644
       193.0004        198.0004
    -83012.10346    -51174.49446  20220892.381                    20220896.7314
       122.0004        163.0004
     97143.52944     62913.72845  20698722.146
        74.0004        152.0004
    -95875.87546    -65274.16045  20605978.909                    20605982.4514
       114.0004        156.0004
   -217895.43048   -156178.40347  19314275.355                    19314281.6864
       173.0004        188.0004
   -163259.30949   -114789.96747  17794591.294    17794591.7534   17794596.2774
       204.0004        207.0004
     95293.91744     67913.57747  19892467.874
        74.0004        193.0004
     69469.32048     50124.19247  18927940.618    18927940.7234   18927948.4924
       189.0004        192.0004
   -185630.04544   -119122.88345  19739144.725
        74.0004        132.0004
    -10603.37144     -7947.70444  18930805.708
        74.0004        113.0004
 21  2  6  1 11 30.0000000  0 10G01G14G04G28G30G07G08G09G17G21
   -205037.92249   -152187.61447  21092372.835    21092372.8474   21092381.1124
       197.0004        197.0004
   -144164.42947    -98825.60946  23207179.716    23207180.6504   23207185.0294
       158.0004        166.0004
    160319.94946    112142.10745  23708668.578                    23708676.5104
       112.0004        158.0004
   -145936.85347   -104282.64145  23594377.401    23594376.4444   23594381.0494
       148.0004        155.0004
   -337241.13848   -249175.02746  22289488.845    22289488.5804   22289495.3834
       183.0004        186.0004
   -250672.56749   -182904.17747  20775882.086    20775882.4964   20775886.9594
       206.0004        207.0004
    154305.18648    113896.44647  22901624.151                    22901632.0564
       179.0004        193.0004
    103937.80848     76982.78447  21932425.528    21932425.9494   21932432.6924
       193.0004        195.0004
   -288849.55144   -199433.55445  22717426.459
        74.0004        134.0004
    -15634.72444    -12265.94144  21927772.770
        74.0004        106.0004
 21  2  6  1 12  0.0000000  0 10G01G14G04G28G30G07G08G09G17G21
   -283217.98149   -213107.09847  21377287.649    21377288.1464   21377296.5974
       197.0004        197.0004
   -205415.86347   -146553.95446  23495317.023    23495316.9304   23495321.5654
       164.0004        167.0004
    223437.33847    161324.48245  24020473.743    24020472.6724   24020480.1724
       151.0004        158.0004
   -196092.04947   -143364.56345  23884624.490    23884624.5474   23884629.4634
       152.0004        155.0004
   -456544.13148   -342138.35846  22566577.634    22566578.5454   22566585.0404
       186.0004        186.0004
   -337810.66049   -250803.95847  21059092.478    21059092.9144   21059097.2174
       207.0004        207.0004
    213343.27548    159900.15847  23212651.858    23212650.1554   23212658.9064
       190.0004        193.0004
    138615.54849    104004.42547  22238818.204    22238817.7164   22238823.9064
       196.0004        197.0004
   -391767.69244    -32688.93043  22997635.500
        74.0004         74.0004
    -20224.68448     -2134.48646  22226691.640                    22226696.7384
       167.0004        184.0004
 21  2  6  1 12 30.0000000  0 10G01G14G04G28G30G07G08G09G17G21
  -1851495.44149  -1435141.45347  21078854.101    21078854.8204   21078863.0914
       197.0004        197.0004
  -1757258.42747  -1355781.89846  23200010.095    23200009.9214   23200015.9954
       163.0004        163.0004
  -1204027.31447   -950985.64145  23748834.872    23748834.9314   23748842.2114
       154.0004        157.0004
  -1736836.64547  -1343944.75245  23591431.802    23591431.7164   23591435.5264
       153.0004        156.0004
  -2066279.25448  -1596477.42346  22260256.538    22260256.4824   22260262.8454
       187.0004        187.0004
  -1915156.08249  -1479904.27947  20758934.111    20758934.0974   20758938.0784
       207.0004        207.0004
  -1218114.00748   -955521.10047  22940254.194    22940252.7124   22940261.3314
       192.0004        192.0004
  -1317014.01349  -1030252.35247  21961820.502    21961820.7694   21961826.3664
       196.0004        197.0004
  -1984864.41947  -1274063.22346  22694477.811                    22694482.8364
       159.0004        172.0004
  -1514877.86148  -1166799.27446  21942268.692    21942267.9644   21942273.7794
       180.0004        182.0004
 21  2  6  1 13  0.0000000  0 10G01G14G04G28G30G07G08G09G17G21
  -1893761.38949  -1468075.92847  21070810.936    21070811.9304   21070819.8074
       197.0004        197.0004
  -1783588.43047  -1376298.74146  23195000.749    23195001.1444   23195005.9744
       162.0004        163.0004
  -1105984.10647   -874588.34745  23767490.466    23767491.9034   23767498.3624
       154.0004        156.0004
  -1752068.43447  -1355813.65745  23588533.538    23588532.8394   23588536.7604
       153.0004        156.0004
  -2150333.76448  -1661974.41647  22244260.355    22244261.1644   22244268.1014
       187.0004        188.0004
  -1966598.95049  -1519989.60947  20749144.376    20749144.9234   20749149.2844
       207.0004        207.0004
  -1123976.45348   -882167.16547  22958168.879    22958168.0114   22958175.6704
       194.0004        194.0004
  -1246858.56349   -975585.74447  21975171.387    21975171.4284   21975177.0554
       198.0004        198.0004
  -2052030.46148  -1326400.35046  22681697.102    22681697.7044   22681701.9774
       170.0004        173.0004
  -1483495.41748  -1142345.39146  21948240.303    21948240.4904   21948245.5734
       182.0004        182.0004
 21  2  6  1 13 30.0000000  0 10G01G14G04G28G30G07G08G09G17G21
  -1935557.67749  -1500644.42747  21062857.360    21062858.5994   21062865.8904
       196.0004        196.0004
  -1809950.68747  -1396840.76045  23189984.526    23189984.7374   23189988.4584
       161.0004        162.0004
  -1007975.53747   -798218.02345  23786141.883    23786142.3064   23786148.7514
       154.0004        157.0004
  -1767332.36047  -1367707.58045  23585628.131    23585627.8904   23585632.4684
       152.0004        155.0004
  -2234250.93348  -1727364.39147  22228293.898    22228292.7444   22228299.4944
       189.0004        190.0004
  -2017681.26049  -1559793.99047  20739424.123    20739424.5054   20739428.6634
       207.0004        208.0004
  -1029786.86648   -808772.67947  22976091.227    22976091.3744   22976099.7644
       193.0004        193.0004
  -1176461.98149   -920731.24247  21988566.187    21988566.3594   21988572.5764
       197.0004        196.0004
  -2118809.87548  -1378436.20146  22668988.934    22668989.7334   22668994.3644
       173.0004        175.0004
  -1451619.85548  -1117507.25746  21954306.636    21954306.1034   21954311.8884
       183.0004        184.0004
 21  2  6  1 14  0.0000000  0 10G01G14G04G28G30G07G08G09G17G21
  -1976881.74149  -1532844.96647  21054994.308    21054994.6974   21055002.8124
       196.0004        196.0004
  -1836346.22247  -1417408.70246  23184961.145    23184961.4904   23184966.0704
       161.0004        163.0004
   -910004.36447   -721876.84945  23804784.712    23804785.8874   23804791.9624
       155.0004        156.0004
  -1782629.84247  -1379627.69845  23582716.218    23582717.6334   23582720.8884
       149.0004        152.0004
  -2318028.22948  -1792645.38347  22212350.137    22212349.9964   22212357.2614
       191.0004        191.0004
  -2068400.27649  -1599315.28247  20729771.983    20729772.6974   20729776.9014
       207.0004        208.0004
   -935547.44448   -735339.36147  22994024.008    22994023.4494   22994032.7334
       192.0004        192.0004
  -1105827.32649   -865691.23347  22002006.911    22002007.1574   22002014.2224
       196.0004        196.0004
  -2185201.73548  -1430170.07846  22656357.008    22656356.5304   22656359.8394
       173.0004        174.0004
  -1419251.49548  -1092285.13146  21960466.421    21960466.2044   21960470.7924
       183.0004        183.0004
 21  2  6  1 14 30.0000000  0 10G01G14G04G28G30G07G08G09G17G21
  -2017731.76649  -1564676.11147  21047219.893    21047220.8584   21047228.9414
       195.0004        196.0004
  -1862776.75047  -1438003.87646  23179930.725    23179931.1534   23179936.1894
       163.0004        165.0004
   -812073.96047   -645567.43245  23823421.320    23823422.0584   23823428.1134
       155.0004        157.0004
  -1797963.01847  -1391575.59745  23579799.513    23579799.3414   23579802.8084
       147.0004        149.0004
  -2401663.92548  -1857816.00947  22196434.054    22196434.8134   22196442.1404
       190.0004        189.0004
  -2118754.20949  -1638552.08447  20720190.298    20720190.6914   20720194.8684
       207.0004        208.0004
   -841261.06548   -661869.46747  23011966.107    23011965.8724   23011974.7854
       192.0004        192.0004
  -1034958.31049   -810468.60247  22015491.707    22015492.2704   22015500.9984
       195.0004        194.0004
  -2251205.75448  -1481601.72146  22643795.574    22643795.4634   22643799.1994
       173.0004        174.0004
  -1386391.73448  -1066680.08846  21966718.771    21966718.3874   21966723.6284
       183.0004        183.0004
 21  2  6  1 15  0.0000000  0 10G01G14G04G28G30G07G08G09G17G21
  -2058104.66349  -1596135.47747  21039537.191    21039537.9934   21039546.3464
       195.0004        196.0004
  -1889242.52048  -1458626.51946  23174895.853    23174896.6894   23174900.5374
       165.0004        169.0004
   -714186.36647   -569291.38645  23842049.875    23842048.9524   23842055.7304
       155.0004        157.0004
  -1813332.31747  -1403551.64045  23576873.848    23576874.3034   23576879.1334
       148.0004        150.0004
  -2485154.91748  -1922873.91947  22180547.320    22180547.0674   22180553.5284
       189.0004        189.0004
  -2168739.76549  -1677501.84847  20710678.570    20710678.8004   20710682.9384
       207.0004        208.0004
   -746930.22048   -588364.90447  23029916.260    23029916.7654   23029925.3644
       193.0004        194.0004
   -963857.51948   -755065.37947  22029022.112    22029022.8394   22029030.0534
       192.0004        192.0004
  -2316819.86248  -1532729.55546  22631309.285    22631310.2894   22631314.2404
       174.0004        176.0004
  -1353040.73448  -1040692.26346  21973065.895    21973065.1304   21973070.3944
       183.0004        183.0004
 21  2  6  1 15 30.0000000  0 10G01G14G04G28G30G07G08G09G17G21
  -2097996.33049  -1627219.85947  21031945.858    21031946.6814   21031955.1424
       195.0004        196.0004
  -1915743.00448  -1479276.17346  23169854.701    23169854.6434   23169857.3724
       169.0004        171.0004
   -616342.67747   -493049.55645  23860668.121    23860668.7894   23860674.8294
       155.0004        157.0004
  -1828737.81647  -1415555.91945  23573942.139    23573942.8784   23573946.6174
       147.0004        149.0004
  -2568497.15748  -1987815.91647  22164687.721    22164687.4574   22164694.2854
       188.0004        189.0004
  -2218352.89349  -1716161.42047  20701237.781    20701238.2264   20701242.1694
       208.0004        209.0004
   -652555.78948   -514826.37747  23047876.098    23047875.9414   23047884.0804
       193.0004        193.0004
   -892526.41448   -699482.68547  22042596.911    22042596.7604   22042604.4874
       193.0004        193.0004
  -2382042.50348  -1583552.35246  22618897.289    22618897.9704   22618902.0624
       174.0004        174.0004
  -1319197.12548  -1014320.58446  21979505.195    21979504.6744   21979511.2374
       183.0004        184.0004
 21  2  6  1 16  0.0000000  0 10G01G14G04G28G30G07G08G09G17G21
  -2137406.02349  -1657928.68147  21024446.603    21024447.5074   21024455.3474
       195.0004        196.0004
  -1942280.70348  -1499954.85746  23164803.652    23164803.7014   23164807.1294
       170.0004        169.0004
   -518547.27947   -416845.35245  23879278.439    23879278.6794   23879285.3564
       153.0004        155.0004
  -1844183.04947  -1427591.11445  23571003.676    23571002.9864   23571008.0504
       143.0004        146.0004
  -2651689.80548  -2052641.33946  22148855.709    22148855.4834   22148862.6964
       188.0004        187.0004
  -2267592.82649  -1754530.18647  20691866.995    20691867.8444   20691871.6994
       208.0004        208.0004
   -558141.51548   -441256.82347  23065844.342    23065842.7444   23065850.6434
       194.0004        194.0004
   -820969.77748   -643724.26547  22056212.594    22056213.5154   22056220.8294
       192.0004        191.0004
  -2446873.70248  -1634070.15446  22606560.550    22606561.2904   22606566.1354
       174.0004        176.0004
  -1284863.01648   -987566.72446  21986038.802    21986038.8184   21986043.6024
       183.0004        183.0004
 21  2  6  1 16 30.0000000  0 10G01G14G04G28G30G07G08G09G17G21
  -2176331.56149  -1688260.23647  21017039.395    21017039.6224   21017048.4874
       195.0004        195.0004
  -1968856.82548  -1520663.52146  23159742.905    23159743.5964   23159751.0854
       166.0004        164.0004
   -420803.12247   -340681.06145  23897878.703    23897878.5464   23897884.7394
       151.0004        153.0004
  -1859669.51247  -1439658.46145  23568058.527    23568056.5444   23568060.8274
       143.0004        147.0004
  -2734730.64448  -2117348.45646  22133054.397    22133054.0344   22133060.7214
       187.0004        187.0004
  -2316456.83249  -1792606.01947  20682568.958    20682569.2894   20682573.3304
       208.0004        208.0004
   -463690.47248   -367658.60447  23083815.673    23083815.8014   23083824.0914
       193.0004        193.0004
   -749190.95648   -587792.71947  22069873.391    22069873.6114   22069879.9074
       192.0004        194.0004
  -2511313.68548  -1684283.07446  22594300.573    22594299.9154   22594301.9724
       177.0004        179.0004
  -1250039.71948   -960431.65446  21992665.610    21992665.5854   21992670.6524
       183.0004        184.0004
 21  2  6  1 17  0.0000000  0 10G01G14G04G28G30G07G08G09G17G21
  -2214769.32249  -1718211.70547  21009724.793    21009725.3584   21009734.0894
       195.0004        196.0004
  -1995471.18747  -1541401.97746  23154676.821    23154679.2514   23154685.9384
       163.0004        164.0004
   -323111.58847   -264557.78245  23916468.917    23916468.8944   23916474.5244
       151.0004        152.0004
  -1875197.09047  -1451757.82345  23565101.234    23565101.5044   23565107.0124
       146.0004        151.0004
  -2817615.95748  -2181934.40547  22117281.627    22117281.2874   22117287.8884
       187.0004        188.0004
  -2364941.34049  -1830386.14447  20673342.377    20673342.9364   20673347.1664
       208.0004        209.0004
   -369204.22848   -294032.96547  23101794.705    23101795.4404   23101804.4964
       192.0004        192.0004
   -677191.90248   -531689.54647  22083573.482    22083574.3774   22083581.1634
       193.0004        193.0004
  -2575360.04148  -1734189.29146  22582109.708    22582110.0154   22582116.2794
       177.0004        176.0004
  -1214726.35348   -932914.72746  21999386.821    21999385.3604   21999390.7894
       183.0004        183.0004
 21  2  6  1 17 30.0000000  0 10G01G14G04G28G30G07G08G09G17G21
  -2252716.22649  -1747780.68347  21002503.547    21002504.0894   21002513.0014
       195.0004        196.0004
  -2022124.07147  -1562170.44446  23149609.228    23149609.7964   23149613.3324
       163.0004        165.0004
   -225474.67847   -188477.09545  23935047.145    23935047.9144   23935054.6214
       149.0004        151.0004
  -1890766.62247  -1463889.92045  23562138.780    23562138.4214   23562143.4844
       150.0004        153.0004
  -2900342.57248  -2246396.67847  22101538.157    22101538.9884   22101546.0354
       188.0004        189.0004
  -2413043.21749  -1867868.11047  20664189.668    20664189.8054   20664193.4534
       209.0004        209.0004
   -274684.52148   -220381.25547  23119781.566    23119782.0064   23119790.9604
       191.0004        192.0004
   -604974.98848   -475416.60447  22097316.647    22097317.0094   22097323.5124
       193.0004        194.0004
  -2639011.27848  -1783787.63446  22569998.489    22569999.0514   22570003.4314
       177.0004        178.0004
  -1178923.11148   -905016.06946  22006199.078    22006198.1554   22006204.5124
       183.0004        182.0004
 21  2  6  1 18  0.0000000  0 10G01G14G04G28G30G07G08G09G17G21
  -2290170.08149  -1776965.48347  20995376.447    20995377.5664   20995386.0424
       195.0004        196.0004
  -2048816.52348  -1582969.70946  23144531.945    23144530.7484   23144534.5234
       166.0004        168.0004
   -127895.18947   -112441.14445  23953616.028    23953616.7894   23953624.2154
       148.0004        152.0004
  -1906379.71047  -1476055.96645  23559167.801    23559167.6504   23559173.0144
       149.0004        152.0004
  -2982908.17748  -2310733.50747  22085827.989    22085827.5214   22085834.1844
       188.0004        189.0004
  -2460760.05449  -1905050.05047  20655108.785    20655109.3004   20655113.2294
       209.0004        209.0004
   -180133.47848   -146705.11847  23137773.347    23137774.0424   23137784.7654
       191.0004        193.0004
   -532543.57748   -418976.54047  22111099.009    22111099.3574   22111106.5834
       193.0004        192.0004
  -2702266.85948  -1833077.65546  22557962.198    22557961.8804   22557966.3714
       178.0004        179.0004
  -1142630.98548   -876736.47246  22013104.778    22013104.6114   22013110.0074
       183.0004        183.0004
 21  2  6  1 18 30.0000000  0 10G01G14G04G28G30G07G08G09G17G21
  -2327129.22149  -1805764.78947  20988344.056    20988344.4754   20988352.2924
       196.0004        197.0004
  -2075550.20248  -1603801.09846  23139442.570    23139443.1364   23139447.4594
       165.0004        164.0004
    -30376.48647    -36452.57345  23972173.349    23972174.1434   23972182.0464
       149.0004        152.0004
  -1922038.57147  -1488257.63845  23556189.036    23556189.2854   23556191.5984
       148.0004        151.0004
  -3065310.93448  -2374943.44147  22070146.914    22070146.7004   22070153.2664
       188.0004        188.0004
  -2508089.85249  -1941930.41747  20646102.415    20646102.8984   20646106.8184
       209.0004        209.0004
    -85554.93748    -73007.54847  23155769.773    23155771.1724   23155781.6504
       192.0004        192.0004
   -459901.38748   -362372.23247  22124922.296    22124922.6824   22124930.3614
       192.0004        192.0004
  -2765126.35148  -1882059.07046  22545999.261    22545999.3204   22546004.4034
       178.0004        178.0004
  -1105850.86148   -848076.62446  22020105.198    22020104.2294   22020108.8224
       183.0004        183.0004
 21  2  6  1 19  0.0000000  0 11G01G14G04G28G30G07G08G09G22G17G21
  -2363591.17949  -1834176.67547  20981406.386    20981406.6974   20981414.0924
       197.0004        197.0004
  -2102325.84847  -1624665.24146  23134346.254    23134346.4164   23134350.8454
       163.0004        164.0004
     67078.94347     39486.69445  23990720.390    23990719.2344   23990725.4224
       148.0004        151.0004
  -1937744.27147  -1500495.82745  23553200.400    23553199.1984   23553202.4824
       148.0004        151.0004
  -3147548.27148  -2439024.44946  22054496.218    22054496.5344   22054504.1144
       187.0004        187.0004
  -2555030.16349  -1978507.26547  20637169.733    20637170.1454   20637174.4224
       209.0004        209.0004
      9049.03248       709.83247  23173774.229    23173774.9824   23173783.7314
       192.0004        192.0004
   -387051.42548   -305606.01847  22138785.553    22138785.9244   22138792.4974
       191.0004        191.0004
   -833649.53954   -627019.127 4                                  20934263.570
        74.0004        106.000
  -2827589.14048  -1930731.33846  22534112.184    22534113.6294   22534118.3384
       178.0004        179.0004
  -1068583.80748   -819037.33846  22027196.534    22027195.8114   22027200.3354
       183.0004        183.0004
 21  2  6  1 19 30.0000000  0 11G01G14G04G28G30G07G08G09G22G17G21
  -2399553.78149  -1862199.45847  20974562.454    20974563.0164   20974570.5264
       197.0004        197.0004
  -2129144.49647  -1645562.87846  23129242.642    23129243.2084   23129247.8124
       164.0004        167.0004
    164468.40347    115374.54545  24009252.151    24009252.3514   24009257.5124
       147.0004        150.0004
  -1953498.57347  -1512771.87845  23550200.784    23550201.3924   23550205.9714
       147.0004        150.0004
  -3229617.69248  -2502974.64847  22038880.363    22038880.4274   22038886.2024
       187.0004        188.0004
  -2601578.60949  -2014778.78347  20628312.128    20628312.6154   20628316.6004
       209.0004        210.0004
    103675.92448     74445.05947  23191782.350    23191782.2184   23191790.2504
       190.0004        190.0004
   -313996.95448   -248680.47047  22152687.750    22152687.9734   22152694.2904
       191.0004        192.0004
   -833649.53945   -627019.127 5                                  20934263.570
        95.0004        136.000
  -2889654.99248  -1979094.31346  22522302.935    22522302.1684   22522307.4414
       178.0004        179.0004
  -1030830.29148   -789618.99946  22034379.752    22034379.7914   22034384.8534
       182.0004        183.0004
 21  2  6  1 20  0.0000000  0 10G01G14G04G28G30G07G08G09G17G21
  -2435014.23549  -1889830.95347  20967813.385    20967814.4404   20967822.4254
       197.0004        197.0004
  -2156006.56048  -1666494.33246  23124130.662    23124131.5694   23124135.9244
       165.0004        165.0004
    261789.65447    191209.30045  24027769.783    24027770.9894   24027776.4304
       146.0004        148.0004
  -1969302.02147  -1525086.22945  23547194.473    23547194.0274   23547199.3744
       147.0004        150.0004
  -3311516.26948  -2566791.70546  22023295.357    22023294.7774   22023301.5524
       187.0004        187.0004
  -2647732.10849  -2050742.53447  20619529.348    20619529.5334   20619533.8414
       209.0004        210.0004
    198323.90048    148196.71547  23209792.950    23209793.2664   23209801.4944
       190.0004        190.0004
   -240740.56548   -191597.55747  22166628.042    22166628.0244   22166635.1744
       191.0004        191.0004
  -2951322.25048  -2027146.69446  22510566.679    22510566.5124   22510572.5064
       179.0004        180.0004
   -992590.79448   -759821.96646  22041655.523    22041656.2594   22041661.4354
       182.0004        182.0004
 21  2  6  1 20 30.0000000  0 10G01G14G04G28G30G07G08G09G17G21
  -2469969.66849  -1917068.94047  20961161.954    20961162.9484   20961170.5234
       197.0004        197.0004
  -2182912.39147  -1687459.88345  23119010.304    23119010.7654   23119017.1384
       162.0004        162.0004
    359040.75647    266989.35745  24046277.192    24046277.6024   24046283.9244
       144.0004        147.0004
  -1985155.53347  -1537439.58845  23544178.217    23544177.8294   23544182.5164
       147.0004        151.0004
  -3393240.83648  -2630473.17546  22007742.889    22007742.5794   22007749.7414
       186.0004        187.0004
  -2693487.47749  -2086396.06447  20610822.639    20610823.0414   20610826.7874
       209.0004        210.0004
    292990.77848    221963.10047  23227808.475    23227807.5764   23227815.8664
       189.0004        189.0004
   -167284.84748   -134359.33547  22180605.762    22180606.7074   22180613.5724
       192.0004        192.0004
  -3012589.80248  -2074887.61746  22498908.679    22498908.9504   22498913.2364
       180.0004        181.0004
   -953865.37448   -729646.29946  22049025.344    22049026.0024   22049030.5184
       182.0004        183.0004
 21  2  6  1 21  0.0000000  0 11G01G14G19G04G28G30G07G08G09G17G21
  -2504418.34349  -1943912.02647  20954606.488    20954607.3954   20954615.5524
       197.0004        198.0004
  -2209863.33247  -1708460.61945  23113882.454    23113882.5614   23113888.1454
       160.0004        162.0004
  -1214337.92254   -921179.05145  24783092.103
        74.0004        146.0004
    456218.67447    342712.38045  24064772.194    24064769.7534   24064775.7884
       143.0004        146.0004
  -2001061.02947  -1549833.46645  23541149.775    23541149.7334   23541155.2864
       149.0004        152.0004
  -3474789.37348  -2694017.47747  21992224.733    21992224.9324   21992232.6514
       187.0004        188.0004
  -2738842.88649  -2121737.93147  20602191.827    20602191.9594   20602195.8344
       209.0004        210.0004
    387673.63848    295741.94947  23245825.106    23245825.0954   23245832.8304
       188.0004        188.0004
    -93633.34048    -76968.54547  22194621.915    22194622.2434   22194628.4284
       191.0004        190.0004
  -3073457.22548  -2122316.74046  22487325.508    22487325.9034   22487331.8814
       181.0004        183.0004
   -914655.58548   -699093.18846  22056487.053    22056486.6644   22056492.0354
       182.0004        182.0004
 21  2  6  1 21 30.0000000  0 11G01G14G19G04G28G30G07G08G09G17G21
  -2538358.05349  -1970358.53747  20948148.710    20948149.0944   20948157.0164
       198.0004        199.0004
  -2236860.27547  -1729497.16345  23108743.954    23108743.7994   23108750.0844
       160.0004        162.0004
  -1305231.55946   -992005.12645  24765796.898                    24765801.3014
       134.0004        146.0004
    553320.70147    418376.23645  24083248.090    24083247.9994   24083254.5894
       142.0004        146.0004
  -2017019.97147  -1562268.98445  23538114.247    23538114.1034   23538117.9434
       151.0004        154.0004
  -3556159.39848  -2757422.67047  21976741.133    21976741.3074   21976747.6864
       188.0004        189.0004
  -2783795.87649  -2156766.22847  20593636.881    20593637.5074   20593641.6994
       209.0004        210.0004
    482370.09148    369531.37147  23263845.623    23263845.3544   23263852.8904
       189.0004        189.0004
    -19789.24448    -19427.68847  22208672.772    22208673.5444   22208680.8614
       190.0004        190.0004
  -3133924.29648  -2169433.92646  22475819.713    22475820.0904   22475823.5794
       181.0004        182.0004
   -874962.27948   -668163.32746  22064040.983    22064040.3224   22064045.2054
       182.0004        182.0004
 21  2  6  1 22  0.0000000  0 11G01G14G19G04G28G30G07G08G09G17G21
  -2571787.55049  -1996407.47947  20941787.286    20941787.6654   20941795.5104
       198.0004        199.0004
  -2263905.02047  -1750570.97246  23103598.328    23103598.0144   23103603.8214
       163.0004        165.0004
  -1395915.91747  -1062668.15245  24748540.533    24748538.7424   24748544.8774
       140.0004        146.0004
    650343.37747    493978.29645  24101709.997    24101711.1134   24101716.6394
       144.0004        148.0004
  -2033034.49147  -1574747.81345  23535067.161    23535066.6024   23535070.8124
       152.0004        154.0004
  -3637349.27248  -2820687.50047  21961292.174    21961291.6014   21961297.8154
       189.0004        190.0004
  -2828344.92249  -2191479.76647  20585159.819    20585160.0364   20585164.0584
       209.0004        210.0004
    577076.83848    443328.82946  23281864.588    23281865.6654   23281875.9084
       187.0004        187.0004
     54243.40648     38260.10547  22222761.196    22222761.3034   22222767.8914
       190.0004        189.0004
  -3193990.86248  -2216238.99646  22464389.243    22464389.3524   22464394.9324
       182.0004        183.0004
   -834787.21048   -636858.06146  22071685.419    22071684.8874   22071690.7584
       181.0004        181.0004
 21  2  6  1 22 30.0000000  0 11G01G14G19G04G28G30G07G08G09G17G21
  -2604702.91749  -2022055.79547  20935523.675    20935524.0284   20935531.8404
       198.0004        198.0004
  -2290996.67748  -1771681.33946  23098444.085    23098444.3004   23098449.1854
       166.0004        169.0004
  -1486387.83647  -1133165.69645  24731323.903    24731322.9864   24731327.5754
       143.0004        148.0004
    747285.82447    569517.83745  24120159.223    24120158.9764   24120164.7694
       146.0004        150.0004
  -2049104.19147  -1587269.62145  23532007.987    23532007.9564   23532012.4994
       149.0004        150.0004
  -3718354.76048  -2883808.64947  21945876.405    21945876.5814   21945882.7994
       190.0004        191.0004
  -2872485.89249  -2225875.32447  20576760.093    20576760.4584   20576764.6014
       209.0004        209.0004
    671792.94348    517133.58946  23299890.109    23299890.0254   23299899.7834
       186.0004        186.0004
    128463.17048     96093.68847  22236884.400    22236884.9604   22236891.9254
       189.0004        189.0004
  -3253654.94848  -2262730.46646  22453035.889    22453036.2324   22453040.7544
       182.0004        182.0004
   -794129.61148   -605176.79046  22079422.401    22079422.8654   22079427.5184
       180.0004        181.0004
 21  2  6  1 23  0.0000000  0 12G01G14G19G04G28G30G07G08G09G22G17G21
  -2637102.84249  -2047302.50247  20929358.032    20929358.5474   20929366.7234
       199.0004        199.0004
  -2318137.02548  -1792829.66446  23093279.203    23093280.0524   23093284.2444
       167.0004        168.0004
  -1576645.90447  -1203496.57345  24714147.471    24714147.1634   24714151.6944
       142.0004        145.0004
    844144.56447    644992.12845  24138589.877    24138589.8184   24138596.5844
       146.0004        149.0004
  -2065231.34247  -1599836.26545  23528940.631    23528939.5674   23528942.9074
       147.0004        150.0004
  -3799174.20948  -2946784.86247  21930498.000    21930497.6214   21930504.0534
       191.0004        192.0004
  -2916217.17449  -2259951.67747  20568438.583    20568439.1434   20568442.7644
       209.0004        210.0004
    766515.70648    590943.50746  23317912.911    23317914.7714   23317924.8174
       186.0004        186.0004
    202866.10548    154069.96747  22251043.362    22251043.7494   22251050.8834
       189.0004        190.0004
   -833649.53954   -627019.127 4                                  20934263.570
        74.0004        112.000
  -3312916.66648  -2308908.44446  22441758.569    22441759.0314   22441763.3624
       181.0004        182.0004
   -752991.05748   -573120.79446  22087251.083    22087250.5074   22087255.8764
       181.0004        182.0004
 21  2  6  1 23 30.0000000  0 11G01G14G19G04G28G30G07G08G09G17G21
  -2668983.08949  -2072144.24047  20923291.517    20923292.0764   20923300.0054
       199.0004        199.0004
  -2345324.86147  -1814014.94446  23088104.790    23088104.8874   23088110.5434
       164.0004        165.0004
  -1666686.95547  -1273658.37145  24697014.973    24697014.8244   24697016.3674
       142.0004        146.0004
    940919.25047    720400.92145  24157006.277    24157004.7584   24157012.9394
       146.0004        149.0004
  -2081415.23247  -1612447.04745  23525859.641    23525859.2814   23525863.4204
       147.0004        150.0004
  -3879802.91148  -3009612.41047  21915154.216    21915154.1624   21915160.9664
       191.0004        191.0004
  -2959534.17249  -2293705.18347  20560195.162    20560195.6584   20560199.6584
       209.0004        210.0004
    861244.44148    664758.07846  23335940.822    23335941.5664   23335950.6544
       185.0004        184.0004
    277451.17848    212188.20947  22265236.410    22265236.7634   22265242.9724
       189.0004        188.0004
  -3371773.60348  -2354770.97046  22430558.486    22430558.7524   22430563.1974
       182.0004        182.0004
   -711370.41948   -540689.11646  22095171.564    22095171.2944   22095175.1994
       181.0004        180.0004
 21  2  6  1 24  0.0000000  0 11G01G14G19G04G28G30G07G08G09G17G21
  -2700342.84649  -2096580.39347  20917324.098    20917324.9204   20917332.0744
       199.0004        199.0004
  -2372562.29348  -1835238.91246  23082922.180    23082922.4234   23082926.6544
       165.0004        167.0004
  -1756510.91147  -1343650.97945  24679922.389    24679921.8054   24679923.6954
       142.0004        146.0004
   1037605.99147    795741.19845  24175405.111    24175404.0604   24175411.3194
       146.0004        148.0004
  -2097658.55947  -1625104.16245  23522768.462    23522768.6444   23522773.1414
       148.0004        151.0004
  -3960239.67348  -3072290.39747  21899846.961    21899847.9514   21899854.2724
       191.0004        192.0004
  -3002435.82949  -2327135.03247  20552031.494    20552031.9664   20552035.7074
       209.0004        210.0004
    955975.53848    738574.50746  23353969.267    23353969.3954   23353978.1204
       185.0004        186.0004
    352213.97548    270444.94246  22279462.528    22279463.2574   22279469.7924
       187.0004        186.0004
  -3430226.35348  -2400318.54146  22419436.052    22419435.6644   22419440.5194
       182.0004        184.0004
   -669270.19648   -507883.71746  22103183.263    22103182.3184   22103186.3374
       180.0004        180.0004
 21  2  6  1 24 30.0000000  0 11G01G14G19G04G28G30G07G08G09G17G21
  -2731179.90649  -2120609.25247  20911455.832    20911456.4074   20911463.9194
       199.0004        200.0004
  -2399849.94048  -1856502.01346  23077729.758    23077730.1314   23077734.5374
       166.0004        167.0004
  -1846116.11347  -1413473.14945  24662870.835    24662869.2244   24662870.6934
       139.0004        143.0004
   1134202.43347    871011.09445  24193786.428    24193786.6264   24193792.5204
       145.0004        149.0004
  -2113962.78847  -1637808.73545  23519666.352    23519666.8514   23519671.0484
       147.0004        151.0004
  -4040481.76848  -3134816.69747  21884577.682    21884577.9984   21884585.0824
       193.0004        194.0004
  -3044919.58949  -2360239.26947  20543947.498    20543947.7324   20543951.3894
       209.0004        210.0004
   1050706.65048    812390.93846  23371998.545    23371997.0524   23372005.0744
       186.0004        186.0004
    427151.51248    328837.82146  22293722.413    22293722.9904   22293729.9494
       185.0004        184.0004
  -3488274.01648  -2445550.46146  22408388.770    22408389.3694   22408393.5894
       183.0004        183.0004
   -626690.95648   -474705.08246  22111284.784    22111284.2714   22111289.9054
       180.0004        180.0004
 21  2  6  1 25  0.0000000  0 11G01G14G19G04G28G30G07G08G09G17G21
  -2761492.24649  -2144229.24547  20905687.641    20905688.2774   20905695.7054
       199.0004        200.0004
  -2427188.80248  -1877804.97446  23072526.214    23072526.8604   23072532.5794
       165.0004        165.0004
  -1935500.88447  -1483123.50945  24645859.529    24645858.7114   24645863.8694
       140.0004        144.0004
   1230705.92447    946208.58845  24212150.474    24212150.9614   24212156.2764
       147.0004        151.0004
  -2130328.37647  -1650561.11245  23516551.186    23516551.2064   23516556.3254
       146.0004        150.0004
  -4120526.74348  -3197189.38947  21869345.705    21869345.6284   21869352.8934
       194.0004        195.0004
  -3086983.07849  -2393016.00947  20535942.838    20535943.0344   20535947.1284
       209.0004        210.0004
   1145435.68448    886205.73446  23390025.168    23390024.4904   23390030.3334
       186.0004        187.0004
    502260.59348    387364.37346  22308016.206    22308015.5394   22308023.1984
       185.0004        185.0004
  -3545916.46548  -2490466.65046  22397419.766    22397420.1124   22397424.5724
       182.0004        182.0004
   -583634.00648   -441154.19646  22119478.948    22119478.0274   22119483.0004
       180.0004        180.0004
 21  2  6  1 25 30.0000000  0 11G01G14G19G04G28G30G07G08G09G17G21
  -2791276.77649  -2167437.95547  20900020.145    20900020.2264   20900028.4354
       199.0004        200.0004
  -2454578.59748  -1899147.66346  23067315.255    23067315.1184   23067319.7354
       165.0004        167.0004
  -2024663.16847  -1552600.58245  24628892.607    24628891.2764   24628895.8374
       137.0004        141.0004
   1327114.92347   1021332.44945  24230495.697    24230496.5684   24230502.2644
       148.0004        152.0004
  -2146755.95947  -1663361.83145  23513426.715    23513426.6034   23513430.8344
       148.0004        153.0004
  -4200371.00248  -3259405.67247  21854151.444    21854151.8874   21854159.1654
       194.0004        194.0004
  -3128623.04049  -2425462.72847  20528018.078    20528019.0404   20528023.1804
       209.0004        210.0004
   1240161.06048    960017.71446  23408047.996    23408048.5104   23408055.3744
       186.0004        186.0004
    577539.11248    446022.95846  22322340.933    22322341.2164   22322348.3524
       185.0004        186.0004
  -3603152.03648  -2535065.77946  22386529.161    22386529.1274   22386532.7694
       182.0004        182.0004
   -540099.31848   -407231.05046  22127762.927    22127762.0714   22127767.6204
       180.0004        180.0004
 21  2  6  1 26  0.0000000  0 11G01G14G19G04G28G30G07G08G09G17G21
  -2820531.58849  -2190233.87147  20894452.686    20894453.3594   20894461.3924
       200.0004        200.0004
  -2482020.26148  -1920530.73446  23062092.615    23062093.0694   23062097.9924
       165.0004        166.0004
  -2113601.42547  -1621903.07445  24611969.212    24611969.5184   24611970.7544
       138.0004        143.0004
   1423426.89347   1096380.73245  24248823.092    24248823.3954   24248830.3804
       149.0004        151.0004
  -2163247.25447  -1676212.17345  23510286.525    23510287.2664   23510290.6244
       149.0004        151.0004
  -4280012.02448  -3321463.59247  21838997.051    21838997.2094   21839003.4174
       194.0004        194.0004
  -3169837.08049  -2457577.54847  20520176.513    20520176.3774   20520180.0704
       209.0004        210.0004
   1334880.32748   1033824.92946  23426073.447    23426073.3554   23426081.5564
       186.0004        186.0004
    652983.91248    504811.13146  22336697.311    22336697.4334   22336704.5294
       185.0004        185.0004
  -3659980.42248  -2579347.58946  22375714.472    22375714.5434   22375718.4464
       182.0004        181.0004
   -496087.90048   -372936.40246  22136138.318    22136137.1904   22136141.9574
       179.0004        179.0004
 21  2  6  1 26 30.0000000  0 11G01G14G19G04G28G30G07G08G09G17G21
  -2849254.44749  -2212615.30047  20888986.347    20888987.3364   20888995.8164
       200.0004        200.0004
  -2509514.39648  -1941954.71646  23056860.514    23056860.9504   23056866.1334
       165.0004        166.0004
  -2202313.70447  -1691029.44145  24595085.645    24595085.2834   24595089.7044
       137.0004        142.0004
   1519639.50947   1171351.58445  24267131.082    24267131.9884   24267139.3254
       148.0004        150.0004
  -2179802.92347  -1689112.67345  23507135.995    23507136.7274   23507142.1774
       147.0004        149.0004
  -4359447.09348  -3383361.04047  21823880.421    21823880.7144   21823887.5504
       194.0004        195.0004
  -3210622.43149  -2489358.33647  20512415.117    20512415.3344   20512419.4124
       210.0004        211.0004
   1429591.21048   1107625.59146  23444095.888    23444096.2184   23444103.5314
       185.0004        184.0004
    728591.98248    563726.51846  22351085.390    22351085.9604   22351091.7504
       184.0004        185.0004
  -3716400.89748  -2623311.57746  22364978.265    22364978.6824   22364982.3184
       181.0004        181.0004
   -451600.51848   -338270.89346  22144604.518    22144603.5674   22144608.3134
       179.0004        179.0004
 21  2  6  1 27  0.0000000  0 11G01G14G19G04G28G30G07G08G09G17G21
  -2877443.17249  -2234580.50447  20883622.323    20883622.8664   20883631.3924
       199.0004        199.0004
  -2537061.49648  -1963419.95746  23051618.300    23051619.3014   23051624.8854
       166.0004        168.0004
  -2290798.66847  -1759978.68545  24578247.201    24578247.5344   24578252.8674
       139.0004        145.0004
   1615750.56847   1246243.27745  24285421.013    24285421.8104   24285428.4274
       146.0004        149.0004
  -2196424.29547  -1702064.36345  23503974.472    23503974.7944   23503978.4404
       148.0004        152.0004
  -4438673.35948  -3445095.76647  21808804.033    21808804.4144   21808811.0924
       194.0004        195.0004
  -3250976.61249  -2520803.14047  20504735.616    20504736.1404   20504740.4394
       210.0004        211.0004
   1524291.85148   1181418.31046  23462116.470    23462116.4334   23462124.4234
       183.0004        184.0004
    804360.52348    622766.95946  22365503.646    22365504.4264   22365510.9524
       185.0004        185.0004
  -3772412.76548  -2666957.15146  22354319.130    22354319.4794   22354323.1044
       180.0004        181.0004
   -406637.81848   -303235.00046  22153159.102    22153159.0974   22153164.6014
       179.0004        179.0004
 21  2  6  1 27 30.0000000  0 11G01G14G19G04G28G30G07G08G09G17G21
  -2905095.36349  -2256127.65947  20878361.150    20878361.0344   20878368.8904
       199.0004        199.0004
  -2564662.03148  -1984926.84746  23046365.048    23046366.4694   23046372.5294
       166.0004        167.0004
  -2379054.60147  -1828749.45445  24561455.251    24561454.7144   24561457.1284
       142.0004        148.0004
   1711757.95847   1321054.16245  24303689.099    24303690.7994   24303697.4844
       145.0004        148.0004
  -2213112.54947  -1715068.18545  23500799.491    23500798.2064   23500802.2074
       148.0004        151.0004
  -4517687.88048  -3506665.52447  21793769.050    21793769.0254   21793774.8004
       194.0004        195.0004
  -3290897.04649  -2551909.97447  20497139.165    20497139.4674   20497143.6454
       210.0004        211.0004
   1618980.71748   1255201.82146  23480133.990    23480133.9404   23480143.2144
       182.0004        182.0004
    880286.77248    681930.26946  22379952.451    22379952.6694   22379959.1974
       185.0004        185.0004
  -3828015.28548  -2710283.76546  22343737.820    22343738.3804   22343743.3434
       181.0004        181.0004
   -361200.92848   -267829.62246  22161806.903    22161806.1624   22161810.7744
       179.0004        180.0004
 21  2  6  1 28  0.0000000  0 11G01G14G19G04G28G30G07G08G09G17G21
  -2932209.73749  -2277255.71447  20873200.347    20873201.0974   20873208.9344
       198.0004        198.0004
  -2592317.30348  -2006476.41246  23041103.658    23041104.2584   23041109.0634
       166.0004        167.0004
  -2467080.54847  -1897341.03645  24544704.153    24544704.2294   24544708.3414
       145.0004        150.0004
   1807658.59347   1395781.86445  24321938.340    24321940.3234   24321946.9644
       145.0004        148.0004
  -2229869.03947  -1728125.15145  23497608.195    23497609.4564   23497613.8914
       148.0004        150.0004
  -4596488.69149  -3568068.73847  21778773.483    21778773.2744   21778779.6834
       195.0004        195.0004
  -3330381.93949  -2582677.41847  20489625.652    20489625.7514   20489629.8434
       210.0004        211.0004
   1713654.46948   1328973.59046  23498150.236    23498150.7134   23498159.3434
       184.0004        185.0004
    956367.03648    741213.60246  22394428.302    22394429.4394   22394436.7434
       183.0004        183.0004
  -3883208.57448  -2753291.51246  22333234.743    22333235.0614   22333239.4024
       180.0004        180.0004
   -315291.52048   -232056.02946  22170541.947    22170541.7694   22170547.3074
       179.0004        180.0004
 21  2  6  1 28 30.0000000  0 11G01G14G19G04G28G30G07G08G09G17G21
  -2958784.43449  -2297963.26547  20868143.351    20868144.2014   20868152.1794
       198.0004        199.0004
  -2620028.18248  -2028069.29646  23035830.650    23035830.8864   23035836.9594
       167.0004        168.0004
  -2554875.35947  -1965752.53145  24527998.098    24527997.3484   24528002.0754
       147.0004        151.0004
   1903449.89547   1470424.37945  24340168.430    24340170.4784   24340176.0414
       144.0004        147.0004
  -2246695.53847  -1741236.71845  23494407.639    23494407.7894   23494412.3454
       149.0004        154.0004
  -4675073.28548  -3629303.49047  21763818.510    21763818.9904   21763825.4434
       194.0004        194.0004
  -3369429.02449  -2613103.72747  20482194.644    20482195.1674   20482199.3574
       210.0004        211.0004
   1808310.80448   1402731.75446  23516163.261    23516163.3324   23516171.7014
       184.0004        184.0004
   1032598.16948    800614.45946  22408935.606    22408936.0894   22408943.4784
       183.0004        184.0004
  -3937992.16148  -2795980.00046  22322809.855    22322810.9984   22322814.8564
       180.0004        182.0004
   -268910.58548   -195915.04246  22179368.273    22179368.0574   22179372.6544
       179.0004        179.0004
 21  2  6  1 29  0.0000000  0 11G01G14G19G04G28G30G07G08G09G17G21
  -2984817.98249  -2318249.13747  20863189.224    20863190.0964   20863198.2674
       198.0004        198.0004
  -2647795.79148  -2049706.36846  23030545.226    23030546.5694   23030552.4584
       167.0004        168.0004
  -2642437.66047  -2033982.83545  24511335.668    24511334.5294   24511338.3834
       149.0004        152.0004
   1999129.15447   1544979.59145  24358375.195    24358377.1824   24358383.9144
       144.0004        148.0004
  -2263593.20247  -1754403.73445  23491192.514    23491192.9174   23491197.0354
       154.0004        158.0004
  -4753439.41649  -3690368.01847  21748906.728    21748906.8104   21748912.9834
       195.0004        195.0004
  -3408036.48449  -2643187.47247  20474848.322    20474848.5024   20474852.8904
       210.0004        212.0004
   1902947.13948   1476474.32246  23534172.077    23534172.6754   23534180.9564
       186.0004        187.0004
   1108976.60548    860130.12746  22423469.998    22423470.5484   22423477.1164
       183.0004        183.0004
  -3992366.05148  -2838349.25446  22312464.062    22312463.8144   22312467.4754
       182.0004        182.0004
   -222059.75248   -159407.88346  22188283.449    22188283.5124   22188288.3994
       178.0004        179.0004
 21  2  6  1 29 30.0000000  0 11G01G14G19G04G28G30G07G08G09G17G21
  -3010308.28749  -2338111.67747  20858338.961    20858339.5704   20858347.3354
       198.0004        198.0004
  -2675620.70948  -2071388.11446  23025252.483    23025252.3514   23025256.4504
       167.0004        167.0004
  -2729766.01747  -2102030.82445  24494715.393    24494715.1484   24494721.0284
       148.0004        151.0004
   2094693.95747   1619445.63145  24376561.099    24376562.3464   24376567.8964
       143.0004        146.0004
  -2280563.28647  -1767627.13345  23487964.610    23487964.0754   23487967.3324
       156.0004        159.0004
  -4831584.38049  -3751260.17647  21734036.165    21734036.1474   21734042.9764
       195.0004        195.0004
  -3446201.83549  -2672926.69647  20467585.853    20467585.9654   20467590.1754
       211.0004        211.0004
   1997561.33248   1550199.69046  23552177.620    23552177.7224   23552185.3324
       185.0004        186.0004
   1185499.48748    919758.35746  22438032.799    22438032.5214   22438039.1074
       183.0004        184.0004
  -4046330.25248  -2880399.23946  22302193.731    22302194.5844   22302199.3974
       183.0004        184.0004
   -174740.00448   -122535.33046  22197288.852    22197287.9754   22197293.1674
       178.0004        179.0004
 21  2  6  1 30  0.0000000  0 11G01G14G19G04G28G30G07G08G09G17G21
  -3035253.45449  -2357549.47047  20853591.860    20853592.4984   20853600.8674
       198.0004        199.0004
  -2703503.57148  -2093115.04246  23019946.420    23019946.7054   23019951.0104
       168.0004        169.0004
  -2816859.13847  -2169895.56445  24478142.873    24478143.1914   24478146.7594
       149.0004        152.0004
   2190142.06247   1693820.69245  24394723.680    24394724.5574   24394732.5624
       141.0004        144.0004
  -2297606.76447  -1780907.76945  23484719.928    23484720.2364   23484723.9724
       155.0004        157.0004
  -4909505.44849  -3811977.90447  21719208.250    21719208.4624   21719215.1674
       196.0004        197.0004
  -3483922.58049  -2702319.51447  20460407.391    20460408.0824   20460411.7714
       210.0004        211.0004
   2092151.23648   1623906.06746  23570178.269    23570177.8414   23570185.6324
       186.0004        186.0004
   1262163.71448    979496.71146  22452619.616    22452620.5564   22452628.0614
       183.0004        183.0004
  -4099884.06548  -2922129.48546  22292002.440    22292002.6484   22292007.3584
       181.0004        182.0004
   -126952.51348    -85298.33846  22206382.985    22206381.5084   22206387.6314
       179.0004        179.0004
 21  2  6  1 30 30.0000000  0 11G01G14G19G04G28G30G07G08G09G17G21
  -3059651.79749  -2376561.12847  20848949.341    20848950.1194   20848958.0094
       199.0004        199.0004
  -2731445.30348  -2114887.76546  23014627.985    23014628.6864   23014633.6784
       168.0004        168.0004
  -2903715.54547  -2237575.78645  24461614.457    24461613.4094   24461617.9554
       149.0004        152.0004
   2285470.88947   1768102.82845  24412863.507    24412865.7374   24412871.8284
       138.0004        142.0004
  -2314725.20947  -1794246.77445  23481463.387    23481463.0254   23481466.7704
       155.0004        157.0004
  -4987200.21649  -3872519.25447  21704423.191    21704423.6044   21704430.0104
       196.0004        197.0004
  -3521196.46249  -2731364.07347  20453314.428    20453314.9584   20453319.3154
       211.0004        212.0004
   2186714.53748   1697591.76746  23588171.851    23588172.0054   23588179.0874
       185.0004        185.0004
   1338966.17748   1039342.80146  22467235.971    22467236.1344   22467242.8104
       183.0004        183.0004
  -4153027.28048  -2963539.75146  22281890.162    22281890.9164   22281895.1374
       182.0004        183.0004
    -78698.73248    -47697.95746  22215565.491    22215565.0914   22215569.0554
       178.0004        179.0004
 21  2  6  1 31  0.0000000  0 11G01G14G19G04G28G30G07G08G09G17G21
  -3083500.01649  -2395144.14447  20844411.144    20844411.3274   20844419.7244
       198.0004        199.0004
  -2759445.05848  -2136705.74546  23009301.180    23009301.4844   23009305.1094
       166.0004        165.0004
  -2990332.60247  -2305069.57045  24445131.560    24445130.8434   24445135.5914
       147.0004        151.0004
   2380679.59147   1842291.34245  24430984.710    24430984.7324   24430988.0204
       137.0004        140.0004
  -2331918.21347  -1807643.88545  23478192.981    23478192.3994   23478195.0204
       156.0004        158.0004
  -5064664.54649  -3932881.06847  21689682.831    21689682.6404   21689689.1494
       196.0004        196.0004
  -3558019.99449  -2760057.73947  20446307.051    20446307.4154   20446311.5764
       211.0004        211.0004
   2281250.32348   1771255.99546  23606160.815    23606160.9454   23606169.2644
       183.0004        183.0004
   1415905.17048   1099295.25946  22481876.936    22481877.2114   22481884.2774
       183.0004        183.0004
  -4205758.06948  -3004628.65546  22271856.462    22271856.1864   22271861.3554
       184.0004        185.0004
    -29978.47548     -9734.11946  22224834.776    22224835.4724   22224840.1234
       178.0004        178.0004
 21  2  6  1 31 30.0000000  0 11G01G14G19G04G28G30G07G08G09G17G21
  -3106796.54749  -2413297.28447  20839977.293    20839978.2574   20839986.2644
       198.0004        198.0004
  -2787503.76148  -2158569.68346  23003962.004    23003961.4904   23003966.5194
       165.0004        165.0004
  -3076709.27547  -2372375.99245  24428694.563    24428693.6594   24428699.0454
       148.0004        151.0004
   2475765.47547   1916384.14645  24449076.066    24449079.0484   24449084.9804
       135.0004        140.0004
  -2349187.29747  -1821100.30245  23474905.210    23474906.3884   23474907.6984
       152.0004        153.0004
  -5141896.05349  -3993061.46947  21674985.601    21674985.8144   21674993.0804
       196.0004        197.0004
  -3594391.14049  -2788398.91547  20439385.916    20439386.3494   20439390.5394
       211.0004        212.0004
   2375756.21248   1844896.92646  23624143.985    23624143.8644   23624152.9354
       181.0004        181.0004
   1492977.45948   1159351.56246  22496542.244    22496542.0494   22496550.1434
       181.0004        180.0004
  -4258076.43448  -3045396.21146  22261899.684    22261900.0584   22261905.1024
       185.0004        185.0004
     19207.36948     28592.50746  22234195.495    22234194.8504   22234200.2934
       178.0004        178.0004
 21  2  6  1 32  0.0000000  0 11G01G14G19G04G28G30G07G08G09G17G21
  -3129539.43949  -2431018.98147  20835649.148    20835650.1344   20835657.9694
       198.0004        197.0004
  -2815621.82448  -2180479.83346  22998609.261    22998610.7184   22998615.7284
       165.0004        167.0004
  -3162843.68647  -2439493.64145  24412304.274    24412303.8394   24412307.5184
       148.0004        151.0004
   2570726.35847   1990379.54245  24467146.809    24467148.2104   24467154.3494
       136.0004        141.0004
  -2366533.69347  -1834616.96845  23471600.623    23471601.1464   23471608.0594
       149.0004        150.0004
  -5218891.93749  -4053058.25447  21660333.480    21660333.9674   21660340.2534
       196.0004        196.0004
  -3630307.36449  -2816385.57647  20432552.108    20432552.0194   20432555.9174
       211.0004        212.0004
   2470230.25948   1918513.03946  23642120.314    23642121.6364   23642130.7364
       181.0004        182.0004
   1570180.15348   1219509.51846  22511233.623    22511234.2944   22511241.1914
       180.0004        181.0004
  -4309981.79448  -3085841.91746  22252022.981    22252022.8324   22252028.4434
       185.0004        186.0004
     68857.21448     67280.71746  22243643.565    22243642.7644   22243648.3314
       178.0004        179.0004
 21  2  6  1 32 30.0000000  0 11G01G14G19G04G28G30G07G08G09G17G21
  -3151725.80249  -2448307.02647  20831428.047    20831428.8644   20831436.6754
       198.0004        198.0004
  -2843798.93348  -2202435.98946  22993248.793    22993249.5254   22993254.0314
       167.0004        168.0004
  -3248733.64847  -2506420.86045  24395960.452    24395959.5084   24395963.1334
       149.0004        152.0004
   2665560.99147   2064276.63845  24485193.279    24485194.2594   24485203.6114
       137.0004        141.0004
  -2383956.88847  -1848193.51145  23468285.537    23468285.5794   23468292.7944
       147.0004        150.0004
  -5295648.49449  -4112868.53547  21645727.632    21645727.1074   21645734.1444
       196.0004        196.0004
  -3665765.42349  -2844015.23447  20425803.609    20425804.0884   20425808.7074
       211.0004        212.0004
   2564671.79548   1992103.87546  23660093.802    23660093.8194   23660103.0564
       180.0004        181.0004
   1647511.24648   1279767.52546  22525950.366    22525950.3634   22525957.0064
       181.0004        182.0004
  -4361472.72148  -3125964.69446  22242223.305    22242223.9124   22242229.4124
       185.0004        185.0004
    118970.89348    106330.35646  22253179.617    22253178.5694   22253184.8404
       178.0004        179.0004
 21  2  6  1 33  0.0000000  0 11G01G14G19G04G28G30G07G08G09G17G21
  -3173355.66349  -2465161.45147  20827311.874    20827312.4084   20827320.3714
       198.0004        198.0004
  -2872037.28148  -2224439.87846  22987875.002    22987875.2994   22987880.2354
       167.0004        168.0004
  -3334379.27647  -2573157.69945  24379663.508    24379662.4594   24379664.5414
       149.0004        151.0004
   2760265.47647   2138072.22445  24503216.128    24503216.1534   24503224.1854
       137.0004        142.0004
  -2401459.96147  -1861832.23645  23464959.145    23464957.5874   23464961.6564
       150.0004        155.0004
  -5372164.70549  -4172491.54647  21631165.924    21631166.7594   21631173.7794
       195.0004        196.0004
  -3700764.57049  -2871287.30447  20419143.807    20419144.4504   20419148.3424
       211.0004        212.0004
   2659076.63948   2065666.06446  23678058.882    23678058.8944   23678066.8644
       180.0004        181.0004
   1724966.12748   1340121.98046  22540689.865    22540689.8724   22540697.3224
       182.0004        184.0004
  -4412550.84548  -3165765.83446  22232504.781    22232504.3794   22232508.8464
       184.0004        184.0004
    169545.76848    145739.35946  22262802.979    22262802.7594   22262809.3074
       177.0004        178.0004
 21  2  6  1 33 30.0000000  0 11G01G14G19G04G28G30G07G08G09G17G21
  -3194428.57549  -2481581.88247  20823301.363    20823302.5474   20823310.6584
       198.0004        198.0004
  -2900338.85548  -2246493.05246  22982489.733    22982490.2544   22982494.1154
       167.0004        168.0004
  -3419780.37147  -2639703.94445  24363411.279    24363410.4584   24363413.4114
       150.0004        154.0004
   2854836.13447   2211763.57745  24521210.015    24521210.0064   24521220.1064
       138.0004        142.0004
  -2419045.49947  -1875535.23245  23461613.636    23461612.8934   23461614.4294
       153.0004        155.0004
  -5448439.17949  -4231926.19947  21616652.657    21616652.6064   21616659.0314
       196.0004        197.0004
  -3735304.13449  -2898201.25347  20412571.346    20412571.5474   20412575.4434
       211.0004        212.0004
   2753441.57648   2139197.15446  23696017.061    23696015.9664   23696024.8144
       180.0004        179.0004
   1802540.43148   1400569.49246  22555451.381    22555451.9454   22555457.9204
       183.0004        183.0004
  -4463216.92648  -3205245.86246  22222862.960    22222863.8104   22222868.2024
       185.0004        186.0004
    220579.09948    185505.60446  22272515.245    22272514.4734   22272520.2524
       178.0004        178.0004
 21  2  6  1 34  0.0000000  0 11G01G14G19G04G28G30G07G08G09G17G21
  -3214940.63949  -2497565.30847  20819398.646    20819399.2284   20819406.9234
       198.0004        198.0004
  -2928702.04648  -2268594.25246  22977093.118    22977093.0684   22977097.0734
       169.0004        171.0004
  -3504933.68047  -2706057.14045  24347206.953    24347205.6084   24347210.3584
       152.0004        154.0004
   2949272.91947   2285350.53745  24539183.386    24539182.9314   24539191.9274
       139.0004        144.0004
  -2436712.29147  -1889301.58445  23458248.957    23458249.1964   23458252.8904
       153.0004        155.0004
  -5524467.12949  -4291168.77247  21602184.846    21602184.8104   21602191.4754
       196.0004        196.0004
  -3769379.56449  -2924753.55448  20406087.195    20406087.5654   20406091.4294
       211.0004        213.0004
   2847766.64948   2212697.17446  23713964.079    23713964.9654   23713974.0144
       179.0004        179.0004
   1880233.27148   1461109.35446  22570234.981    22570235.7914   22570242.6144
       182.0004        181.0004
  -4513469.19748  -3244403.46846  22213300.010    22213300.3174   22213305.6914
       186.0004        187.0004
    272071.91948    225629.87446  22282313.619    22282313.3294   22282318.5754
       177.0004        177.0004
 21  2  6  1 34 30.0000000  0 11G01G14G19G04G28G30G07G08G09G17G21
  -3234891.97149  -2513111.75547  20815601.667    20815602.2864   20815610.5504
       198.0004        198.0004
  -2957129.25748  -2290745.29346  22971682.006    22971683.0614   22971687.7584
       171.0004        171.0004
  -3589839.70147  -2772217.60245  24331049.329    24331048.7644   24331052.6524
       151.0004        154.0004
   3043571.61047   2358829.92345  24557126.445    24557128.5644   24557135.4454
       139.0004        144.0004
  -2454463.09647  -1903133.34645  23454868.389    23454868.8504   23454874.7574
       150.0004        152.0004
  -5600247.67349  -4350218.51447  21587764.246    21587764.5834   21587770.7044
       196.0004        197.0004
  -3802990.43449  -2950943.83048  20399691.310    20399691.5344   20399695.5204
       212.0004        213.0004
   2942047.80948   2286163.02046  23731903.705    23731904.7324   23731914.8044
       178.0004        178.0004
   1958039.88548   1521737.89646  22585041.226    22585041.8124   22585049.2844
       180.0004        180.0004
  -4563308.83148  -3283239.51746  22203816.275    22203816.3414   22203821.4394
       186.0004        187.0004
    324020.86548    266109.60446  22292198.184    22292198.1744   22292204.8754
       177.0004        177.0004
 21  2  6  1 35  0.0000000  0 11G01G14G19G04G28G30G07G08G09G17G21
  -3254276.64949  -2528216.67947  20811912.700    20811913.7144   20811921.7774
       198.0004        198.0004
  -2985616.79948  -2312943.36146  22966262.283    22966262.4104   22966266.4644
       170.0004        170.0004
  -3674492.58847  -2838180.82645  24314940.671    24314939.8874   24314944.4454
       153.0004        155.0004
   3137734.28947   2432203.34545  24575046.019    24575047.2384   24575052.3404
       139.0004        144.0004
  -2472294.92647  -1917028.27245  23451476.565    23451477.6934   23451480.7634
       149.0004        152.0004
  -5675773.88149  -4409070.09647  21573392.118    21573391.8624   21573398.0644
       196.0004        196.0004
  -3836130.19449  -2976767.01347  20393384.529    20393385.0174   20393389.2774
       212.0004        212.0004
   3036287.58548   2359596.57746  23749838.185    23749838.6174   23749847.9134
       177.0004        177.0004
   2035961.55048   1582456.06546  22599869.394    22599869.9704   22599876.9734
       180.0004        181.0004
  -4612731.10448  -3321750.37046  22194411.947    22194412.3084   22194416.6824
       186.0004        185.0004
    376428.90748    306947.05546  22302172.095    22302171.5364   22302177.7044
       176.0004        177.0004
 21  2  6  1 35 30.0000000  0 11G01G14G19G04G28G30G07G08G09G17G21
  -3273096.92549  -2542881.82147  20808331.158    20808332.2024   20808340.2274
       198.0004        198.0004
  -3014169.11748  -2335191.89946  22960828.300    22960828.3954   22960833.7164
       169.0004        170.0004
  -3758895.11847  -2903949.00745  24298879.165    24298877.9804   24298882.5484
       154.0004        156.0004
   3231754.87947   2505466.05245  24592937.570    24592938.5694   24592945.4514
       137.0004        141.0004
  -2490212.55147  -1930990.05345  23448069.340    23448069.0954   23448071.8094
       150.0004        154.0004
  -5751046.91949  -4467724.42447  21559067.505    21559068.0334   21559074.4844
       196.0004        196.0004
  -3868800.63649  -3002224.52048  20387168.486    20387168.4754   20387172.0094
       212.0004        213.0004
   3130479.79648   2432993.07446  23767763.458    23767763.2734   23767772.5294
       178.0004        178.0004
   2113991.34148   1643258.49646  22614718.430    22614718.5394   22614725.4644
       181.0004        183.0004
  -4661739.93548  -3359939.05346  22185085.528    22185086.4394   22185090.0294
       185.0004        185.0004
    429290.82148    348138.16946  22312231.237    22312231.1064   22312236.5394
       177.0004        176.0004
 21  2  6  1 36  0.0000000  0 11G01G14G19G04G28G30G07G08G09G17G21
  -3291350.14949  -2557105.07947  20804857.939    20804858.8464   20804866.6954
       198.0004        199.0004
  -3042785.68948  -2357490.50846  22955383.566    22955383.2664   22955387.2644
       169.0004        169.0004
  -3843044.79147  -2969520.14345  24282864.293    24282863.7724   24282869.0774
       152.0004        154.0004
   3325632.15046   2578617.08645  24610801.560    24610803.8674   24610807.5334
       134.0004        138.0004
  -2508216.04547  -1945018.73045  23444641.778    23444641.3754   23444646.3784
       153.0004        155.0004
  -5826063.10049  -4526178.57347  21544793.095    21544792.8744   21544799.6724
       197.0004        197.0004
  -3900998.35649  -3027313.64847  20381040.698    20381040.9244   20381045.2244
       212.0004        212.0004
   3224622.90748   2506351.32046  23785677.266    23785677.8974   23785686.1874
       176.0004        177.0004
   2192127.29948   1704143.66746  22629586.960    22629587.5094   22629593.9214
       182.0004        181.0004
  -4710334.24448  -3397804.73146  22175837.844    22175838.2064   22175843.2574
       185.0004        184.0004
    482606.45748    389682.83646  22322377.542    22322377.2774   22322381.8144
       176.0004        176.0004
 21  2  6  1 36 30.0000000  0 11G01G14G19G04G28G30G07G08G09G17G21
  -3309034.72049  -2570885.24247  20801492.828    20801493.3594   20801501.3224
       198.0004        198.0004
  -3071467.02648  -2379839.60346  22949924.054    22949925.4864   22949928.5494
       169.0004        170.0004
  -3926940.06947  -3034893.04745  24266901.419    24266900.8044   24266904.4264
       149.0004        151.0004
   3419363.91946   2651654.74545  24628638.903    24628638.4964   24628644.5304
       134.0004        140.0004
  -2526306.33647  -1959115.04545  23441199.634    23441200.1914   23441204.9494
       154.0004        157.0004
  -5900819.67549  -4584430.44147  21530566.682    21530567.3524   21530574.0564
       198.0004        199.0004
  -3932721.19949  -3052032.74348  20375003.834    20375004.4834   20375008.4604
       212.0004        213.0004
   3318715.69148   2579670.37446  23803581.531    23803582.7414   23803593.7574
       177.0004        177.0004
   2270366.54348   1765109.32146  22644475.819    22644475.6194   22644482.3624
       181.0004        180.0004
  -4758513.52248  -3435347.01146  22166670.205    22166670.4014   22166675.2994
       184.0004        185.0004
    536374.63948    431580.12946  22332609.120    22332608.4474   22332613.9764
       176.0004        178.0004
 21  2  6  1 37  0.0000000  0 11G01G14G19G04G28G30G07G08G09G17G21
  -3326149.07349  -2584221.09347  20798235.775    20798236.4824   20798244.5734
       198.0004        198.0004
  -3100213.70648  -2402239.60446  22944454.790    22944454.6314   22944459.6734
       169.0004        169.0004
  -4010579.90547  -3100066.90345  24250984.598    24250983.5654   24250988.7784
       147.0004        150.0004
   3512947.95447   2724577.27845  24646447.114    24646447.4894   24646455.4674
       137.0004        141.0004
  -2544484.72147  -1973279.99345  23437740.526    23437740.4504   23437744.3974
       155.0004        157.0004
  -5975313.99849  -4642477.97647  21516391.723    21516391.6294   21516398.2354
       198.0004        199.0004
  -3963967.25249  -3076380.33247  20369057.649    20369058.3664   20369062.5254
       212.0004        212.0004
   3412756.02348   2652948.50846  23821479.997    23821479.9114   23821488.1644
       176.0004        177.0004
   2348706.03548   1826153.07646  22659382.403    22659383.1844   22659390.5494
       181.0004        182.0004
  -4806277.88348  -3472565.98346  22157580.422    22157580.7374   22157585.8224
       184.0004        185.0004
    590593.74148    473828.79846  22342927.405    22342925.2004   22342931.7264
       176.0004        176.0004
 21  2  6  1 37 30.0000000  0 11G01G14G19G04G28G30G07G08G09G17G21
  -3342691.97449  -2597111.64447  20795087.986    20795088.5984   20795096.2954
       198.0004        198.0004
  -3129026.49348  -2424691.09246  22938971.494    22938972.2364   22938976.6584
       170.0004        172.0004
  -4093963.31347  -3165040.93445  24235118.109    24235116.4634   24235121.3764
       146.0004        149.0004
   3606381.70247   2797382.72645  24664227.640    24664227.6224   24664235.1564
       138.0004        144.0004
  -2562752.14547  -1987514.34545  23434265.531    23434265.1414   23434268.2414
       154.0004        156.0004
  -6049543.71749  -4700319.30547  21502266.515    21502265.9734   21502272.8714
       199.0004        200.0004
  -3994734.62649  -3100354.90747  20363202.911    20363203.5184   20363207.4394
       211.0004        212.0004
   3506741.53348   2726183.93546  23839364.513    23839363.9964   23839372.4214
       175.0004        175.0004
   2427142.51048   1887272.41346  22674308.731    22674309.3954   22674316.5634
       182.0004        184.0004
  -4853627.56648  -3509461.82146  22148570.591    22148570.6234   22148575.4574
       185.0004        186.0004
    645261.90748    516427.37746  22353328.337    22353328.5364   22353334.4474
       175.0004        175.0004
 21  2  6  1 38  0.0000000  0 11G01G14G19G04G28G30G07G08G09G17G21
  -3358661.71249  -2609555.57547  20792049.588    20792050.2664   20792058.2804
       198.0004        199.0004
  -3157905.71148  -2447194.37846  22933476.559    22933477.0164   22933481.1964
       171.0004        171.0004
  -4177088.93047  -3229814.11545  24219298.947    24219299.0804   24219302.8164
       147.0004        151.0004
   3699663.28247   2870069.57145  24681978.180    24681979.0504   24681987.0044
       139.0004        144.0004
  -2581109.65747  -2001818.90445  23430770.675    23430771.5534   23430774.7494
       154.0004        156.0004
  -6123505.91749  -4757952.17847  21488192.013    21488191.6464   21488198.0474
       200.0004        200.0004
  -4025020.88649  -3123954.58948  20357439.978    20357440.2814   20357444.4754
       212.0004        213.0004
   3600670.50048   2799375.31346  23857239.706    23857239.4704   23857246.5334
       175.0004        176.0004
   2505673.23648   1948465.19946  22689252.889    22689252.7394   22689259.9424
       181.0004        181.0004
  -4900562.29048  -3546034.31147  22139639.281    22139639.8654   22139643.8564
       187.0004        189.0004
    700378.07448    559375.04746  22363817.208    22363816.8794   22363822.3264
       175.0004        175.0004
 21  2  6  1 38 30.0000000  0 11G01G14G19G04G28G30G07G08G09G17G21
  -3374056.34549  -2621551.38347  20789119.706    20789120.2124   20789128.4554
       199.0004        199.0004
  -3186851.42248  -2469749.47446  22927967.103    22927968.6434   22927972.2584
       170.0004        169.0004
  -4259954.72147  -3294384.84245  24203531.387    24203530.3334   24203533.7264
       149.0004        153.0004
   3792790.88347   2942636.40645  24699700.473    24699700.5944   24699707.7214
       139.0004        143.0004
  -2599557.91647  -2016194.16545  23427260.880    23427259.9994   23427264.5254
       155.0004        157.0004
  -6197197.34249  -4815374.07047  21474167.588    21474168.5194   21474174.9534
       199.0004        200.0004
  -4054823.54949  -3147177.45248  20351768.328    20351768.7574   20351772.9394
       212.0004        213.0004
   3694541.50748   2872521.52746  23875102.543    23875101.5524   23875110.2584
       174.0004        174.0004
   2584295.65848   2009729.40246  22704213.836    22704214.4684   22704221.4594
       180.0004        179.0004
  -4947081.27748  -3582282.86447  22130787.240    22130787.3344   22130791.5134
       188.0004        189.0004
    755941.75248    602671.42746  22374390.231    22374389.9884   22374396.4144
       174.0004        175.0004
 21  2  6  1 39  0.0000000  0 11G01G14G19G04G28G30G07G08G09G17G21
  -3388874.34849  -2633097.86747  20786299.689    20786300.4964   20786308.7034
       199.0004        199.0004
  -3215864.01748  -2492356.67146  22922447.011    22922447.7404   22922451.9274
       170.0004        171.0004
  -4342559.35647  -3358752.07845  24187811.240    24187811.2644   24187814.6254
       150.0004        154.0004
   3885762.42947   3015081.65345  24717391.236    24717392.3584   24717399.0834
       137.0004        141.0004
  -2618097.65647  -2030640.71545  23423732.785    23423732.0554   23423737.0674
       155.0004        157.0004
  -6270615.33749  -4872582.90247  21460198.103    21460197.7354   21460203.9284
       200.0004        200.0004
  -4084140.40849  -3170021.76048  20346189.529    20346190.2594   20346194.0824
       212.0004        213.0004
   3788352.15848   2945620.68646  23892951.585    23892952.7924   23892961.0674
       175.0004        176.0004
   2663006.95648   2071062.88246  22719192.664    22719192.7894   22719199.1634
       179.0004        180.0004
  -4993184.29348  -3618207.27547  22122013.361    22122013.2994   22122018.9954
       189.0004        188.0004
    811950.62248    646314.71346  22385049.389    22385049.6804   22385054.2624
       175.0004        175.0004
 21  2  6  1 39 30.0000000  0 11G01G14G19G04G28G30G07G08G09G17G21
  -3403114.04349  -2644193.70847  20783589.700    20783590.3294   20783598.5024
       199.0004        199.0004
  -3244943.72548  -2515016.18846  22916912.297    22916913.3364   22916917.9104
       169.0004        168.0004
  -4424901.64047  -3422914.84545  24172142.559    24172141.3444   24172145.5364
       153.0004        157.0004
   3978575.99347   3087403.77245  24735053.598    24735054.5574   24735060.9584
       136.0004        142.0004
  -2636729.68847  -2045159.15445  23420186.996    23420186.7684   23420190.3824
       155.0004        158.0004
  -6343756.96549  -4929576.37647  21446278.506    21446278.7734   21446286.2044
       200.0004        201.0004
  -4112969.01849  -3192485.61648  20340704.036    20340704.4874   20340708.3034
       212.0004        213.0004
   3882101.32648   3018672.00446  23910792.133    23910793.0784   23910802.0674
       178.0004        179.0004
   2741804.35948   2132463.45646  22734186.151    22734187.3024   22734194.7044
       178.0004        179.0004
  -5038871.51748  -3653807.70147  22113320.279    22113320.5254   22113324.2854
       188.0004        188.0004
    868403.85348    690304.25446  22395792.188    22395791.5094   22395795.9394
       174.0004        174.0004
 21  2  6  1 40  0.0000000  0 10G01G14G19G28G30G07G08G09G17G21
  -3416771.91149  -2654836.19547  20780990.605    20780991.2804   20780999.5744
       198.0004        198.0004
  -3274088.90048  -2537726.69746  22911367.532    22911367.2604   22911372.2364
       168.0004        170.0004
  -4506977.89747  -3486870.31845  24156520.963    24156520.7494   24156526.6334
       153.0004        155.0004
  -2655452.75947  -2059748.55045  23416623.242    23416622.4094   23416628.5064
       155.0004        157.0004
  -6416617.36449  -4986350.71047  21432414.220    21432414.1754   21432421.2064
       201.0004        201.0004
  -4141305.54649  -3214566.02748  20335311.388    20335311.9034   20335316.0834
       212.0004        213.0004
   3975788.73448   3091675.13546  23928621.502    23928621.2344   23928629.9874
       177.0004        177.0004
   2820687.04248   2193930.48146  22749197.530    22749197.7644   22749205.1964
       177.0004        177.0004
  -5084140.52148  -3689082.22947  22104705.317    22104705.5144   22104709.6344
       188.0004        189.0004
    925302.28948    734640.71246  22406618.579    22406618.5764   22406622.9134
       173.0004        174.0004
 21  2  6  1 40 30.0000000  0 11G01G14G19G28G30G07G08G09G22G17G21
  -3429849.38249  -2665026.41447  20778501.927    20778502.9254   20778511.2924
       198.0004        199.0004
  -3303302.76148  -2560490.72946  22905807.505    22905808.2564   22905813.7244
       169.0004        171.0004
  -4588789.48747  -3550619.58945  24140954.773    24140954.5304   24140959.3734
       153.0004        156.0004
  -2674270.81047  -2074411.95145  23413043.415    23413042.9594   23413046.0954
       156.0004        158.0004
  -6489196.72449  -5042906.04847  21418602.101    21418602.7464   21418609.7024
       201.0004        200.0004
  -4169150.50649  -3236263.39948  20330013.195    20330013.5544   20330017.3604
       212.0004        214.0004
   4069410.17348   3164626.91946  23946437.060    23946437.2324   23946446.0964
       177.0004        178.0004
   2899649.32348   2255459.52346  22764224.174    22764224.7694   22764231.2214
       177.0004        178.0004
   -833649.53954   -627019.127 4                                  20934263.570
        74.0004        109.000
  -5128994.14248  -3724033.08547  22096169.288    22096170.0774   22096174.2984
       188.0004        188.0004
    982641.60548    779320.70946  22417531.482    22417530.4204   22417534.8024
       174.0004        175.0004
 21  2  6  1 41  0.0000000  0 10G01G14G19G28G30G07G08G09G17G21
  -3442345.63749  -2674763.74647  20776124.677    20776124.9784   20776132.8324
       198.0004        199.0004
  -3332586.34048  -2583309.10046  22900235.053    22900236.0944   22900241.0774
       169.0004        170.0004
  -4670335.82047  -3614162.18545  24125435.863    24125435.8444   24125441.4624
       152.0004        154.0004
  -2693185.28847  -2089150.49645  23409444.724    23409443.9074   23409447.6084
       156.0004        158.0004
  -6561492.81349  -5099240.66847  21404844.916    21404844.9424   21404852.0554
       200.0004        200.0004
  -4196502.39149  -3257576.57148  20324808.101    20324808.3764   20324812.4554
       213.0004        214.0004
   4162962.93748   3237525.13046  23964239.079    23964239.9654   23964248.2184
       178.0004        178.0004
   2978687.68048   2317047.83646  22779264.575    22779265.0714   22779271.2794
       178.0004        179.0004
  -5173433.14148  -3758660.86947  22087713.995    22087714.1564   22087718.5004
       190.0004        191.0004
   1040419.17848    824342.19346  22428525.590    22428524.5494   22428528.6674
       174.0004        173.0004
 21  2  6  1 41 30.0000000  0 11G01G14G19G28G30G07G08G09G22G17G21
  -3454258.49849  -2684046.46647  20773857.902    20773858.1784   20773866.2144
       199.0004        199.0004
  -3361939.12948  -2606181.39746  22894648.616    22894649.8524   22894654.5564
       168.0004        169.0004
  -4751615.39347  -3677496.88045  24109971.349    24109970.2834   24109973.9364
       153.0004        156.0004
  -2712196.08747  -2103964.06645  23405825.994    23405824.8694   23405828.9244
       155.0004        157.0004
  -6633502.13449  -5155351.81247  21391141.464    21391141.7354   21391149.0144
       200.0004        200.0004
  -4223358.55049  -3278503.43648  20319697.499    20319698.0404   20319701.8034
       213.0004        214.0004
   4256445.86748   3310368.96246  23982029.016    23982028.5124   23982036.9184
       176.0004        176.0004
   3057800.06248   2378693.85146  22794318.952    22794319.0504   22794325.9314
       177.0004        178.0004
   -833649.53954   -627019.127 3                                  20934263.570
        74.0004         74.000
  -5217456.47848  -3792964.75347  22079335.438    22079335.9384   22079340.2744
       189.0004        189.0004
   1098634.95848    869705.16546  22439603.430    22439602.9434   22439607.0704
       172.0004        172.0004
 21  2  6  1 42  0.0000000  0 11G01G14G19G28G30G07G08G09G22G17G21
  -3465586.82649  -2692873.71747  20771701.768    20771702.3454   20771710.3044
       199.0004        199.0004
  -3391361.77648  -2629108.11846  22889049.747    22889050.4974   22889055.4644
       168.0004        169.0004
  -4832626.61547  -3740622.49945  24094554.431    24094553.5984   24094558.5234
       154.0004        157.0004
  -2731304.80547  -2118853.98045  23402189.653    23402189.8284   23402194.1454
       155.0004        157.0004
  -6705222.12549  -5211237.51247  21377494.396    21377494.4654   21377501.1704
       200.0004        201.0004
  -4249716.94249  -3299042.45048  20314682.383    20314682.5474   20314686.2634
       213.0004        214.0004
   4349857.06548   3383156.86746  23999805.587    23999805.2044   23999812.3114
       174.0004        175.0004
   3136983.40448   2440395.15146  22809386.034    22809386.8984   22809395.5854
       177.0004        177.0004
   -833649.53944   -627019.127 4                                  20934263.570
        74.0004        117.000
  -5261064.41948  -3826944.94447  22071037.653    22071038.0274   22071041.9684
       189.0004        189.0004
   1157287.29548    915408.29746  22450765.253    22450764.3324   22450767.9814
       172.0004        173.0004
 21  2  6  1 42 30.0000000  0 10G01G14G19G28G30G07G08G09G17G21
  -3476329.01249  -2701244.24847  20769657.329    20769658.2604   20769666.6734
       199.0004        200.0004
  -3420854.36448  -2652089.35546  22883438.361    22883439.2674   22883443.4034
       168.0004        170.0004
  -4913368.45647  -3803538.18745  24079189.844    24079189.1024   24079192.7494
       154.0004        156.0004
  -2750511.54347  -2133820.25345  23398534.256    23398534.4964   23398539.8054
       154.0004        156.0004
  -6776649.76949  -5266895.42047  21363901.755    21363902.0724   21363909.0004
       200.0004        200.0004
  -4275575.32349  -3319191.84448  20309760.977    20309761.3604   20309765.5384
       213.0004        215.0004
   4443194.99648   3455887.70846  24017566.762    24017566.2604   24017573.8324
       175.0004        175.0004
   3216235.13548   2502149.74546  22824468.367    22824468.4324   22824475.6614
       176.0004        176.0004
  -5304256.62548  -3860601.18247  22062817.862    22062818.4184   22062823.1194
       189.0004        189.0004
   1216374.24948    961450.07446  22462009.469    22462008.6104   22462012.2734
       172.0004        173.0004
 21  2  6  1 43  0.0000000  0 11G01G14G19G28G30G07G08G09G22G17G21
  -3486484.03149  -2709157.24247  20767725.995    20767726.4144   20767733.8814
       200.0004        200.0004
  -3450417.44148  -2675125.52346  22877811.688    22877812.4744   22877817.5574
       169.0004        169.0004
  -4993839.37547  -3866242.76545  24063876.593    24063876.2804   24063881.0944
       155.0004        158.0004
  -2769817.34547  -2148863.72245  23394861.252    23394860.8484   23394865.0454
       155.0004        159.0004
  -6847782.56749  -5322323.58447  21350365.657    21350365.9284   21350372.8274
       200.0004        200.0004
  -4300931.90249  -3338950.22548  20304935.957    20304936.4414   20304940.3624
       213.0004        214.0004
   4536457.78648   3528559.99846  24035311.265    24035312.0844   24035321.1224
       172.0004        173.0004
   3295552.11648   2563955.18546  22839561.727    22839562.1994   22839568.4644
       175.0004        176.0004
   -833649.53944   -627019.127 3                                  20934263.570
        74.0004         74.000
  -5347033.31148  -3893933.66147  22054678.889    22054678.7974   22054683.6624
       189.0004        190.0004
   1275894.60148   1007829.58746  22473334.883    22473334.1654   22473339.7164
       172.0004        172.0004
 21  2  6  1 43 30.0000000  0 11G01G14G19G28G30G07G08G09G22G17G21
  -3496049.61749  -2716610.91547  20765904.887    20765905.6624   20765913.7604
       199.0004        199.0004
  -3480050.36448  -2698216.11146  22872174.008    22872174.4284   22872179.2384
       169.0004        170.0004
  -5074037.63247  -3928734.87645  24048614.798    24048614.5744   24048619.9774
       156.0004        158.0004
  -2789222.30347  -2163984.45745  23391168.585    23391168.5644   23391172.2474
       157.0004        159.0004
  -6918616.81149  -5377519.08647  21336886.295    21336886.7124   21336893.8734
       200.0004        201.0004
  -4325783.66749  -3358315.23048  20300206.950    20300207.4084   20300211.2044
       213.0004        214.0004
   4629644.08948   3601172.68546  24053043.813    24053045.0244   24053054.4684
       175.0004        177.0004
   3374932.47848   2625810.03446  22854666.439    22854667.0544   22854674.3794
       174.0004        174.0004
   -833649.53944   -627019.127 4                                  20934263.570
        74.0004         98.000
  -5389393.66048  -3926941.70147  22046617.486    22046618.0584   22046622.2284
       190.0004        190.0004
   1335847.83048   1054546.40046  22484743.614    22484743.5574   22484747.2834
       172.0004        171.0004
 21  2  6  1 44  0.0000000  0 10G01G14G19G28G30G07G08G09G17G21
  -3505024.36249  -2723604.21047  20764197.019    20764198.0214   20764205.7884
       199.0004        199.0004
  -3509753.26048  -2721361.23046  22866521.145    22866522.0354   22866526.3714
       169.0004        170.0004
  -5153961.51847  -3991013.22245  24033406.317    24033406.1224   24033409.4304
       155.0004        157.0004
  -2808726.97447  -2179182.88045  23387456.749    23387454.7624   23387460.4774
       154.0004        156.0004
  -6989149.60149  -5432479.69847  21323464.773    21323464.3174   21323471.9374
       201.0004        201.0004
  -4350128.57049  -3377285.29448  20295574.079    20295574.5144   20295578.7394
       214.0004        215.0004
   4722752.81148   3673724.87946  24070761.440    24070762.0144   24070772.3644
       173.0004        173.0004
   3454373.58348   2687712.18146  22869784.325    22869784.7724   22869792.2734
       174.0004        175.0004
  -5431337.57848  -3959625.26547  22038635.472    22038636.5024   22038640.5484
       190.0004        191.0004
   1396232.44348   1101599.34146  22496234.168    22496234.0874   22496237.7214
       171.0004        171.0004
 21  2  6  1 44 30.0000000  0 10G01G14G19G28G30G07G08G09G17G21
  -3513408.25149  -2730137.09647  20762602.276    20762602.4644   20762610.1364
       199.0004        199.0004
  -3539527.67148  -2744562.04146  22860854.978    22860856.6264   22860860.2694
       168.0004        170.0004
  -5233610.70247  -4053077.51545  24018250.094    24018249.1954   24018251.7704
       155.0004        157.0004
  -2828333.58247  -2194460.74645  23383725.633    23383725.6864   23383729.5254
       154.0004        157.0004
  -7059379.34949  -5487204.16947  21310100.151    21310100.5924   21310107.0374
       201.0004        201.0004
  -4373965.79549  -3395859.75248  20291038.210    20291038.4514   20291042.6954
       214.0004        215.0004
   4815781.04548   3746214.37746  24088464.988    24088465.5384   24088474.9694
       172.0004        173.0004
   3533871.40948   2749658.53946  22884911.802    22884912.9284   22884920.7684
       175.0004        177.0004
  -5472866.30448  -3991985.29847  22030732.248    22030733.2744   22030737.2904
       189.0004        189.0004
   1457045.54248   1148986.19746  22507807.150    22507806.4094   22507809.4924
       171.0004        172.0004
 21  2  6  1 45  0.0000000  0 11G01G14G19G28G30G07G08G09G22G17G21
  -3521200.27949  -2736208.77947  20761118.714    20761119.6334   20761127.2824
       199.0004        199.0004
  -3569374.02548  -2767818.95546  22855177.013    22855176.4764   22855181.9384
       169.0004        171.0004
  -5312984.56747  -4114927.25645  24003145.438    24003144.3774   24003146.6564
       154.0004        154.0004
  -2848043.09447  -2209818.81645  23379975.216    23379974.7504   23379979.5594
       156.0004        159.0004
  -7129303.46849  -5541690.49547  21296794.291    21296794.0774   21296800.8474
       201.0004        201.0004
  -4397293.86149  -3414037.46148  20286598.845    20286598.9274   20286603.4634
       214.0004        214.0004
   4908726.67348   3818639.53846  24106151.494    24106152.5304   24106163.4034
       173.0004        174.0004
   3613422.92648   2811646.72846  22900050.290    22900050.6034   22900058.5344
       176.0004        176.0004
   -833649.53944   -627019.12745                                  20934263.5704
        74.0004        135.0004
  -5513980.22448  -4024022.10347  22022909.288    22022910.3354   22022914.0634
       189.0004        190.0004
   1518285.39348   1196705.56746  22519460.445    22519459.7944   22519464.1494
       171.0004        172.0004
 21  2  6  1 45 30.0000000  0 11G01G14G19G28G30G07G08G09G22G17G21
  -3528399.20549  -2741818.32547  20759749.589    20759750.0694   20759757.4024
       199.0004        199.0004
  -3599292.78348  -2791132.24146  22849481.672    22849483.0434   22849488.3824
       170.0004        171.0004
  -5392082.03947  -4176561.63845  23988092.858    23988091.5224   23988094.5454
       151.0004        152.0004
  -2867856.07947  -2225257.49945  23376203.796    23376203.9694   23376209.2664
       155.0004        157.0004
  -7198919.24649  -5595936.54947  21283546.270    21283546.4744   21283554.0994
       201.0004        201.0004
  -4420110.59749  -3431816.74848  20282256.802    20282257.3244   20282261.6234
       214.0004        215.0004
   5001587.98248   3890998.92346  24123826.320    24123825.6434   24123832.9384
       173.0004        175.0004
   3693025.37348   2873674.58146  22915198.130    22915198.5074   22915205.8064
       174.0004        174.0004
   -833649.53945   -627019.127 5                                  20934263.570
        80.0004        136.000
  -5554679.47848  -4055735.78847  22015164.695    22015164.8334   22015169.0164
       189.0004        189.0004
   1579950.54048   1244756.33746  22531194.734    22531194.6114   22531198.5494
       171.0004        172.0004
 21  2  6  1 46  0.0000000  0 10G01G14G19G28G30G07G08G09G17G21
  -3535004.63249  -2746965.40447  20758492.171    20758492.9934   20758500.4074
       199.0004        199.0004
  -3629284.53848  -2814502.44246  22843776.103    22843776.4614   22843780.2704
       169.0004        169.0004
  -5470902.47047  -4237980.14645  23973093.840    23973094.2144   23973097.6354
       152.0004        156.0004
  -2887774.11847  -2240778.02945  23372414.709    23372413.9004   23372419.1964
       155.0004        157.0004
  -7268224.62649  -5649940.73547  21270358.706    21270358.5264   21270365.3774
       201.0004        202.0004
  -4442414.51449  -3449196.43048  20278012.978    20278013.2444   20278016.8364
       214.0004        215.0004
   5094362.86248   3963290.99946  24141480.068    24141480.0134   24141488.3274
       176.0004        177.0004
   3772675.19348   2935739.37546  22930356.106    22930355.7514   22930362.3144
       173.0004        174.0004
  -5594964.28648  -4087126.54747  22007499.098    22007498.9624   22007503.6854
       189.0004        188.0004
   1642038.69848   1293136.72546  22543010.679    22543009.0824   22543013.4334
       171.0004        172.0004
 21  2  6  1 46 30.0000000  0 10G01G14G19G28G30G07G08G09G17G21
  -3541014.38649  -2751648.31647  20757348.220    20757348.9584   20757356.6554
       199.0004        199.0004
  -3659348.68948  -2837929.06046  22838054.112    22838054.5164   22838060.6474
       168.0004        167.0004
  -5549443.50347  -4299180.91645  23958147.697    23958147.6034   23958152.0684
       155.0004        158.0004
  -2907796.79847  -2256380.10945  23368604.705    23368604.2834   23368608.4344
       155.0004        158.0004
  -7337215.80949  -5703700.11247  21257230.424    21257230.0814   21257236.7724
       202.0004        202.0004
  -4464203.04449  -3466174.52448  20273866.639    20273867.0214   20273870.7514
       214.0004        215.0004
   5187050.22448   4035514.87346  24159116.610    24159117.2444   24159125.4154
       175.0004        176.0004
   3852370.70748   2997839.78546  22945520.194    22945521.1804   22945527.3324
       173.0004        174.0004
  -5634834.44648  -4118194.19847  21999910.819    21999912.0624   21999916.5364
       188.0004        189.0004
   1704549.23348   1341846.23446  22554905.136    22554905.3914   22554909.4694
       172.0004        173.0004
 21  2  6  1 47  0.0000000  0 10G01G14G19G28G30G07G08G09G17G21
  -3546427.29049  -2755866.13447  20756317.995    20756318.7454   20756326.7434
       198.0004        199.0004
  -3689485.38548  -2861412.17146  22832318.964    22832320.0034   22832324.4684
       168.0004        170.0004
  -5627704.00347  -4360163.11145  23943256.131    23943255.7724   23943258.3064
       156.0004        159.0004
  -2927924.85347  -2272064.28245  23364773.645    23364772.9694   23364778.6144
       155.0004        157.0004
  -7405889.93849  -5757212.40247  21244161.338    21244161.6234   21244168.6114
       202.0004        202.0004
  -4485474.13549  -3482749.38848  20269818.481    20269819.2584   20269823.2974
       214.0004        215.0004
   5279648.55448   4107669.36546  24176736.764    24176737.2714   24176747.0294
       175.0004        176.0004
   3932109.22348   3059973.70246  22960695.403    22960695.3154   22960701.2564
       175.0004        176.0004
  -5674289.79148  -4148938.58947  21992403.405    21992403.3124   21992408.4164
       189.0004        189.0004
   1767480.44148   1390883.56146  22566881.019    22566880.7484   22566884.7954
       172.0004        174.0004
 21  2  6  1 47 30.0000000  0 10G01G14G19G28G30G07G08G09G17G21
  -3551242.48849  -2759618.22847  20755401.894    20755402.5834   20755410.4704
       198.0004        198.0004
  -3719695.01248  -2884952.15546  22826571.512    22826571.6004   22826575.7644
       170.0004        171.0004
  -5705682.96647  -4420925.92745  23928416.883    23928415.5934   23928420.4724
       156.0004        157.0004
  -2948159.29647  -2287831.36045  23360924.032    23360923.1434   23360927.2334
       155.0004        157.0004
  -7474244.44649  -5810475.65947  21231154.004    21231153.7734   21231161.0434
       202.0004        202.0004
  -4506226.14349  -3498919.79248  20265869.638    20265870.0254   20265873.9474
       214.0004        215.0004
   5372156.03948   4179753.09446  24194339.748    24194340.7674   24194349.6374
       173.0004        173.0004
   4011887.72048   3122138.75346  22975876.381    22975876.4984   22975883.2214
       175.0004        176.0004
  -5713330.70548  -4179360.06647  21984974.139    21984974.5854   21984979.1114
       189.0004        189.0004
   1830830.81248   1440247.49746  22578936.196    22578934.9874   22578940.7394
       173.0004        174.0004
 21  2  6  1 48  0.0000000  0 10G01G14G19G28G30G07G08G09G17G21
  -3555459.51949  -2762904.21447  20754600.076    20754600.4434   20754607.8024
       198.0004        199.0004
  -3749978.41348  -2908549.60546  22820808.413    22820807.9464   22820813.8254
       169.0004        169.0004
  -5783379.92547  -4481468.99345  23913632.034    23913631.3114   23913635.7174
       156.0004        159.0004
  -2968501.58647  -2303682.48645  23357051.868    23357052.0844   23357056.9924
       155.0004        158.0004
  -7542277.19849  -5863488.19147  21218207.253    21218207.6774   21218215.2604
       202.0004        203.0004
  -4526457.53349  -3514684.51948  20262019.653    20262020.2164   20262024.1354
       214.0004        215.0004
   5464570.58148   4251764.37646  24211926.732    24211926.7614   24211936.8394
       172.0004        174.0004
   4091702.87548   3184332.38146  22991063.759    22991064.5084   22991071.8414
       175.0004        175.0004
  -5751957.99148  -4209459.23747  21977624.359    21977624.0174   21977628.0734
       188.0004        188.0004
   1894598.03548   1489936.24846  22591069.639    22591070.0524   22591075.0664
       173.0004        174.0004
 21  2  6  1 48 30.0000000  0 10G01G14G19G28G30G07G08G09G17G21
  -3559076.57549  -2765722.68147  20753911.768    20753912.1714   20753919.7344
       199.0004        199.0004
  -3780334.93548  -2932204.00846  22815031.366    22815032.3474   22815036.6864
       168.0004        170.0004
  -5860792.84547  -4541790.70045  23898900.666    23898900.5374   23898905.0794
       159.0004        162.0004
  -2988951.30347  -2319617.31745  23353160.168    23353160.1704   23353164.0874
       153.0004        154.0004
  -7609984.63549  -5916247.23047  21205323.987    21205323.8854   21205330.6614
       203.0004        203.0004
  -4546166.10149  -3530041.84548  20258269.291    20258269.6644   20258274.0644
       214.0004        215.0004
   5556891.40148   4323702.60746  24229493.594    24229495.1804   24229505.1854
       174.0004        176.0004
   4171552.70148   3246553.02946  23006258.542    23006259.3434   23006267.1174
       175.0004        175.0004
  -5790171.30048  -4239235.81347  21970351.740    21970352.2314   21970356.6984
       188.0004        189.0004
   1958781.05048   1539948.99246  22603284.824    22603283.2874   22603288.9394
       174.0004        175.0004
 21  2  6  1 49  0.0000000  0 10G01G14G19G28G30G07G08G09G17G21
  -3562092.91649  -2768073.06947  20753336.444    20753337.8224   20753345.7704
       199.0004        200.0004
  -3810765.01548  -2955915.76646  22809240.419    22809241.3434   22809246.2124
       169.0004        170.0004
  -5937920.85847  -4601890.45645  23884224.402    23884223.2224   23884226.5874
       159.0004        161.0004
  -3009509.66947  -2335636.82545  23349249.811    23349249.0784   23349251.8204
       152.0004        156.0004
  -7677364.23349  -5968750.81747  21192501.596    21192501.7174   21192508.3324
       203.0004        203.0004
  -4565349.95749  -3544990.31248  20254619.193    20254619.3944   20254623.6064
       214.0004        216.0004
   5649116.26448   4395566.08146  24247046.211    24247045.5334   24247054.7304
       175.0004        176.0004
   4251434.27448   3308798.39746  23021460.295    23021460.3104   23021467.3254
       173.0004        173.0004
  -5827970.46048  -4268689.68847  21963159.099    21963159.3104   21963163.5784
       189.0004        188.0004
   2023378.07848   1590284.33346  22615576.625    22615575.9984   22615581.5794
       175.0004        176.0004
 21  2  6  1 49 30.0000000  0 10G01G14G19G28G30G07G08G09G17G21
  -3564508.62349  -2769955.42147  20752877.522    20752878.3124   20752886.2794
       199.0004        200.0004
  -3841269.88848  -2979685.75146  22803435.779    22803435.8554   22803441.3254
       169.0004        170.0004
  -6014763.90747  -4661768.11946  23869602.259    23869601.4684   23869605.4564
       162.0004        164.0004
  -3030178.40647  -2351742.31545  23345315.823    23345314.8874   23345320.0084
       153.0004        157.0004
  -7744414.38949  -6020997.67747  21179742.337    21179742.3144   21179749.6714
       203.0004        204.0004
  -4584008.51949  -3559529.44948  20251068.517    20251068.7794   20251072.6584
       214.0004        215.0004
   5741242.59348   4467352.76746  24264578.701    24264578.1914   24264585.3814
       176.0004        176.0004
   4331343.75948   3371065.53646  23036667.138    23036667.2024   23036673.1204
       172.0004        172.0004
  -5865357.05248  -4297822.08547  21956043.855    21956044.2434   21956048.7464
       188.0004        188.0004
   2088385.88248   1640939.78946  22627948.101    22627947.1574   22627952.0574
       175.0004        175.0004
 21  2  6  1 50  0.0000000  0 11G01G14G19G03G28G30G07G08G09G17G21
  -3566322.42249  -2771368.74247  20752532.063    20752532.8584   20752540.5114
       199.0004        199.0004
  -3871849.33748  -3003513.85846  22797617.050    22797617.5524   22797622.3584
       170.0004        171.0004
  -6091320.41447  -4721422.51145  23855032.284    23855031.5764   23855036.4244
       161.0004        162.0004
   3986303.27144   3093425.013 3                                  24736531.265
        74.0004         74.000
  -3050957.55247  -2367933.82345  23341360.304    23341360.4924   23341366.4234
       154.0004        157.0004
  -7811131.90649  -6072985.33647  21167046.340    21167046.7924   21167053.9724
       203.0004        205.0004
  -4602139.61249  -3573657.56948  20247618.084    20247618.2954   20247622.7784
       214.0004        216.0004
   5833269.73148   4539062.18046  24282089.212    24282089.2134   24282097.5604
       175.0004        176.0004
   4411278.83548   3433352.62446  23051876.901    23051878.3074   23051884.2184
       172.0004        172.0004
  -5902331.39448  -4326633.24747  21949008.682    21949009.0254   21949013.6754
       189.0004        190.0004
   2153803.77048   1691914.77646  22640394.876    22640394.2914   22640401.2864
       175.0004        175.0004
 21  2  6  1 50 30.0000000  0 11G01G14G19G03G28G30G07G08G09G17G21
  -3567532.78549  -2772311.87547  20752302.186    20752302.6304   20752310.2754
       199.0004        199.0004
  -3902502.84848  -3027399.69846  22791783.068    22791784.3624   22791788.7274
       169.0004        169.0004
  -6167588.69547  -4780852.31045  23840518.961    23840518.9464   23840523.2744
       160.0004        162.0004
   3986303.27154   3093425.013 3                                  24736531.265
        74.0004         74.000
  -3071847.48247  -2384211.67445  23337385.946    23337386.2264   23337391.5044
       155.0004        157.0004
  -7877513.36849  -6124711.14247  21154415.216    21154414.9534   21154422.0274
       205.0004        206.0004
  -4619741.07949  -3587373.00448  20244268.232    20244269.0414   20244273.3054
       215.0004        216.0004
   5925196.45948   4610693.32446  24299582.985    24299582.4264   24299590.8114
       174.0004        175.0004
   4491237.43148   3495657.99446  23067093.145    23067093.2944   23067100.9354
       171.0004        172.0004
  -5938892.69948  -4355122.57047  21942051.263    21942051.5654   21942055.6314
       190.0004        191.0004
   2219630.56848   1743208.37346  22652921.492    22652921.4024   22652927.3694
       174.0004        175.0004
 21  2  6  1 51  0.0000000  0 11G01G14G19G03G28G30G07G08G09G17G21
  -3568138.91149  -2772784.17547  20752186.463    20752187.4024   20752194.9814
       199.0004        199.0004
  -3933230.70848  -3051343.49346  22785935.877    22785936.1844   22785940.7914
       168.0004        168.0004
  -6243567.83947  -4840056.81546  23826060.948    23826060.7724   23826065.3134
       161.0004        164.0004
   3986303.27147   3093425.013 3                                  24736531.265
       138.0004         74.000
  -3092848.63147  -2400576.18245  23333388.920    23333389.0014   23333393.6774
       153.0004        155.0004
  -7943556.22749  -6176173.10647  21141847.161    21141847.0834   21141853.7264
       205.0004        204.0004
  -4636810.93749  -3600674.19548  20241020.202    20241020.5214   20241024.8844
       215.0004        216.0004
   6017020.96248   4682244.85146  24317055.663    24317054.7524   24317064.3944
       172.0004        172.0004
   4571216.63648   3557979.46146  23082312.290    23082312.6944   23082320.2494
       172.0004        173.0004
  -5975041.52848  -4383290.47347  21935171.547    21935172.6224   21935176.6094
       190.0004        190.0004
   2285864.04548   1794818.88646  22665524.983    22665524.9394   22665530.7954
       175.0004        175.0004
 21  2  6  1 51 30.0000000  0 10G01G14G19G28G30G07G08G09G17G21
  -3568140.15849  -2772785.13547  20752186.915    20752187.1634   20752194.9114
       199.0004        200.0004
  -3964033.20648  -3075345.44746  22780075.009    22780075.4304   22780079.5314
       168.0004        168.0004
  -6319256.75847  -4899035.16245  23811658.474    23811656.8604   23811661.6154
       161.0004        162.0004
  -3113961.99547  -2417028.14145  23329370.622    23329370.2714   23329376.9034
       152.0004        156.0004
  -8009257.89749  -6227369.21747  21129345.427    21129345.2494   21129351.5684
       205.0004        205.0004
  -4653347.69749  -3613559.99548  20237872.732    20237873.4884   20237877.9954
       214.0004        216.0004
   6108741.52848   4753715.35546  24334508.846    24334509.1834   24334518.2484
       169.0004        170.0004
   4651213.69848   3620314.81346  23097534.526    23097535.6434   23097543.2464
       171.0004        171.0004
  -6010778.39748  -4411137.38247  21928370.976    21928371.4554   21928376.1434
       190.0004        190.0004
   2352502.53948   1846744.98246  22678206.532    22678205.6534   22678212.5114
       175.0004        176.0004
 21  2  6  1 52  0.0000000  0 10G01G14G19G28G30G07G08G09G17G21
  -3567535.95449  -2772314.31647  20752301.906    20752302.4744   20752309.8074
       199.0004        200.0004
  -3994910.74748  -3099405.87046  22774199.737    22774199.8284   22774203.7264
       168.0004        169.0004
  -6394655.02347  -4957787.07346  23797309.590    23797309.3334   23797312.9714
       161.0004        163.0004
  -3135188.58447  -2433568.34045  23325333.532    23325333.3724   23325337.8604
       153.0004        157.0004
  -8074615.95249  -6278297.55447  21116907.123    21116907.4974   21116914.5404
       205.0004        206.0004
  -4669350.25649  -3626029.52648  20234828.063    20234828.6604   20234832.8774
       214.0004        216.0004
   6200356.27348   4825103.40746  24351944.114    24351943.1504   24351952.0614
       170.0004        171.0004
   4731225.47948   3682661.65946  23112761.436    23112761.9254   23112769.0124
       171.0004        172.0004
  -6046103.61348  -4438663.51747  21921649.545    21921649.9634   21921653.3604
       189.0004        190.0004
   2419544.10448   1898985.16146  22690963.004    22690962.8624   22690970.1814
       174.0004        174.0004
 21  2  6  1 52 30.0000000  0 10G01G14G19G28G30G07G08G09G17G21
  -3566325.81449  -2771371.32547  20752532.284    20752532.4634   20752540.0584
       199.0004        200.0004
  -4025863.61848  -3123524.98446  22768309.080    22768308.6504   22768314.3914
       168.0004        168.0004
  -6469761.72047  -5016311.73545  23783016.346    23783016.7084   23783019.5274
       159.0004        161.0004
  -3156529.21547  -2450197.37145  23321271.075    23321269.7024   23321275.8744
       153.0004        154.0004
  -8139627.90949  -6328956.20147  21104535.941    21104536.0904   21104543.0004
       206.0004        207.0004
  -4684817.06249  -3638081.57548  20231884.762    20231885.0284   20231889.6924
       215.0004        216.0004
   6291863.60248   4896407.71746  24369357.690    24369357.1264   24369365.3074
       169.0004        170.0004
   4811249.17148   3745017.78946  23127989.643    23127989.4834   23127996.1854
       169.0004        169.0004
  -6081018.06748  -4465869.55947  21915005.713    21915006.3144   21915009.9984
       190.0004        191.0004
   2486986.61648   1951537.76646  22703797.372    22703797.5164   22703803.9554
       174.0004        175.0004
 21  2  6  1 53  0.0000000  0 10G01G14G19G28G30G07G08G09G17G21
  -3564509.46949  -2769955.98847  20752877.596    20752878.3574   20752885.7114
       199.0004        199.0004
  -4056892.45348  -3147703.30346  22762402.145    22762404.0204   22762409.3724
       167.0004        168.0004
  -6544576.26047  -5074608.76246  23768780.747    23768780.1524   23768784.3704
       160.0004        163.0004
  -3177984.98947  -2466916.16545  23317189.699    23317189.1524   23317192.4604
       151.0004        154.0004
  -8204291.50549  -6379343.42447  21092231.211    21092231.0664   21092237.9394
       207.0004        207.0004
  -4699746.84149  -3649715.18448  20229043.597    20229044.0744   20229048.7534
       215.0004        216.0004
   6383261.14448   4967626.51946  24386749.192    24386749.2804   24386756.7324
       168.0004        169.0004
   4891281.56348   3807380.68346  23143219.302    23143219.8814   23143226.3044
       169.0004        170.0004
  -6115522.72148  -4492756.29047  21908439.490    21908439.9074   21908443.8474
       190.0004        190.0004
   2554827.93648   2004401.12046  22716707.115    22716707.0224   22716713.3024
       174.0004        175.0004
 21  2  6  1 53 30.0000000  0 10G01G14G19G28G30G07G08G09G17G21
  -3562085.28049  -2768066.99847  20753338.143    20753339.2594   20753347.1934
       199.0004        199.0004
  -4087996.38748  -3171940.12146  22756485.614    22756486.0294   22756490.8064
       168.0004        169.0004
  -6619096.68347  -5132676.57846  23754600.938    23754599.8044   23754603.2444
       161.0004        164.0004
  -3199555.56447  -2483724.37645  23313083.759    23313083.0164   23313088.3884
       152.0004        156.0004
  -8268603.18149  -6429456.41047  21079992.707    21079992.8664   21079999.6494
       206.0004        206.0004
  -4714137.05849  -3660928.34148  20226305.257    20226305.9264   20226310.2804
       215.0004        216.0004
   6474549.08048   5038759.89946  24404117.939    24404119.3604   24404128.9784
       169.0004        170.0004
   4971320.85548   3869748.96146  23158449.454    23158449.8774   23158456.3904
       168.0004        169.0004
  -6149616.71248  -4519323.01447  21901951.273    21901951.4014   21901956.3174
       190.0004        190.0004
   2623067.01648   2057574.42346  22729693.309    22729692.2094   22729698.7214
       173.0004        173.0004
 21  2  6  1 54  0.0000000  0 10G01G14G19G28G30G07G08G09G17G21
  -3559052.98949  -2765704.16147  20753915.928    20753916.4934   20753923.8674
       199.0004        199.0004
  -4119175.90948  -3196235.82746  22750552.809    22750552.1314   22750557.8654
       169.0004        171.0004
  -6693322.12547  -5190514.59245  23740474.369    23740474.4074   23740478.2984
       161.0004        162.0004
  -3221242.10647  -2500622.94945  23308956.233    23308956.4014   23308960.8094
       154.0004        158.0004
  -8332560.62949  -6479293.37847  21067821.900    21067822.2094   21067828.7904
       206.0004        207.0004
  -4727986.87449  -3671720.41948  20223670.148    20223670.1704   20223674.9974
       215.0004        216.0004
   6565724.55948   5109805.67046  24421471.960    24421471.2244   24421478.6384
       169.0004        170.0004
   5051364.00348   3932120.20746  23173682.281    23173682.4794   23173688.2634
       167.0004        169.0004
  -6183301.04348  -4545570.53947  21895541.028    21895541.6824   21895546.0714
       190.0004        190.0004
   2691701.59548   2111055.90446  22742753.597    22742753.8524   22742758.2834
       172.0004        173.0004
 21  2  6  1 54 30.0000000  0 10G01G14G19G28G30G07G08G09G17G21
  -3555412.40249  -2762867.33047  20754608.205    20754608.9664   20754616.6474
       199.0004        199.0004
  -4150431.53748  -3220590.85246  22744604.236    22744604.4434   22744609.9894
       170.0004        171.0004
  -6767252.25047  -5248122.42546  23726406.557    23726405.9144   23726409.6734
       162.0004        165.0004
  -3243045.46447  -2517612.58845  23304809.198    23304809.2674   23304812.5694
       156.0004        160.0004
  -8396161.59649  -6528852.56247  21055719.942    21055719.6704   21055726.0374
       207.0004        207.0004
  -4741294.74949  -3682090.18948  20221137.648    20221138.0534   20221142.3594
       215.0004        216.0004
   6656786.10648   5180762.66446  24438799.279    24438799.2124   24438808.7664
       170.0004        172.0004
   5131407.84548   3994492.02846  23188913.979    23188914.0374   23188921.8794
       170.0004        172.0004
  -6216576.68648  -4571499.59547  21889209.241    21889209.7694   21889214.0384
       190.0004        192.0004
   2760729.51048   2164843.90446  22755889.555    22755888.9144   22755894.3244
       172.0004        173.0004
 21  2  6  1 55  0.0000000  0 10G01G14G19G28G30G07G08G09G17G21
  -3551162.30449  -2759555.55147  20755416.723    20755417.7324   20755425.4684
       199.0004        199.0004
  -4181762.82148  -3245004.81746  22738642.353    22738642.7064   22738647.4614
       170.0004        171.0004
  -6840885.73347  -5305499.12846  23712395.493    23712394.2254   23712397.7664
       162.0004        163.0004
  -3264965.79547  -2534693.35445  23300636.653    23300636.0844   23300641.1054
       155.0004        156.0004
  -8459402.96649  -6578131.54447  21043684.393    21043684.8404   21043691.7674
       207.0004        207.0004
  -4754059.01349  -3692036.37448  20218708.777    20218708.8144   20218713.4344
       215.0004        217.0004
   6747732.97048   5251630.31746  24456107.144    24456106.0844   24456115.0334
       170.0004        171.0004
   5211450.33748   4056862.79546  23204144.249    23204144.8304   23204152.7514
       169.0004        169.0004
  -6249443.42748  -4597110.03247  21882954.849    21882955.3254   21882959.1234
       190.0004        190.0004
   2830149.26048   2218937.20946  22769100.183    22769099.5924   22769104.4244
       172.0004        173.0004
 21  2  6  1 55 30.0000000  0 10G01G14G19G28G30G07G08G09G17G21
  -3546302.74749  -2755768.88347  20756341.786    20756342.7604   20756350.2404
       199.0004        199.0004
  -4213170.38348  -3269478.24246  22732664.857    22732665.9644   22732670.3184
       170.0004        171.0004
  -6914222.03447  -5362644.27546  23698439.875    23698440.1354   23698443.3694
       162.0004        165.0004
  -3287004.34147  -2551866.21845  23296441.255    23296442.2144   23296447.0804
       154.0004        156.0004
  -8522282.45449  -6627128.54147  21031719.186    21031719.3984   21031725.7524
       207.0004        207.0004
  -4766278.43449  -3701558.00448  20216383.393    20216383.7004   20216388.1584
       215.0004        216.0004
   6838562.89348   5322406.81946  24473390.267    24473390.3114   24473399.6224
       172.0004        173.0004
   5291488.19048   4119229.94346  23219373.792    23219374.9684   23219383.3454
       167.0004        167.0004
  -6281902.28048  -4622402.63547  21876778.410    21876778.7064   21876783.0264
       190.0004        190.0004
   2899958.50448   2273334.02346  22782383.560    22782383.3384   22782389.0594
       171.0004        171.0004
 21  2  6  1 56  0.0000000  0 10G01G14G19G28G30G07G08G09G17G21
  -3540831.96649  -2751505.92947  20757383.320    20757384.2114   20757391.4964
       199.0004        200.0004
  -4244653.02648  -3294010.14346  22726673.586    22726674.4244   22726680.0954
       170.0004        171.0004
  -6987258.90147  -5419556.08945  23684541.638    23684540.5654   23684544.3424
       162.0004        162.0004
  -3309160.17947  -2569130.49345  23292226.394    23292226.4854   23292230.6924
       155.0004        157.0004
  -8584796.24549  -6675840.58747  21019823.852    21019823.6314   21019829.6574
       207.0004        208.0004
  -4777950.23249  -3710652.92248  20214162.322    20214162.7404   20214166.7694
       215.0004        216.0004
   6929275.77048   5393092.11546  24490648.962    24490650.8814   24490661.2724
       168.0004        167.0004
   5371519.91148   4181592.31046  23234605.831    23234605.9794   23234611.8554
       166.0004        168.0004
  -6313952.71548  -4647376.98947  21870678.760    21870679.0744   21870683.9394
       190.0004        190.0004
   2970156.63348   2328033.85346  22795740.746    22795741.2594   22795746.7984
       170.0004        170.0004
 21  2  6  1 56 30.0000000  0 10G01G14G19G28G30G07G08G09G17G21
  -3534750.42449  -2746767.05347  20758540.679    20758541.0394   20758548.7724
       199.0004        200.0004
  -4276211.82348  -3318601.42446  22720669.930    22720670.3274   22720674.3604
       170.0004        169.0004
  -7059996.82147  -5476234.97546  23670700.084    23670699.0344   23670702.2724
       162.0004        163.0004
  -3331435.11547  -2586487.57845  23287989.764    23287988.7234   23287991.4564
       155.0004        157.0004
  -8646942.74449  -6724266.43547  21007997.478    21007997.5174   21008004.1074
       208.0004        208.0004
  -4789074.24049  -3719320.98948  20212045.151    20212045.7704   20212050.1614
       215.0004        216.0004
   7019868.51448   5463683.84446  24507892.853    24507893.0554   24507900.7124
       169.0004        170.0004
   5451541.88548   4243947.08546  23249832.312    23249833.2524   23249840.7944
       167.0004        168.0004
  -6345595.95148  -4672034.05047  21864657.858    21864657.6704   21864661.8014
       190.0004        190.0004
   3040740.62148   2383034.36546  22809173.493    22809173.2514   22809178.3404
       169.0004        171.0004
 21  2  6  1 57  0.0000000  0 10G01G14G19G28G30G07G08G09G17G21
  -3528059.22649  -2741553.11547  20759813.867    20759814.4864   20759821.8944
       200.0004        200.0004
  -4307848.39648  -3343253.26846  22714647.741    22714648.0064   22714653.9744
       168.0004        168.0004
  -7132436.07947  -5532681.11846  23656915.816    23656915.4044   23656919.2124
       163.0004        166.0004
  -3353831.29247  -2603939.12045  23283726.743    23283726.6104   23283730.9814
       154.0004        156.0004
  -8708720.84249  -6772405.20547  20996241.001    20996241.2774   20996248.0924
       208.0004        208.0004
  -4799650.47649  -3727562.21148  20210032.502    20210033.0494   20210037.4944
       215.0004        216.0004
   7110339.03748   5534180.30446  24525106.916    24525108.0024   24525116.9344
       166.0004        165.0004
   5531549.91448   4306290.96846  23265057.583    23265057.8324   23265066.0724
       166.0004        167.0004
  -6376834.50748  -4696375.76247  21858712.911    21858713.0854   21858717.7264
       190.0004        190.0004
   3111707.11248   2438332.95346  22822679.641    22822677.7564   22822682.1114
       169.0004        169.0004
 21  2  6  1 57 30.0000000  0 10G01G14G19G28G30G07G08G09G17G21
  -3520756.58349  -2735862.73447  20761203.126    20761203.5954   20761211.4464
       199.0004        199.0004
  -4339561.42448  -3367964.69446  22708612.598    22708613.8974   22708619.1014
       168.0004        169.0004
  -7204574.57747  -5588892.88546  23643186.772    23643186.2944   23643191.7254
       162.0004        163.0004
  -3376347.74847  -2621484.37545  23279441.826    23279441.6234   23279445.9774
       154.0004        158.0004
  -8770126.62349  -6820253.85447  20984555.495    20984555.9014   20984562.9874
       208.0004        208.0004
  -4809676.23249  -3735374.48848  20208125.082    20208125.4264   20208129.5314
       215.0004        217.0004
   7200686.51947   5604580.89846  24542298.438    24542299.5024   24542308.2674
       163.0004        163.0004
   5611542.63548   4368622.94846  23280279.945    23280280.4454   23280287.2734
       166.0004        168.0004
  -6407667.43248  -4720401.40247  21852845.993    21852846.2664   21852850.8564
       191.0004        191.0004
   3183055.31348   2493928.96446  22836255.300    22836254.8504   22836259.8764
       168.0004        168.0004
 21  2  6  1 58  0.0000000  0 10G01G14G19G28G30G07G08G09G17G21
  -3512841.47049  -2729695.10247  20762709.475    20762710.4514   20762717.8934
       199.0004        199.0004
  -4371350.25048  -3392735.24146  22702564.502    22702565.7214   22702570.1804
       169.0004        171.0004
  -7276410.46947  -5644868.93246  23629517.143    23629516.1264   23629520.7054
       162.0004        163.0004
  -3398984.51647  -2639123.40645  23275133.008    23275133.2844   23275138.4374
       154.0004        156.0004
  -8831156.80049  -6867809.84147  20972942.666    20972942.7884   20972949.0224
       208.0004        208.0004
  -4819149.61949  -3742756.35348  20206321.918    20206322.6174   20206327.1844
       215.0004        216.0004
   7290910.81547   5674885.47746  24559467.686    24559468.9654   24559479.1444
       163.0004        164.0004
   5691518.05348   4430941.45646  23295499.969    23295499.9154   23295506.1854
       167.0004        170.0004
  -6438094.55748  -4744110.83547  21847055.719    21847055.9344   21847060.1164
       190.0004        191.0004
   3254783.99648   2549821.42646  22849903.598    22849904.3484   22849908.7894
       167.0004        168.0004
 21  2  6  1 58 30.0000000  0 10G01G14G19G28G30G07G08G09G17G21
  -3504313.61149  -2723050.00247  20764332.950    20764332.9664   20764340.6664
       199.0004        199.0004
  -4403215.01448  -3417564.91446  22696501.548    22696501.4194   22696506.8954
       171.0004        173.0004
  -7347943.71347  -5700609.07646  23615904.966    23615904.6994   23615907.8664
       161.0004        163.0004
  -3421742.27447  -2656856.73245  23270803.184    23270803.6624   23270807.0304
       155.0004        157.0004
  -8891808.90049  -6915071.21947  20961400.922    20961400.9924   20961407.1934
       208.0004        208.0004
  -4828069.34549  -3749706.79048  20204625.073    20204625.3784   20204629.8504
       215.0004        217.0004
   7381009.96848   5745092.55346  24576613.424    24576614.1874   24576624.8284
       165.0004        165.0004
   5771473.49248   4493244.39146  23310714.062    23310714.4464   23310721.1044
       167.0004        167.0004
  -6468116.87048  -4767504.82847  21841342.438    21841342.9404   21841347.6714
       191.0004        191.0004
   3326891.20148   2606008.87346  22863626.589    22863624.8084   22863630.4474
       166.0004        167.0004
 21  2  6  1 59  0.0000000  0 10G01G14G19G28G30G07G08G09G17G21
  -3495172.93149  -2715927.39047  20766071.336    20766072.4054   20766079.9514
       199.0004        199.0004
  -4435156.01948  -3442454.01646  22690422.521    22690423.1644   22690427.5334
       170.0004        170.0004
  -7419173.39847  -5756112.72945  23602349.869    23602349.0094   23602353.8924
       160.0004        162.0004
  -3444622.03747  -2674685.10645  23266448.570    23266449.1594   23266453.4454
       156.0004        159.0004
  -8952080.61049  -6962036.18747  20949931.356    20949931.5944   20949938.0334
       208.0004        208.0004
  -4836434.02849  -3756224.74048  20203033.165    20203033.6734   20203037.8974
       215.0004        217.0004
   7470982.11147   5815200.65546  24593737.010    24593735.7054   24593744.8474
       162.0004        164.0004
   5851405.93048   4555529.38646  23325923.671    23325924.5694   23325932.2104
       166.0004        167.0004
  -6497735.27048  -4790584.10047  21835706.549    21835706.5124   21835711.1724
       190.0004        190.0004
   3399374.65148   2662489.49846  22877419.438    22877419.2834   22877424.0624
       166.0004        166.0004
 21  2  6  1 59 30.0000000  0 10G01G14G19G28G30G07G08G09G17G21
  -3485419.44049  -2708327.24847  20767927.613    20767927.9424   20767936.3854
       199.0004        199.0004
  -4467173.67848  -3467402.85446  22684330.060    22684329.8524   22684334.9554
       168.0004        169.0004
  -7490099.10547  -5811379.49746  23588852.956    23588852.2054   23588857.5654
       162.0004        164.0004
  -3467624.58747  -2692609.17945  23262071.662    23262071.2414   23262075.5064
       156.0004        159.0004
  -9011969.75449  -7008703.04847  20938534.968    20938534.9254   20938541.6984
       208.0004        209.0004
  -4844243.08749  -3762309.71848  20201546.925    20201547.5644   20201551.5414
       215.0004        216.0004
   7560825.54747   5885208.49345  24610833.654    24610833.5564   24610841.8434
       160.0004        161.0004
   5931312.38648   4617794.14846  23341130.330    23341130.9394   23341137.0784
       165.0004        167.0004
  -6526950.84948  -4813349.46247  21830146.650    21830146.9114   21830152.0294
       191.0004        192.0004
   3472231.79248   2719261.30746  22891282.995    22891282.9374   22891287.1404
       165.0004        166.0004
 21  2  6  2  0  0.0000000  0 10G01G14G19G28G30G07G08G09G17G21
  -3475052.27649  -2700248.93647  20769900.397    20769901.4304   20769908.5844
       199.0004        199.0004
  -4499267.13748  -3492410.73346  22678222.382    22678222.6544   22678228.1154
       168.0004        169.0004
  -7560719.40647  -5866408.28446  23575415.382    23575414.0724   23575418.7744
       163.0004        166.0004
  -3490749.61547  -2710628.66545  23257671.303    23257671.6854   23257676.1034
       157.0004        159.0004
  -9071472.92349  -7055069.16247  20927212.140    20927212.0674   20927218.6764
       209.0004        209.0004
  -4851494.68349  -3767960.32248  20200167.508    20200167.9664   20200172.1834
       215.0004        217.0004
   7650539.85047   5955115.69846  24627900.099    24627902.8624   24627913.9294
       160.0004        163.0004
   6011191.03248   4680037.22746  23356330.345    23356330.8484   23356337.7514
       165.0004        167.0004
  -6555763.17148  -4835800.61647  21824664.780    21824664.6964   21824668.9224
       192.0004        193.0004
   3545461.42348   2776323.35146  22905219.238    22905218.1964   22905222.3844
       165.0004        166.0004
 21  2  6  2  0 30.0000000  0 10G01G14G19G28G30G07G08G09G17G21
  -3464071.77249  -2691692.67547  20771989.540    20771990.5454   20771998.0404
       198.0004        198.0004
  -4531437.10148  -3517478.21646  22672099.870    22672101.6804   22672105.9154
       169.0004        170.0004
  -7631033.96347  -5921198.83046  23562035.357    23562034.3464   23562038.5844
       164.0004        166.0004
  -3513998.31147  -2728744.52945  23253247.416    23253247.4994   23253251.7134
       157.0004        160.0004
  -9130588.27949  -7101133.06847  20915962.172    20915962.4454   20915969.3894
       208.0004        208.0004
  -4858188.09149  -3773175.95248  20198893.410    20198893.7154   20198898.3874
       215.0004        217.0004
   7740122.98247   6024920.67346  24644949.522    24644951.4024   24644960.5764
       162.0004        164.0004
   6091038.57648   4742256.07746  23371524.913    23371525.5364   23371532.5834
       179.0004        185.0004
  -6584173.51748  -4857938.52347  21819257.677    21819258.0674   21819262.0484
       193.0004        193.0004
   3619060.85948   2833673.58746  22919224.301    22919223.3514   22919228.2744
       165.0004        166.0004
 21  2  6  2  1  0.0000000  0 10G01G14G19G28G30G07G08G09G17G21
  -3452477.78749  -2682658.39447  20774196.029    20774196.6094   20774204.2564
       198.0004        198.0004
  -4563683.56548  -3542605.36246  22665966.131    22665966.2074   22665969.8724
       171.0004        173.0004
  -7701042.06247  -5975750.59746  23548712.257    23548711.4734   23548715.9704
       163.0004        163.0004
  -3537370.98147  -2746956.99245  23248799.463    23248800.2694   23248803.8504
       158.0004        160.0004
  -9189313.31549  -7146892.84047  20904787.656    20904787.5944   20904794.1754
       208.0004        208.0004
  -4864322.22249  -3777955.81248  20197726.464    20197726.9534   20197730.8904
       215.0004        217.0004
   7829573.57647   6094622.38246  24661972.227    24661972.5104   24661983.2364
       162.0004        163.0004
   6170852.28748   4804448.55946  23386714.074    23386714.1174   23386720.4224
       184.0004        185.0004
  -6612183.17248  -4879764.22847  21813928.289    21813927.8884   21813932.4884
       192.0004        192.0004
   3693028.01747   2891310.31446  22933299.428    22933299.3734   22933303.5264
       164.0004        166.0004
 21  2  6  2  1 30.0000000  0 10G01G14G19G28G30G07G08G09G17G21
  -3440270.49149  -2673146.21247  20776518.752    20776519.4664   20776527.5994
       198.0004        198.0004
  -4596006.84148  -3567792.33046  22659814.328    22659815.0114   22659820.1314
       174.0004        176.0004
  -7770743.08547  -6030063.06845  23535448.799    23535448.2194   23535451.3344
       161.0004        161.0004
  -3560868.53547  -2765266.77945  23244328.920    23244328.8404   23244331.5694
       158.0004        161.0004
  -9247645.81449  -7192346.75647  20893687.622    20893687.5864   20893694.1744
       208.0004        208.0004
  -4869895.88049  -3782298.93748  20196665.429    20196665.9534   20196670.2774
       215.0004        216.0004
   7918889.81848   6164219.42546  24678971.640    24678971.3824   24678978.6914
       165.0004        168.0004
   6250629.25248   4866612.40047  23401894.764    23401895.5854   23401900.8784
       193.0004        198.0004
  -6639793.11048  -4901278.45447  21808673.087    21808673.9614   21808678.3834
       191.0004        192.0004
   3767360.43248   2949231.68146  22947445.957    22947444.3534   22947449.4484
       165.0004        166.0004
 21  2  6  2  2  0.0000000  0 10G01G14G19G28G30G07G08G09G17G21
  -3427450.10549  -2663156.29247  20778959.013    20778959.6184   20778966.8944
       198.0004        199.0004
  -4628407.22848  -3593039.37946  22653649.281    22653649.1984   22653653.7694
       176.0004        176.0004
  -7840136.88647  -6084136.14645  23522244.094    23522243.0974   23522245.6574
       160.0004        161.0004
  -3584492.07147  -2783674.71445  23239833.007    23239833.0394   23239836.6194
       159.0004        160.0004
  -9305583.67949  -7237493.14547  20882661.967    20882661.7004   20882668.6654
       208.0004        208.0004
  -4874908.45849  -3786204.84348  20195710.882    20195711.5924   20195716.9624
       215.0004        216.0004
   8008069.83248   6233710.29946  24695943.152    24695942.0714   24695949.6734
       166.0004        166.0004
   6330366.50849   4928745.30047  23417067.513    23417068.4064   23417074.3474
       196.0004        197.0004
  -6667004.11148  -4922481.81747  21803495.593    21803496.3244   21803500.7444
       192.0004        193.0004
   3842056.02748   3007436.04246  22961658.835    22961658.4444   22961663.3074
       165.0004        167.0004
 21  2  6  2  2 30.0000000  0 10G01G14G19G28G30G07G08G09G17G21
  -3414015.46449  -2652687.73147  20781515.256    20781516.2034   20781523.5474
       199.0004        199.0004
  -4660883.65648  -3618345.67846  22647467.690    22647469.0064   22647473.7884
       175.0004        175.0004
  -7909221.92647  -6137968.63746  23509097.012    23509096.6814   23509100.7934
       160.0004        164.0004
  -3608241.14547  -2802180.47245  23235313.375    23235313.8184   23235318.2204
       158.0004        160.0004
  -9363123.30649  -7282329.22147  20871712.366    20871712.7484   20871719.4334
       208.0004        209.0004
  -4879357.77249  -3789671.84848  20194865.518    20194865.6864   20194869.6064
       215.0004        216.0004
   8097113.17048   6303094.70746  24712883.427    24712884.4364   24712893.9544
       165.0004        166.0004
   6410062.48349   4990846.02447  23432232.685    23432233.1404   23432240.7404
       195.0004        195.0004
  -6693815.95248  -4943374.15247  21798393.766    21798394.5224   21798398.8814
       194.0004        194.0004
   3917113.36148   3065922.29146  22975941.350    22975941.4504   22975947.4174
       165.0004        167.0004
 21  2  6  2  3  0.0000000  0 10G01G14G19G28G30G07G08G09G17G21
  -3399966.14349  -2641740.18147  20784188.724    20784189.2464   20784196.7174
       198.0004        198.0004
  -4693435.68648  -3643710.88046  22641273.680    22641274.5124   22641279.4064
       174.0004        174.0004
  -7977996.76747  -6191559.42046  23496009.963    23496009.0754   23496012.0284
       162.0004        164.0004
  -3632115.55247  -2820783.89145  23230772.116    23230771.0374   23230775.1064
       159.0004        162.0004
  -9420261.79949  -7326852.71847  20860839.363    20860839.5074   20860846.4504
       209.0004        209.0004
  -4883243.06549  -3792699.34248  20194125.530    20194125.9754   20194130.1564
       215.0004        216.0004
   8186019.24547   6372372.13845  24729801.404    24729800.8614   24729811.4984
       160.0004        158.0004
   6489715.02349   5052912.88747  23447391.304    23447391.5244   23447398.6394
       196.0004        197.0004
  -6720229.55848  -4963956.16847  21793367.207    21793367.6994   21793371.6244
       193.0004        193.0004
   3992530.95348   3124689.23946  22990294.246    22990293.3954   22990298.4154
       166.0004        168.0004
 21  2  6  2  3 30.0000000  0 10G01G14G19G28G30G07G08G09G17G21
  -3385302.69449  -2630314.11647  20786978.266    20786979.6024   20786987.3724
       198.0004        198.0004
  -4726063.85348  -3669135.42746  22635065.400    22635065.6354   22635070.3924
       174.0004        175.0004
  -8046461.56347  -6244908.60346  23482981.631    23482981.3824   23482984.1244
       162.0004        163.0004
  -3656116.64347  -2839486.01545  23226202.116    23226202.2814   23226207.6454
       159.0004        161.0004
  -9476997.29849  -7371062.20347  20850043.137    20850043.0854   20850049.7774
       208.0004        209.0004
  -4886562.94549  -3795286.27248  20193494.566    20193494.5624   20193498.7484
       215.0004        217.0004
   8274786.11047   6441541.00745  24746696.691    24746695.3134   24746702.7684
       159.0004        161.0004
   6569320.85249   5114943.35747  23462540.029    23462540.3454   23462546.9874
       198.0004        199.0004
  -6746245.91148  -4984228.66147  21788416.255    21788416.3564   21788420.9084
       193.0004        192.0004
   4068305.83348   3183734.60246  23004712.800    23004712.9294   23004717.8214
       167.0004        168.0004
 21  2  6  2  4  0.0000000  0  9G01G14G19G28G30G07G09G17G21
  -3370022.47449  -2618407.44347  20789886.260    20789887.2424   20789895.2294
       198.0004        198.0004
  -4758765.47848  -3694617.19646  22628841.133    22628842.8734   22628846.8144
       174.0004        174.0004
  -8114613.17947  -6298013.74346  23470012.781    23470010.8874   23470015.8114
       162.0004        163.0004
  -3680242.01747  -2858285.01345  23221612.520    23221612.5384   23221616.8284
       159.0004        161.0004
  -9533324.69949  -7414953.69547  20839324.336    20839324.4874   20839330.9184
       208.0004        209.0004
  -4889313.82249  -3797429.81848  20192970.245    20192970.7084   20192975.1584
       215.0004        216.0004
   6648880.02849   5176937.45047  23477679.585    23477679.7584   23477687.1844
       199.0004        199.0004
  -6771863.39748  -5004190.33347  21783541.547    21783541.3154   21783545.6784
       192.0004        192.0004
   4144438.71748   3243058.92146  23019200.916    23019200.1874   23019206.5644
       167.0004        169.0004
 21  2  6  2  4 30.0000000  0  9G01G14G19G28G30G07G09G17G21
  -3354128.70849  -2606022.68147  20792911.417    20792912.1254   20792919.8054
       198.0004        198.0004
  -4791543.56748  -3720158.57146  22622605.330    22622605.3234   22622609.7874
       175.0004        176.0004
  -8182454.35847  -6350877.00246  23457103.304    23457103.3694   23457106.1214
       163.0004        166.0004
  -3704495.47447  -2877183.79045  23216996.174    23216997.7134   23217000.9734
       159.0004        161.0004
  -9589244.69749  -7458527.72547  20828682.860    20828682.9504   20828689.9494
       208.0004        208.0004
  -4891498.30749  -3799132.01348  20192554.608    20192555.2444   20192559.5174
       215.0004        216.0004
   6728386.88649   5238890.80447  23492807.664    23492808.8094   23492816.5164
       197.0004        194.0004
  -6797086.14048  -5023844.41147  21778741.520    21778742.3584   21778746.4194
       192.0004        194.0004
   4220924.16148   3302657.97846  23033754.417    23033754.2754   23033761.4294
       167.0004        168.0004
 21  2  6  2  5  0.0000000  0  9G01G14G19G28G30G07G09G17G21
  -3337621.01649  -2593159.52647  20796052.826    20796053.7784   20796060.7434
       198.0004        198.0004
  -4824397.68948  -3745759.15946  22616352.365    22616353.5334   22616358.3704
       176.0004        177.0004
  -8249983.18347  -6403496.85046  23444251.666    23444251.2374   23444255.9634
       164.0004        165.0004
  -3728876.88847  -2896182.31245  23212358.093    23212358.7034   23212361.0704
       159.0004        160.0004
  -9644754.41449  -7501782.03947  20818119.270    20818119.6194   20818126.9624
       208.0004        208.0004
  -4893115.29349  -3800392.00548  20192247.491    20192247.5684   20192252.1124
       215.0004        217.0004
   6807839.28148   5300801.73347  23507927.669    23507927.6374   23507935.3964
       193.0004        190.0004
  -6821914.73648  -5043191.35047  21774017.227    21774017.6624   21774021.4894
       193.0004        194.0004
   4297760.09348   3362530.14346  23048376.529    23048376.2324   23048382.6564
       167.0004        168.0004
 21  2  6  2  5 30.0000000  0  9G01G14G19G28G30G07G09G17G21
  -3320500.07649  -2579818.52147  20799310.247    20799310.7574   20799319.0104
       198.0004        198.0004
  -4857328.25048  -3771419.34246  22610086.386    22610086.4494   22610091.7734
       177.0004        176.0004
  -8317199.95347  -6455873.54646  23431461.934    23431460.7484   23431465.5544
       163.0004        164.0004
  -3753387.59647  -2915281.55745  23207692.232    23207692.5744   23207697.1134
       159.0004        161.0004
  -9699851.99149  -7544715.22847  20807634.816    20807634.7534   20807642.1584
       208.0004        208.0004
  -4894163.49649  -3801208.80048  20192047.185    20192047.7684   20192052.6204
       215.0004        216.0004
   6887234.10548   5362667.79747  23523035.733    23523036.6494   23523043.3994
       191.0004        191.0004
  -6846350.35748  -5062232.09047  21769366.929    21769367.6334   21769371.5834
       194.0004        194.0004
   4374944.31048   3422673.68046  23063064.841    23063064.2364   23063069.6694
       166.0004        167.0004
 21  2  6  2  6  0.0000000  0  9G01G14G19G28G30G07G09G17G21
  -3302765.49749  -2565999.36747  20802685.158    20802686.2364   20802693.7904
       198.0004        199.0004
  -4890334.69848  -3797138.63746  22603804.682    22603805.1654   22603810.5154
       175.0004        174.0004
  -8384103.94647  -6508006.50846  23418730.142    23418729.6274   23418733.3734
       163.0004        164.0004
  -3778026.94147  -2934481.02645  23203003.982    23203004.0134   23203007.8864
       158.0004        160.0004
  -9754534.50449  -7587324.98547  20797229.134    20797229.3124   20797236.3424
       208.0004        209.0004
  -4894641.95249  -3801581.62748  20191956.524    20191957.2514   20191961.4754
       215.0004        216.0004
   6966569.23548   5424487.33947  23538133.690    23538133.9874   23538141.0794
       192.0004        192.0004
  -6870393.35248  -5080966.88947  21764791.540    21764792.0264   21764796.6304
       193.0004        194.0004
   4452475.30948   3483087.45746  23077819.056    23077818.1684   23077822.6414
       166.0004        168.0004
 21  2  6  2  6 30.0000000  0  9G01G14G19G28G30G07G09G17G21
  -3284417.31349  -2551702.06447  20806177.170    20806177.7064   20806185.1154
       198.0004        198.0004
  -4923416.70348  -3822916.84046  22597510.261    22597510.8774   22597514.6094
       174.0004        174.0004
  -8450694.11847  -6559894.95646  23406057.582    23406057.7794   23406061.7484
       162.0004        163.0004
  -3802795.70847  -2953781.36245  23198290.267    23198290.4034   23198294.9234
       158.0004        160.0004
  -9808799.37549  -7629609.29647  20786902.894    20786902.8744   20786910.0944
       208.0004        208.0004
  -4894549.61849  -3801509.68648  20191974.474    20191975.0824   20191978.9574
       215.0004        217.0004
   7045842.26248   5486258.49547  23553218.414    23553218.6524   23553226.7954
       193.0004        193.0004
  -6894044.73748  -5099396.53747  21760290.946    21760291.4634   21760295.3094
       194.0004        194.0004
   4530350.70848   3543769.59846  23092636.667    23092636.1974   23092641.9784
       165.0004        165.0004
 21  2  6  2  7  0.0000000  0  9G01G14G19G28G30G07G09G17G21
  -3265455.22349  -2536926.40147  20809784.874    20809786.0464   20809793.7154
       198.0004        198.0004
  -4956573.64248  -3848753.40746  22591201.630    22591201.8074   22591205.4974
       175.0004        175.0004
  -8516969.35247  -6611537.97646  23393447.638    23393446.6544   23393450.0684
       164.0004        167.0004
  -3827693.50547  -2973182.23645  23193553.692    23193553.7254   23193555.9514
       157.0004        160.0004
  -9862643.72749  -7671565.93747  20776656.416    20776657.0264   20776663.7484
       208.0004        208.0004
  -4893885.19749  -3800991.95948  20192100.515    20192100.9404   20192105.1154
       215.0004        216.0004
   7125051.14448   5547979.64947  23568291.263    23568291.6114   23568299.2294
       192.0004        191.0004
  -6917304.79348  -5117521.24547  21755865.889    21755865.9444   21755869.3924
       194.0004        195.0004
   4608568.71848   3604718.68946  23107520.805    23107520.8754   23107525.8444
       165.0004        165.0004
 21  2  6  2  7 30.0000000  0  9G01G14G19G28G30G07G09G17G21
  -3245880.07249  -2521673.02847  20813509.614    20813510.5864   20813519.1794
       198.0004        198.0004
  -4989806.07548  -3874648.82746  22584877.197    22584877.7054   22584881.0114
       175.0004        175.0004
  -8582930.06547  -6662935.92946  23380894.108    23380893.2684   23380898.3874
       164.0004        164.0004
  -3852721.47447  -2992684.55445  23188790.935    23188790.4804   23188795.5964
       158.0004        161.0004
  -9916065.78849  -7713193.52847  20766490.795    20766490.7794   20766497.6304
       208.0004        208.0004
  -4892648.50249  -3800028.30648  20192335.884    20192336.1264   20192340.7744
       215.0004        216.0004
   7204192.78048   5609648.41947  23583352.224    23583352.2074   23583359.3764
       192.0004        192.0004
  -6940174.67848  -5135341.92747  21751512.653    21751513.1394   21751517.9544
       194.0004        195.0004
   4687126.90447   3665932.85246  23122470.829    23122470.0694   23122475.2364
       164.0004        167.0004
 21  2  6  2  8  0.0000000  0  9G01G14G19G28G30G07G09G17G21
  -3225691.95049  -2505942.00547  20817352.291    20817352.3454   20817360.4364
       198.0004        198.0004
  -5023113.58948  -3900602.74846  22578537.949    22578538.2244   22578543.8184
       175.0004        175.0004
  -8648575.18247  -6714087.96745  23368401.540    23368401.3324   23368405.4384
       161.0004        162.0004
  -3877879.70647  -3012288.37345  23184003.016    23184002.7314   23184006.3254
       160.0004        161.0004
  -9969063.02049  -7754490.06247  20756405.553    20756405.5234   20756412.9424
       208.0004        208.0004
  -4890838.31649  -3798617.77348  20192680.332    20192680.9924   20192685.2824
       215.0004        216.0004
   7283264.78548   5671262.94447  23598398.032    23598398.6394   23598405.9504
       192.0004        193.0004
  -6962656.25648  -5152860.03147  21747234.891    21747235.1174   21747239.2414
       194.0004        194.0004
   4766022.55247   3727409.99045  23137484.891    23137484.5524   23137486.7184
       164.0004        162.0004
 21  2  6  2  8 30.0000000  0  9G01G14G19G28G30G07G09G17G21
  -3204890.64449  -2489733.19447  20821309.822    20821310.5584   20821318.6544
       197.0004        198.0004
  -5056495.61848  -3926614.71946  22572185.342    22572186.1054   22572191.7024
       175.0004        177.0004
  -8713903.77947  -6764993.35145  23355972.530    23355971.1204   23355974.6944
       161.0004        162.0004
  -3903168.42047  -3031993.84545  23179189.987    23179191.0034   23179195.1724
       159.0004        161.0004
 -10021632.56449  -7795453.34947  20746400.969    20746401.8854   20746409.1274
       208.0004        208.0004
  -4888453.41949  -3796759.42848  20193134.293    20193134.6764   20193138.9134
       215.0004        216.0004
   7362265.15248   5732821.64847  23613432.035    23613432.4694   23613439.3504
       192.0004        191.0004
  -6984749.28949  -5170075.39047  21743030.668    21743031.1344   21743035.7284
       195.0004        196.0004
   4845254.54047   3789149.20946  23152562.476    23152561.1034   23152563.8574
       163.0004        163.0004
 21  2  6  2  9  0.0000000  0  9G01G14G19G28G30G07G09G17G21
  -3183476.80849  -2473047.09147  20825385.683    20825386.0494   20825393.2824
       197.0004        198.0004
  -5089952.22848  -3952684.83846  22565820.411    22565820.5294   22565824.8304
       176.0004        177.0004
  -8778915.90147  -6815652.12446  23343598.648    23343598.7804   23343603.0754
       161.0004        163.0004
  -3928587.91847  -3051801.23245  23174352.799    23174352.8454   23174357.5444
       160.0004        162.0004
 -10073772.42049  -7836081.81747  20736480.362    20736480.1784   20736487.1064
       208.0004        209.0004
  -4885493.78449  -3794453.23448  20193697.154    20193697.8164   20193702.0644
       215.0004        216.0004
   7441191.05548   5794322.36647  23628451.221    23628451.3134   23628459.1964
       190.0004        189.0004
  -7006455.32649  -5186989.18647  21738900.542    21738900.6434   21738904.3554
       195.0004        195.0004
   4924819.90047   3851148.20145  23167700.930    23167701.6744   23167705.0544
       162.0004        162.0004
 21  2  6  2  9 30.0000000  0  9G01G14G19G28G30G07G09G17G21
  -3161450.33749  -2455883.58847  20829575.915    20829577.0124   20829584.8494
       197.0004        197.0004
  -5123482.78048  -3978812.52146  22559438.582    22559439.1724   22559444.5824
       177.0004        177.0004
  -8843610.32247  -6866063.36745  23331288.178    23331287.6874   23331292.6214
       161.0004        162.0004
  -3954138.36647  -3071710.70245  23169491.540    23169492.0544   23169495.1684
       159.0004        160.0004
 -10125479.74849  -7876373.24447  20726640.592    20726640.6154   20726647.5584
       209.0004        210.0004
  -4881958.12549  -3791698.17648  20194370.404    20194370.7064   20194375.0464
       215.0004        216.0004
   7520040.44248   5855763.42047  23643456.914    23643456.6214   23643462.7964
       189.0004        189.0004
  -7027775.11949  -5203602.00747  21734842.500    21734843.1704   21734848.0404
       195.0004        195.0004
   5004717.25347   3913405.88746  23182905.931    23182905.8824   23182909.5804
       161.0004        163.0004
 21  2  6  2 10  0.0000000  0  9G01G14G19G28G30G07G09G17G21
  -3138811.80349  -2438243.16447  20833884.965    20833885.7324   20833893.3104
       198.0004        198.0004
  -5157087.34048  -4004997.89746  22553044.264    22553044.5674   22553048.4094
       178.0004        177.0004
  -8907986.74347  -6916226.77746  23319037.277    23319037.1934   23319041.6364
       162.0004        164.0004
  -3979820.24947  -3091722.54345  23164603.345    23164602.8044   23164609.3754
       158.0004        159.0004
 -10176752.42649  -7916325.97947  20716883.866    20716884.2294   20716891.1034
       210.0004        210.0004
  -4877845.51549  -3788493.55548  20195152.685    20195153.3464   20195157.6884
       215.0004        216.0004
   7598810.58248   5917142.72347  23658445.512    23658445.5384   23658452.5334
       190.0004        190.0004
  -7048709.79849  -5219914.73047  21730859.696    21730859.9954   21730864.5664
       195.0004        195.0004
   5084943.56647   3975919.91446  23198173.156    23198172.9814   23198176.7834
       163.0004        166.0004
 21  2  6  2 10 30.0000000  0  9G01G14G19G28G30G07G09G17G21
  -3115561.71149  -2420126.20347  20838308.930    20838309.5804   20838317.5834
       198.0004        198.0004
  -5190765.75248  -4031240.84246  22546635.557    22546636.0444   22546640.2314
       178.0004        179.0004
  -8972045.06047  -6966142.36445  23306846.373    23306846.3694   23306851.9554
       161.0004        162.0004
  -4005633.92447  -3111837.09145  23159692.303    23159692.9004   23159696.2794
       158.0004        161.0004
 -10227588.25649  -7955938.31747  20707209.937    20707210.3324   20707217.3444
       210.0004        210.0004
  -4873155.37749  -3784838.92148  20196045.327    20196045.8594   20196050.0304
       215.0004        216.0004
   7677498.90448   5978458.24147  23673419.199    23673419.0454   23673426.6944
       189.0004        189.0004
  -7069260.60349  -5235928.34347  21726948.399    21726948.9094   21726953.3004
       195.0004        196.0004
   5165497.03947   4038688.84746  23213501.899    23213500.2314   23213504.4994
       162.0004        163.0004
 21  2  6  2 11  0.0000000  0 10G01G14G19G28G30G07G09G22G17G21
  -3091700.76249  -2401533.24647  20842850.322    20842850.6864   20842857.9034
       197.0004        197.0004
  -5224518.09848  -4057541.35746  22540211.452    22540212.2754   22540217.7374
       178.0004        178.0004
  -9035784.88547  -7015809.78746  23294719.793    23294719.1744   23294722.8214
       161.0004        163.0004
  -4031579.99147  -3132054.82545  23154754.895    23154755.5164   23154757.8504
       159.0004        160.0004
 -10277985.20449  -7995208.66647  20697619.963    20697620.0674   20697626.8254
       210.0004        211.0004
  -4867887.68349  -3780734.23548  20197047.896    20197048.1644   20197052.6334
       215.0004        216.0004
   7756102.76748   6039707.98647  23688377.256    23688377.2304   23688384.6634
       190.0004        190.0004
  -4094116.44347  -2894627.82245  24787746.576    24787745.6944   24787748.8654
       135.0004        139.0004
  -7089428.57649  -5251643.63947  21723111.030    21723111.5404   21723115.9524
       196.0004        196.0004
   5246374.90147   4101710.56746  23228891.353    23228891.3674   23228897.4564
       162.0004        163.0004
 21  2  6  2 11 30.0000000  0 10G01G14G19G28G30G07G09G22G17G21
  -3067229.78449  -2382464.95247  20847506.350    20847507.1604   20847513.9004
       197.0004        196.0004
  -5258344.44648  -4083899.58846  22533775.993    22533776.3014   22533779.9474
       178.0004        178.0004
  -9099206.46147  -7065229.18246  23282651.240    23282649.8474   23282654.3194
       162.0004        163.0004
  -4057659.62347  -3152376.63845  23149792.231    23149792.9074   23149795.4204
       159.0004        160.0004
 -10327941.29949  -8034135.51547  20688113.724    20688113.6444   20688120.5294
       210.0004        211.0004
  -4862042.16349  -3776179.30448  20198160.869    20198161.0004   20198165.0874
       215.0004        216.0004
   7834619.30948   6100889.66447  23703318.573    23703318.6294   23703325.4854
       189.0004        189.0004
  -4116641.86646  -2912180.11445  24783459.012    24783458.7964   24783460.6644
       132.0004        138.0004
  -7109215.63849  -5267062.12147  21719345.387    21719345.6034   21719350.4384
       196.0004        196.0004
   5327574.73147   4164983.13846  23244342.427    23244342.8934   23244348.6484
       162.0004        163.0004
 21  2  6  2 12  0.0000000  0 10G01G14G19G28G30G07G09G22G17G21
  -3042148.03549  -2362920.72047  20852279.378    20852279.5274   20852287.6124
       197.0004        198.0004
  -5292243.33548  -4110314.31646  22527324.938    22527325.7274   22527330.0884
       178.0004        178.0004
  -9162307.82447  -7114399.07346  23270643.103    23270642.1844   23270645.5984
       162.0004        164.0004
  -4083871.44647  -3172801.43445  23144804.352    23144804.1434   23144808.3304
       160.0004        161.0004
 -10377453.07349  -8072716.11447  20678691.853    20678692.1154   20678698.8424
       211.0004        211.0004
  -4855617.19449  -3771172.83848  20199382.838    20199383.2754   20199387.7494
       215.0004        216.0004
   7913047.29048   6162002.34747  23718241.516    23718242.1344   23718250.0314
       189.0004        189.0004
  -4139072.69046  -2929658.68145  24779188.422    24779189.0944   24779190.9324
       131.0004        138.0004
  -7128621.72549  -5282183.74647  21715653.021    21715653.2034   21715657.4764
       195.0004        195.0004
   5409095.25647   4228505.63746  23259856.940    23259856.5254   23259862.6114
       162.0004        163.0004
 21  2  6  2 12 30.0000000  0 10G01G14G19G28G30G07G09G22G17G21
  -3016455.56149  -2342900.60447  20857167.947    20857168.7844   20857176.3584
       197.0004        197.0004
  -5326214.01248  -4136784.92946  22520859.702    22520861.1674   22520865.9304
       178.0004        178.0004
  -9225087.83147  -7163318.54246  23258695.978    23258695.1664   23258699.7354
       162.0004        164.0004
  -4110214.83147  -3193328.75245  23139791.420    23139792.0264   23139794.4354
       160.0004        161.0004
 -10426517.71449  -8110948.28847  20669355.321    20669355.4534   20669362.1814
       211.0004        212.0004
  -4848611.00549  -3765713.46948  20200715.869    20200716.7814   20200720.7444
       215.0004        216.0004
   7991384.79148   6223044.56247  23733148.583    23733149.2024   23733157.2784
       188.0004        188.0004
  -4161406.05446  -2947061.26445  24774938.207    24774938.1504   24774939.9434
       134.0004        139.0004
  -7147646.97449  -5297008.61147  21712032.590    21712032.6474   21712037.1304
       195.0004        195.0004
   5490934.82247   4292276.72946  23275430.580    23275429.9124   23275436.0004
       163.0004        165.0004
 21  2  6  2 13  0.0000000  0 10G01G14G19G28G30G07G09G22G17G21
  -2990153.54549  -2322405.51147  20862173.690    20862173.9694   20862181.0004
       197.0004        197.0004
  -5360256.88148  -4163311.83546  22514381.992    22514382.6304   22514387.9104
       178.0004        178.0004
  -9287546.66947  -7211987.77846  23246809.575    23246809.3124   23246813.2804
       162.0004        164.0004
  -4136691.05247  -3213959.56045  23134751.982    23134751.8074   23134757.5934
       158.0004        159.0004
 -10475133.68249  -8148830.86148  20660104.394    20660104.4874   20660110.8774
       212.0004        213.0004
  -4841024.12849  -3759801.63148  20202160.296    20202160.5984   20202164.6214
       215.0004        216.0004
   8069628.81048   6284013.91147  23748038.893    23748039.3464   23748046.6404
       188.0004        189.0004
  -4183640.03647  -2964386.42145  24770709.799    24770709.2984   24770711.1354
       136.0004        143.0004
  -7166293.32249  -5311538.22347  21708484.126    21708484.6734   21708488.2104
       195.0004        195.0004
   5573090.13247   4356293.83446  23291062.178    23291062.3414   23291069.9614
       162.0004        163.0004
 21  2  6  2 13 30.0000000  0 10G01G14G19G28G30G07G09G22G17G21
  -2963242.55149  -2301435.91147  20867294.785    20867295.4394   20867302.1644
       197.0004        197.0004
  -5394371.58748  -4189894.75046  22507890.148    22507891.7044   22507895.4804
       178.0004        179.0004
  -9349684.39248  -7260406.79446  23234987.575    23234986.4154   23234988.9704
       165.0004        168.0004
  -4163300.24747  -3234693.98245  23129688.859    23129688.5284   23129694.1394
       158.0004        161.0004
 -10523298.64149  -8186362.00247  20650938.634    20650938.6334   20650945.4854
       212.0004        212.0004
  -4832855.88049  -3753436.77548  20203714.102    20203714.4354   20203718.9664
       215.0004        216.0004
   8147776.85448   6344908.46447  23762909.972    23762910.4994   23762917.5244
       189.0004        190.0004
  -4205772.79847  -2981632.74045  24766495.924    24766495.1284   24766500.8144
       135.0004        139.0004
  -7184562.13948  -5325773.65847  21705007.392    21705007.4024   21705012.0754
       194.0004        194.0004
   5655559.18747   4420555.41845  23306756.035    23306756.4274   23306763.3444
       161.0004        162.0004
 21  2  6  2 14  0.0000000  0 10G01G14G19G28G30G07G09G22G17G21
  -2935723.37849  -2279992.38847  20872530.656    20872531.5624   20872539.1554
       197.0004        197.0004
  -5428558.05848  -4216533.57346  22501385.380    22501385.7044   22501390.5264
       179.0004        179.0004
  -9411500.77747  -7308575.37646  23223221.523    23223221.1714   23223225.4824
       163.0004        163.0004
  -4190043.00847  -3255532.51245  23124600.571    23124600.5934   23124604.9654
       160.0004        162.0004
 -10571010.53649  -8223540.10247  20641858.827    20641859.1544   20641866.1774
       212.0004        212.0004
  -4824106.26149  -3746618.90248  20205379.488    20205379.9604   20205383.7674
       215.0004        216.0004
   8225826.37148   6405726.24847  23777761.910    23777762.5084   23777769.9934
       189.0004        188.0004
  -4227801.93746  -2998798.29945  24762303.608    24762303.3544   24762307.0944
       134.0004        139.0004
  -7202454.48548  -5339715.72547  21701602.873    21701603.0124   21701607.6674
       194.0004        194.0004
   5738339.36847   4485059.46345  23322511.080    23322509.1264   23322515.8234
       161.0004        162.0004
 21  2  6  2 14 30.0000000  0 10G01G14G19G28G30G07G09G22G17G21
  -2907597.06049  -2258075.76747  20877883.493    20877884.0074   20877891.5804
       197.0004        197.0004
  -5462816.40348  -4243228.40646  22494865.118    22494865.8564   22494871.5944
       178.0004        177.0004
  -9472995.92947  -7356493.67746  23211520.291    23211519.9574   23211523.6824
       163.0004        165.0004
  -4216920.02147  -3276475.63345  23119485.536    23119486.0364   23119490.7074
       161.0004        162.0004
 -10618267.61049  -8260363.79547  20632866.249    20632866.6694   20632873.5564
       212.0004        212.0004
  -4814775.29149  -3739348.02148  20207154.704    20207155.3224   20207159.5904
       215.0004        216.0004
   8303774.55948   6466465.04047  23792595.908    23792596.0334   23792603.1694
       189.0004        190.0004
  -4249725.92047  -3015881.87945  24758134.935    24758133.2034   24758134.5834
       135.0004        141.0004
  -7219972.58848  -5353366.17847  21698269.049    21698269.2974   21698273.0094
       194.0004        194.0004
   5821428.40347   4549804.16045  23338322.330    23338321.3584   23338325.9014
       160.0004        162.0004
 21  2  6  2 15  0.0000000  0 11G01G14G19G03G28G30G07G09G22G17G21
  -2878863.74449  -2235686.16047  20883351.307    20883351.7144   20883359.6294
       197.0004        197.0004
  -5497145.74748  -4269978.53046  22488332.867    22488334.1524   22488337.8674
       177.0004        178.0004
  -9534168.95548  -7404160.94746  23199880.712    23199878.9934   23199883.0254
       165.0004        168.0004
  -3838072.23858  -2983384.58346  24697387.770    24697389.6575   24697398.2844
       168.0004        171.0004
  -4243931.16347  -3297523.29345  23114346.527    23114346.1594   23114349.6464
       160.0004        161.0004
 -10665067.09049  -8296830.92047  20623960.887    20623960.8624   20623967.1414
       212.0004        212.0004
  -4804861.68549  -3731623.13948  20209041.859    20209042.3194   20209045.9704
       215.0004        216.0004
   8381619.65648   6527123.53747  23807409.968    23807409.7974   23807415.7074
       190.0004        190.0004
  -4271541.29947  -3032880.82245  24753982.033    24753980.7744   24753984.1764
       137.0004        142.0004
  -7237116.75348  -5366725.25347  21695007.280    21695007.4464   21695010.9964
       194.0004        195.0004
   5904824.23647   4614787.91945  23354190.468    23354190.3644   23354196.0564
       160.0004        161.0004
 21  2  6  2 15 30.0000000  0 11G01G14G19G03G28G30G07G09G22G17G21
  -2849524.53849  -2212824.43147  20888934.308    20888934.9764   20888942.3594
       197.0004        197.0004
  -5531546.09648  -4296784.00146  22481786.211    22481786.6334   22481791.6934
       176.0004        176.0004
  -9595019.80148  -7451577.17746  23188299.809    23188299.9174   23188303.0554
       165.0004        166.0004
  -3876080.36248  -3013001.24146  24690156.172    24690157.5324   24690165.5914
       174.0004        177.0004
  -4271076.99247  -3318675.90445  23109178.397    23109178.0654   23109183.5644
       158.0004        158.0004
 -10711407.18249  -8332940.08747  20615142.210    20615142.3904   20615149.1274
       212.0004        212.0004
  -4794365.56049  -3723444.35348  20211038.783    20211039.4304   20211043.0944
       215.0004        216.0004
   8459358.87148   6587699.51347  23822203.046    23822203.7044   23822209.3124
       191.0004        191.0004
  -4293246.46047  -3049793.92845  24749852.072    24749851.4364   24749854.1804
       139.0004        145.0004
  -7253888.49249  -5379794.12047  21691815.107    21691815.9364   21691819.1614
       195.0004        195.0004
   5988523.97547   4680008.47945  23370116.916    23370118.2274   23370123.6374
       159.0004        162.0004
 21  2  6  2 16  0.0000000  0 11G01G14G19G03G28G30G07G09G22G17G21
  -2819579.21249  -2189490.39847  20894632.349    20894633.2624   20894640.7034
       196.0004        197.0004
  -5566016.31348  -4323643.91946  22475228.064    22475228.8214   22475232.7204
       177.0004        179.0004
  -9655547.30148  -7498741.43446  23176782.796    23176781.8724   23176785.6084
       165.0004        166.0004
  -3914179.06048  -3042688.49046  24682906.489    24682907.2684   24682915.0464
       175.0004        176.0004
  -4298356.34647  -3339932.53545  23103989.096    23103988.3184   23103993.2194
       157.0004        160.0004
 -10757284.87249  -8368688.93848  20606412.452    20606412.4274   20606419.2314
       212.0004        213.0004
  -4783285.49549  -3714810.54448  20213147.846    20213148.2144   20213151.7274
       215.0004        216.0004
   8536990.52448   6648191.69547  23836973.184    23836974.3674   23836983.1804
       191.0004        190.0004
  -4314838.57747  -3066618.93145  24745741.986    24745741.1184   24745746.8414
       139.0004        143.0004
  -7270288.40649  -5392573.26447  21688695.077    21688695.1264   21688698.4054
       195.0004        196.0004
   6072526.22147   4745464.78345  23386101.985    23386101.9504   23386106.4454
       158.0004        159.0004
 21  2  6  2 16 30.0000000  0 11G01G14G19G03G28G30G07G09G22G17G21
  -2789028.76949  -2165684.85647  20900446.274    20900447.0294   20900454.5794
       197.0004        197.0004
  -5600556.07648  -4350558.00946  22468653.804    22468654.7494   22468660.1794
       177.0004        176.0004
  -9715751.18048  -7545653.53746  23165325.824    23165324.7804   23165329.0724
       165.0004        166.0004
  -3952366.00348  -3072444.53646  24675640.962    24675641.8294   24675647.7954
       177.0004        177.0004
  -4325769.83647  -3361293.68745  23098772.828    23098772.6754   23098777.1954
       159.0004        162.0004
 -10802698.05349  -8404075.84348  20597770.333    20597770.4754   20597777.2914
       212.0004        213.0004
  -4771621.23449  -3705721.52148  20215366.793    20215367.3224   20215371.8914
       215.0004        216.0004
   8614512.48448   6708598.37047  23851726.563    23851727.1584   23851735.1804
       192.0004        194.0004
  -4336314.91147  -3083353.67645  24741654.806    24741653.4424   24741658.9604
       138.0004        142.0004
  -7286317.51849  -5405063.47547  21685644.201    21685644.7264   21685648.4594
       196.0004        196.0004
   6156828.58447   4811154.92445  23402143.781    23402144.3004   23402148.3194
       156.0004        158.0004
 21  2  6  2 17  0.0000000  0 11G01G14G19G03G28G30G07G09G22G17G21
  -2757874.82249  -2141409.04647  20906374.829    20906375.2334   20906382.8864
       197.0004        197.0004
  -5635165.98848  -4377526.76246  22462068.693    22462069.7094   22462074.0074
       177.0004        178.0004
  -9775632.18447  -7592314.03546  23153929.951    23153929.8614   23153933.4664
       164.0004        166.0004
  -3990639.81848  -3102268.26846  24668358.783    24668358.7034   24668365.4864
       176.0004        177.0004
  -4353318.64547  -3382760.28245  23093530.437    23093530.2834   23093534.0204
       160.0004        162.0004
 -10847645.55149  -8439099.86548  20589216.926    20589217.2504   20589224.1644
       213.0004        213.0004
  -4759373.51349  -3696177.84848  20217697.635    20217698.1634   20217702.3604
       215.0004        216.0004
   8691921.22148   6768916.82547  23866457.027    23866457.5824   23866465.0574
       192.0004        192.0004
  -4357674.29447  -3099997.29945  24737590.023    24737589.9794   24737593.9044
       138.0004        143.0004
  -7301977.95049  -5417266.40547  21682664.359    21682664.4974   21682668.7564
       196.0004        197.0004
   6241427.69847   4877076.31845  23418243.438    23418242.4034   23418247.4774
       154.0004        156.0004
 21  2  6  2 17 30.0000000  0 11G01G14G19G03G28G30G07G09G22G17G21
  -2726117.41049  -2116662.99747  20912417.810    20912418.3534   20912426.2364
       197.0004        197.0004
  -5669844.90248  -4404549.28746  22455469.399    22455469.5824   22455475.1914
       178.0004        177.0004
  -9835189.20448  -7638722.09146  23142598.443    23142597.5304   23142600.6274
       167.0004        169.0004
  -4028997.48848  -3132157.32246  24661055.517    24661057.0544   24661065.7594
       172.0004        170.0004
  -4381002.20647  -3404331.88845  23088262.029    23088262.5024   23088265.2254
       160.0004        162.0004
 -10892124.37249  -8473758.69048  20580753.236    20580753.3844   20580760.1194
       213.0004        213.0004
  -4746541.16049  -3686178.61948  20220139.797    20220139.9924   20220144.0214
       214.0004        215.0004
   8769215.40048   6829146.01047  23881165.068    23881165.7174   23881173.6294
       190.0004        189.0004
  -4378913.68147  -3116547.45445  24733548.551    24733547.9744   24733552.7384
       139.0004        144.0004
  -7317270.54449  -5429182.69447  21679753.659    21679754.0644   21679759.1774
       197.0004        197.0004
   6326321.92247   4943227.65845  23434398.687    23434398.4964   23434402.7924
       155.0004        157.0004
 21  2  6  2 18  0.0000000  0 11G01G14G19G03G28G30G07G09G22G17G21
  -2693757.87749  -2091447.76847  20918575.664    20918576.0144   20918584.3604
       197.0004        196.0004
  -5704592.92648  -4431625.67446  22448858.151    22448858.9944   22448862.4914
       178.0004        178.0004
  -9894422.42848  -7684877.81946  23131325.041    23131324.4834   23131328.7854
       169.0004        170.0004
  -4067437.09148  -3162110.17146  24653738.980    24653740.8744   24653751.4074
       168.0004        169.0004
  -4408820.85947  -3426008.77546  23082969.040    23082969.4324   23082972.4014
       162.0004        164.0004
 -10936132.98049  -8508051.12548  20572378.214    20572378.7254   20572385.4684
       213.0004        213.0004
  -4733124.63949  -3675724.19548  20222692.694    20222693.2114   20222697.4594
       214.0004        215.0004
   8846392.10448   6889283.68447  23895853.002    23895852.6844   23895860.0714
       188.0004        188.0004
  -4400031.18447  -3133002.60445  24729531.270    24729531.1614   24729534.1924
       142.0004        147.0004
  -7332197.23749  -5440813.86947  21676913.714    21676913.7844   21676918.4994
       197.0004        198.0004
   6411508.68447   5009606.96345  23450608.191    23450609.1284   23450613.7004
       156.0004        159.0004
 21  2  6  2 18 30.0000000  0 11G01G14G19G03G28G30G07G09G22G17G21
  -2660796.48749  -2065763.56847  20924847.506    20924848.0414   20924855.9284
       196.0004        196.0004
  -5739408.90548  -4458755.02346  22442230.940    22442231.9374   22442236.9764
       177.0004        176.0004
  -9953331.04348  -7730780.63246  23120115.142    23120114.6654   23120119.3964
       170.0004        172.0004
  -4105955.78948  -3192124.69046  24646414.388    24646414.0914   24646421.5654
       173.0004        176.0004
  -4436774.26447  -3447790.63345  23077647.755    23077647.6024   23077653.6404
       160.0004        161.0004
 -10979668.60849  -8541974.99748  20564093.772    20564093.9904   20564101.0484
       213.0004        213.0004
  -4719122.85449  -3664813.72348  20225357.449    20225357.4814   20225361.8074
       214.0004        215.0004
   8923449.74348   6949328.60647  23910516.840    23910516.8384   23910523.3964
       189.0004        190.0004
  -4421024.02647  -3149360.65945  24725538.626    24725536.6294   24725539.4444
       144.0004        148.0004
  -7346758.50049  -5452160.28847  21674142.219    21674142.5514   21674147.7314
       197.0004        198.0004
   6496986.27747   5076212.87845  23466875.032    23466874.2234   23466880.7414
       156.0004        159.0004
 21  2  6  2 19  0.0000000  0 11G01G14G19G03G28G30G07G09G22G17G21
  -2627235.03249  -2039611.79147  20931234.384    20931234.8684   20931242.7624
       196.0004        196.0004
  -5774293.48148  -4485937.79146  22435592.389    22435593.1904   22435598.9654
       175.0004        176.0004
 -10011915.85348  -7776431.13246  23108968.171    23108967.2124   23108970.9064
       171.0004        172.0004
  -4144551.92048  -3222199.55446  24639068.908    24639069.5404   24639075.7864
       175.0004        176.0004
  -4464863.48047  -3469678.35445  23072305.125    23072304.8904   23072306.4934
       159.0004        161.0004
 -11022730.08149  -8575529.40548  20555900.311    20555900.1724   20555906.7094
       213.0004        214.0004
  -4704536.76249  -3653447.95848  20228133.041    20228133.4194   20228137.5784
       214.0004        215.0004
   9000385.06948   7009278.21447  23925156.744    23925157.0574   23925163.4364
       189.0004        190.0004
  -4441890.83547  -3165620.49145  24721565.805    24721563.7404   24721568.0834
       143.0004        146.0004
  -7360956.44949  -5463223.62247  21671441.043    21671441.4904   21671445.3854
       197.0004        197.0004
   6582751.09247   5143042.55545  23483195.171    23483194.9974   23483201.7954
       158.0004        160.0004
 21  2  6  2 19 30.0000000  0 11G01G14G19G03G28G30G07G09G22G17G21
  -2593073.83949  -2012992.66847  20937735.167    20937735.5454   20937743.2254
       196.0004        197.0004
  -5809245.48748  -4513173.11346  22428942.889    22428943.8394   22428947.6264
       176.0004        176.0004
 -10070175.85648  -7821828.51046  23097880.765    23097880.0514   23097884.6634
       171.0004        173.0004
  -4183222.58948  -3252332.47346  24631709.815    24631710.4514   24631717.1074
       174.0004        174.0004
  -4493088.10647  -3491671.58545  23066932.986    23066932.5064   23066937.3334
       159.0004        161.0004
 -11065314.71449  -8608712.24348  20547796.494    20547796.7444   20547803.3494
       214.0004        214.0004
  -4689365.42949  -3641626.15448  20231019.685    20231020.1894   20231024.4974
       214.0004        215.0004
   9077196.23848   7069131.05346  23939773.289    23939773.5314   23939779.8724
       187.0004        186.0004
  -4462628.65047  -3181779.78645  24717618.195    24717617.6424   24717622.0014
       142.0004        145.0004
  -7374791.85749  -5474004.44047  21668808.021    21668808.5424   21668812.5644
       196.0004        195.0004
   6668801.45047   5210094.79245  23499570.272    23499569.9434   23499577.3354
       158.0004        161.0004
 21  2  6  2 20  0.0000000  0 11G01G14G19G03G28G30G07G09G22G17G21
  -2558313.40549  -1985906.59647  20944349.828    20944350.2784   20944358.5064
       196.0004        196.0004
  -5844264.13648  -4540460.36246  22422278.707    22422279.8334   22422284.1644
       176.0004        175.0004
 -10128110.58448  -7866972.43846  23086857.248    23086856.3114   23086858.8514
       171.0004        171.0004
  -4221965.02548  -3282521.31446  24624335.656    24624336.5674   24624344.7454
       170.0004        169.0004
  -4521447.77347  -3513770.02545  23061534.627    23061534.9134   23061539.8324
       157.0004        158.0004
 -11107420.02849  -8641521.58348  20539784.065    20539784.1254   20539790.9554
       214.0004        214.0004
  -4673608.09449  -3629347.71448  20234018.131    20234018.4854   20234023.0914
       214.0004        215.0004
   9153881.52048   7128885.79046  23954364.893    23954365.8024   23954373.4104
       185.0004        185.0004
  -4483234.94447  -3197836.59545  24713695.299    24713696.1694   24713701.1864
       139.0004        143.0004
  -7388265.69848  -5484503.51447  21666243.190    21666243.8104   21666248.5214
       194.0004        194.0004
   6755135.27647   5277367.88145  23515998.659    23515999.0724   23516005.9224
       159.0004        162.0004
 21  2  6  2 20 30.0000000  0 12G01G14G19G03G28G30G07G06G09G22G17G21
  -2522955.00649  -1958354.60447  20951077.597    20951078.6474   20951086.4544
       196.0004        195.0004
  -5879349.18448  -4567799.36046  22415602.741    22415603.7944   22415606.9074
       176.0004        176.0004
 -10185720.09748  -7911862.97646  23075893.676    23075892.3554   23075896.7354
       169.0004        169.0004
  -4260777.11647  -3312764.44546  24616951.500    24616950.9344   24616958.8924
       164.0004        163.0004
  -4549942.87247  -3535974.05945  23056114.244    23056114.7094   23056117.5354
       159.0004        161.0004
 -11149044.23149  -8673956.04248  20531862.923    20531863.0434   20531869.5824
       214.0004        214.0004
  -4657265.10649  -3616612.91648  20237128.271    20237128.5484   20237133.0684
       214.0004        215.0004
  -1902125.79456  -1452112.89645  24372746.862                    24372755.5504
       128.0004        145.0004
   9230438.48748   7188540.55046  23968933.091    23968934.0884   23968941.0904
       185.0004        184.0004
  -4503707.40147  -3213789.18045  24709803.356    24709801.9754   24709805.3574
       139.0004        144.0004
  -7401379.54648  -5494722.09847  21663748.134    21663748.2204   21663752.6384
       194.0004        194.0004
   6841749.95347   5344859.82045  23532480.551    23532480.1024   23532487.9064
       159.0004        160.0004
 21  2  6  2 21  0.0000000  0 12G01G14G19G03G28G30G07G06G09G22G17G21
  -2486999.42149  -1930337.26147  20957919.874    20957921.1104   20957928.2914
       195.0004        195.0004
  -5914499.96948  -4595189.56146  22408912.712    22408913.0994   22408918.1774
       175.0004        174.0004
 -10243003.97948  -7956499.74246  23064992.368    23064991.8204   23064995.3474
       168.0004        168.0004
  -4299656.35847  -3343059.89445  24609550.484    24609550.9044   24609560.6454
       160.0004        161.0004
  -4578573.15847  -3558283.39645  23050665.703    23050666.1864   23050670.2284
       160.0004        162.0004
 -11190185.07549  -8706013.85948  20524034.328    20524034.6814   20524040.9384
       213.0004        214.0004
  -4640336.15849  -3603421.54748  20240349.928    20240350.3094   20240354.2404
       214.0004        215.0004
  -2010743.92847  -1536750.38045  24352077.904    24352076.9344   24352084.8644
       138.0004        144.0004
   9306865.07548   7248093.69946  23983477.465    23983477.9134   23983484.4904
       185.0004        186.0004
  -4524043.76347  -3229635.70845  24705930.638    24705930.5864   24705936.2934
       139.0004        143.0004
  -7414134.60948  -5504661.10247  21661321.578    21661321.7134   21661326.0684
       194.0004        195.0004
   6928643.81947   5412569.28345  23549017.222    23549016.5484   23549023.3554
       158.0004        160.0004
 21  2  6  2 21 30.0000000  0 12G01G14G19G03G28G30G07G06G09G22G17G21
  -2450448.58349  -1901856.08547  20964876.659    20964876.6084   20964884.1074
       196.0004        196.0004
  -5949716.94648  -4622631.35446  22402212.479    22402212.6794   22402216.8234
       175.0004        176.0004
 -10299962.64948  -8000883.10546  23054154.760    23054153.7754   23054156.4234
       169.0004        171.0004
  -4338601.08547  -3373406.38346  24602140.843    24602141.8644   24602150.2504
       162.0004        165.0004
  -4607339.37847  -3580698.65945  23045191.392    23045191.3964   23045195.4894
       159.0004        160.0004
 -11230841.40549  -8737694.13348  20516297.534    20516297.5694   20516304.6694
       214.0004        214.0004
  -4622822.08449  -3589774.23248  20243682.160    20243682.4634   20243687.3754
       213.0004        214.0004
  -2119353.59447  -1621381.24045  24331409.094    24331409.4174   24331418.0874
       142.0004        147.0004
   9383158.13548   7307542.77646  23997997.149    23997997.0054   23998002.7254
       186.0004        186.0004
  -4544242.21947  -3245374.72945  24702088.172    24702087.9124   24702092.9514
       140.0004        145.0004
  -7426533.14249  -5514322.27947  21658961.855    21658962.4624   21658965.7754
       195.0004        196.0004
   7015813.43647   5480493.66345  23565604.829    23565604.0944   23565610.6674
       159.0004        160.0004
 21  2  6  2 22  0.0000000  0 12G01G14G19G03G28G30G07G06G09G22G17G21
  -2413303.64849  -1872911.97347  20971943.923    20971944.6114   20971952.7594
       195.0004        195.0004
  -5984999.64548  -4650124.35946  22395497.616    22395497.7704   22395502.1514
       176.0004        175.0004
 -10356596.67148  -8045013.46046  23043377.650    23043376.8994   23043380.0784
       171.0004        172.0004
  -4377609.12347  -3403802.17546  24594718.320    24594719.1904   24594726.2444
       163.0004        165.0004
  -4636241.93047  -3603220.12845  23039691.956    23039691.7324   23039695.7374
       158.0004        161.0004
 -11271011.39649  -8768995.42248  20508653.987    20508653.8924   20508660.4984
       214.0004        215.0004
  -4604722.41249  -3575670.60548  20247126.751    20247127.2374   20247131.2934
       213.0004        214.0004
  -2227952.23347  -1706003.50745  24310743.755    24310744.6604   24310752.9614
       143.0004        148.0004
   9459315.36948   7366886.09146  24012488.379    24012488.5264   24012496.1784
       185.0004        184.0004
  -4564301.11847  -3261005.00845  24698269.151    24698269.9114   24698275.3354
       138.0004        142.0004
  -7438576.73649  -5523706.87047  21656669.999    21656670.1684   21656674.5354
       196.0004        196.0004
   7103256.27647   5548630.91345  23582245.277    23582244.9534   23582250.5014
       158.0004        160.0004
