     2.11           OBSERVATION DATA    G (GPS)             RINEX VERSION / TYPE
teqc  2018Jun8                          20210202 03:10:38UTCPGM / RUN BY / DATE
Linux2.6.32-573.12.1.el6.x86_64|x86_64|gcc|Win64-MinGW64|=+ COMMENT
BIT 2 OF LLI FLAGS DATA COLLECTED UNDER A/S CONDITION       COMMENT
-Unknown-                                                   MARKER NAME
CRNO                                                        MARKER NUMBER
-Unknown-           -Unknown-                               OBSERVER / AGENCY
-Unknown-           ASHTECH             -Unknown-           REC # / TYPE / VERS
-Unknown-           -Unknown-                               ANT # / TYPE
   408077.4825 -6158372.0476  1605163.0470                  APPROX POSITION XYZ
        0.0000        0.0000        0.0000                  ANTENNA: DELTA H/E/N
     1     1                                                WAVELENGTH FACT L1/2
     7    L1    L2    C1    P1    P2    S1    S2            # / TYPES OF OBSERV
    30.0000                                                 INTERVAL
Forced Modulo Decimation to 30 seconds                      COMMENT
 SNR is mapped to RINEX snr flag value [1-9]                COMMENT
  L1: 1 -> 1;  90 -> 5; 210 -> 9                            COMMENT
  L2: 1 -> 1; 150 -> 5; 250 -> 9                            COMMENT
pseudorange smoothing corrections not applied               COMMENT
  2021     2     5     0     0   30.0000000     GPS         TIME OF FIRST OBS
                                                            END OF HEADER
 21  2  5  0  0 30.0000000  0  9G27G03G07G08G21G16G09G04G01
 -15259154.91749 -11869943.32247  22131022.136    22131022.7964   22131030.4574
       212.0004        212.0004
    254255.67048    221855.27146  24440828.779    24440829.6794   24440839.3964
       171.0004        172.0004
  -6995565.93347  -5421269.42546  23554263.732    23554264.3024   23554269.3824
       164.0004        167.0004
 -22666910.95349 -17634668.08647  20229174.242    20229174.4134   20229182.2794
       212.0004        212.0004
 -11552607.12047  -8989051.73845  22538428.206    22538426.3874   22538432.4514
       160.0004        162.0004
    127040.75146    134779.85445  24607853.149    24607853.2824   24607858.6724
       127.0004        134.0004
 -19012774.52749 -14465333.73047  20921728.830    20921729.1944   20921735.6694
       211.0004        211.0004
 -20105078.27049 -15640782.57347  20526286.995    20526287.4864   20526293.3334
       208.0004        207.0004
  -4381545.37247  -3394512.72045  23819299.372    23819300.8194   23819314.5894
       140.0004        144.0004
 21  2  5  0  1  0.0000000  0  9G27G03G07G08G21G16G09G04G01
 -15172928.59349 -11802753.99247  22147430.961    22147430.7794   22147438.6874
       212.0004        212.0004
    307372.50448    263244.84446  24450938.428    24450939.3384   24450948.2154
       173.0004        175.0004
  -7066720.74948  -5476714.73646  23540724.687    23540725.1164   23540729.2064
       167.0004        170.0004
 -22642990.72349 -17616028.95047  20233726.004    20233726.2614   20233734.2374
       211.0004        212.0004
 -11600455.07247  -9026335.82545  22529321.281    22529320.2464   22529327.1774
       160.0004        162.0004
    202890.63646    193883.68445  24622287.172    24622286.7514   24622293.5794
       127.0004        136.0004
 -19041788.91549 -14487942.35747  20916207.242    20916207.5534   20916214.7444
       211.0004        211.0004
 -20062507.22749 -15607610.35947  20534387.905    20534388.2904   20534394.6754
       208.0004        207.0004
  -4454243.14947  -3451160.23045  23805467.412    23805469.7774   23805480.3574
       142.0004        147.0004
 21  2  5  0  1 30.0000000  0  9G27G03G07G08G21G16G09G04G01
 -15086340.65949 -11735282.87647  22163907.570    22163907.9774   22163915.8624
       212.0004        212.0004
    360267.13048    304461.27946  24461003.066    24461003.5784   24461013.6114
       173.0004        173.0004
  -7137990.42948  -5532249.52646  23527161.339    23527162.1274   23527167.3864
       168.0004        169.0004
 -22618489.55149 -17596937.11847  20238388.436    20238388.7644   20238396.7364
       211.0004        212.0004
 -11648150.02447  -9063500.65545  22520244.730    22520244.6434   22520250.7294
       160.0004        162.0004
    278575.59246    252858.96045  24636690.408    24636690.4134   24636696.5464
       125.0004        132.0004
 -19070252.43249 -14510121.71747  20910790.595    20910791.0274   20910797.8954
       210.0004        210.0004
 -20019412.35249 -15574029.94947  20542588.646    20542589.1374   20542595.4224
       208.0004        207.0004
  -4527100.28347  -3507931.91245  23791605.499    23791605.0334   23791614.9594
       144.0004        148.0004
 21  2  5  0  2  0.0000000  0  9G27G03G07G08G21G16G09G04G01
 -14999393.32349 -11667531.67947  22180451.765    22180453.2684   22180461.1924
       212.0004        211.0004
    412938.67848    345503.90546  24471026.499    24471027.0184   24471038.1534
       172.0004        173.0004
  -7209372.98848  -5587872.22346  23513577.267    23513577.8214   23513583.5504
       167.0004        168.0004
 -22593407.77449 -17577392.83647  20243161.581    20243161.6694   20243169.4504
       211.0004        211.0004
 -11695688.00647  -9100543.17546  22511199.947    22511199.4744   22511204.0794
       161.0004        163.0004
    354096.09946    311706.17545  24651061.271    24651062.2414   24651065.6634
       124.0004        132.0004
 -19098163.32449 -14531870.45347  20905480.142    20905480.6204   20905486.9664
       211.0004        212.0004
 -19975794.41649 -15540041.92347  20550888.817    20550889.2804   20550895.5954
       208.0004        207.0004
  -4600113.63347  -3564825.24745  23777709.005    23777709.2554   23777721.0284
       143.0004        147.0004
 21  2  5  0  2 30.0000000  0  9G27G03G07G08G21G16G09G04G01
 -14912088.28049 -11599501.79047  22197065.751    22197067.0054   22197074.3464
       211.0004        211.0004
    465386.59548    386372.23546  24481005.662    24481007.1444   24481017.9524
       171.0004        171.0004
  -7280865.10348  -5643580.32746  23499974.548    23499974.1864   23499979.1724
       167.0004        169.0004
 -22567745.41349 -17557396.18147  20248044.151    20248044.4714   20248052.6634
       211.0004        211.0004
 -11743065.14847  -9137460.37846  22502184.872    22502183.9364   22502188.1604
       162.0004        164.0004
    429452.39046    370425.39745  24665402.121    24665400.1404   24665407.6414
       128.0004        136.0004
 -19125519.47549 -14553186.94847  20900274.086    20900274.3744   20900281.2814
       211.0004        212.0004
 -19931653.82649 -15505646.67247  20559288.189    20559288.8004   20559295.2984
       208.0004        206.0004
  -4673279.57947  -3621837.54145  23763784.795    23763786.3954   23763797.6404
       143.0004        147.0004
 21  2  5  0  3  0.0000000  0  9G27G03G07G08G21G16G09G04G01
 -14824430.07849 -11531196.68147  22213748.262    22213748.1254   22213755.2524
       211.0004        212.0004
    517607.64548    427063.76846  24490944.015    24490944.9704   24490955.4654
       170.0004        171.0004
  -7352467.85648  -5699374.64946  23486348.596    23486349.4014   23486352.8894
       169.0004        171.0004
 -22541505.69449 -17536949.61047  20253037.724    20253038.1654   20253046.0804
       211.0004        212.0004
 -11790280.62847  -9174251.61346  22493199.156    22493198.9454   22493205.1914
       162.0004        165.0004
    504642.12246    429014.81145  24679710.055    24679710.9374   24679715.0064
       130.0004        137.0004
 -19152321.59049 -14574071.68847  20895173.078    20895173.7344   20895180.9384
       211.0004        211.0004
 -19886993.78249 -15470846.62947  20567786.401    20567787.2074   20567793.5124
       207.0004        206.0004
  -4746597.41147  -3678968.21045  23749833.437    23749835.3464   23749845.8484
       144.0004        148.0004
 21  2  5  0  3 30.0000000  0  9G27G03G07G08G21G16G09G04G01
 -14736421.04949 -11462618.24447  22230495.356    22230495.9964   22230502.6264
       212.0004        211.0004
    569600.71048    467577.64146  24500839.417    24500839.7114   24500850.1874
       171.0004        172.0004
  -7424179.49248  -5755253.85346  23472701.770    23472701.9444   23472706.2494
       169.0004        170.0004
 -22514689.02949 -17516053.51147  20258141.035    20258141.4844   20258149.0064
       211.0004        211.0004
 -11837331.08447  -9210914.28546  22484244.703    22484244.3534   22484251.2294
       164.0004        166.0004
    579665.47846    487474.55845  24693987.022    24693987.7024   24693992.7224
       132.0004        139.0004
 -19178568.17849 -14594523.59047  20890179.267    20890179.5374   20890186.1304
       211.0004        211.0004
 -19841815.29149 -15435642.64047  20576384.355    20576384.7794   20576390.7994
       207.0004        206.0004
  -4820064.10947  -3736214.85245  23735854.454    23735854.6804   23735864.6974
       146.0004        149.0004
 21  2  5  0  4  0.0000000  0  9G27G03G07G08G21G16G09G04G01
 -14648063.83049 -11393768.44147  22247310.556    22247309.8494   22247316.9794
       212.0004        211.0004
    621364.54248    507912.88646  24510689.042    24510689.5024   24510698.9944
       170.0004        171.0004
  -7495998.20948  -5811216.44846  23459035.229    23459036.0234   23459039.9064
       169.0004        170.0004
 -22487296.72049 -17494708.83547  20263353.526    20263353.9944   20263361.7594
       211.0004        212.0004
 -11884213.23547  -9247445.76546  22475322.404    22475322.2004   22475329.4934
       163.0004        164.0004
    654522.19647    545804.51045  24708230.797    24708231.1564   24708236.4104
       135.0004        141.0004
 -19204258.00049 -14614541.62947  20885290.145    20885290.7094   20885297.5894
       211.0004        212.0004
 -19796119.60849 -15400035.61547  20585079.980    20585080.1704   20585086.9964
       207.0004        206.0004
  -4893676.94147  -3793575.37245  23721844.562    23721845.7034   23721858.0054
       146.0004        149.0004
 21  2  5  0  4 30.0000000  0  8G27G03G07G08G21G09G04G01
 -14559359.98349 -11324648.56147  22264188.816    22264189.2514   22264196.7734
       211.0004        211.0004
    672898.81148    548069.28646  24520495.076    24520496.3364   24520506.7514
       169.0004        169.0004
  -7567921.80448  -5867260.80046  23445348.313    23445349.0384   23445353.4124
       169.0004        169.0004
 -22459328.65949 -17472915.51847  20268675.705    20268675.9734   20268683.7244
       211.0004        211.0004
 -11930923.33047  -9283843.20546  22466434.192    22466434.4044   22466441.0024
       164.0004        165.0004
 -19229388.89649 -14634124.14447  20880508.485    20880508.9814   20880515.6004
       211.0004        212.0004
 -19749907.11549 -15364025.88247  20593873.679    20593874.2234   20593880.5234
       206.0004        205.0004
  -4967432.08947  -3851046.77245  23707809.782    23707811.5904   23707822.5754
       148.0004        151.0004
 21  2  5  0  5  0.0000000  0  8G27G03G07G08G21G09G04G01
 -14470313.09649 -11255261.36847  22281133.731    22281134.6534   22281141.9794
       212.0004        212.0004
    724201.32048    588045.02846  24530259.211    24530259.7924   24530270.6444
       169.0004        171.0004
  -7639949.12248  -5923385.93346  23431641.125    23431641.8524   23431647.8864
       168.0004        169.0004
 -22430786.80549 -17450675.09147  20274107.181    20274107.3984   20274114.8364
       211.0004        211.0004
 -11977458.96247  -9320104.68346  22457578.289    22457578.5034   22457585.1474
       164.0004        165.0004
 -19253960.74949 -14653271.02847  20875832.333    20875832.7064   20875839.8014
       212.0004        212.0004
 -19703180.09849 -15327615.22247  20602765.975    20602766.4594   20602772.3114
       206.0004        205.0004
  -5041327.83547  -3908627.73545  23693747.668    23693748.4884   23693760.1704
       148.0004        152.0004
 21  2  5  0  5 30.0000000  0  8G27G03G07G08G21G09G04G01
 -14380927.84749 -11185610.53547  22298144.967    22298144.6564   22298151.5904
       212.0004        212.0004
    775268.74248    627837.57846  24539977.297    24539977.3544   24539987.1724
       169.0004        170.0004
  -7712080.36648  -5979592.06646  23417916.672    23417916.6864   23417921.5154
       170.0004        173.0004
 -22401674.46749 -17427990.14447  20279647.389    20279647.3744   20279654.7454
       211.0004        212.0004
 -12023818.63447  -9356229.07646  22448757.563    22448757.4284   22448763.8414
       163.0004        164.0004
 -19277974.38449 -14671982.96147  20871262.557    20871263.1254   20871269.9904
       212.0004        212.0004
 -19655941.95949 -15290806.29447  20611754.869    20611755.2924   20611761.2514
       206.0004        204.0004
  -5115363.32547  -3966317.58745  23679660.867    23679660.2994   23679670.8814
       149.0004        151.0004
 21  2  5  0  6  0.0000000  0  8G27G03G07G08G21G09G04G01
 -14291208.32049 -11115699.20447  22315217.721    22315217.5344   22315225.0054
       212.0004        212.0004
    826098.32248    667444.83046  24549648.984    24549650.0674   24549661.4284
       169.0004        171.0004
  -7784315.49648  -6035879.17846  23404171.073    23404170.9604   23404175.8474
       174.0004        176.0004
 -22371994.02849 -17404862.50947  20285295.201    20285295.4904   20285302.7474
       211.0004        212.0004
 -12070001.00747  -9392215.29846  22439970.215    22439969.8054   22439973.8234
       164.0004        166.0004
 -19301430.18349 -14690260.19847  20866799.609    20866800.0054   20866806.2024
       212.0004        212.0004
 -19608195.51649 -15253601.27247  20620840.279    20620840.6874   20620847.0264
       205.0004        203.0004
  -5189537.26947  -4024115.31545  23665545.536    23665546.3604   23665555.8774
       149.0004        153.0004
 21  2  5  0  6 30.0000000  0  8G27G03G07G08G21G09G04G01
 -14201155.57449 -11045528.22947  22332351.447    22332353.1694   22332361.1754
       212.0004        211.0004
    876690.41148    706866.99446  24559277.058    24559277.5444   24559289.0054
       171.0004        172.0004
  -7856651.48148  -6092244.82346  23390403.040    23390405.3874   23390409.5404
       173.0004        172.0004
 -22341745.33549 -17381292.08347  20291051.452    20291051.3874   20291059.0334
       211.0004        211.0004
 -12116001.54848  -9428059.84346  22431215.971    22431215.0064   22431220.9684
       165.0004        166.0004
 -19324325.56249 -14708100.74747  20862442.784    20862442.8554   20862449.6224
       212.0004        212.0004
 -19559940.68349 -15216000.11447  20630023.469    20630023.7974   20630029.4524
       205.0004        204.0004
  -5263845.38747  -4082017.62945  23651405.578    23651405.8204   23651415.1234
       150.0004        153.0004
 21  2  5  0  7  0.0000000  0  8G27G03G07G08G21G09G04G01
 -14110772.25349 -10975099.67147  22349552.115    22349552.5864   22349559.6534
       211.0004        210.0004
    927043.73548    746103.11546  24568857.845    24568858.5594   24568869.4584
       167.0004        167.0004
  -7929086.63548  -6148687.80246  23376623.306    23376623.0224   23376625.9374
       173.0004        175.0004
 -22310929.53149 -17357279.75347  20296914.722    20296915.3044   20296923.4944
       211.0004        212.0004
 -12161817.49148  -9463760.52946  22422497.328    22422496.9654   22422504.1764
       165.0004        166.0004
 -19346659.48949 -14725503.80647  20858192.514    20858193.0774   20858199.7264
       212.0004        212.0004
 -19511178.92049 -15178003.94747  20639302.276    20639302.6604   20639308.7224
       205.0004        203.0004
  -5338284.84947  -4140022.27245  23637241.255    23637241.2834   23637250.3934
       151.0004        153.0004
 21  2  5  0  7 30.0000000  0  8G27G03G07G08G21G09G04G01
 -14020062.69349 -10904416.89447  22366813.561    22366814.3684   22366820.7424
       210.0004        208.0004
    977155.40948    785150.96146  24578394.387    24578394.6604   24578405.3574
       165.0004        166.0004
  -8001620.45048  -6205207.63646  23362818.898    23362817.9914   23362823.5224
       172.0004        170.0004
 -22279549.32049 -17332827.61847  20302885.877    20302886.7744   20302894.9374
       211.0004        212.0004
 -12207446.74848  -9499315.76346  22413815.478    22413814.4874   22413820.8294
       166.0004        167.0004
 -19368432.61349 -14742469.87147  20854049.185    20854049.2854   20854056.4554
       212.0004        212.0004
 -19461913.29049 -15139615.15547  20648677.113    20648677.8584   20648683.7074
       205.0004        204.0004
  -5412854.47947  -4198128.32345  23623049.468    23623050.1904   23623058.7684
       151.0004        154.0004
 21  2  5  0  8  0.0000000  0  8G27G03G07G08G21G09G04G01
 -13929029.40949 -10833481.84747  22384136.844    22384137.6304   22384144.5744
       210.0004        210.0004
   1027024.39448    824009.67346  24587885.075    24587885.7784   24587895.4664
       167.0004        169.0004
  -8074251.76348  -6261803.43646  23348997.593    23348997.7304   23349001.6564
       170.0004        171.0004
 -22247605.98749 -17307936.69747  20308965.570    20308965.8704   20308973.2604
       211.0004        212.0004
 -12252886.53448  -9534723.35046  22405167.551    22405167.5664   22405172.3884
       165.0004        166.0004
 -19389643.78149 -14758998.05447  20850012.842    20850013.2214   20850020.0114
       212.0004        212.0004
 -19412145.17549 -15100834.82247  20658147.967    20658148.4204   20658154.6324
       205.0004        203.0004
  -5487551.26147  -4256333.45945  23608835.431    23608835.3834   23608845.1984
       152.0004        155.0004
 21  2  5  0  8 30.0000000  0  8G27G03G07G08G21G09G04G01
 -13837674.43649 -10762296.14947  22401521.304    22401521.4284   22401528.8214
       209.0004        208.0004
   1076650.04148    862678.81146  24597330.303    24597329.9434   24597339.7644
       170.0004        172.0004
  -8146978.20248  -6318473.37646  23335157.649    23335159.3494   23335162.4454
       171.0004        174.0004
 -22215100.49049 -17282607.72447  20315151.186    20315151.3764   20315158.8654
       211.0004        212.0004
 -12298133.25148  -9569980.47246  22396557.581    22396557.2864   22396563.0454
       165.0004        166.0004
 -19410291.47649 -14775087.16047  20846083.661    20846084.0674   20846090.7004
       212.0004        212.0004
 -19361875.47949 -15061663.64547  20667713.587    20667714.1484   20667720.3424
       204.0004        203.0004
  -5562371.85147  -4314635.07545  23594598.575    23594598.4674   23594606.6464
       153.0004        157.0004
 21  2  5  0  9  0.0000000  0  8G27G03G07G08G21G09G04G01
 -13746002.25849 -10690863.29847  22418964.697    22418966.3264   22418973.0534
       208.0004        207.0004
   1126029.25948    901155.91246  24606725.012    24606726.0144   24606736.9484
       171.0004        172.0004
  -8219799.55648  -6375217.26746  23321300.277    23321300.9074   23321305.7204
       172.0004        174.0004
 -22182035.05649 -17256842.44347  20321443.301    20321443.2754   20321451.0634
       211.0004        212.0004
 -12343185.27448  -9605085.93446  22387985.226    22387983.6474   22387989.5784
       165.0004        166.0004
 -19430376.56649 -14790737.87448  20842261.271    20842261.7854   20842269.0114
       212.0004        213.0004
 -19311107.50949 -15022104.19547  20677375.336    20677375.2404   20677380.8014
       204.0004        203.0004
  -5637315.20647  -4373032.38845  23580336.540    23580336.9514   23580346.2784
       155.0004        157.0004
 21  2  5  0  9 30.0000000  0  8G27G03G07G08G21G09G04G01
 -13654012.96049 -10619183.34047  22436471.963    22436471.8674   22436478.1044
       208.0004        208.0004
   1175163.54848    939442.12946  24616076.312    24616076.5714   24616086.8474
       171.0004        173.0004
  -8292711.74948  -6432031.91746  23307424.523    23307425.0714   23307431.0254
       172.0004        172.0004
 -22148408.90549 -17230640.24947  20327842.396    20327842.6144   20327849.4534
       211.0004        211.0004
 -12388036.65247  -9640035.04346  22379449.523    22379449.3114   22379454.4864
       164.0004        165.0004
 -19449895.53649 -14805947.46748  20838547.607    20838547.9304   20838554.5984
       212.0004        213.0004
 -19259840.25649 -14982155.70647  20687130.287    20687130.8124   20687136.8024
       204.0004        202.0004
  -5712375.78847  -4431521.03545  23566052.790    23566053.2584   23566062.5394
       154.0004        157.0004
 21  2  5  0 10  0.0000000  0  8G27G03G07G08G21G09G04G01
 -13561711.78649 -10547260.34047  22454036.159    22454036.2564   22454042.5424
       208.0004        208.0004
   1224049.15848    977534.59746  24625378.413    24625378.7464   24625390.0474
       171.0004        173.0004
  -8365715.45848  -6488917.91246  23293533.899    23293533.9344   23293537.4844
       171.0004        171.0004
 -22114226.14149 -17204004.31747  20334346.894    20334346.9024   20334354.5004
       211.0004        211.0004
 -12432687.60348  -9674827.96646  22370953.032    22370953.0114   22370957.6174
       165.0004        166.0004
 -19468850.13949 -14820717.28747  20834940.662    20834940.7324   20834947.4074
       212.0004        212.0004
 -19208077.86449 -14941821.39347  20696980.327    20696980.7004   20696986.7034
       203.0004        202.0004
  -5787553.38647  -4490100.86145  23551745.948    23551745.4524   23551755.7174
       153.0004        154.0004
 21  2  5  0 10 30.0000000  0  8G27G03G07G08G21G09G04G01
 -13469102.22749 -10475097.03547  22471658.351    22471659.0984   22471665.3374
       208.0004        207.0004
   1272684.00948   1015431.68046  24634633.608    24634633.6314   24634644.9564
       172.0004        172.0004
  -8438809.63648  -6545874.38546  23279624.386    23279625.1774   23279628.0574
       171.0004        172.0004
 -22079488.60149 -17176936.08247  20340957.817    20340957.8644   20340964.2234
       211.0004        211.0004
 -12477135.66148  -9709462.76446  22362494.548    22362494.3734   22362499.4594
       165.0004        166.0004
 -19487240.32649 -14835047.29448  20831440.391    20831441.0584   20831448.1044
       212.0004        213.0004
 -19155822.77049 -14901103.12747  20706924.015    20706924.6494   20706931.0424
       203.0004        202.0004
  -5862845.93447  -4548770.24445  23537418.105    23537418.7774   23537428.3504
       151.0004        154.0004
 21  2  5  0 11  0.0000000  0  8G27G03G07G08G21G09G04G01
 -13376185.94449 -10402694.75547  22489339.928    22489339.8784   22489347.0114
       207.0004        207.0004
   1321068.06748   1053133.30546  24643839.862    24643840.4614   24643852.0964
       169.0004        169.0004
  -8511991.36048  -6602899.06646  23265698.181    23265698.9144   23265703.1674
       172.0004        173.0004
 -22044196.81249 -17149435.98947  20347672.396    20347672.6784   20347680.5244
       211.0004        212.0004
 -12521376.58247  -9743936.20446  22354074.302    22354074.6414   22354081.1464
       164.0004        166.0004
 -19505064.26749 -14848936.10348  20828048.834    20828049.2794   20828056.3164
       212.0004        213.0004
 -19103075.51049 -14860001.40147  20716962.039    20716962.4794   20716968.5194
       203.0004        202.0004
  -5938249.47347  -4607526.14945  23523068.673    23523069.1664   23523080.0024
       152.0004        154.0004
 21  2  5  0 11 30.0000000  0  8G27G03G07G08G21G09G04G01
 -13282966.58449 -10330056.28347  22507079.869    22507079.4974   22507086.8544
       208.0004        208.0004
   1369199.12248   1090637.78346  24652999.622    24653000.5654   24653011.3244
       168.0004        169.0004
  -8585260.34148  -6659991.75146  23251755.564    23251756.3664   23251759.0764
       172.0004        172.0004
 -22008353.16349 -17121505.85047  20354493.698    20354493.8554   20354501.0984
       211.0004        211.0004
 -12565408.58747  -9778246.82846  22345696.797    22345697.2594   22345701.8654
       164.0004        166.0004
 -19522322.14749 -14862383.79048  20824764.731    20824765.3024   20824772.1594
       213.0004        214.0004
 -19049838.74749 -14818518.21147  20727092.302    20727092.7604   20727099.1784
       203.0004        202.0004
  -6013762.12347  -4666367.04645  23508700.398    23508700.7064   23508709.4734
       154.0004        157.0004
 21  2  5  0 12  0.0000000  0  8G27G03G07G08G21G09G04G01
 -13189447.56849 -10257184.31847  22524874.360    22524875.5304   22524883.0994
       207.0004        207.0004
   1417075.36248   1127943.73346  24662111.254    24662112.0614   24662123.4784
       170.0004        172.0004
  -8658615.31948  -6717151.43946  23237795.799    23237796.2344   23237800.5664
       169.0004        169.0004
 -21971959.89349 -17093147.44047  20361418.627    20361419.0784   20361426.8604
       211.0004        211.0004
 -12609229.02847  -9812392.61246  22337357.447    22337356.9374   22337362.6354
       164.0004        166.0004
 -19539013.89349 -14875390.33948  20821588.743    20821588.7474   20821595.9214
       213.0004        213.0004
 -18996114.82349 -14776655.42747  20737314.967    20737316.0154   20737322.5434
       203.0004        202.0004
  -6089381.68047  -4725291.28345  23494309.476    23494310.1144   23494320.4664
       155.0004        158.0004
 21  2  5  0 12 30.0000000  0  8G27G03G07G08G21G09G04G01
 -13095631.12249 -10184080.62147  22542727.356    22542727.6974   22542735.0924
       206.0004        205.0004
   1464696.05048   1165050.48846  24671172.615    24671173.2064   24671185.1374
       170.0004        171.0004
  -8732053.95148  -6774376.33246  23223822.382    23223822.5984   23223827.1404
       170.0004        172.0004
 -21935017.83049 -17064361.41647  20368449.008    20368449.0274   20368456.4224
       210.0004        211.0004
 -12652834.50347  -9846370.87646  22329058.816    22329059.2284   22329065.3354
       164.0004        165.0004
 -19555138.37749 -14887954.88448  20818520.077    20818520.5554   20818527.4364
       213.0004        213.0004
 -18941904.98349 -14734414.00847  20747631.498    20747632.2584   20747638.4344
       203.0004        202.0004
  -6165104.84047  -4784296.27945  23479899.494    23479900.0084   23479909.5274
       153.0004        155.0004
 21  2  5  0 13  0.0000000  0  8G27G03G07G08G21G09G04G01
 -13001520.68749 -10110747.81047  22560635.302    22560635.9044   22560643.5804
       205.0004        204.0004
   1512059.38048   1201956.73046  24680185.992    24680186.2374   24680197.3324
       169.0004        170.0004
  -8805575.39048  -6831665.74246  23209829.769    23209829.7044   23209834.6464
       170.0004        170.0004
 -21897529.07549 -17035149.38847  20375581.934    20375582.5294   20375590.6194
       210.0004        211.0004
 -12696222.50948  -9880179.69746  22320804.053    22320803.7244   22320807.9424
       166.0004        169.0004
 -19570695.58249 -14900077.37948  20815559.910    20815560.4294   20815566.9064
       213.0004        213.0004
 -18887211.66549 -14691795.84647  20758039.286    20758039.6794   20758046.2454
       204.0004        202.0004
  -6240929.29847  -4843380.14845  23465469.333    23465470.5064   23465481.5004
       152.0004        155.0004
 21  2  5  0 13 30.0000000  0  8G27G03G07G08G21G09G04G01
 -12907119.54749 -10037188.47247  22578600.492    22578600.6894   22578608.0504
       205.0004        205.0004
   1559163.63748   1238661.12746  24689147.820    24689148.8414   24689161.7914
       168.0004        170.0004
  -8879178.24848  -6889018.57146  23195824.264    23195824.7054   23195829.5214
       170.0004        173.0004
 -21859496.21849 -17005513.37447  20382819.588    20382820.3944   20382828.0464
       210.0004        211.0004
 -12739391.14148  -9913817.57746  22312589.357    22312588.5964   22312593.5544
       167.0004        168.0004
 -19585685.46049 -14911757.78948  20812707.929    20812707.8254   20812714.3904
       213.0004        213.0004
 -18832037.14649 -14648802.71547  20768538.828    20768539.3114   20768545.2794
       203.0004        201.0004
  -6316852.79047  -4902541.19445  23451022.602    23451023.2264   23451033.5144
       155.0004        158.0004
 21  2  5  0 14  0.0000000  0  8G27G03G07G08G21G09G04G01
 -12812429.44849  -9963403.99347  22596617.660    22596618.5924   22596627.0074
       204.0004        204.0004
   1606008.70048   1275163.52146  24698064.216    24698064.7994   24698077.1994
       169.0004        171.0004
  -8952859.49548  -6946432.51846  23181803.868    23181804.5024   23181808.8404
       172.0004        174.0004
 -21820919.40049 -16975453.52947  20390161.010    20390161.3694   20390168.8004
       210.0004        211.0004
 -12782336.07448  -9947281.14646  22304416.176    22304415.5304   22304421.3874
       165.0004        165.0004
 -19600106.34949 -14922994.86348  20809963.724    20809964.0374   20809970.5214
       214.0004        214.0004
 -18776382.23749 -14605435.28247  20779129.221    20779129.6334   20779136.2994
       203.0004        201.0004
  -6392871.37047  -4961776.41245  23436558.164    23436558.5114   23436567.4924
       154.0004        156.0004
 21  2  5  0 14 30.0000000  0  8G27G03G07G08G21G09G04G01
 -12717455.94049  -9889398.65247  22614690.839    22614691.1184   22614699.5844
       203.0004        203.0004
   1652590.67948   1311460.92146  24706929.143    24706929.5624   24706941.3284
       170.0004        171.0004
  -9026620.36448  -7003908.47146  23167766.471    23167767.2994   23167772.0414
       171.0004        171.0004
 -21781803.13849 -16944973.30947  20397604.690    20397605.3144   20397612.2104
       210.0004        211.0004
 -12825056.86247  -9980570.01846  22296286.503    22296286.8174   22296292.0424
       164.0004        167.0004
 -19613960.48749 -14933790.28648  20807326.785    20807327.2254   20807333.8434
       214.0004        213.0004
 -18720251.52349 -14561697.07047  20789810.640    20789811.3124   20789817.9494
       202.0004        202.0004
  -6468984.93947  -5021085.57845  23422071.068    23422073.3734   23422083.5204
       154.0004        156.0004
 21  2  5  0 15  0.0000000  0  8G27G03G07G08G21G09G04G01
 -12622199.53449  -9815172.88747  22632818.735    22632818.8214   22632825.8554
       203.0004        203.0004
   1698910.73448   1347554.20546  24715742.274    24715743.1094   24715755.6804
       168.0004        169.0004
  -9100456.68548  -7061443.25146  23153717.456    23153717.4604   23153722.0924
       171.0004        173.0004
 -21742147.00949 -16914072.41447  20405150.327    20405150.9234   20405158.8364
       210.0004        210.0004
 -12867548.45848 -10013680.33846  22288201.970    22288202.4584   22288205.9094
       165.0004        165.0004
 -19627245.14649 -14944141.96048  20804798.933    20804799.2874   20804805.9974
       213.0004        214.0004
 -18663644.64349 -14517587.82347  20800582.800    20800583.3884   20800589.5974
       202.0004        201.0004
  -6545188.34347  -5080464.77545  23407571.398    23407572.3864   23407581.5154
       154.0004        156.0004
 21  2  5  0 15 30.0000000  0  8G27G03G07G08G21G09G04G01
 -12526664.34349  -9740729.89147  22650997.995    22650998.0054   22651006.0174
       203.0004        203.0004
   1744966.28448   1383441.38646  24724507.314    24724508.3634   24724520.0274
       168.0004        170.0004
  -9174368.39448  -7119036.76346  23139651.810    23139651.4314   23139656.9094
       172.0004        172.0004
 -21701953.97549 -16882753.16047  20412798.646    20412799.0254   20412807.0984
       210.0004        210.0004
 -12909809.21647 -10046610.75245  22280156.646    22280156.3474   22280163.2894
       163.0004        162.0004
 -19639961.10949 -14954050.53048  20802379.169    20802379.6134   20802386.3174
       213.0004        214.0004
 -18606564.71049 -14473109.96447  20811444.897    20811445.3474   20811451.5584
       202.0004        201.0004
  -6621479.90147  -5139912.69245  23393054.121    23393054.4364   23393064.1984
       154.0004        157.0004
 21  2  5  0 16  0.0000000  0  8G27G03G07G08G21G09G04G01
 -12430854.42049  -9666072.83247  22669230.969    22669230.7684   22669238.1604
       203.0004        203.0004
   1790754.92948   1419120.53846  24733222.236    24733222.4724   24733233.5254
       170.0004        172.0004
  -9248354.78048  -7176688.49346  23125572.558    23125572.1844   23125576.7054
       170.0004        171.0004
 -21661226.76349 -16851017.66547  20420549.937    20420549.8604   20420557.4444
       210.0004        211.0004
 -12951837.80447 -10079360.24246  22272158.784    22272159.4514   22272165.7584
       161.0004        164.0004
 -19652109.19349 -14963516.57748  20800067.707    20800067.6734   20800074.9174
       214.0004        214.0004
 -18549014.95749 -14428266.01547  20822395.817    20822396.5264   20822402.9454
       202.0004        201.0004
  -6697858.15947  -5199428.14045  23378519.286    23378520.5544   23378531.2234
       153.0004        156.0004
 21  2  5  0 16 30.0000000  0  8G27G03G07G08G21G09G04G01
 -12334771.96049  -9591203.35947  22687513.424    22687513.9094   22687521.9184
       202.0004        201.0004
   1836276.17248   1454591.34946  24741884.204    24741884.9984   24741895.9974
       170.0004        171.0004
  -9322413.38548  -7234396.47346  23111479.897    23111479.6174   23111484.3644
       171.0004        174.0004
 -21619966.56449 -16818866.83547  20428400.921    20428400.9734   20428408.6844
       210.0004        210.0004
 -12993630.58448 -10111926.00846  22264211.437    22264209.7974   22264212.9454
       166.0004        170.0004
 -19663688.39949 -14972539.32548  20797863.225    20797863.8814   20797871.1694
       213.0004        213.0004
 -18490996.67549 -14383056.94847  20833437.045    20833437.2274   20833443.4954
       203.0004        201.0004
  -6774319.48747  -5259008.31145  23363970.051    23363970.7094   23363980.0954
       153.0004        156.0004
 21  2  5  0 17  0.0000000  0  8G27G03G07G08G21G09G04G01
 -12238419.07949  -9516123.20347  22705848.915    22705849.7434   22705857.4154
       202.0004        203.0004
   1881529.54948   1489853.37746  24750494.089    24750494.6454   24750507.4934
       167.0004        167.0004
  -9396541.65048  -7292158.76546  23097373.364    23097373.3084   23097378.5854
       173.0004        174.0004
 -21578174.61349 -16786301.68347  20436353.524    20436353.8384   20436361.4974
       210.0004        210.0004
 -13035183.80848 -10144305.15646  22256302.800    22256301.9674   22256306.4204
       169.0004        171.0004
 -19674697.60449 -14981117.94948  20795768.755    20795769.3224   20795776.2314
       213.0004        214.0004
 -18432511.14849 -14337483.82647  20844566.245    20844566.3314   20844572.9124
       203.0004        201.0004
  -6850860.30247  -5318650.40645  23349404.174    23349404.9714   23349415.2684
       153.0004        156.0004
 21  2  5  0 17 30.0000000  0  8G27G03G07G08G21G09G04G01
 -12141800.52049  -9440835.98647  22724236.918    22724236.1954   22724243.2384
       203.0004        203.0004
   1926512.12548   1524904.41746  24759055.746    24759055.6514   24759068.4944
       167.0004        168.0004
  -9470739.65448  -7349975.34846  23083252.206    23083253.2324   23083258.4024
       173.0004        173.0004
 -21535854.48249 -16753324.93047  20444406.520    20444407.1024   20444414.5644
       210.0004        210.0004
 -13076496.72548 -10176496.99446  22248437.993    22248437.7484   22248445.7854
       167.0004        166.0004
 -19685138.38849 -14989253.60548  20793782.167    20793782.7824   20793789.3494
       213.0004        214.0004
 -18373562.23949 -14291549.60647  20855783.908    20855783.9984   20855790.7674
       202.0004        201.0004
  -6927479.63647  -5378353.66545  23334824.330    23334825.0054   23334832.6514
       153.0004        155.0004
 21  2  5  0 18  0.0000000  0  8G27G03G07G08G21G09G04G01
 -12044916.93749  -9365342.30847  22742672.166    22742672.4454   22742678.9244
       203.0004        202.0004
   1971224.85848   1559745.14746  24767563.971    24767564.6074   24767577.4514
       168.0004        169.0004
  -9545003.48748  -7407843.27046  23069122.117    23069122.1364   23069127.2734
       174.0004        177.0004
 -21493005.35549 -16719936.01747  20452560.717    20452561.1784   20452568.7604
       210.0004        210.0004
 -13117564.22847 -10208497.59546  22240621.092    22240621.7464   22240629.2174
       164.0004        163.0004
 -19695008.31249 -14996944.46248  20791903.947    20791904.2374   20791911.4814
       214.0004        214.0004
 -18314149.82649 -14245254.24747  20867089.496    20867090.0584   20867095.9774
       202.0004        200.0004
  -7004172.36947  -5438114.20445  23320231.368    23320230.6944   23320239.3104
       151.0004        154.0004
 21  2  5  0 18 30.0000000  0  8G27G03G07G08G21G09G04G01
 -11947774.21149  -9289646.66647  22761157.825    22761157.9024   22761164.3754
       202.0004        201.0004
   2015663.65748   1594372.47746  24776020.218    24776020.9544   24776034.2084
       168.0004        170.0004
  -9619334.55148  -7465763.54346  23054977.431    23054978.2774   23054982.3334
       176.0004        178.0004
 -21449632.96849 -16686139.32247  20460813.872    20460814.4094   20460822.5224
       210.0004        210.0004
 -13158385.83447 -10240306.62046  22232855.135    22232854.8944   22232861.2084
       163.0004        165.0004
 -19704310.07749 -15004192.57748  20790133.687    20790134.1624   20790141.0504
       214.0004        214.0004
 -18254278.95349 -14198601.60647  20878482.389    20878482.9434   20878489.1244
       202.0004        200.0004
  -7080938.67147  -5497932.02545  23305621.926    23305622.1934   23305632.6714
       152.0004        155.0004
 21  2  5  0 19  0.0000000  0  8G27G03G07G08G21G09G04G01
 -11850373.85449  -9213750.29047  22779691.651    22779692.3804   22779698.9304
       201.0004        200.0004
   2059828.74048   1628786.46646  24784425.810    24784426.3824   24784438.0654
       169.0004        171.0004
  -9693729.55448  -7523733.67246  23040821.307    23040821.0724   23040825.0514
       178.0004        180.0004
 -21405737.32149 -16651934.91747  20469167.189    20469167.5714   20469174.9794
       209.0004        210.0004
 -13198958.13548 -10271921.37946  22225135.987    22225135.2224   22225141.1714
       165.0004        168.0004
 -19713042.18949 -15010996.82348  20788472.009    20788472.2854   20788479.5894
       214.0004        214.0004
 -18193950.35549 -14151592.32347  20889962.878    20889963.3504   20889969.0454
       202.0004        200.0004
  -7157774.25047  -5557803.81145  23291000.578    23291000.8654   23291010.4924
       153.0004        156.0004
 21  2  5  0 19 30.0000000  0  7G27G07G08G21G09G04G01
 -11752716.70849  -9137653.82147  22798275.183    22798275.9894   22798282.5634
       200.0004        201.0004
  -9768184.74348  -7581750.65246  23026651.440    23026651.9074   23026656.9464
       177.0004        177.0004
 -21361318.50749 -16617322.86147  20477619.741    20477620.0794   20477627.8884
       209.0004        210.0004
 -13239276.31748 -10303338.14546  22217464.688    22217463.5244   22217469.4094
       169.0004        172.0004
 -19721202.38049 -15017355.41848  20786918.769    20786919.6424   20786926.7514
       213.0004        214.0004
 -18133164.10249 -14104226.42047  20901529.987    20901530.2784   20901536.2204
       202.0004        200.0004
  -7234674.18247  -5617725.75945  23276366.072    23276367.8634   23276376.4124
       153.0004        156.0004
 21  2  5  0 20  0.0000000  0  7G27G07G08G21G09G04G01
 -11654800.50649  -9061355.49847  22816908.668    22816908.8414   22816915.5724
       202.0004        201.0004
  -9842693.08348  -7639809.11746  23012474.806    23012474.1744   23012478.6364
       178.0004        178.0004
 -21316373.33649 -16582300.66447  20486172.711    20486173.1474   20486180.6154
       209.0004        210.0004
 -13279332.03748 -10334550.40346  22209841.828    22209841.1864   22209846.5464
       171.0004        172.0004
 -19728785.34649 -15023264.23948  20785476.478    20785476.8384   20785483.2864
       213.0004        214.0004
 -18071917.17349 -14056501.55747  20913185.070    20913185.3664   20913191.2374
       201.0004        200.0004
  -7311630.48947  -5677691.65645  23261721.825    23261722.5224   23261732.0914
       153.0004        156.0004
 21  2  5  0 20 30.0000000  0  7G27G07G08G21G09G04G01
 -11556640.71949  -8984867.33847  22835588.348    22835588.1504   22835594.3034
       200.0004        200.0004
  -9917265.15048  -7697917.17546  22998282.653    22998283.2494   22998288.1044
       178.0004        180.0004
 -21270916.33049 -16546879.59447  20494823.245    20494823.6334   20494830.9784
       209.0004        210.0004
 -13319135.27548 -10365565.87746  22202266.646    22202266.8204   22202271.8804
       170.0004        171.0004
 -19735803.53449 -15028732.92948  20784140.660    20784140.9844   20784147.8034
       213.0004        214.0004
 -18010224.27649 -14008429.15047  20924924.629    20924925.2904   20924931.0514
       201.0004        200.0004
  -7388652.76447  -5737708.93345  23247065.468    23247066.5294   23247074.8024
       153.0004        156.0004
 21  2  5  0 21  0.0000000  0  7G27G07G08G21G09G04G01
 -11458236.45349  -8908188.69747  22854314.764    22854314.4964   22854321.2934
       202.0004        203.0004
  -9991895.62048  -7756070.78746  22984081.434    22984081.4014   22984086.1304
       179.0004        179.0004
 -21224945.86349 -16511058.45647  20503570.959    20503571.2754   20503579.0784
       209.0004        210.0004
 -13358679.10748 -10396379.24146  22194741.534    22194741.5934   22194747.1544
       170.0004        170.0004
 -19742253.10849 -15033758.58048  20782913.447    20782913.9324   20782920.8184
       213.0004        214.0004
 -17948083.82549 -13960008.03147  20936749.466    20936750.1384   20936755.8514
       201.0004        199.0004
  -7465734.34347  -5797772.44945  23232397.930    23232398.4624   23232408.0064
       155.0004        157.0004
 21  2  5  0 21 30.0000000  0  7G27G07G08G21G09G04G01
 -11359590.81849  -8831321.98247  22873085.284    22873085.0824   22873092.4444
       202.0004        201.0004
 -10066582.97148  -7814268.72946  22969868.866    22969868.8794   22969873.4384
       178.0004        179.0004
 -21178464.01549 -16474838.84047  20512416.387    20512416.6544   20512424.0264
       209.0004        210.0004
 -13397961.74248 -10426989.07846  22187266.257    22187266.2554   22187272.0144
       169.0004        170.0004
 -19748134.25049 -15038341.30548  20781794.423    20781794.8254   20781801.6564
       214.0004        215.0004
 -17885498.22849 -13911240.06347  20948659.058    20948659.6684   20948666.0474
       201.0004        199.0004
  -7542872.56847  -5857880.10045  23217717.526    23217718.1954   23217727.8954
       156.0004        158.0004
 21  2  5  0 22  0.0000000  0  7G27G07G08G21G09G04G01
 -11260706.76949  -8754269.46147  22891901.356    22891902.0704   22891909.6334
       202.0004        201.0004
 -10141325.23548  -7872509.43046  22955646.083    22955647.0724   22955652.0124
       180.0004        181.0004
 -21131472.77249 -16438222.25947  20521358.215    20521358.7624   20521365.8714
       209.0004        209.0004
 -13436980.27548 -10457393.08646  22179840.296    22179839.9284   22179846.1584
       168.0004        168.0004
 -19753446.95949 -15042481.05548  20780783.502    20780783.6454   20780790.6674
       214.0004        214.0004
 -17822469.72749 -13862126.93047  20960653.634    20960653.7324   20960659.5054
       201.0004        199.0004
  -7620064.47047  -5918029.56145  23203030.000    23203030.8034   23203039.3304
       159.0004        162.0004
 21  2  5  0 22 30.0000000  0  7G27G07G08G21G09G04G01
 -11161586.14049  -8677032.62147  22910763.155    22910764.3164   22910771.9774
       201.0004        201.0004
 -10216119.60648  -7930790.75746  22941412.839    22941413.7434   22941418.6824
       180.0004        180.0004
 -21083973.54149 -16401209.87947  20530397.687    20530397.6984   20530405.0134
       209.0004        209.0004
 -13475730.71248 -10487588.22446  22172465.938    22172466.8764   22172472.3334
       167.0004        168.0004
 -19758190.19049 -15046177.10348  20779880.803    20779881.0854   20779887.8654
       214.0004        214.0004
 -17758999.54149 -13812669.66147  20972731.150    20972731.7224   20972737.7694
       200.0004        199.0004
  -7697306.23147  -5978217.91745  23188331.226    23188331.0474   23188339.6624
       158.0004        159.0004
 21  2  5  0 23  0.0000000  0  7G27G07G08G21G09G04G01
 -11062233.16449  -8599614.70247  22929669.117    22929670.7384   22929677.6934
       200.0004        200.0004
 -10290965.66548  -7989112.33346  22927170.156    22927169.7494   22927175.0404
       180.0004        181.0004
 -21035969.50849 -16363804.11047  20539532.068    20539532.1694   20539539.7994
       209.0004        209.0004
 -13514211.60548 -10517573.29646  22165143.666    22165142.8844   22165149.5124
       167.0004        168.0004
 -19762365.33849 -15049430.45148  20779086.368    20779086.7404   20779093.3864
       214.0004        214.0004
 -17695091.23249 -13762870.97047  20984893.110    20984893.3414   20984899.2044
       201.0004        199.0004
  -7774596.11047  -6038443.74745  23173624.202    23173623.9924   23173632.5344
       159.0004        162.0004
 21  2  5  0 23 30.0000000  0  7G27G07G08G21G09G04G01
 -10962649.58649  -8522017.09947  22948620.134    22948620.7774   22948627.3974
       200.0004        200.0004
 -10365860.36748  -8047471.83046  22912917.697    22912918.2394   22912922.5274
       180.0004        181.0004
 -20987461.54349 -16326005.68047  20548762.482    20548762.8634   20548770.4754
       208.0004        209.0004
 -13552418.77348 -10547345.07646  22157873.865    22157872.6364   22157879.6894
       168.0004        170.0004
 -19765971.26049 -15052240.25448  20778400.313    20778400.7634   20778407.3554
       214.0004        215.0004
 -17630745.97149 -13712731.80347  20997137.009    20997137.4534   20997143.1624
       200.0004        198.0004
  -7851930.01247  -6098703.86345  23158906.321    23158907.7204   23158916.7124
       160.0004        162.0004
 21  2  5  0 24  0.0000000  0  7G27G07G08G21G09G04G01
 -10862839.15349  -8444242.73347  22967614.439    22967614.1084   22967621.0664
       200.0004        199.0004
 -10440802.65148  -8105868.39946  22898656.521    22898657.3124   22898662.3234
       181.0004        182.0004
 -20938452.55649 -16287816.85047  20558089.192    20558089.2934   20558096.7434
       209.0004        209.0004
 -13590351.12448 -10576902.71846  22150656.376    22150655.3224   22150661.4704
       170.0004        172.0004
 -19769008.94749 -15054607.30048  20777822.404    20777822.7124   20777829.4104
       215.0004        215.0004
 -17565966.73949 -13662254.49547  21009463.971    21009464.3974   21009470.4584
       200.0004        198.0004
  -7929305.88147  -6158996.70646  23144183.306    23144183.4524   23144193.3984
       161.0004        163.0004
 21  2  5  0 24 30.0000000  0  7G27G07G08G21G09G04G01
 -10762804.68349  -8366293.80547  22986649.652    22986649.6734   22986657.0164
       200.0004        200.0004
 -10515790.54248  -8164300.51346  22884387.224    22884387.7844   22884391.7624
       181.0004        182.0004
 -20888944.86949 -16249239.41247  20567510.384    20567510.5784   20567517.4004
       209.0004        209.0004
 -13628005.59248 -10606243.84046  22143491.089    22143490.1774   22143495.6974
       171.0004        172.0004
 -19771478.41549 -15056531.56548  20777352.228    20777352.7194   20777359.5044
       215.0004        215.0004
 -17500755.83649 -13611440.81447  21021872.799    21021873.3894   21021879.6454
       200.0004        198.0004
  -8006720.66047  -6219319.84746  23129452.240    23129452.4564   23129461.4514
       162.0004        164.0004
 21  2  5  0 25  0.0000000  0  7G27G07G08G21G09G04G01
 -10662548.67449  -8288172.24947  23005728.077    23005728.1134   23005735.3254
       200.0004        199.0004
 -10590821.66448  -8222766.31246  22870109.439    22870109.5814   22870113.8104
       180.0004        179.0004
 -20838939.95149 -16210274.54047  20577026.119    20577026.0904   20577033.0864
       209.0004        209.0004
 -13665378.62748 -10635365.66046  22136379.098    22136378.8224   22136383.4144
       172.0004        174.0004
 -19773379.39049 -15058012.85748  20776990.314    20776990.7214   20776997.5624
       215.0004        215.0004
 -17435115.14149 -13560292.24447  21034364.762    21034364.8854   21034370.6504
       199.0004        198.0004
  -8084170.94947  -6279670.66645  23114712.175    23114712.6764   23114722.5374
       161.0004        162.0004
 21  2  5  0 25 30.0000000  0  7G27G07G08G21G09G04G01
 -10562074.61449  -8209880.77647  23024847.868    23024847.9994   23024855.3984
       198.0004        198.0004
 -10665894.25448  -8281264.43646  22855824.143    22855824.3424   22855829.0064
       179.0004        181.0004
 -20788440.80249 -16170924.55447  20586634.957    20586635.7314   20586642.9914
       209.0004        209.0004
 -13702468.39848 -10664266.76046  22129320.330    22129320.1434   22129325.4214
       173.0004        173.0004
 -19774712.66649 -15059051.78248  20776736.507    20776736.9764   20776743.9594
       214.0004        214.0004
 -17369047.60149 -13508811.05647  21046936.781    21046937.0714   21046942.8714
       199.0004        198.0004
  -8161654.37847  -6340047.31945  23099968.439    23099968.8834   23099977.1954
       160.0004        162.0004
 21  2  5  0 26  0.0000000  0  7G27G07G08G21G09G04G01
 -10461386.29949  -8131422.34147  23044008.255    23044008.7494   23044015.4144
       197.0004        197.0004
 -10741008.31148  -8339794.82946  22841531.222    22841531.1784   22841534.4174
       180.0004        182.0004
 -20737450.63849 -16131191.92147  20596337.954    20596338.2934   20596345.6284
       208.0004        208.0004
 -13739272.96348 -10692945.58046  22122316.192    22122315.8984   22122322.1624
       172.0004        174.0004
 -19775479.39949 -15059649.20848  20776590.097    20776591.2564   20776597.9374
       214.0004        215.0004
 -17302556.51249 -13456999.80847  21059589.037    21059589.6904   21059595.6124
       199.0004        197.0004
  -8239168.88847  -6400448.18545  23085216.117    23085217.3954   23085225.9024
       160.0004        162.0004
 21  2  5  0 26 30.0000000  0  7G27G07G08G21G09G04G01
 -10360485.43549  -8052798.32047  23063209.303    23063209.3174   23063216.1484
       197.0004        196.0004
 -10816160.38748  -8398354.90446  22827228.615    22827228.4944   22827233.8354
       180.0004        180.0004
 -20685970.17449 -16091077.28847  20606134.437    20606134.3504   20606142.1724
       208.0004        208.0004
 -13775788.56548 -10721399.30946  22115367.782    22115368.2964   22115373.9624
       173.0004        173.0004
 -19775678.57649 -15059804.44748  20776553.426    20776553.6234   20776560.3764
       215.0004        216.0004
 -17235643.00949 -13404859.46547  21072322.862    21072322.8664   21072328.7024
       198.0004        197.0004
  -8316710.28747  -6460870.05346  23070461.988    23070462.4164   23070471.8784
       161.0004        164.0004
 21  2  5  0 27  0.0000000  0  7G27G07G08G21G09G04G01
 -10259376.31549  -7974011.98147  23082449.119    23082449.6874   23082456.2104
       196.0004        196.0004
 -10891349.54448  -8456943.82646  22812921.687    22812921.4254   22812924.6454
       180.0004        180.0004
 -20634003.14049 -16050583.47247  20616022.229    20616023.2134   20616031.3594
       207.0004        207.0004
 -13812014.38448 -10749627.16946  22108474.736    22108474.2064   22108479.9194
       172.0004        172.0004
 -19775311.85449 -15059518.66248  20776622.433    20776623.0064   20776629.7084
       215.0004        215.0004
 -17168310.83549 -13352392.81347  21085135.339    21085135.7544   21085141.6164
       198.0004        197.0004
  -8394276.93247  -6521311.52946  23055701.886    23055702.5544   23055711.6654
       162.0004        165.0004
 21  2  5  0 27 30.0000000  0  7G27G07G08G21G09G04G01
 -10158061.11449  -7895065.08747  23101728.602    23101728.5514   23101736.0774
       195.0004        196.0004
 -10966573.48248  -8515559.89546  22798606.381    22798606.1324   22798610.4594
       180.0004        180.0004
 -20581551.12849 -16009711.79347  20626005.294    20626005.2714   20626012.4474
       208.0004        208.0004
 -13847946.37748 -10777626.11746  22101637.263    22101636.1584   22101642.2844
       171.0004        171.0004
 -19774378.84849 -15058791.67348  20776800.105    20776800.6584   20776807.4814
       215.0004        216.0004
 -17100561.69249 -13299601.29947  21098028.059    21098028.3294   21098034.4704
       199.0004        197.0004
  -8471865.10747  -6581769.80946  23040937.726    23040937.9954   23040946.5554
       164.0004        165.0004
 21  2  5  0 28  0.0000000  0  7G27G07G08G21G09G04G01
 -10056542.29149  -7815959.49047  23121045.721    23121046.3094   23121054.4564
       195.0004        193.0004
 -11041829.92048  -8574201.24646  22784284.396    22784285.1384   22784290.1564
       178.0004        179.0004
 -20528616.03649 -15968463.65447  20636078.950    20636078.6804   20636085.9344
       208.0004        209.0004
 -13883581.83748 -10805393.97646  22094855.706    22094855.6774   22094861.1404
       171.0004        172.0004
 -19772879.41049 -15057623.27148  20777085.813    20777086.0514   20777092.8644
       215.0004        216.0004
 -17032397.53749 -13246486.37247  21110998.736    21110999.0694   21111005.8454
       198.0004        197.0004
  -8549471.43747  -6642242.21846  23026168.403    23026168.5764   23026177.8244
       162.0004        163.0004
 21  2  5  0 28 30.0000000  0  7G27G07G08G21G09G04G01
  -9954820.20148  -7736695.53247  23140402.398    23140403.3204   23140411.7384
       193.0004        192.0004
 -11117114.11648  -8632864.23246  22769959.229    22769959.8674   22769964.7694
       179.0004        180.0004
 -20475197.54549 -15926838.84147  20646243.407    20646243.5624   20646250.8614
       208.0004        208.0004
 -13918915.91348 -10832926.98146  22088132.061    22088130.8064   22088137.4384
       172.0004        173.0004
 -19770811.39349 -15056011.83848  20777479.048    20777479.7874   20777486.6734
       215.0004        216.0004
 -16963818.29149 -13193048.00947  21124048.586    21124049.2074   21124056.1084
       198.0004        197.0004
  -8627090.30247  -6702724.40646  23011397.433    23011399.4384   23011407.4334
       162.0004        164.0004
 21  2  5  0 29  0.0000000  0  7G27G07G08G21G09G04G01
  -9852900.71348  -7657277.75447  23159797.447    23159798.5224   23159806.8914
       192.0004        193.0004
 -11192427.14948  -8691549.70946  22755628.065    22755628.2264   22755632.4104
       179.0004        180.0004
 -20421301.13149 -15884841.63847  20656499.595    20656499.6914   20656506.8314
       207.0004        207.0004
 -13953948.46248 -10860225.04246  22081465.440    22081464.0874   22081470.9444
       171.0004        172.0004
 -19768178.16149 -15053959.97848  20777980.294    20777980.4854   20777987.5134
       215.0004        215.0004
 -16894829.36949 -13139290.42247  21137177.121    21137177.2984   21137184.0044
       198.0004        196.0004
  -8704721.63647  -6763216.32346  22996625.441    22996626.6534   22996635.1324
       162.0004        163.0004
 21  2  5  0 29 30.0000000  0  7G27G07G08G21G09G04G01
  -9750788.26248  -7577709.62447  23179228.727    23179229.5604   23179238.0434
       192.0004        192.0004
 -11267768.90248  -8750257.55446  22741290.748    22741291.5854   22741296.2354
       179.0004        180.0004
 -20366930.32549 -15842474.76447  20666845.500    20666845.8154   20666853.3344
       207.0004        207.0004
 -13988678.66948 -10887287.50846  22074856.641    22074855.4084   22074861.4664
       171.0004        172.0004
 -19764981.64449 -15051469.18948  20778588.592    20778588.7774   20778595.7944
       215.0004        215.0004
 -16825434.75849 -13085216.71547  21150382.594    21150382.9724   21150389.5504
       198.0004        196.0004
  -8782363.97947  -6823716.80746  22981849.916    22981851.2394   22981860.2824
       162.0004        164.0004
 21  2  5  0 30  0.0000000  0  7G27G07G08G21G09G04G01
  -9648485.24948  -7497992.98147  23198698.004    23198697.3644   23198706.3584
       192.0004        192.0004
 -11343136.23248  -8808985.32246  22726948.000    22726948.3344   22726952.9074
       179.0004        179.0004
 -20312087.16349 -15799739.82647  20677281.307    20677281.7104   20677289.8444
       206.0004        206.0004
 -14023103.52148 -10914112.03446  22068305.647    22068305.3104   22068311.2184
       172.0004        172.0004
 -19761221.80149 -15048539.43848  20779303.863    20779304.3194   20779310.9004
       215.0004        215.0004
 -16755636.45749 -13030828.43547  21163664.675    21163665.2714   21163671.7364
       198.0004        196.0004
  -8860013.82847  -6884223.14046  22967073.907    22967074.6214   22967084.6174
       162.0004        164.0004
 21  2  5  0 30 30.0000000  0  7G27G07G08G21G09G04G01
  -9545994.63348  -7418130.18747  23218200.615    23218200.4024   23218209.1044
       190.0004        190.0004
 -11418527.43348  -8867731.71946  22712601.767    22712602.1644   22712606.6084
       179.0004        180.0004
 -20256774.48549 -15756639.04947  20687807.009    20687807.8054   20687815.5254
       206.0004        207.0004
 -14057220.29148 -10940696.51846  22061812.601    22061812.4754   22061818.3344
       172.0004        173.0004
 -19756899.19049 -15045171.18648  20780126.377    20780126.8624   20780133.7404
       215.0004        215.0004
 -16685437.03549 -12976127.61347  21177023.093    21177024.0644   21177029.8684
       197.0004        196.0004
  -8937668.18147  -6944733.00646  22952298.376    22952297.3994   22952307.0754
       162.0004        163.0004
 21  2  5  0 31  0.0000000  0  7G27G07G08G21G09G04G01
  -9443320.06348  -7338124.03347  23237739.793    23237739.7234   23237747.0374
       190.0004        191.0004
 -11493941.46048  -8926495.90546  22698251.184    22698251.3664   22698256.0754
       180.0004        181.0004
 -20200994.73249 -15713174.29147  20698422.112    20698422.7664   20698430.0494
       206.0004        207.0004
 -14091027.19648 -10967039.52646  22055379.773    22055379.8434   22055385.3354
       172.0004        174.0004
 -19752014.99649 -15041365.31848  20781055.950    20781056.4004   20781063.3434
       215.0004        215.0004
 -16614839.68949 -12921116.70947  21190457.665    21190458.1224   21190464.5384
       198.0004        197.0004
  -9015324.67447  -7005244.50445  22937518.704    22937519.4954   22937529.0674
       161.0004        162.0004
 21  2  5  0 31 30.0000000  0  7G27G07G08G21G09G04G01
  -9340461.87448  -7257974.78747  23257312.846    23257313.0934   23257320.7004
       191.0004        191.0004
 -11569373.74448  -8985274.29046  22683896.612    22683896.6784   22683901.8214
       180.0004        181.0004
 -20144748.05649 -15669345.67847  20709126.197    20709126.1014   20709133.2544
       207.0004        207.0004
 -14124519.11948 -10993137.07446  22049007.710    22049007.2474   22049011.7324
       174.0004        175.0004
 -19746567.23949 -15037120.30148  20782093.034    20782093.4214   20782099.9204
       215.0004        216.0004
 -16543844.46249 -12865795.76347  21203967.839    21203968.3414   21203973.9954
       198.0004        196.0004
  -9092977.69747  -7065753.30346  22922741.482    22922742.1134   22922751.7774
       161.0004        163.0004
 21  2  5  0 32  0.0000000  0  7G27G07G08G21G09G04G01
  -9237423.52248  -7177685.17347  23276918.636    23276919.8164   23276927.5014
       189.0004        189.0004
 -11644822.86648  -9044065.82046  22669538.996    22669540.0694   22669544.7964
       180.0004        181.0004
 -20088037.63649 -15625155.74147  20719917.284    20719917.7194   20719924.8544
       207.0004        207.0004
 -14157694.33448 -11018987.89846  22042694.119    22042693.4524   22042699.3474
       174.0004        175.0004
 -19740557.13849 -15032437.12448  20783236.465    20783236.7654   20783243.7204
       215.0004        216.0004
 -16472454.47849 -12810167.22047  21217552.545    21217552.8054   21217559.9754
       197.0004        196.0004
  -9170624.89947  -7126257.57146  22907967.161    22907967.7534   22907976.8484
       161.0004        163.0004
 21  2  5  0 32 30.0000000  0  7G27G07G08G21G09G04G01
  -9134208.25548  -7097257.71047  23296560.043    23296561.4624   23296569.6224
       190.0004        192.0004
 -11720287.16448  -9102869.14046  22655178.455    22655179.4494   22655183.1244
       180.0004        181.0004
 -20030865.81449 -15580606.27147  20730796.908    20730796.9524   20730804.3014
       206.0004        206.0004
 -14190550.44548 -11044590.03246  22036440.827    22036441.3264   22036445.9574
       174.0004        175.0004
 -19733985.53249 -15027316.39648  20784486.280    20784486.8654   20784494.3944
       215.0004        215.0004
 -16400672.52249 -12754233.25547  21231212.269    21231212.8884   21231219.3204
       197.0004        196.0004
  -9248263.42047  -7186755.08846  22893193.109    22893193.4894   22893202.2334
       162.0004        164.0004
 21  2  5  0 33  0.0000000  0  7G27G07G08G21G09G04G01
  -9030820.40948  -7016695.77047  23316235.388    23316235.2394   23316243.0024
       190.0004        190.0004
 -11795766.16848  -9161683.95346  22640815.297    22640816.0814   22640820.6534
       180.0004        181.0004
 -19973236.77649 -15535700.52947  20741763.204    20741763.3784   20741770.9634
       205.0004        206.0004
 -14223086.05648 -11069942.45246  22030249.872    22030249.6184   22030255.1234
       175.0004        175.0004
 -19726854.51349 -15021759.77448  20785843.928    20785844.4654   20785850.9824
       215.0004        215.0004
 -16328502.70949 -12697997.05647  21244945.551    21244946.2844   21244952.4014
       197.0004        195.0004
  -9325891.72447  -7247244.63746  22878420.216    22878421.4584   22878429.4864
       162.0004        163.0004
 21  2  5  0 33 30.0000000  0  7G27G07G08G21G09G04G01
  -8927261.89348  -6936000.80247  23335941.654    23335941.2224   23335948.6934
       190.0004        189.0004
 -11871256.48048  -9220507.53146  22626449.638    22626450.5934   22626455.2504
       181.0004        182.0004
 -19915151.93349 -15490439.61447  20752815.305    20752815.8924   20752823.9684
       205.0004        205.0004
 -14255298.10048 -11095042.70746  22024119.861    22024120.0884   22024125.5664
       175.0004        175.0004
 -19719163.75349 -15015766.96148  20787307.494    20787307.7684   20787314.4074
       215.0004        215.0004
 -16255946.60549 -12641459.84047  21258752.558    21258753.1254   21258759.1324
       196.0004        195.0004
  -9403505.69747  -7307723.01946  22863650.846    22863651.4284   22863660.5624
       161.0004        163.0004
 21  2  5  0 34  0.0000000  0  7G27G07G08G21G09G04G01
  -8823537.01548  -6855176.22747  23355680.221    23355680.7074   23355687.6924
       190.0004        191.0004
 -11946757.57848  -9279339.57446  22612084.178    22612084.1084   22612087.4904
       182.0004        183.0004
 -19856615.41649 -15444826.74747  20763955.224    20763955.3444   20763962.7244
       205.0004        205.0004
 -14287186.05348 -11119890.45246  22018052.057    22018051.6074   22018057.3744
       175.0004        176.0004
 -19710915.40049 -15009339.67148  20788877.243    20788877.5034   20788883.9244
       215.0004        215.0004
 -16183008.24549 -12584624.76547  21272632.458    21272632.8754   21272639.2494
       196.0004        195.0004
  -9481103.76547  -7368188.99946  22848885.234    22848885.8544   22848894.1284
       162.0004        164.0004
 21  2  5  0 34 30.0000000  0  7G27G07G08G21G09G04G01
  -8719648.74748  -6774224.36947  23375450.813    23375450.3384   23375456.8944
       191.0004        193.0004
 -12022267.29248  -9338178.31446  22597714.925    22597714.8074   22597717.8494
       183.0004        183.0004
 -19797629.61349 -15398863.78247  20775180.307    20775180.3204   20775187.5974
       205.0004        206.0004
 -14318746.70748 -11144483.14246  22012047.144    22012046.6514   22012051.8414
       175.0004        176.0004
 -19702110.23549 -15002478.51148  20790552.700    20790553.1174   20790559.6884
       215.0004        215.0004
 -16109690.36049 -12527493.97447  21286584.351    21286585.0464   21286590.6484
       196.0004        194.0004
  -9558682.86147  -7428640.20046  22834122.071    22834122.2844   22834131.2024
       162.0004        164.0004
 21  2  5  0 35  0.0000000  0  7G27G07G08G21G09G04G01
  -8615599.13148  -6693146.72647  23395249.355    23395249.9334   23395257.2564
       192.0004        192.0004
 -12097783.26548  -9397021.92046  22583344.506    22583344.4854   22583348.8684
       184.0004        185.0004
 -19738196.09049 -15352551.92847  20786489.782    20786490.3574   20786497.8284
       205.0004        206.0004
 -14349977.27948 -11168818.61846  22006103.675    22006103.3364   22006108.4864
       174.0004        175.0004
 -19692748.12149 -14995183.34948  20792333.770    20792334.1964   20792341.5134
       215.0004        215.0004
 -16035994.66049 -12470068.74347  21300608.667    21300609.0164   21300614.9284
       196.0004        194.0004
  -9636238.99547  -7489073.50346  22819364.107    22819363.4404   22819372.2324
       162.0004        163.0004
 21  2  5  0 35 30.0000000  0  7G27G07G08G21G09G04G01
  -8511390.59748  -6611945.29647  23415079.730    23415080.3924   23415087.3474
       192.0004        192.0004
 -12173302.94948  -9455868.42246  22568973.121    22568973.5524   22568978.2244
       185.0004        186.0004
 -19678317.73049 -15305893.47747  20797884.263    20797884.6494   20797892.4854
       205.0004        205.0004
 -14380874.57548 -11192894.43246  22000223.628    22000223.4234   22000229.0834
       174.0004        174.0004
 -19682829.40649 -14987454.50648  20794221.135    20794221.6634   20794229.0034
       214.0004        214.0004
 -15961923.34749 -12412350.86847  21314703.981    21314704.2784   21314710.0904
       196.0004        195.0004
  -9713768.72247  -7549486.22646  22804610.631    22804610.1764   22804619.6724
       162.0004        165.0004
 21  2  5  0 36  0.0000000  0  7G27G07G08G21G09G04G01
  -8407025.46848  -6530621.85347  23434939.722    23434940.3984   23434947.6064
       192.0004        193.0004
 -12248823.27748  -9514715.41846  22554601.609    22554601.9424   22554606.3374
       185.0004        185.0004
 -19617995.48549 -15258889.13947  20809363.089    20809363.1444   20809371.0394
       205.0004        204.0004
 -14411435.66648 -11216708.24846  21994408.801    21994408.3354   21994413.9464
       174.0004        175.0004
 -19672354.37149 -14979292.15348  20796214.320    20796215.1584   20796222.0654
       214.0004        214.0004
 -15887478.60549 -12354341.99947  21328869.510    21328870.2404   21328876.4434
       196.0004        195.0004
  -9791268.40147  -7609875.56246  22789861.422    22789862.2374   22789871.1924
       163.0004        165.0004
 21  2  5  0 36 30.0000000  0  7G27G07G08G21G09G04G01
  -8302507.65748  -6449179.35847  23454828.256    23454828.8144   23454835.8444
       192.0004        192.0004
 -12324343.39948  -9573562.25646  22540231.198    22540231.7384   22540235.2224
       185.0004        185.0004
 -19557233.47149 -15211542.10747  20820925.707    20820925.9454   20820933.7914
       204.0004        204.0004
 -14441659.28148 -11240259.09546  21988655.627    21988656.4174   21988662.9354
       174.0004        174.0004
 -19661324.78149 -14970697.66948  20798313.747    20798314.0914   20798320.8124
       214.0004        215.0004
 -15812664.02649 -12296044.92147  21343106.591    21343107.2234   21343112.7664
       195.0004        195.0004
  -9868735.88048  -7670239.78446  22775120.822    22775121.6294   22775130.6094
       165.0004        168.0004
 21  2  5  0 37  0.0000000  0  7G27G07G08G21G09G04G01
  -8197839.41948  -6367619.70647  23474745.889    23474746.4694   23474753.6154
       191.0004        191.0004
 -12399860.80448  -9632406.97546  22525860.329    22525860.9024   22525864.5434
       185.0004        186.0004
 -19496033.34649 -15163853.68947  20832571.051    20832571.6744   20832579.4774
       204.0004        204.0004
 -14471542.36248 -11263544.58446  21982968.498    21982969.8824   21982976.0074
       173.0004        173.0004
 -19649740.98149 -14961671.32048  20800517.516    20800518.1514   20800525.1384
       214.0004        214.0004
 -15737481.76449 -12237461.35447  21357413.333    21357413.9444   21357420.2794
       196.0004        194.0004
  -9946167.46648  -7730576.05046  22760386.370    22760386.6624   22760395.3934
       167.0004        169.0004
 21  2  5  0 37 30.0000000  0  7G27G07G08G21G09G04G01
  -8093024.85648  -6285946.01347  23494691.663    23494692.7574   23494699.7424
       191.0004        193.0004
 -12475374.56748  -9691248.86347  22511490.874    22511491.1524   22511495.2964
       187.0004        188.0004
 -19434399.04249 -15115826.95947  20844300.478    20844300.8234   20844307.6804
       203.0004        204.0004
 -14501083.71348 -11286563.80046  21977347.890    21977348.2904   21977353.3874
       172.0004        173.0004
 -19637605.05249 -14952214.75448  20802827.614    20802827.7894   20802834.7174
       214.0004        215.0004
 -15661935.70649 -12178594.32247  21371789.693    21371789.8554   21371796.0764
       195.0004        194.0004
 -10023561.28448  -7790882.89246  22745659.451    22745658.8604   22745667.5334
       168.0004        169.0004
 21  2  5  0 38  0.0000000  0  7G27G07G08G21G09G04G01
  -7988065.67448  -6204159.66447  23514665.491    23514665.7244   23514672.0854
       190.0004        190.0004
 -12550881.28848  -9750085.27346  22497122.262    22497123.0124   22497126.4314
       186.0004        186.0004
 -19372332.54149 -15067463.46147  20856112.222    20856112.1524   20856118.8794
       204.0004        204.0004
 -14530279.81848 -11309313.98346  21971792.750    21971791.9404   21971797.2494
       172.0004        173.0004
 -19624916.75449 -14942327.77748  20805242.103    20805242.4054   20805249.1004
       214.0004        215.0004
 -15586027.40348 -12119445.01047  21386234.056    21386234.2454   21386240.6124
       194.0004        192.0004
 -10100913.04148  -7851156.95546  22730939.076    22730939.9784   22730948.6154
       168.0004        170.0004
 21  2  5  0 38 30.0000000  0  7G27G07G08G21G09G04G01
  -7882965.23348  -6122263.21747  23534666.008    23534665.2744   23534671.5764
       189.0004        188.0004
 -12626379.02348  -9808914.66446  22482756.360    22482756.2614   22482760.4254
       186.0004        186.0004
 -19309836.29949 -15018765.08647  20868003.995    20868004.5064   20868011.8844
       204.0004        204.0004
 -14559128.41448 -11331793.37646  21966302.807    21966302.8754   21966308.0454
       172.0004        173.0004
 -19611677.50349 -14932011.48548  20807761.475    20807761.8764   20807768.7344
       214.0004        215.0004
 -15509760.05848 -12060015.92647  21400747.374    21400747.7104   21400753.9844
       194.0004        193.0004
 -10178220.12948  -7911396.21646  22716229.131    22716228.5334   22716237.7814
       168.0004        169.0004
 21  2  5  0 39  0.0000000  0  7G27G07G08G21G09G04G01
  -7777727.73048  -6040259.99147  23554691.482    23554691.8264   23554698.3004
       190.0004        191.0004
 -12701867.12648  -9867736.56546  22468390.499    22468390.8334   22468395.4464
       187.0004        187.0004
 -19246914.40049 -14969735.05047  20879977.506    20879977.7684   20879985.5914
       204.0004        203.0004
 -14587629.05048 -11354001.65246  21960879.964    21960878.5564   21960884.8284
       173.0004        173.0004
 -19597889.59549 -14921267.66648  20810384.875    20810385.1854   20810392.4094
       214.0004        215.0004
 -15433137.72348 -12000310.24647  21415328.563    21415329.2204   21415335.5194
       194.0004        193.0004
 -10255480.72748  -7971599.25846  22701525.732    22701526.3194   22701535.6374
       168.0004        169.0004
 21  2  5  0 39 30.0000000  0  7G27G07G08G21G09G04G01
  -7672354.57848  -5958151.01147  23574743.418    23574743.5664   23574750.6364
       190.0004        191.0004
 -12777342.33748  -9926548.38547  22454028.302    22454028.6534   22454032.5264
       187.0004        188.0004
 -19183568.48849 -14920374.57047  20892031.252    20892032.0734   20892039.5934
       203.0004        203.0004
 -14615777.86948 -11375935.74146  21955522.320    21955521.8844   21955528.3344
       173.0004        175.0004
 -19583552.48249 -14910095.86648  20813113.314    20813113.7394   20813120.6194
       215.0004        215.0004
 -15356161.71148 -11940328.93547  21429976.493    21429976.6314   21429983.1604
       194.0004        193.0004
 -10332690.25848  -8031762.45646  22686832.775    22686832.6824   22686842.2834
       169.0004        171.0004
 21  2  5  0 40  0.0000000  0  7G27G07G08G21G09G04G01
  -7566848.21648  -5875938.28647  23594819.502    23594820.4194   23594827.5604
       190.0004        189.0004
 -12852801.97748  -9985348.12647  22439668.530    22439668.9994   22439673.7494
       188.0004        188.0004
 -19119800.09549 -14870684.92647  20904165.487    20904166.3774   20904174.4464
       203.0004        203.0004
 -14643572.22848 -11397593.67846  21950233.415    21950233.2764   21950239.1094
       174.0004        175.0004
 -19568667.02049 -14898496.82448  20815945.861    20815946.0914   20815953.3764
       215.0004        215.0004
 -15278834.33148 -11880073.86947  21444690.933    21444691.3814   21444698.5924
       194.0004        192.0004
 -10409845.11548  -8091883.11546  22672150.406    22672151.5034   22672159.6614
       169.0004        171.0004
 21  2  5  0 40 30.0000000  0  7G27G07G08G21G09G04G01
  -7461212.43248  -5793624.66247  23614921.689    23614922.0084   23614930.2904
       188.0004        188.0004
 -12928244.72348 -10044134.65847  22425313.046    22425313.1184   22425317.5504
       188.0004        189.0004
 -19055613.37349 -14820669.29247  20916380.255    20916380.7364   20916388.6634
       202.0004        203.0004
 -14671010.81648 -11418974.36146  21945012.372    21945012.1214   21945018.6704
       175.0004        176.0004
 -19553235.07449 -14886471.92448  20818882.582    20818882.8564   20818889.5724
       214.0004        214.0004
 -15201159.28748 -11819547.87347  21459472.758    21459473.0714   21459479.2824
       193.0004        192.0004
 -10486943.16248  -8151959.46746  22657478.820    22657479.8974   22657487.3044
       169.0004        170.0004
 21  2  5  0 41  0.0000000  0  7G27G07G08G21G09G04G01
  -7355449.99348  -5711212.41446  23635048.251    23635048.6174   23635055.3394
       186.0004        186.0004
 -13003668.25948 -10102906.23546  22410960.002    22410959.9014   22410965.3354
       188.0004        187.0004
 -18991010.89549 -14770329.69547  20928674.150    20928674.4944   20928682.2394
       202.0004        202.0004
 -14698091.06548 -11440075.82146  21939859.337    21939858.1974   21939864.8844
       176.0004        177.0004
 -19537257.68649 -14874022.02448  20821923.187    20821923.2114   20821929.7494
       214.0004        214.0004
 -15123139.32748 -11758753.13347  21474319.243    21474319.5294   21474325.4444
       193.0004        192.0004
 -10563981.22948  -8211989.12446  22642817.801    22642819.4614   22642828.5264
       170.0004        171.0004
 21  2  5  0 41 30.0000000  0  7G27G07G08G21G09G04G01
  -7249564.20948  -5628703.99746  23655198.674    23655198.1514   23655204.8024
       185.0004        185.0004
 -13079070.96348 -10161661.58246  22396610.794    22396611.2064   22396615.4624
       187.0004        187.0004
 -18925995.64649 -14719668.45447  20941046.007    20941046.4334   20941053.9884
       201.0004        202.0004
 -14724811.25948 -11460896.74246  21934774.753    21934775.1864   21934778.7604
       176.0004        177.0004
 -19520736.37049 -14861148.28248  20825066.888    20825067.1624   20825073.9734
       214.0004        215.0004
 -15044777.62048 -11697692.08147  21489230.939    21489231.5684   21489237.2484
       193.0004        192.0004
 -10640956.50948  -8271969.82446  22628171.579    22628172.5204   22628182.1034
       171.0004        173.0004
 21  2  5  0 42  0.0000000  0  7G27G07G08G21G09G04G01
  -7143557.74148  -5546101.56846  23675370.628    23675371.1044   23675376.7844
       186.0004        186.0004
 -13154450.87548 -10220399.17347  22382266.331    22382267.4164   22382271.7994
       187.0004        188.0004
 -18860570.16649 -14668687.54447  20953495.274    20953496.1164   20953504.0424
       201.0004        202.0004
 -14751168.88048 -11481435.12146  21929759.365    21929758.7984   21929763.1604
       176.0004        177.0004
 -19503672.11049 -14847851.44748  20828314.072    20828314.1934   20828321.2644
       214.0004        214.0004
 -14966076.84648 -11636366.82347  21504207.336    21504207.2744   21504213.8644
       193.0004        192.0004
 -10717865.67848  -8331899.01346  22613536.787    22613536.9984   22613545.6814
       171.0004        172.0004
 21  2  5  0 42 30.0000000  0  7G27G07G08G21G09G04G01
  -7037432.88648  -5463406.86346  23695565.621    23695566.0894   23695572.3224
       186.0004        187.0004
 -13229804.80348 -10279116.52646  22367927.881    22367927.6054   22367931.4594
       187.0004        187.0004
 -18794736.80249 -14617388.83847  20966023.464    20966023.8014   20966031.7564
       202.0004        202.0004
 -14777161.13648 -11501688.82646  21924811.635    21924811.8854   21924817.8914
       177.0004        178.0004
 -19486065.54449 -14834132.07148  20831664.597    20831665.1854   20831671.7264
       214.0004        215.0004
 -14887039.24048 -11574779.10947  21519247.070    21519247.7634   21519253.9254
       192.0004        191.0004
 -10794705.08648  -8391773.87046  22598914.593    22598914.5354   22598923.7564
       171.0004        171.0004
 21  2  5  0 43  0.0000000  0  7G27G07G08G21G09G04G01
  -6931194.60648  -5380623.78546  23715784.036    23715783.5204   23715788.5734
       187.0004        187.0004
 -13305132.77648 -10337813.63746  22353592.704    22353592.7994   22353597.2444
       187.0004        187.0004
 -18728500.32949 -14565775.99147  20978627.490    20978627.8574   20978636.1844
       201.0004        201.0004
 -14802788.05948 -11521657.83346  21919935.815    21919935.9174   21919940.8084
       177.0004        177.0004
 -19467919.95649 -14819992.65448  20835117.906    20835118.1144   20835124.5814
       214.0004        215.0004
 -14807669.75648 -11512932.75747  21534350.812    21534351.1484   21534358.0014
       192.0004        191.0004
 -10871473.68448  -8451593.51146  22584305.055    22584305.5744   22584313.8434
       170.0004        170.0004
 21  2  5  0 43 30.0000000  0  7G27G07G08G21G09G04G01
  -6824843.40748  -5297752.70647  23736021.969    23736020.1614   23736026.6614
       187.0004        188.0004
 -13380430.20648 -10396486.95146  22339264.306    22339264.8534   22339268.2804
       187.0004        187.0004
 -18661861.65649 -14513849.74147  20991308.667    20991309.2394   20991317.1524
       201.0004        201.0004
 -14828045.26448 -11541338.75246  21915128.997    21915128.9794   21915135.3224
       177.0004        178.0004
 -19449234.29149 -14805432.40548  20838672.518    20838673.3104   20838680.2064
       214.0004        214.0004
 -14727968.92048 -11450828.22747  21549517.226    21549518.1784   21549524.1814
       192.0004        191.0004
 -10948166.00048  -8511353.72046  22569710.425    22569711.5534   22569721.4424
       170.0004        171.0004
 21  2  5  0 44  0.0000000  0  8G30G27G07G08G21G09G04G01
  -1683064.13657  -1292326.61445  24249515.276                    24249521.0734
       142.0004        155.0004
  -6718382.83548  -5214796.42746  23756279.778    23756278.8224   23756285.7394
       187.0004        187.0004
 -13455695.79048 -10455135.44946  22324941.222    22324941.8754   22324946.4064
       187.0004        187.0004
 -18594823.16849 -14461611.96147  21004065.155    21004065.7804   21004074.1024
       200.0004        200.0004
 -14852931.08248 -11560730.31046  21910394.245    21910394.0044   21910400.1464
       178.0004        179.0004
 -19430010.47049 -14790452.81648  20842330.936    20842331.3514   20842338.9334
       214.0004        214.0004
 -14647940.28748 -11388468.28647  21564747.162    21564747.2364   21564752.9314
       193.0004        192.0004
 -11024779.55548  -8571052.59346  22555132.300    22555133.1954   22555140.5734
       170.0004        171.0004
 21  2  5  0 44 30.0000000  0  8G30G27G07G08G21G09G04G01
  -1767286.22947  -1357954.18745  24233487.283    24233488.0544   24233494.8834
       150.0004        155.0004
  -6611815.48148  -5131756.92146  23776555.202    23776557.1084   23776564.4934
       185.0004        184.0004
 -13530927.08548 -10513757.20647  22310625.172    22310625.6734   22310630.3774
       187.0004        188.0004
 -18527388.27149 -14409065.26447  21016898.026    21016898.5014   21016906.2424
       200.0004        200.0004
 -14877443.22548 -11579830.64246  21905729.397    21905729.0124   21905734.7614
       178.0004        179.0004
 -19410249.57649 -14775054.70448  20846091.693    20846092.2434   20846099.3474
       214.0004        215.0004
 -14567586.45648 -11325854.91847  21580037.065    21580037.8614   21580044.0094
       193.0004        192.0004
 -11101310.94648  -8630687.40746  22540569.329    22540569.9084   22540577.9214
       169.0004        171.0004
 21  2  5  0 45  0.0000000  0  8G30G27G07G08G21G09G04G01
  -1851611.63747  -1423662.28445  24217440.862    24217440.5944   24217448.5814
       152.0004        155.0004
  -6505143.03448  -5048635.57546  23796853.944    23796855.3394   23796863.9234
       184.0004        184.0004
 -13606120.64548 -10572349.63447  22296317.094    22296317.4344   22296320.9934
       188.0004        188.0004
 -18459558.42449 -14356210.85847  21029806.251    21029806.4444   21029814.1124
       200.0004        200.0004
 -14901578.38448 -11598637.26346  21901136.885    21901136.2204   21901141.4654
       179.0004        179.0004
 -19389951.77549 -14759238.26848  20849954.795    20849955.0044   20849961.6264
       215.0004        215.0004
 -14486909.17648 -11262989.55047  21595389.782    21595390.0234   21595396.6084
       192.0004        191.0004
 -11177755.84448  -8690254.86446  22526022.055    22526022.4774   22526031.3884
       170.0004        171.0004
 21  2  5  0 45 30.0000000  0  8G30G27G07G08G21G09G04G01
  -1936040.44147  -1489450.93445  24201374.879    24201374.7754   24201381.9274
       154.0004        158.0004
  -6398369.78148  -4965435.61546  23817173.377    23817174.2864   23817181.5654
       182.0004        181.0004
 -13681275.58548 -10630911.90447  22282015.222    22282015.4404   22282020.0454
       187.0004        188.0004
 -18391337.55349 -14303051.72647  21042788.427    21042788.2114   21042796.0654
       200.0004        200.0004
 -14925335.87148 -11617149.56146  21896616.458    21896615.1984   21896620.5164
       179.0004        180.0004
 -19369119.86249 -14743005.60648  20853918.400    20853919.1064   20853925.9014
       214.0004        214.0004
 -14405912.73348 -11199875.45047  21610802.345    21610802.7934   21610808.8574
       191.0004        190.0004
 -11254112.62748  -8749753.60646  22511491.537    22511492.2614   22511501.5344
       170.0004        171.0004
 21  2  5  0 46  0.0000000  0  8G30G27G07G08G21G09G04G01
  -2020571.60147  -1555319.36345  24185287.547    24185289.0214   24185297.2954
       156.0004        159.0004
  -6291498.72448  -4882159.48946  23837510.848    23837511.5594   23837519.2834
       181.0004        182.0004
 -13756389.95148 -10689442.56047  22267721.118    22267722.1354   22267726.1464
       188.0004        188.0004
 -18322729.27949 -14249590.74047  21055843.311    21055844.0014   21055851.9814
       200.0004        200.0004
 -14948713.52748 -11635365.90846  21892166.535    21892166.7084   21892171.7604
       179.0004        179.0004
 -19347755.41749 -14726358.00148  20857984.298    20857984.6914   20857991.3174
       214.0004        214.0004
 -14324600.26848 -11136515.10847  21626275.856    21626276.4574   21626282.7414
       191.0004        190.0004
 -11330378.24848  -8809181.35046  22496978.956    22496979.5174   22496988.4034
       170.0004        171.0004
 21  2  5  0 46 30.0000000  0  8G30G27G07G08G21G09G04G01
  -2105202.02747  -1621265.09945  24169183.832    24169184.2344   24169191.5734
       155.0004        158.0004
  -6184531.09348  -4798808.00346  23857867.059    23857867.5614   23857873.2604
       182.0004        182.0004
 -13831459.92548 -10747938.61946  22253436.277    22253436.7574   22253440.1164
       188.0004        187.0004
 -18253734.59849 -14195828.61747  21068972.349    21068972.6764   21068981.1824
       199.0004        199.0004
 -14971708.15648 -11653283.74946  21887791.318    21887790.3124   21887797.2204
       179.0004        179.0004
 -19325858.15949 -14709295.17248  20862150.951    20862151.2854   20862157.7494
       213.0004        213.0004
 -14242973.02848 -11072909.45547  21641809.862    21641810.1994   21641816.3004
       191.0004        190.0004
 -11406547.87748  -8868534.24546  22482483.727    22482484.8394   22482493.6574
       170.0004        172.0004
 21  2  5  0 47  0.0000000  0  8G30G27G07G08G21G09G04G01
  -2189931.35047  -1687287.95245  24153060.776    24153061.0214   24153068.5954
       155.0004        158.0004
  -6077470.42448  -4715384.16546  23878239.139    23878239.9544   23878246.3304
       182.0004        183.0004
 -13906484.02648 -10806398.98046  22239158.288    22239158.9604   22239164.2484
       187.0004        187.0004
 -18184356.63949 -14141767.89847  21082174.811    21082175.1144   21082183.2304
       199.0004        199.0004
 -14994318.34748 -11670902.08746  21883489.414    21883488.6634   21883494.6194
       178.0004        179.0004
 -19303430.39049 -14691819.02448  20866418.888    20866419.2064   20866425.8114
       213.0004        214.0004
 -14161034.77148 -11009061.51147  21657401.429    21657402.3274   21657408.2074
       191.0004        191.0004
 -11482619.16048  -8927810.55746  22468008.475    22468009.5284   22468017.7564
       171.0004        172.0004
 21  2  5  0 47 30.0000000  0  8G30G27G07G08G21G09G04G01
  -2274758.11247  -1753386.72245  24136919.237    24136918.7894   24136926.7424
       157.0004        159.0004
  -5970319.67748  -4631890.04946  23898628.857    23898629.0794   23898637.3484
       183.0004        183.0004
 -13981460.06448 -10864821.84147  22224891.441    22224892.2934   22224896.8184
       187.0004        189.0004
 -18114598.82249 -14087411.15647  21095448.997    21095449.5334   21095458.0904
       198.0004        198.0004
 -15016542.24048 -11688219.38546  21879260.292    21879259.0324   21879265.3004
       178.0004        179.0004
 -19280473.57549 -14673930.60148  20870787.778    20870788.1414   20870794.6344
       214.0004        214.0004
 -14078788.46148 -10944973.49647  21673052.471    21673052.9314   21673059.8984
       192.0004        191.0004
 -11558589.04948  -8987007.83946  22453550.808    22453551.9594   22453559.7174
       171.0004        171.0004
 21  2  5  0 48  0.0000000  0  8G30G27G07G08G21G09G04G01
  -2359681.82947  -1819561.00945  24120758.319    24120758.6674   24120766.4054
       158.0004        160.0004
  -5863082.36848  -4548328.50546  23919035.679    23919035.4734   23919043.2264
       180.0004        179.0004
 -14056386.61848 -10923206.13847  22210633.294    22210633.6054   22210637.9364
       188.0004        189.0004
 -18044464.52949 -14032761.03247  21108795.466    21108795.7934   21108803.6974
       198.0004        198.0004
 -15038378.43848 -11705234.57246  21875104.882    21875104.7214   21875109.8204
       179.0004        179.0004
 -19256989.97149 -14655631.67948  20875256.249    20875256.6174   20875263.3104
       213.0004        214.0004
 -13996237.79348 -10880648.30347  21688761.365    21688761.7174   21688768.3544
       192.0004        190.0004
 -11634455.08948  -9046124.19846  22439114.782    22439115.6984   22439123.2354
       170.0004        171.0004
 21  2  5  0 48 30.0000000  0  8G30G27G07G08G21G09G04G01
  -2444699.64547  -1885808.64045  24104580.113    24104580.3554   24104587.2704
       158.0004        160.0004
  -5755759.87948  -4464700.59246  23939457.557    23939457.7484   23939466.8794
       179.0004        178.0004
 -14131259.76248 -10981548.86347  22196385.597    22196386.2854   22196391.0464
       189.0004        190.0004
 -17973955.55049 -13977818.97547  21122213.337    21122213.1464   21122221.2274
       198.0004        198.0004
 -15059823.31448 -11721944.85446  21871023.515    21871022.7704   21871029.1294
       179.0004        178.0004
 -19232979.65549 -14636922.36048  20879825.053    20879825.4324   20879832.5044
       213.0004        214.0004
 -13913384.24048 -10816087.11547  21704527.793    21704528.3144   21704534.8694
       191.0004        189.0004
 -11710212.66148  -9105156.05046  22424698.543    22424699.3644   22424707.4184
       171.0004        173.0004
 21  2  5  0 49  0.0000000  0  8G30G27G07G08G21G09G04G01
  -2529810.26347  -1952128.61245  24088384.973    24088384.9144   24088390.8454
       157.0004        159.0004
  -5648355.04448  -4381008.54146  23959897.846    23959897.3514   23959904.5084
       179.0004        180.0004
 -14206077.81448 -11039848.68547  22182148.677    22182149.0404   22182153.5204
       189.0004        190.0004
 -17903074.84849 -13922587.28747  21135701.151    21135701.1404   21135709.3984
       198.0004        198.0004
 -15080875.24548 -11738348.95346  21867017.666    21867017.1694   21867023.2454
       178.0004        179.0004
 -19208444.21049 -14617803.86448  20884494.531    20884494.5984   20884501.4674
       213.0004        214.0004
 -13830230.81048 -10751292.27347  21720351.448    21720351.7594   21720358.5404
       191.0004        189.0004
 -11785858.66948  -9164100.95946  22410302.846    22410303.8664   22410312.5214
       172.0004        172.0004
 21  2  5  0 49 30.0000000  0  8G30G27G07G08G21G09G04G01
  -2615014.45847  -2018521.46045  24072170.186    24072170.7124   24072177.1794
       157.0004        158.0004
  -5540872.78048  -4297256.13746  23980350.713    23980349.8434   23980357.4184
       177.0004        177.0004
 -14280840.42948 -11098105.24847  22167922.268    22167922.5854   22167926.3024
       190.0004        190.0004
 -17831827.08949 -13867069.52947  21149258.822    21149258.9504   21149267.2844
       197.0004        197.0004
 -15101534.59548 -11754447.10346  21863085.558    21863085.3354   21863091.4044
       178.0004        179.0004
 -19183387.32049 -14598279.00248  20889262.402    20889262.7844   20889269.2394
       213.0004        213.0004
 -13746782.63148 -10686267.70547  21736231.403    21736232.1864   21736238.3844
       191.0004        190.0004
 -11861391.97548  -9222958.02646  22395929.945    22395929.8634   22395939.6004
       171.0004        172.0004
 21  2  5  0 50  0.0000000  0  8G30G27G07G08G21G09G04G01
  -2700308.80947  -2084984.52345  24055939.123    24055938.9794   24055946.7614
       157.0004        159.0004
  -5433313.93648  -4213444.06846  24000817.981    24000817.9304   24000824.8134
       175.0004        176.0004
 -14355543.07748 -11156315.08447  22153706.050    22153706.6554   22153710.6054
       189.0004        189.0004
 -17760213.29049 -13811266.55947  21162886.128    21162886.7184   21162895.4734
       197.0004        197.0004
 -15121796.76048 -11770235.78646  21859229.981    21859230.1424   21859235.5134
       178.0004        179.0004
 -19157808.55949 -14578347.49748  20894130.163    20894130.3824   20894136.9914
       213.0004        214.0004
 -13663040.61148 -10621014.19747  21752166.919    21752167.6434   21752173.5244
       190.0004        188.0004
 -11936807.47948  -9281723.30446  22381578.561    22381579.3464   22381587.8414
       171.0004        172.0004
 21  2  5  0 50 30.0000000  0  8G30G27G07G08G21G09G04G01
  -2785692.03447  -2151516.88045  24039690.319    24039690.6874   24039698.6584
       158.0004        161.0004
  -5325681.38548  -4129574.54646  24021297.895    24021298.5744   24021307.1404
       173.0004        172.0004
 -14430183.83448 -11214476.71547  22139502.796    22139502.7014   22139507.6444
       190.0004        191.0004
 -17688236.42349 -13755180.69647  21176583.025    21176583.5354   21176591.6894
       197.0004        197.0004
 -15141660.29648 -11785713.86746  21855450.209    21855450.1654   21855455.3494
       178.0004        180.0004
 -19131709.73649 -14558010.76748  20899096.193    20899096.7934   20899104.0914
       214.0004        214.0004
 -13579007.94748 -10555534.23047  21768158.370    21768158.4124   21768164.0394
       190.0004        189.0004
 -12012102.18148  -9340394.49946  22367250.305    22367251.1494   22367260.0334
       172.0004        174.0004
 21  2  5  0 51  0.0000000  0  8G30G27G07G08G21G09G04G01
  -2871161.20247  -2218116.19946  24023426.420    24023426.8114   24023435.0584
       160.0004        163.0004
  -5217976.39348  -4045648.61246  24041795.501    24041794.9994   24041802.1374
       174.0004        175.0004
 -14504758.73948 -11272587.01947  22125311.356    22125311.7094   22125316.2084
       191.0004        192.0004
 -17615897.70749 -13698812.85947  21190349.171    21190349.5384   21190357.1454
       197.0004        198.0004
 -15161121.89848 -11800878.72746  21851747.568    21851746.4004   21851752.1034
       179.0004        179.0004
 -19105090.90949 -14537268.82648  20904161.470    20904161.8314   20904168.7794
       213.0004        213.0004
 -13494686.05348 -10489828.88247  21784204.035    21784204.3654   21784210.6174
       190.0004        189.0004
 -12087271.29748  -9398967.81846  22352946.907    22352947.4774   22352956.0534
       173.0004        175.0004
 21  2  5  0 51 30.0000000  0  8G30G27G07G08G21G09G04G01
  -2956717.76647  -2284783.62545  24007147.355    24007146.3084   24007153.6244
       160.0004        161.0004
  -5110204.51648  -3961670.53146  24062303.277    24062302.9254   24062310.6344
       171.0004        172.0004
 -14579268.25848 -11330646.39647  22111133.475    22111133.3344   22111137.7134
       192.0004        193.0004
 -17543203.42549 -13642167.96047  21204182.097    21204182.6534   21204190.8184
       197.0004        197.0004
 -15180182.07248 -11815730.79146  21848120.852    21848119.7194   21848125.6044
       180.0004        180.0004
 -19077956.58049 -14516125.20148  20909325.079    20909325.4594   20909332.5834
       213.0004        213.0004
 -13410080.76948 -10423902.68746  21800303.140    21800303.5074   21800309.6694
       188.0004        187.0004
 -12162314.47348  -9457443.00146  22338666.957    22338666.8464   22338675.1234
       174.0004        175.0004
 21  2  5  0 52  0.0000000  0  8G30G27G07G08G21G09G04G01
  -3042360.34547  -2351518.08245  23990849.097    23990849.3364   23990855.5034
       157.0004        158.0004
  -5002368.67648  -3877642.61846  24082823.989    24082824.2034   24082830.2934
       173.0004        175.0004
 -14653710.52048 -11388653.35347  22096967.535    22096967.6284   22096971.5814
       192.0004        192.0004
 -17470156.19349 -13585248.02947  21218082.046    21218082.5844   21218091.1304
       196.0004        196.0004
 -15198839.64748 -11830269.14246  21844569.270    21844569.2504   21844574.9334
       180.0004        180.0004
 -19050308.52249 -14494581.26847  20914585.606    20914586.3814   20914593.7354
       212.0004        212.0004
 -13325195.13248 -10357758.06247  21816456.799    21816456.9094   21816463.7774
       189.0004        189.0004
 -12237228.58648  -9515817.62646  22324411.303    22324411.2504   22324420.1014
       175.0004        175.0004
 21  2  5  0 52 30.0000000  0  8G30G27G07G08G21G09G04G01
  -3128086.08447  -2418317.35445  23974536.612    23974535.8374   23974542.6544
       155.0004        157.0004
  -4894470.21948  -3793565.87446  24103355.819    24103356.6534   24103364.1874
       174.0004        175.0004
 -14728081.52848 -11446604.79047  22082814.629    22082814.7224   22082819.1434
       191.0004        191.0004
 -17396757.66049 -13528054.37247  21232048.959    21232049.5774   21232058.6144
       195.0004        196.0004
 -15217091.35748 -11844491.24746  21841095.953    21841095.4684   21841102.0324
       180.0004        181.0004
 -19022147.04849 -14472637.27648  20919945.400    20919945.7234   20919952.2424
       212.0004        213.0004
 -13240030.75848 -10291396.23546  21832663.220    21832663.6254   21832669.4974
       188.0004        187.0004
 -12312009.04748  -9574088.08046  22310179.860    22310180.5014   22310189.5494
       175.0004        176.0004
 21  2  5  0 53  0.0000000  0  8G30G27G07G08G21G09G04G01
  -3213894.11847  -2485180.73245  23958207.340    23958207.2014   23958215.0994
       156.0004        159.0004
  -4786512.34548  -3709442.86146  24123899.551    24123900.8244   24123906.9044
       175.0004        176.0004
 -14802379.53448 -11504499.34547  22068676.335    22068677.0114   22068680.1704
       191.0004        192.0004
 -17323011.40949 -13470589.77147  21246084.079    21246083.8324   21246091.9424
       196.0004        197.0004
 -15234935.56348 -11858395.81346  21837700.346    21837700.3974   21837705.5904
       180.0004        181.0004
 -18993474.39949 -14450294.96148  20925401.609    20925401.8954   20925408.9814
       213.0004        213.0004
 -13154591.17048 -10224819.95746  21848921.445    21848921.6284   21848928.2124
       188.0004        186.0004
 -12386653.16448  -9632252.31846  22295975.467    22295976.2334   22295984.7624
       174.0004        175.0004
 21  2  5  0 53 30.0000000  0  8G30G27G07G08G21G09G04G01
  -3299780.16447  -2552104.90045  23941862.595    23941863.3844   23941870.6444
       156.0004        159.0004
  -4678495.09448  -3625273.56246  24144454.862    24144456.0314   24144462.5324
       175.0004        176.0004
 -14876599.25948 -11562332.88447  22054552.599    22054553.6984   22054557.3664
       192.0004        194.0004
 -17248917.37249 -13412854.14447  21260182.795    21260183.3494   21260191.1334
       196.0004        196.0004
 -15252367.41148 -11871979.04646  21834383.413    21834382.8674   21834388.0474
       180.0004        179.0004
 -18964289.57049 -14427553.53048  20930955.657    20930955.7454   20930962.5474
       213.0004        213.0004
 -13068876.65548 -10158029.43946  21865232.079    21865232.9254   21865238.9184
       187.0004        187.0004
 -12461154.99748  -9690305.66946  22281799.210    22281799.2974   22281808.0744
       174.0004        175.0004
 21  2  5  0 54  0.0000000  0  8G30G27G07G08G21G09G04G01
  -3385744.67047  -2619090.21645  23925504.557    23925503.9554   23925512.2624
       155.0004        157.0004
  -4570423.01048  -3541061.59246  24165021.933    24165021.9504   24165027.1974
       177.0004        178.0004
 -14950740.48348 -11620105.27547  22040443.930    22040444.3444   22040448.6304
       193.0004        193.0004
 -17174480.38749 -13354851.30647  21274347.658    21274348.3444   21274355.8194
       195.0004        196.0004
 -15269387.13848 -11885241.17046  21831143.832    21831144.5334   21831149.6014
       179.0004        180.0004
 -18934596.20049 -14404415.84647  20936605.396    20936605.6164   20936612.9854
       212.0004        212.0004
 -12982892.02348 -10091028.45546  21881594.614    21881594.9744   21881600.9484
       186.0004        185.0004
 -12535513.19448  -9748247.10446  22267649.344    22267648.9344   22267658.2824
       174.0004        176.0004
 21  2  5  0 54 30.0000000  0  8G30G27G07G08G21G09G04G01
  -3471787.77347  -2686136.75945  23909130.438    23909131.4094   23909138.5844
       157.0004        160.0004
  -4462300.52848  -3456810.30346  24185594.429    24185595.9844   24185602.4324
       176.0004        177.0004
 -15024802.35048 -11677815.82447  22026349.936    22026350.3104   22026355.0504
       192.0004        191.0004
 -17099705.30849 -13296585.01247  21288576.378    21288577.4954   21288585.2744
       195.0004        195.0004
 -15285995.08148 -11898182.42446  21827984.420    21827984.1404   21827989.6034
       180.0004        181.0004
 -18904397.77849 -14380884.62047  20942352.287    20942352.7984   20942359.1124
       212.0004        212.0004
 -12896642.03148 -10023820.69346  21898007.790    21898008.2954   21898014.3104
       186.0004        185.0004
 -12609726.23448  -9806075.43046  22253525.732    22253527.0034   22253535.7244
       175.0004        177.0004
 21  2  5  0 55  0.0000000  0  8G30G27G07G08G21G09G04G01
  -3557905.10347  -2753241.17745  23892744.087    23892744.7714   23892750.3904
       158.0004        161.0004
  -4354127.47348  -3372519.65446  24206181.663    24206181.3144   24206186.9374
       176.0004        177.0004
 -15098779.80648 -11735460.60147  22012272.230    22012273.3794   22012277.3274
       192.0004        193.0004
 -17024592.50249 -13238055.57147  21302870.696    21302870.7224   21302878.8654
       195.0004        195.0004
 -15302186.49348 -11910799.11146  21824904.392    21824903.3514   21824907.5094
       180.0004        181.0004
 -18873693.23049 -14356959.02348  20948195.609    20948195.6074   20948202.7844
       212.0004        213.0004
 -12810126.80848  -9956406.25246  21914470.809    21914471.5324   21914478.2264
       187.0004        187.0004
 -12683788.00948  -9863785.89546  22239432.437    22239433.6644   22239441.3464
       175.0004        175.0004
 21  2  5  0 55 30.0000000  0  8G30G27G07G08G21G09G04G01
  -3644097.69847  -2820404.18245  23876342.092    23876342.3124   23876348.3254
       158.0004        160.0004
  -4245909.06848  -3288193.59746  24226773.529    24226774.6654   24226780.2334
       178.0004        180.0004
 -15172673.02148 -11793039.70247  21998212.584    21998212.1324   21998215.8754
       193.0004        194.0004
 -16949146.81248 -13179266.70847  21317227.919    21317228.0684   21317235.6734
       194.0004        195.0004
 -15317961.73848 -11923091.46646  21821901.043    21821900.9154   21821905.6694
       181.0004        181.0004
 -18842486.95349 -14332642.42747  20954133.148    20954133.5924   20954140.6424
       212.0004        212.0004
 -12723351.84748  -9888789.39346  21930983.261    21930983.6734   21930990.7964
       186.0004        185.0004
 -12757697.81448  -9921377.89946  22225369.175    22225369.3654   22225376.9824
       176.0004        177.0004
 21  2  5  0 56  0.0000000  0  8G30G27G07G08G21G09G04G01
  -3730362.13847  -2887623.22645  23859926.094    23859926.4604   23859933.0454
       156.0004        158.0004
  -4137646.15748  -3203832.89146  24247375.528    24247376.2544   24247381.9384
       179.0004        180.0004
 -15246477.58848 -11850549.74147  21984167.143    21984167.7034   21984171.7164
       194.0004        194.0004
 -16873369.76449 -13120219.65147  21331647.544    21331647.9294   21331655.8144
       195.0004        196.0004
 -15333317.33548 -11935056.84246  21818978.865    21818979.5964   21818985.2144
       181.0004        181.0004
 -18810778.87749 -14307934.83147  20960167.514    20960167.6804   20960174.5454
       212.0004        212.0004
 -12636318.32248  -9820971.08246  21947546.141    21947545.9634   21947552.1334
       186.0004        185.0004
 -12831450.55548  -9978847.54246  22211334.527    22211334.0054   22211343.2484
       177.0004        177.0004
 21  2  5  0 56 30.0000000  0  8G30G27G07G08G21G09G04G01
  -3816698.11147  -2954898.00245  23843495.275    23843496.1954   23843504.7524
       154.0004        155.0004
  -4029342.54948  -3119440.46146  24267985.880    24267985.5494   24267992.8344
       181.0004        183.0004
 -15320192.41848 -11907989.86547  21970139.407    21970139.6164   21970144.6764
       194.0004        193.0004
 -16797265.28049 -13060917.44947  21346129.875    21346130.3354   21346138.1044
       196.0004        196.0004
 -15348253.23148 -11946695.18846  21816136.457    21816136.4814   21816142.8274
       181.0004        181.0004
 -18778572.08149 -14282838.64947  20966295.595    20966296.1744   20966303.5344
       211.0004        211.0004
 -12549030.48148  -9752954.59746  21964156.112    21964156.7334   21964163.7024
       186.0004        186.0004
 -12905044.18748 -10036193.18146  22197328.563    22197329.0784   22197338.7514
       176.0004        176.0004
 21  2  5  0 57  0.0000000  0  8G30G27G07G08G21G09G04G01
  -3903102.88747  -3022226.37845  23827054.749    23827054.6604   23827061.9654
       153.0004        155.0004
  -3920999.82648  -3035017.58146  24288603.215    24288602.5934   24288608.9624
       181.0004        180.0004
 -15393813.86248 -11965357.22447  21956130.289    21956130.6544   21956133.8664
       193.0004        193.0004
 -16720834.94549 -13001361.34947  21360673.947    21360674.1464   21360681.9874
       195.0004        194.0004
 -15362765.53148 -11958003.45546  21813375.695    21813374.9214   21813380.8534
       181.0004        182.0004
 -18745867.35149 -14257354.45247  20972519.539    20972520.0954   20972527.2174
       211.0004        212.0004
 -12461490.23448  -9684741.44346  21980814.578    21980814.9464   21980821.0454
       186.0004        185.0004
 -12978474.37748 -10093411.49346  22183354.269    22183356.3744   22183365.5124
       177.0004        178.0004
 21  2  5  0 57 30.0000000  0  8G30G27G07G08G21G09G04G01
  -3989575.41047  -3089607.54945  23810597.704    23810598.5094   23810607.4974
       153.0004        155.0004
  -3812621.08748  -2950566.62146  24309226.085    24309226.3604   24309232.4244
       178.0004        177.0004
 -15467340.02448 -12022650.34347  21942138.095    21942138.6904   21942142.8514
       193.0004        193.0004
 -16644082.66148 -12941554.37947  21375279.297    21375279.8694   21375287.6104
       194.0004        195.0004
 -15376854.17348 -11968981.59746  21810693.823    21810693.8164   21810699.3864
       181.0004        180.0004
 -18712667.05249 -14231484.10847  20978837.051    20978837.5434   20978844.4684
       212.0004        212.0004
 -12373701.00748  -9616334.26846  21997520.458    21997520.6354   21997526.9624
       185.0004        185.0004
 -13051738.34048 -10150500.27846  22169414.825    22169414.9694   22169422.9934
       177.0004        178.0004
 21  2  5  0 58  0.0000000  0  8G30G27G07G08G21G09G04G01
  -4076113.72447  -3157039.99845  23794132.714    23794132.4524   23794139.3804
       155.0004        158.0004
  -3704208.71048  -2866089.41346  24329856.515    24329856.5184   24329863.2544
       176.0004        176.0004
 -15540767.88348 -12079866.86147  21928165.077    21928165.9404   21928170.1164
       194.0004        194.0004
 -16567010.95048 -12881498.51247  21389946.131    21389946.2734   21389954.0404
       194.0004        195.0004
 -15390516.56948 -11979627.60946  21808095.170    21808093.8654   21808099.5124
       180.0004        181.0004
 -18678972.79849 -14205228.86547  20985249.368    20985249.7774   20985256.5054
       211.0004        212.0004
 -12285665.54548  -9547735.23946  22014272.526    22014273.5924   22014279.7924
       186.0004        186.0004
 -13124832.57248 -10207456.82546  22155503.836    22155505.2834   22155514.0824
       177.0004        178.0004
 21  2  5  0 58 30.0000000  0  8G30G27G07G08G21G09G04G01
  -4162716.42847  -3224522.62345  23777653.271    23777652.4824   23777659.8294
       158.0004        162.0004
  -3595765.36948  -2781588.12446  24350493.692    24350492.7064   24350498.4654
       173.0004        172.0004
 -15614095.35549 -12137005.16247  21914212.724    21914212.6094   21914216.0714
       195.0004        196.0004
 -16489622.93049 -12821196.16747  21404672.241    21404672.5234   21404680.0314
       195.0004        195.0004
 -15403751.30748 -11989940.37546  21805575.846    21805574.7614   21805581.0494
       180.0004        181.0004
 -18644786.69649 -14178590.35547  20991754.044    20991754.5004   20991762.1554
       211.0004        211.0004
 -12197386.99948  -9478946.79446  22031071.763    22031071.7804   22031078.4614
       185.0004        184.0004
 -13197753.87148 -10264278.60446  22141627.268    22141628.5274   22141637.8024
       177.0004        177.0004
 21  2  5  0 59  0.0000000  0  8G30G27G07G08G21G09G04G01
  -4249383.42147  -3292055.32445  23761159.210    23761160.2354   23761167.8374
       160.0004        162.0004
  -3487295.36148  -2697065.95646  24371134.068    24371134.2204   24371139.8834
       173.0004        175.0004
 -15687321.58549 -12194064.53347  21900276.800    21900277.1974   21900282.1964
       195.0004        195.0004
 -16411922.99648 -12760650.74747  21419457.881    21419458.0084   21419466.2994
       194.0004        194.0004
 -15416558.33848 -11999919.86146  21803138.652    21803138.2254   21803143.2624
       180.0004        181.0004
 -18610112.23349 -14151571.28847  20998353.533    20998353.2734   20998360.5134
       211.0004        211.0004
 -12108869.96448  -9409972.48146  22047916.334    22047916.4464   22047922.2734
       185.0004        184.0004
 -13270500.53548 -10320964.28546  22127784.694    22127785.1384   22127795.4514
       178.0004        179.0004
 21  2  5  0 59 30.0000000  0  9G30G27G07G08G21G17G09G04G01
  -4336110.54847  -3359634.84945  23744655.773    23744656.1024   23744664.4824
       160.0004        162.0004
  -3378798.61648  -2612523.03946  24391778.605    24391779.6774   24391787.0924
       174.0004        175.0004
 -15760441.65849 -12251041.19647  21886362.315    21886362.9084   21886368.0634
       195.0004        195.0004
 -16333911.76548 -12699862.77247  21434302.879    21434303.2224   21434310.7934
       194.0004        194.0004
 -15428933.49848 -12009562.82746  21800785.025    21800783.8624   21800789.0484
       181.0004        182.0004
   -535734.88854   -394353.17345  24196465.912
        74.0004        147.0004
 -18574948.84149 -14124171.26847  21005044.317    21005044.7184   21005051.1814
       211.0004        211.0004
 -12020114.84748  -9340812.66046  22064805.643    22064805.4354   22064812.2434
       185.0004        184.0004
 -13343066.74548 -10377509.35546  22113975.434    22113976.8364   22113985.6804
       178.0004        178.0004
 21  2  5  1  0  0.0000000  0  9G30G27G07G08G21G17G09G04G01
  -4422896.67147  -3427260.36445  23728140.503    23728140.8234   23728148.4474
       159.0004        159.0004
  -3270278.28848  -2527961.76346  24412429.995    24412430.8764   24412436.8534
       173.0004        174.0004
 -15833453.52349 -12307933.55547  21872469.300    21872469.3464   21872474.2164
       195.0004        195.0004
 -16255592.43348 -12638834.72447  21449206.616    21449207.3874   21449215.1674
       193.0004        194.0004
 -15440875.79548 -12018868.49446  21798512.227    21798511.3944   21798517.0004
       182.0004        182.0004
   -632206.52247   -469525.71345  24178107.218                    24178113.5594
       135.0004        148.0004
 -18539299.03149 -14096392.20947  21011827.604    21011828.5994   21011835.3304
       210.0004        210.0004
 -11931125.23448  -9271470.12146  22081739.714    22081739.8894   22081746.7494
       184.0004        184.0004
 -13415449.76348 -10433911.68346  22100202.915    22100203.0954   22100210.7994
       178.0004        179.0004
 21  2  5  1  0 30.0000000  0  9G30G27G07G08G21G17G09G04G01
  -4509741.82847  -3494931.91345  23711615.616    23711615.2494   23711622.0494
       157.0004        158.0004
  -3161738.58648  -2443385.34546  24433084.319    24433085.0184   24433090.9664
       170.0004        170.0004
 -15906356.39449 -12364740.98647  21858596.170    21858596.6734   21858601.2794
       195.0004        196.0004
 -16176969.58549 -12577570.18047  21464168.545    21464168.7504   21464176.4994
       209.0004        212.0004
 -15452385.12348 -12027836.80046  21796321.265    21796321.1344   21796326.8274
       182.0004        182.0004
   -728452.64747   -544522.52445  24159792.132    24159793.5154   24159800.0164
       144.0004        149.0004
 -18503166.44149 -14068236.95847  21018704.425    21018704.2084   21018711.7564
       210.0004        211.0004
 -11841905.77048  -9201948.48746  22098716.829    22098717.6364   22098724.5874
       184.0004        184.0004
 -13487647.98648 -10490170.00746  22086463.411    22086463.9004   22086472.7014
       178.0004        180.0004
 21  2  5  1  1  0.0000000  0  9G30G27G07G08G21G17G09G04G01
  -4596643.60747  -3562647.56645  23695078.571    23695078.6524   23695085.7224
       156.0004        158.0004
  -3053181.39248  -2358795.35346  24453742.777    24453742.6754   24453750.2914
       169.0004        170.0004
 -15979146.79249 -12421460.77447  21844744.967    21844745.4654   21844749.6164
       196.0004        196.0004
 -16098045.57649 -12516070.95147  21479187.104    21479187.6084   21479195.2454
       213.0004        212.0004
 -15463459.14348 -12036465.88246  21794213.495    21794213.6344   21794219.6934
       182.0004        182.0004
   -824470.27047   -619341.27545  24141520.080    24141520.3034   24141528.5184
       146.0004        151.0004
 -18466552.43949 -14039706.57947  21025671.454    21025671.8304   21025678.9134
       210.0004        210.0004
 -11752458.81348  -9132249.58246  22115737.840    22115738.8474   22115745.9134
       184.0004        184.0004
 -13559657.45048 -10546281.26146  22072760.667    22072761.3854   22072770.4754
       179.0004        179.0004
 21  2  5  1  1 30.0000000  0  9G30G27G07G08G21G17G09G04G01
  -4683600.44647  -3630406.12245  23678532.041    23678531.7714   23678538.2414
       156.0004        159.0004
  -2944609.39548  -2274193.78246  24474403.255    24474404.0984   24474409.2244
       170.0004        172.0004
 -16051822.73549 -12478091.37447  21830914.850    21830915.0774   21830920.0234
       196.0004        196.0004
 -16018823.69649 -12454339.59048  21494261.827    21494262.3214   21494270.7174
       221.0004        225.0004
 -15474096.67648 -12044754.84946  21792189.882    21792189.4784   21792195.7814
       182.0004        183.0004
   -920257.05247   -693980.15345  24123292.478    24123292.8484   24123300.4514
       146.0004        149.0004
 -18429459.15249 -14010802.70047  21032730.647    21032730.4224   21032737.3534
       210.0004        210.0004
 -11662787.42548  -9062375.79346  22132802.993    22132803.3354   22132809.8994
       185.0004        185.0004
 -13631474.92148 -10602242.89846  22059093.551    22059094.5524   22059103.9664
       179.0004        180.0004
 21  2  5  1  2  0.0000000  0  9G30G27G07G08G21G17G09G04G01
  -4770610.28047  -3698206.00245  23661973.342    23661973.8534   23661980.9864
       157.0004        160.0004
  -2836024.77948  -2189582.39946  24495065.301    24495065.9944   24495072.9764
       171.0004        172.0004
 -16124381.15449 -12534630.40447  21817107.586    21817107.9124   21817112.9394
       195.0004        196.0004
 -15939305.99949 -12392377.75348  21509394.149    21509394.2064   21509401.9514
       223.0004        223.0004
 -15484295.50348 -12052701.97746  21790249.144    21790248.3564   21790253.7384
       182.0004        181.0004
  -1015810.54347   -768437.23745  24105110.077    24105110.5984   24105117.0944
       147.0004        151.0004
 -18391888.32749 -13981526.75147  21039880.187    21039880.5004   21039887.5624
       210.0004        211.0004
 -11572894.34548  -8992329.26846  22149909.257    22149909.8434   22149916.0184
       185.0004        184.0004
 -13703096.78648 -10658052.11246  22045465.426    22045465.3544   22045473.8484
       179.0004        178.0004
 21  2  5  1  2 30.0000000  0  9G30G27G07G08G21G17G09G04G01
  -4857669.70147  -3766044.52245  23645406.877    23645407.7844   23645414.1464
       159.0004        162.0004
  -2727428.36948  -2104961.84946  24515730.471    24515731.0174   24515738.0384
       170.0004        171.0004
 -16196817.77149 -12591074.52847  21803323.918    21803324.3034   21803328.1314
       195.0004        195.0004
 -15859494.24149 -12330186.78848  21524582.403    21524582.5204   21524589.7284
       224.0004        224.0004
 -15494052.46148 -12060304.79246  21788392.211    21788392.1204   21788396.6434
       180.0004        180.0004
  -1111127.00047   -842709.66145  24086972.306    24086972.4904   24086977.3394
       150.0004        153.0004
 -18353840.33449 -13951878.98347  21047119.691    21047120.1114   21047127.5334
       211.0004        211.0004
 -11482780.79548  -8922110.95446  22167056.209    22167057.5814   22167063.7784
       184.0004        182.0004
 -13774518.07948 -10713705.04846  22031872.859    22031873.4804   22031882.0164
       178.0004        178.0004
 21  2  5  1  3  0.0000000  0  9G30G27G07G08G21G17G09G04G01
  -4944777.23647  -3833920.49845  23628830.097    23628830.1394   23628837.8864
       159.0004        161.0004
  -2618822.80248  -2020334.07746  24536396.754    24536398.1074   24536404.7604
       171.0004        173.0004
 -16269130.27249 -12647421.94147  21789562.872    21789563.3174   21789567.2814
       196.0004        196.0004
 -15779391.80849 -12267769.30548  21539824.797    21539825.5944   21539832.8934
       225.0004        225.0004
 -15503366.17248 -12067562.21846  21786619.685    21786619.1534   21786623.9714
       180.0004        180.0004
  -1206204.26047   -916795.71245  24068880.021    24068879.5844   24068885.5834
       150.0004        152.0004
 -18315317.48549 -13921861.19247  21054450.751    21054450.8394   21054457.6934
       210.0004        210.0004
 -11392450.06648  -8851723.39146  22184246.495    22184246.8284   22184253.6134
       183.0004        183.0004
 -13845735.68248 -10769199.26346  22018321.164    22018321.2594   22018331.0194
       178.0004        179.0004
 21  2  5  1  3 30.0000000  0  9G30G27G07G08G21G17G09G04G01
  -5031932.16347  -3901833.38645  23612245.475    23612245.7414   23612252.4414
       158.0004        161.0004
  -2510211.68748  -1935702.03746  24557063.002    24557064.7944   24557073.3234
       168.0004        169.0004
 -16341317.25349 -12703671.51447  21775825.717    21775826.3284   21775830.6784
       196.0004        196.0004
 -15699002.46749 -12205128.25048  21555123.295    21555123.3104   21555130.3154
       225.0004        224.0004
 -15512236.27648 -12074473.96646  21784932.593    21784931.8674   21784936.1544
       180.0004        180.0004
  -1301041.47647   -990694.68145  24050832.000    24050833.5294   24050837.7634
       149.0004        151.0004
 -18276322.88349 -13891475.78247  21061870.811    21061871.3394   21061878.3734
       210.0004        210.0004
 -11301906.16548  -8781169.72246  22201476.890    22201476.7714   22201483.0944
       183.0004        182.0004
 -13916747.34648 -10824532.98346  22004807.711    22004809.0764   22004817.7724
       179.0004        180.0004
 21  2  5  1  4  0.0000000  0 10G30G27G07G14G08G21G17G09G04G01
  -5119131.83047  -3969781.14246  23595651.843    23595651.9294   23595659.9844
       160.0004        164.0004
  -2401596.72148  -1851067.01746  24577733.921    24577734.2284   24577742.5904
       170.0004        173.0004
 -16413375.17849 -12759820.54447  21762114.327    21762114.3194   21762118.4994
       196.0004        196.0004
  -1662192.60654  -1273834.40545  23596887.354
        74.0004        143.0004
 -15618328.17249 -12142265.16148  21570474.388    21570474.9034   21570482.1404
       225.0004        224.0004
 -15520660.77648 -12081038.49946  21783328.613    21783328.2314   21783332.5934
       180.0004        181.0004
  -1395635.56147  -1064404.22545  24032831.517    24032831.6044   24032836.9674
       148.0004        151.0004
 -18236857.78449 -13860723.76447  21069380.867    21069381.2574   21069388.3514
       210.0004        210.0004
 -11211151.22048  -8710451.60446  22218745.625    22218746.7384   22218752.8984
       182.0004        181.0004
 -13987548.89648 -10879702.98646  21991335.234    21991336.0094   21991343.9334
       180.0004        181.0004
 21  2  5  1  4 30.0000000  0  9G30G07G14G08G21G17G09G04G01
  -5206374.40447  -4037762.37146  23579050.645    23579050.6154   23579057.5484
       163.0004        165.0004
 -16485301.29949 -12815866.88147  21748426.438    21748426.9414   21748431.3994
       195.0004        196.0004
  -1689335.33546  -1294984.55445  23591719.530                    23591724.5264
       130.0004        142.0004
 -15537371.28049 -12079181.89048  21585879.896    21585880.2284   21585887.4294
       224.0004        223.0004
 -15528638.08248 -12087254.58046  21781810.598    21781809.8264   21781815.4094
       181.0004        182.0004
  -1489984.28147  -1137922.58745  24014876.791    24014877.5294   24014883.5864
       149.0004        153.0004
 -18196924.36449 -13829606.83947  21076979.844    21076980.3234   21076987.3924
       210.0004        210.0004
 -11120188.19048  -8639571.36246  22236055.259    22236055.9414   22236063.3624
       181.0004        181.0004
 -14058137.02348 -10934706.70046  21977903.654    21977903.4254   21977911.3394
       180.0004        181.0004
 21  2  5  1  5  0.0000000  0  9G30G07G14G08G21G17G09G04G01
  -5293658.97247  -4105776.30646  23562440.462    23562440.4384   23562448.0404
       162.0004        164.0004
 -16557093.91649 -12871809.19047  21734765.298    21734765.7324   21734769.8884
       196.0004        197.0004
  -1716418.07047  -1316087.92445  23586568.454    23586569.7774   23586569.6904
       136.0004        142.0004
 -15456136.27749 -12015881.90148  21601339.001    21601338.8384   21601345.6744
       223.0004        222.0004
 -15536167.01948 -12093121.28746  21780377.076    21780377.8724   21780382.6224
       182.0004        183.0004
  -1584086.33047  -1211248.70845  23996970.210    23996970.2624   23996976.8314
       153.0004        156.0004
 -18156525.50449 -13798127.23047  21084667.763    21084668.1214   21084674.9584
       209.0004        210.0004
 -11029020.88748  -8568531.94246  22253404.461    22253404.6114   22253411.6074
       181.0004        180.0004
 -14128509.18648 -10989542.13346  21964511.090    21964511.7214   21964520.1184
       180.0004        180.0004
 21  2  5  1  5 30.0000000  0  9G30G07G14G08G21G17G09G04G01
  -5380984.68147  -4173822.31446  23545823.483    23545823.2934   23545831.6134
       163.0004        166.0004
 -16628751.52949 -12927646.28447  21721129.267    21721129.6414   21721133.9344
       197.0004        197.0004
  -1743443.07047  -1337146.34145  23581426.497    23581425.6894   23581429.1994
       138.0004        143.0004
 -15374626.71949 -11952367.95148  21616849.903    21616849.8364   21616856.7154
       224.0004        223.0004
 -15543247.30648 -12098638.38746  21779029.696    21779029.9474   21779036.3724
       182.0004        183.0004
  -1677940.61547  -1284381.79645  23979109.607    23979110.0414   23979117.0324
       154.0004        157.0004
 -18115664.36649 -13766287.39747  21092443.329    21092443.7734   21092450.7564
       209.0004        210.0004
 -10937653.29948  -8497336.44246  22270790.205    22270791.3214   22270797.2074
       179.0004        179.0004
 -14198663.02348 -11044207.43346  21951161.333    21951162.0894   21951171.1544
       179.0004        181.0004
 21  2  5  1  6  0.0000000  0  9G30G07G14G08G21G17G09G04G01
  -5468350.24847  -4241899.36346  23529197.992    23529198.2144   23529205.7314
       164.0004        165.0004
 -16700272.08349 -12983376.57947  21707519.426    21707519.7904   21707524.0034
       197.0004        197.0004
  -1770412.18347  -1358161.15745  23576294.675    23576295.7424   23576300.3444
       141.0004        146.0004
 -15292846.44849 -11888643.06548  21632411.912    21632412.1674   21632419.2984
       224.0004        223.0004
 -15549878.23848 -12103805.31646  21777769.155    21777768.6894   21777774.5064
       183.0004        183.0004
  -1771545.44347  -1357320.46645  23961297.337    23961297.7334   23961304.4174
       155.0004        158.0004
 -18074343.70249 -13734089.48347  21100306.283    21100306.8394   21100313.7724
       209.0004        209.0004
 -10846088.91948  -8425987.60146  22288215.179    22288216.0094   22288221.5184
       179.0004        177.0004
 -14268595.85348 -11098700.52846  21937854.339    21937854.3364   21937862.9404
       180.0004        181.0004
 21  2  5  1  6 30.0000000  0  9G30G07G14G08G21G17G09G04G01
  -5555751.79847  -4310004.42046  23512566.202    23512566.1004   23512573.7644
       164.0004        166.0004
 -16771650.83149 -13038996.37047  21693936.258    21693936.6734   21693940.5364
       197.0004        197.0004
  -1797324.53647  -1379131.77745  23571169.699    23571172.2294   23571181.7304
       146.0004        151.0004
 -15210795.82249 -11824707.50448  21648025.507    21648025.5944   21648033.1024
       224.0004        223.0004
 -15556056.45348 -12108619.48846  21776593.386    21776592.3164   21776598.9314
       183.0004        183.0004
  -1864896.74347  -1430061.59845  23943533.467    23943533.6244   23943540.1784
       155.0004        157.0004
 -18032563.62249 -13701533.58047  21108257.175    21108257.5504   21108264.0794
       209.0004        210.0004
 -10754328.70248  -8354486.14646  22305676.501    22305676.6354   22305683.4094
       178.0004        177.0004
 -14338302.20148 -11153017.12846  21924588.883    21924588.9224   21924597.6274
       180.0004        181.0004
 21  2  5  1  7  0.0000000  0  9G30G07G14G08G21G17G09G04G01
  -5643187.36548  -4378136.00246  23495928.879    23495927.9954   23495934.5364
       165.0004        167.0004
 -16842884.93749 -13094503.46047  21680380.881    21680381.2634   21680385.6694
       197.0004        197.0004
  -1824181.26947  -1400059.09545  23566060.349    23566062.3464   23566071.0334
       151.0004        156.0004
 -15128478.02449 -11760563.75948  21663689.814    21663690.0444   21663697.5054
       223.0004        222.0004
 -15561780.31048 -12113079.62246  21775503.596    21775503.0644   21775509.3884
       183.0004        183.0004
  -1957992.10447  -1502603.30245  23925816.910    23925817.9564   23925824.2754
       155.0004        158.0004
 -17990326.22349 -13668621.32147  21116294.818    21116294.9554   21116301.8284
       210.0004        210.0004
 -10662375.53848  -8282834.34446  22323175.431    22323175.1994   22323182.5064
       177.0004        178.0004
 -14407778.64848 -11207154.59546  21911368.156    21911368.2684   21911377.6824
       181.0004        182.0004
 21  2  5  1  7 30.0000000  0  9G30G07G14G08G21G17G09G04G01
  -5730656.62648  -4446293.86646  23479283.016    23479282.7964   23479289.8944
       165.0004        166.0004
 -16913973.27649 -13149896.97647  21666852.924    21666853.4674   21666857.9464
       197.0004        197.0004
  -1850985.17047  -1420945.24245  23560962.356    23560963.0914   23560969.7704
       155.0004        158.0004
 -15045897.39849 -11696215.22448  21679404.656    21679405.0004   21679412.0614
       223.0004        222.0004
 -15567050.07048 -12117185.93046  21774500.642    21774500.5374   21774505.0614
       182.0004        183.0004
  -2050830.88247  -1574945.06545  23908151.446    23908152.1244   23908157.0554
       157.0004        160.0004
 -17947635.31849 -13635355.69547  21124417.927    21124418.5714   21124425.6054
       209.0004        209.0004
 -10570233.89648  -8211035.69046  22340709.240    22340709.5044   22340715.0704
       178.0004        178.0004
 -14477023.44848 -11261111.56246  21898192.234    21898192.0074   21898201.0544
       182.0004        183.0004
 21  2  5  1  8  0.0000000  0  9G30G07G14G08G21G17G09G04G01
  -5818157.22548  -4514476.15046  23462632.261    23462631.6074   23462638.9074
       165.0004        167.0004
 -16984912.59849 -13205174.38847  21653353.790    21653353.9194   21653358.1654
       197.0004        197.0004
  -1877736.98647  -1441790.81545  23555870.661    23555871.7884   23555876.4394
       154.0004        155.0004
 -14963056.42249 -11631663.83248  21695170.001    21695169.6084   21695176.1064
       224.0004        223.0004
 -15571863.68848 -12120936.79946  21773585.557    21773584.6864   21773589.2214
       182.0004        182.0004
  -2143410.84947  -1647085.19145  23890533.893    23890533.6174   23890539.9094
       157.0004        159.0004
 -17904492.56849 -13601737.98347  21132628.735    21132629.1084   21132635.5484
       210.0004        210.0004
 -10477906.29348  -8139092.14246  22358277.888    22358278.1754   22358284.5684
       177.0004        177.0004
 -14546032.73348 -11314885.01646  21885058.481    21885059.2784   21885068.5754
       182.0004        182.0004
 21  2  5  1  8 30.0000000  0  9G30G07G14G08G21G17G09G04G01
  -5905686.82648  -4582681.04646  23445974.847    23445975.8614   23445981.9004
       165.0004        165.0004
 -17055700.29849 -13260333.63047  21639883.246    21639883.4724   21639888.1574
       197.0004        197.0004
  -1904437.47547  -1462596.35945  23550791.186    23550790.2694   23550795.9574
       152.0004        154.0004
 -14879957.61349 -11566911.51648  21710981.907    21710981.9834   21710989.5684
       224.0004        223.0004
 -15576219.06548 -12124330.58546  21772757.062    21772755.9434   21772760.7314
       183.0004        184.0004
  -2235729.05547  -1719021.35145  23872966.524    23872966.7944   23872972.7954
       158.0004        161.0004
 -17860899.84549 -13567769.63347  21140924.056    21140924.3274   21140930.5534
       210.0004        209.0004
 -10385395.25048  -8067005.64446  22375881.017    22375881.1914   22375889.1704
       176.0004        175.0004
 -14614802.74548 -11368472.01746  21871972.053    21871972.3684   21871981.9284
       181.0004        181.0004
 21  2  5  1  9  0.0000000  0  9G30G07G14G08G21G17G09G04G01
  -5993243.55547  -4650907.05946  23429312.804    23429313.5844   23429320.3584
       163.0004        163.0004
 -17126333.36749 -13315372.37847  21626441.599    21626442.6054   21626447.4174
       198.0004        198.0004
  -1931087.94747  -1483362.90645  23545717.991    23545718.6844   23545723.5504
       153.0004        156.0004
 -14796603.72049 -11501960.43548  21726843.690    21726843.8424   21726851.0244
       223.0004        222.0004
 -15580115.53448 -12127366.79846  21772014.971    21772014.3344   21772018.8964
       183.0004        183.0004
  -2327783.57347  -1790752.05645  23855448.714    23855448.8884   23855453.6224
       158.0004        159.0004
 -17816859.38649 -13533452.40447  21149303.354    21149304.1014   21149311.7824
       209.0004        209.0004
 -10292703.72648  -7994778.50446  22393520.507    22393521.3344   22393528.2854
       176.0004        177.0004
 -14683330.10748 -11421869.94146  21858932.274    21858932.3224   21858941.3864
       182.0004        183.0004
 21  2  5  1  9 30.0000000  0  9G30G07G14G08G21G17G09G04G01
  -6080825.67347  -4719152.83346  23412647.054    23412647.4834   23412654.5654
       163.0004        165.0004
 -17196809.41549 -13370288.76447  21613030.118    21613031.0134   21613035.8704
       197.0004        197.0004
  -1957689.74147  -1504091.56745  23540655.549    23540656.4764   23540661.5414
       156.0004        160.0004
 -14712997.73449 -11436812.88948  21742753.554    21742753.8604   21742760.4294
       222.0004        221.0004
 -15583551.74548 -12130044.34146  21771361.323    21771360.2774   21771365.3214
       184.0004        184.0004
  -2419572.54247  -1862275.84745  23837982.024    23837981.9944   23837987.5864
       158.0004        159.0004
 -17772373.70249 -13498788.22047  21157768.948    21157769.4734   21157776.8494
       209.0004        210.0004
 -10199834.88648  -7922413.18246  22411193.761    22411194.3094   22411200.8244
       177.0004        177.0004
 -14751611.75048 -11475076.38246  21845938.711    21845939.0834   21845947.9854
       182.0004        183.0004
 21  2  5  1 10  0.0000000  0  9G30G07G14G08G21G17G09G04G01
  -6168432.32548  -4787417.75646  23395976.674    23395977.3054   23395984.0844
       165.0004        168.0004
 -17267126.84849 -13425081.58547  21599650.637    21599650.8924   21599654.4834
       197.0004        198.0004
  -1984245.17147  -1524784.05745  23535603.095    23535603.9244   23535608.1274
       157.0004        159.0004
 -14629143.77149 -11371472.15048  21758710.397    21758710.6114   21758717.3904
       222.0004        221.0004
 -15586527.42948 -12132363.03846  21770794.126    21770793.9604   21770799.9314
       184.0004        184.0004
  -2511094.80347  -1933591.77145  23820562.682    23820563.4024   23820571.1934
       154.0004        155.0004
 -17727446.12649 -13463779.73847  21166319.626    21166319.7144   21166326.5434
       209.0004        210.0004
 -10106792.80148  -7849912.88446  22428899.502    22428899.8954   22428905.9574
       177.0004        176.0004
 -14819645.42948 -11528089.60546  21832992.161    21832992.9784   21833001.3564
       182.0004        183.0004
 21  2  5  1 10 30.0000000  0  9G30G07G14G08G21G17G09G04G01
  -6256058.51348  -4855697.90446  23379302.158    23379302.1944   23379309.0894
       167.0004        168.0004
 -17337279.84949 -13479746.28147  21586301.016    21586301.3494   21586305.5054
       198.0004        199.0004
  -2010752.45147  -1545439.06445  23530559.463    23530559.3574   23530564.1654
       157.0004        158.0004
 -14545041.89949 -11305938.23948  21774715.228    21774715.1424   21774721.9094
       223.0004        223.0004
 -15589038.58648 -12134319.77346  21770317.306    21770316.5434   21770322.9114
       185.0004        186.0004
  -2602345.62947  -2004696.18145  23803200.058    23803200.9554   23803205.3134
       150.0004        151.0004
 -17682075.93049 -13428426.36947  21174952.883    21174952.9824   21174960.3044
       210.0004        210.0004
 -10013577.35348  -7777277.49846  22446637.152    22446638.3244   22446644.2884
       178.0004        178.0004
 -14887424.68948 -11580904.59946  21820093.795    21820094.7534   21820103.3674
       183.0004        184.0004
 21  2  5  1 11  0.0000000  0  9G30G07G14G08G21G17G09G04G01
  -6343705.40347  -4923994.20346  23362623.241    23362623.3364   23362630.0074
       164.0004        164.0004
 -17407268.86249 -13534283.16147  21572981.908    21572982.4124   21572987.0454
       199.0004        199.0004
  -2037215.82847  -1566059.86445  23525522.450    23525522.8474   23525527.7834
       157.0004        160.0004
 -14460697.70449 -11240215.47248  21790765.494    21790765.2174   21790772.0954
       223.0004        222.0004
 -15591086.98548 -12135915.88647  21769927.278    21769926.8084   21769933.0104
       187.0004        188.0004
  -2693325.69347  -2075589.61645  23785888.476    23785888.1494   23785892.6754
       152.0004        156.0004
 -17636268.55849 -13392732.31247  21183669.478    21183670.0064   21183676.5094
       209.0004        209.0004
  -9920194.60648  -7704511.72946  22464407.803    22464408.7044   22464414.3174
       177.0004        177.0004
 -14954949.29948 -11633521.15246  21807245.117    21807245.2624   21807253.8464
       183.0004        184.0004
 21  2  5  1 11 30.0000000  0  9G30G07G14G08G21G17G09G04G01
  -6431371.06047  -4992305.09746  23345940.334    23345941.5784   23345948.0644
       163.0004        164.0004
 -17477090.96549 -13588689.99647  21559695.723    21559695.9614   21559700.2364
       199.0004        199.0004
  -2063636.45747  -1586647.33746  23520496.681    23520496.5624   23520501.2854
       161.0004        164.0004
 -14376114.48249 -11174306.46948  21806860.171    21806860.3294   21806867.7384
       222.0004        220.0004
 -15592671.17748 -12137150.30447  21769625.849    21769625.4114   21769632.3294
       188.0004        188.0004
  -2784032.48847  -2146270.11245  23768626.560    23768626.7424   23768632.6394
       154.0004        157.0004
 -17590026.26949 -13356699.36947  21192469.227    21192469.3214   21192476.8614
       209.0004        210.0004
  -9826647.48448  -7631617.88646  22482209.440    22482210.5074   22482215.2734
       177.0004        177.0004
 -15022215.97848 -11685936.71346  21794443.405    21794444.6114   21794454.1344
       183.0004        184.0004
 21  2  5  1 12  0.0000000  0  9G30G07G14G08G21G17G09G04G01
  -6519052.13448  -5060627.97846  23329256.891    23329256.7174   23329263.8354
       165.0004        168.0004
 -17546742.42149 -13642963.85947  21546441.896    21546441.9054   21546445.7854
       199.0004        199.0004
  -2090014.35747  -1607201.51046  23515476.259    23515476.5264   23515481.4884
       164.0004        166.0004
 -14291293.63849 -11108212.29448  21823000.187    21823000.9694   21823008.5744
       221.0004        220.0004
 -15593788.63548 -12138021.02147  21769412.155    21769412.1494   21769419.3044
       188.0004        188.0004
  -2874463.18947  -2216735.49345  23751418.013    23751418.5394   23751424.7264
       156.0004        158.0004
 -17543350.20549 -13320328.39547  21201350.888    21201351.5024   21201358.8494
       209.0004        210.0004
  -9732937.66648  -7558597.25746  22500041.713    22500041.8304   22500047.9294
       177.0004        176.0004
 -15089220.04148 -11738147.61746  21781693.832    21781693.9124   21781703.5194
       184.0004        185.0004
 21  2  5  1 12 30.0000000  0  9G30G07G14G08G21G17G09G04G01
  -6606747.81948  -5128962.26946  23312567.056    23312567.5034   23312575.2574
       165.0004        167.0004
 -17616221.62949 -13697103.48547  21533219.548    21533220.0644   21533224.5634
       199.0004        199.0004
  -2116351.75848  -1627724.12946  23510463.967    23510464.4784   23510469.5134
       165.0004        166.0004
 -14206238.95149 -11041935.91548  21839185.710    21839186.2614   21839193.6834
       220.0004        220.0004
 -15594439.63048 -12138528.25447  21769289.192    21769288.3574   21769295.9774
       188.0004        189.0004
  -2964617.25747  -2286985.32845  23734263.260    23734262.9554   23734269.1904
       157.0004        160.0004
 -17496243.79649 -13283622.11547  21210315.808    21210316.0484   21210322.5974
       209.0004        209.0004
  -9639069.21148  -7485453.03346  22517904.440    22517904.5394   22517910.4574
       177.0004        177.0004
 -15155959.30748 -11790152.21246  21768993.338    21768994.4144   21769002.9364
       184.0004        184.0004
 21  2  5  1 13  0.0000000  0  9G30G07G14G08G21G17G09G04G01
  -6694455.76048  -5197306.09846  23295878.389    23295878.0674   23295885.3584
       165.0004        167.0004
 -17685525.37449 -13751106.38847  21520031.059    21520031.8124   21520036.4454
       199.0004        199.0004
  -2142649.61347  -1648215.92246  23505459.314    23505459.9524   23505465.5374
       164.0004        164.0004
 -14120953.08249 -10975479.37748  21855415.647    21855415.9414   21855423.0444
       220.0004        219.0004
 -15594622.67948 -12138670.85647  21769253.431    21769253.8194   21769261.1614
       188.0004        189.0004
  -3054491.99847  -2357017.50945  23717159.986    23717160.0974   23717164.9864
       156.0004        158.0004
 -17448709.13049 -13246582.11447  21219360.901    21219361.2374   21219368.1064
       209.0004        209.0004
  -9545044.77148  -7412187.25746  22535794.693    22535796.4304   22535802.6654
       177.0004        177.0004
 -15222430.17648 -11841947.64146  21756344.207    21756344.8894   21756353.7194
       184.0004        184.0004
 21  2  5  1 13 30.0000000  0  9G30G07G14G08G21G17G09G04G01
  -6782172.55848  -5265656.83746  23279185.303    23279185.4044   23279192.5444
       165.0004        165.0004
 -17754649.55049 -13804969.39047  21506878.898    21506878.4564   21506882.2584
       200.0004        200.0004
  -2168907.64547  -1668676.73246  23500463.585    23500463.6404   23500468.7374
       163.0004        163.0004
 -14035437.93349 -10908844.20448  21871690.053    21871689.2844   21871696.1184
       220.0004        219.0004
 -15594335.00148 -12138446.65846  21769309.162    21769308.1774   21769315.4454
       187.0004        187.0004
  -3144083.78247  -2426829.23745  23700110.987    23700111.8844   23700116.8974
       155.0004        156.0004
 -17400747.18349 -13209209.18347  21228486.835    21228487.7534   21228495.4344
       208.0004        209.0004
  -9450865.85648  -7338801.13346  22553718.116    22553718.3934   22553725.1174
       177.0004        177.0004
 -15288627.80848 -11893530.19446  21743748.491    21743749.2544   21743756.7234
       185.0004        186.0004
 21  2  5  1 14  0.0000000  0  9G30G07G14G08G21G17G09G04G01
  -6869898.86048  -5334014.97146  23262491.185    23262491.3524   23262498.9124
       166.0004        169.0004
 -17823594.30249 -13858692.56747  21493757.565    21493758.4674   21493762.5104
       200.0004        200.0004
  -2195129.84147  -1689109.54946  23495473.039    23495473.9174   23495479.3314
       161.0004        164.0004
 -13949698.40749 -10842034.18048  21888005.200    21888005.4904   21888011.6494
       220.0004        220.0004
 -15593578.21948 -12137856.94846  21769453.054    21769452.1114   21769459.0654
       187.0004        186.0004
  -3233393.46747  -2496421.10945  23683114.884    23683115.9544   23683120.8774
       154.0004        156.0004
 -17352363.08449 -13171507.29747  21237695.272    21237695.4094   21237702.5804
       209.0004        209.0004
  -9356538.13048  -7265299.03746  22571667.016    22571667.8644   22571674.2994
       177.0004        177.0004
 -15354551.66148 -11944899.39746  21731202.756    21731202.4944   21731212.1764
       185.0004        186.0004
 21  2  5  1 14 30.0000000  0  9G30G07G14G08G21G17G09G04G01
  -6957629.56848  -5402376.57246  23245797.437    23245797.5194   23245805.1954
       169.0004        171.0004
 -17892353.82449 -13912271.41747  21480673.873    21480674.1804   21480678.3984
       200.0004        200.0004
  -2221314.22147  -1709512.93846  23490490.669    23490490.9594   23490496.9564
       163.0004        166.0004
 -13863734.63149 -10775049.42948  21904363.271    21904363.4304   21904369.7704
       220.0004        219.0004
 -15592347.91848 -12136898.25146  21769686.982    21769686.6374   21769692.1474
       186.0004        185.0004
  -3322415.78747  -2565789.10345  23666174.161    23666174.7244   23666180.2784
       154.0004        157.0004
 -17303556.17849 -13133475.96347  21246982.954    21246982.9964   21246989.9374
       208.0004        208.0004
  -9262061.42848  -7191680.86746  22589646.483    22589646.8404   22589653.0174
       177.0004        177.0004
 -15420195.33948 -11996050.28446  21718710.357    21718711.1954   21718720.7114
       185.0004        186.0004
 21  2  5  1 15  0.0000000  0  9G30G07G14G08G21G17G09G04G01
  -7045365.46348  -5470742.15846  23229101.595    23229101.5764   23229109.1464
       168.0004        169.0004
 -17960927.95849 -13965705.81247  21467625.020    21467624.9544   21467628.5504
       200.0004        200.0004
  -2247464.71847  -1729889.91046  23485512.982    23485513.9214   23485519.5504
       163.0004        165.0004
 -13777552.30349 -10707894.36348  21920762.874    21920763.0764   21920769.9264
       219.0004        219.0004
 -15590646.07148 -12135572.13046  21770010.164    21770010.3194   21770015.6604
       185.0004        185.0004
  -3411151.90647  -2634934.01245  23649289.578    23649289.6964   23649294.6264
       156.0004        159.0004
 -17254331.65149 -13095119.20147  21256349.291    21256350.0184   21256357.0984
       208.0004        207.0004
  -9167441.48848  -7117951.05746  22607651.756    22607651.9144   22607658.7004
       177.0004        177.0004
 -15485558.23948 -12046982.39446  21706273.296    21706274.0544   21706282.3274
       185.0004        187.0004
 21  2  5  1 15 30.0000000  0  9G30G07G14G08G21G17G09G04G01
  -7133102.53748  -5539108.68646  23212405.813    23212406.2754   23212412.7364
       167.0004        169.0004
 -18029311.92049 -14018991.98947  21454610.803    21454611.2444   21454615.6924
       199.0004        199.0004
  -2273580.68247  -1750239.96946  23480543.985    23480544.2194   23480550.1634
       163.0004        165.0004
 -13691152.19849 -10640569.59448  21937204.636    21937204.8934   21937211.5884
       220.0004        219.0004
 -15588469.85148 -12133876.34446  21770424.985    21770424.2474   21770429.3784
       184.0004        184.0004
  -3499597.86047  -2703852.86745  23632459.022    23632459.0924   23632463.1974
       156.0004        158.0004
 -17204690.08749 -13056437.44347  21265796.126    21265796.3164   21265803.4894
       207.0004        208.0004
  -9072679.30848  -7044110.40046  22625684.385    22625684.1514   22625692.3994
       177.0004        177.0004
 -15550635.19648 -12097691.65746  21693890.239    21693890.7684   21693898.8964
       186.0004        187.0004
 21  2  5  1 16  0.0000000  0  9G30G07G14G08G21G17G09G04G01
  -7220840.48148  -5607475.92546  23195710.617    23195710.5174   23195717.3834
       169.0004        172.0004
 -18097504.82149 -14072129.31447  21441634.212    21441634.4974   21441639.3104
       200.0004        200.0004
  -2299665.02147  -1770565.41846  23475580.745    23475581.3514   23475585.8514
       164.0004        165.0004
 -13604539.20649 -10573078.95548  21953685.928    21953686.3834   21953693.5924
       219.0004        218.0004
 -15585820.16448 -12131811.64246  21770928.667    21770928.3184   21770933.5094
       183.0004        183.0004
  -3587753.07847  -2772545.22545  23615682.233    23615683.2514   23615686.9904
       155.0004        156.0004
 -17154635.64049 -13017434.00347  21275321.703    21275321.7774   21275328.6464
       207.0004        208.0004
  -8977779.54348  -6970162.56246  22643743.120    22643743.8174   22643750.6824
       175.0004        176.0004
 -15615424.62948 -12148176.90446  21681559.941    21681560.6574   21681569.6554
       186.0004        187.0004
 21  2  5  1 16 30.0000000  0  9G30G07G14G08G21G17G09G04G01
  -7308576.15548  -5675841.37946  23179014.858    23179015.2934   23179021.2104
       171.0004        172.0004
 -18165502.97349 -14125114.88547  21428694.513    21428695.3934   21428699.8974
       200.0004        200.0004
  -2325717.85747  -1790866.28646  23470623.221    23470622.9704   23470628.1534
       164.0004        165.0004
 -13517715.18649 -10505423.87048  21970208.088    21970208.3214   21970215.2724
       218.0004        217.0004
 -15582694.62048 -12129376.14646  21771523.968    21771523.5464   21771528.2814
       183.0004        182.0004
  -3675614.75647  -2841008.80845  23598964.029    23598964.5524   23598968.6514
       156.0004        161.0004
 -17104169.75249 -12978109.94747  21284924.384    21284924.8104   21284931.9724
       207.0004        208.0004
  -8882744.10148  -6896108.98546  22661827.664    22661828.1914   22661835.1294
       175.0004        175.0004
 -15679922.18248 -12198434.70546  21669286.124    21669287.1994   21669295.4974
       186.0004        186.0004
 21  2  5  1 17  0.0000000  0  9G30G07G14G08G21G17G09G04G01
  -7396308.70448  -5744204.42246  23162319.812    23162319.9044   23162326.5464
       171.0004        172.0004
 -18233304.78749 -14177947.45647  21415792.551    21415792.8494   21415797.4954
       200.0004        200.0004
  -2351741.55747  -1811144.45146  23465671.058    23465671.6114   23465676.5364
       164.0004        165.0004
 -13430683.78849 -10437607.20348  21986769.831    21986769.8124   21986777.5014
       218.0004        218.0004
 -15579093.39848 -12126569.99946  21772209.743    21772208.6884   21772212.4544
       182.0004        182.0004
  -3763182.33147  -2909243.20145  23582300.880    23582300.9654   23582306.5094
       159.0004        162.0004
 -17053296.17149 -12938468.18747  21294605.374    21294606.0094   21294613.1244
       207.0004        208.0004
  -8787577.14848  -6821952.94246  22679937.547    22679938.0384   22679944.7794
       175.0004        175.0004
 -15744125.75548 -12248463.43146  21657069.486    21657070.0294   21657078.0954
       186.0004        187.0004
 21  2  5  1 17 30.0000000  0  9G30G07G14G08G21G17G09G04G01
  -7484034.76748  -5812562.37646  23145625.864    23145625.9674   23145632.7694
       172.0004        173.0004
 -18300906.21049 -14230623.87647  21402928.777    21402928.8004   21402933.2864
       200.0004        200.0004
  -2377736.00347  -1831399.84746  23460723.335    23460724.2534   23460729.3394
       163.0004        164.0004
 -13343446.71949 -10369630.27248  22003370.722    22003370.5534   22003377.8054
       218.0004        218.0004
 -15575014.44648 -12123391.58846  21772985.112    21772985.3754   21772988.9094
       182.0004        180.0004
  -3850452.27347  -2977245.67745  23565693.083    23565693.3124   23565698.2304
       159.0004        160.0004
 -17002016.07649 -12898509.68747  21304363.610    21304364.6104   21304371.3274
       207.0004        207.0004
  -8692280.33348  -6747695.68246  22698071.716    22698071.8254   22698079.0194
       174.0004        174.0004
 -15808030.80248 -12298259.53246  21644907.775    21644908.4434   21644917.7544
       187.0004        187.0004
 21  2  5  1 18  0.0000000  0  9G30G07G14G08G21G17G09G04G01
  -7571752.21848  -5880913.63046  23128932.545    23128933.6784   23128941.2814
       172.0004        172.0004
 -18368304.28649 -14283141.87847  21390102.700    21390103.7744   21390107.8134
       201.0004        201.0004
  -2403702.38947  -1851633.39246  23455782.377    23455782.9954   23455788.7104
       162.0004        163.0004
 -13256007.12649 -10301495.53648  22020009.868    22020010.0334   22020016.9924
       219.0004        218.0004
 -15570456.61848 -12119840.03746  21773853.379    21773852.5964   21773856.9354
       182.0004        183.0004
  -3937422.79047  -3045014.87445  23549142.907    23549143.1824   23549149.0244
       158.0004        160.0004
 -16950332.05349 -12858236.43347  21314198.241    21314198.7944   21314206.2744
       206.0004        206.0004
  -8596856.55848  -6673339.52746  22716229.794    22716230.6264   22716237.7874
       173.0004        172.0004
 -15871634.03248 -12347820.46746  21632804.036    21632804.7794   21632813.8484
       186.0004        186.0004
 21  2  5  1 18 30.0000000  0  9G30G07G14G08G21G17G09G04G01
  -7659459.54148  -5949256.97346  23112243.809    23112243.9924   23112251.1274
       172.0004        173.0004
 -18435497.32649 -14335500.08347  21377316.632    21377317.2184   21377321.7574
       201.0004        201.0004
  -2429642.48147  -1871846.40546  23450846.679    23450847.2304   23450852.4604
       162.0004        164.0004
 -13168367.76549 -10233205.12148  22036687.151    22036687.1504   22036694.1994
       218.0004        218.0004
 -15565419.74848 -12115915.18546  21774811.322    21774811.1844   21774815.1374
       182.0004        182.0004
  -4024092.75147  -3112549.82545  23532649.068    23532650.3384   23532658.0874
       157.0004        159.0004
 -16898247.20649 -12817650.85747  21324110.196    21324110.3914   21324118.2194
       206.0004        206.0004
  -8501309.31348  -6598887.14946  22734412.969    22734413.1984   22734419.7504
       172.0004        172.0004
 -15934932.74048 -12397144.11546  21620760.049    21620760.4474   21620768.2584
       186.0004        187.0004
 21  2  5  1 19  0.0000000  0  9G30G07G14G08G21G17G09G04G01
  -7747154.63648  -6017590.80046  23095555.454    23095555.6774   23095562.2314
       171.0004        171.0004
 -18502481.93649 -14387695.85847  21364569.727    21364570.3184   21364574.7414
       201.0004        201.0004
  -2455557.40647  -1892039.81646  23445914.908    23445915.5384   23445920.6574
       162.0004        164.0004
 -13080531.96049 -10164761.62148  22053401.162    22053401.5974   22053408.5934
       218.0004        217.0004
 -15559902.88748 -12111616.31646  21775860.118    21775860.0534   21775864.0044
       182.0004        181.0004
  -4110459.86347  -3179848.80445  23516214.847    23516215.5544   23516221.6024
       158.0004        159.0004
 -16845764.04149 -12776754.86947  21334097.277    21334097.7064   21334105.1584
       206.0004        206.0004
  -8405641.52048  -6524340.83746  22752616.549    22752617.4254   22752624.5884
       170.0004        170.0004
 -15997923.65048 -12446227.88347  21608773.359    21608773.7424   21608781.6214
       187.0004        188.0004
 21  2  5  1 19 30.0000000  0  9G30G07G14G08G21G17G09G04G01
  -7834834.77848  -6085913.01846  23078870.403    23078870.8224   23078877.7284
       169.0004        170.0004
 -18569255.09549 -14439726.90747  21351863.653    21351864.5074   21351868.1854
       201.0004        202.0004
  -2481447.76747  -1912214.14245  23440987.737    23440988.4114   23440993.8734
       161.0004        162.0004
 -12992502.18949 -10096167.01348  22070152.479    22070152.6314   22070159.8874
       217.0004        215.0004
 -15553904.62848 -12106942.34846  21777001.977    21777001.6644   21777005.7374
       181.0004        182.0004
  -4196521.72847  -3246909.93845  23499838.600    23499838.1404   23499841.6464
       156.0004        157.0004
 -16792884.59449 -12735550.12247  21344160.302    21344160.7834   21344167.6824
       206.0004        206.0004
  -8309855.56148  -6449702.46946  22770845.315    22770845.7244   22770852.3384
       170.0004        170.0004
 -16060602.91648 -12495068.85347  21596845.388    21596846.3994   21596855.0254
       188.0004        189.0004
 21  2  5  1 20  0.0000000  0  9G30G07G14G08G21G17G09G04G01
  -7922498.52948  -6154222.43246  23062188.596    23062189.2794   23062196.4454
       170.0004        173.0004
 -18635814.65249 -14491591.49547  21339197.679    21339197.9104   21339202.2164
       202.0004        202.0004
  -2507315.39947  -1932370.72245  23436065.754    23436066.6864   23436071.1044
       160.0004        161.0004
 -12904281.66049 -10027423.75648  22086940.742    22086940.8284   22086948.1354
       216.0004        216.0004
 -15547424.57448 -12101892.93146  21778235.575    21778235.0374   21778239.7944
       182.0004        183.0004
  -4282277.90347  -3313732.89145  23483517.919    23483517.2434   23483523.2634
       153.0004        154.0004
 -16739612.14049 -12694039.13647  21354297.477    21354298.0094   21354304.8804
       206.0004        206.0004
  -8213955.06948  -6374974.83646  22789094.464    22789095.5534   22789100.9624
       170.0004        171.0004
 -16122967.98248 -12543664.98047  21584978.662    21584979.1274   21584986.7154
       188.0004        189.0004
 21  2  5  1 20 30.0000000  0  9G30G07G14G08G21G17G09G04G01
  -8010143.00148  -6222516.81246  23045510.837    23045511.2434   23045518.2094
       172.0004        174.0004
 -18702156.97049 -14543286.81747  21326573.466    21326573.7364   21326577.5644
       202.0004        202.0004
  -2533160.77347  -1952509.93545  23431147.551    23431147.7664   23431153.0234
       159.0004        160.0004
 -12815872.66049  -9958533.64048  22103764.130    22103765.0624   22103771.9984
       217.0004        216.0004
 -15540461.53248 -12096467.17546  21779559.594    21779559.3934   21779565.2664
       183.0004        184.0004
  -4367725.14347  -3380315.13545  23467257.392    23467258.0394   23467263.9754
       154.0004        156.0004
 -16685948.52349 -12652223.35047  21364509.949    21364509.9974   21364517.0134
       206.0004        206.0004
  -8117942.17448  -6300159.62846  22807364.427    22807365.6914   22807371.6024
       169.0004        169.0004
 -16185014.84148 -12592013.16247  21573171.099    21573171.9354   21573178.9104
       189.0004        189.0004
 21  2  5  1 21  0.0000000  0  9G30G07G14G08G21G17G09G04G01
  -8097766.84948  -6290795.12046  23028837.019    23028837.1554   23028843.0174
       173.0004        174.0004
 -18768279.97049 -14594811.22747  21313990.384    21313990.8434   21313994.8024
       202.0004        202.0004
  -2558985.81347  -1972633.30346  23426233.685    23426233.7664   23426237.7404
       160.0004        163.0004
 -12727278.40649  -9889499.14048  22120622.998    22120623.5824   22120630.8084
       217.0004        216.0004
 -15533015.45448 -12090665.01146  21780977.279    21780976.7234   21780982.3344
       183.0004        185.0004
  -4452862.31047  -3446655.68845  23451058.570    23451058.7304   23451062.0534
       157.0004        162.0004
 -16631897.13949 -12610105.38747  21374794.643    21374795.2154   21374802.7684
       206.0004        206.0004
  -8021820.54148  -6225259.69246  22825655.843    22825656.7284   22825663.0334
       168.0004        169.0004
 -16246741.05548 -12640111.47647  21561423.450    21561424.7614   21561432.8584
       188.0004        188.0004
 21  2  5  1 21 30.0000000  0  9G30G07G14G08G21G17G09G04G01
  -8185368.84748  -6359056.43946  23012167.486    23012166.5054   23012174.0184
       174.0004        175.0004
 -18834182.22349 -14646163.64447  21301449.591    21301449.8704   21301454.2584
       202.0004        202.0004
  -2584792.64647  -1992742.51045  23421321.541    23421322.7844   23421327.7904
       160.0004        161.0004
 -12638503.38849  -9820323.81048  22137516.700    22137517.2144   22137523.8834
       216.0004        215.0004
 -15525086.37748 -12084486.50546  21782486.568    21782485.9424   21782491.0064
       184.0004        185.0004
  -4537688.96947  -3512754.38046  23434915.952    23434916.7764   23434921.8034
       162.0004        166.0004
 -16577461.61549 -12567688.10647  21385153.719    21385154.0874   21385160.8874
       205.0004        205.0004
  -7925594.14148  -6150278.11446  22843967.487    22843967.9064   22843974.5274
       169.0004        170.0004
 -16308144.37648 -12687958.19947  21549740.060    21549740.3794   21549748.4684
       188.0004        188.0004
 21  2  5  1 22  0.0000000  0  9G30G07G14G08G21G17G09G04G01
  -8272945.77348  -6427298.18446  22995502.051    22995501.3614   22995508.1934
       173.0004        173.0004
 -18899859.70649 -14697340.86847  21288951.344    21288951.7994   21288956.3454
       202.0004        203.0004
  -2610581.35747  -2012837.57545  23416413.783    23416414.9274   23416420.2994
       160.0004        161.0004
 -12549548.76549  -9751008.50648  22154444.041    22154444.0854   22154451.1644
       215.0004        213.0004
 -15516672.64648 -12077930.31146  21784086.023    21784086.6654   21784092.4554
       184.0004        184.0004
  -4622202.08947  -3578608.65946  23418832.534    23418833.7734   23418838.2964
       161.0004        163.0004
 -16522643.42249 -12524972.60847  21395585.828    21395586.1444   21395593.2154
       205.0004        206.0004
  -7829264.73248  -6075216.24146  22862298.025    22862298.9044   22862304.6954
       168.0004        167.0004
 -16369220.44348 -12735549.88047  21538118.303    21538118.0764   21538126.1934
       188.0004        188.0004
 21  2  5  1 22 30.0000000  0  9G30G07G14G08G21G17G09G04G01
  -8360494.49948  -6495517.98246  22978840.329    22978840.9834   22978848.4724
       172.0004        173.0004
 -18965308.52149 -14748339.97347  21276496.601    21276497.1104   21276501.3984
       202.0004        202.0004
  -2636352.09447  -2032918.68045  23411510.598    23411511.6074   23411516.3074
       160.0004        162.0004
 -12460416.34749  -9681554.70948  22171405.325    22171405.5394   22171412.5194
       214.0004        214.0004
 -15507772.58048 -12070995.20846  21785780.370    21785780.5664   21785785.8424
       185.0004        185.0004
  -4706398.71147  -3644216.35646  23402811.147    23402811.7974   23402816.9734
       162.0004        164.0004
 -16467444.31249 -12481960.34147  21406090.338    21406090.0974   21406097.4574
       205.0004        206.0004
  -7732834.31348  -6000075.71346  22880648.773    22880650.0514   22880656.7044
       168.0004        171.0004
 -16429965.08048 -12782883.36947  21526558.432    21526558.8524   21526566.7234
       187.0004        188.0004
 21  2  5  1 23  0.0000000  0  9G30G07G14G08G21G17G09G04G01
  -8448014.38648  -6563715.27546  22962186.767    22962186.9644   22962194.7864
       173.0004        175.0004
 -19030527.69849 -14799160.10047  21264085.986    21264086.4894   21264090.5104
       202.0004        202.0004
  -2662107.59647  -2052987.85345  23406608.939    23406609.7924   23406614.5024
       160.0004        161.0004
 -12371110.78149  -9611965.94748  22188398.547    22188399.4924   22188407.0784
       214.0004        213.0004
 -15498386.84348 -12063681.62346  21787567.289    21787566.6104   21787572.6894
       185.0004        185.0004
  -4790279.04747  -3709577.67545  23386848.846    23386849.6364   23386855.4414
       162.0004        160.0004
 -16411868.53949 -12438654.54647  21416665.414    21416665.8164   21416672.8074
       205.0004        206.0004
  -7636307.35348  -5924859.92546  22899018.235    22899018.2014   22899024.2734
       170.0004        171.0004
 -16490376.69648 -12829957.30346  21515061.110    21515061.5164   21515071.3744
       187.0004        187.0004
 21  2  5  1 23 30.0000000  0  9G30G07G14G08G21G17G09G04G01
  -8535502.66048  -6631887.92946  22945536.543    22945536.5044   22945544.3754
       171.0004        169.0004
 -19095513.79849 -14849798.61347  21251720.335    21251720.1204   21251724.2204
       202.0004        203.0004
  -2687848.39247  -2073045.61545  23401712.139    23401711.8864   23401717.2824
       161.0004        162.0004
 -12281634.33149  -9542244.02748  22205426.869    22205427.0644   22205433.9594
       214.0004        214.0004
 -15488514.36048 -12055988.73646  21789445.075    21789444.8704   21789451.2674
       185.0004        185.0004
  -4873839.81548  -3774689.79746  23370948.779    23370948.2964   23370955.1314
       165.0004        167.0004
 -16355918.15449 -12395056.83447  21427312.094    21427312.6474   21427319.6694
       205.0004        205.0004
  -7539686.13748  -5849570.70446  22917403.669    22917404.5214   22917410.2544
       168.0004        168.0004
 -16550451.50448 -12876768.78447  21503629.130    21503629.8514   21503639.5654
       187.0004        189.0004
 21  2  5  1 24  0.0000000  0  9G30G07G14G08G21G17G09G04G01
  -8622957.64848  -6700034.66346  22928894.971    22928894.5694   22928903.5684
       169.0004        171.0004
 -19160264.46649 -14900253.68447  21239397.955    21239398.5074   21239402.7064
       203.0004        203.0004
  -2713576.20047  -2093093.25345  23396815.565    23396815.8734   23396820.2564
       158.0004        159.0004
 -12191990.54549  -9472391.72648  22222485.815    22222485.6004   22222492.6774
       214.0004        213.0004
 -15478155.26448 -12047916.69346  21791416.864    21791416.6624   21791421.9304
       185.0004        186.0004
  -4957080.50148  -3839552.56946  23355107.414    23355107.6844   23355114.4284
       165.0004        167.0004
 -16299596.33949 -12351169.72347  21438029.529    21438029.8984   21438037.6494
       204.0004        204.0004
  -7442974.09648  -5774210.69846  22935806.172    22935807.2584   22935814.4964
       168.0004        169.0004
 -16610186.73548 -12923315.69547  21492263.335    21492264.5014   21492271.9404
       190.0004        192.0004
 21  2  5  1 24 30.0000000  0  9G30G07G14G08G21G17G09G04G01
  -8710376.60948  -6768153.33346  22912258.825    22912259.8084   22912268.1634
       169.0004        172.0004
 -19224776.25249 -14950522.61647  21227122.574    21227122.7564   21227126.8634
       203.0004        203.0004
  -2739291.61547  -2113131.22045  23391922.386    23391922.4704   23391928.3054
       157.0004        157.0004
 -12102180.78049  -9402410.09148  22239575.229    22239575.3654   22239583.2054
       213.0004        213.0004
 -15467307.89748 -12039464.19146  21793481.020    21793480.6454   21793486.3864
       185.0004        186.0004
  -5039998.85348  -3904164.20146  23339329.493    23339330.3144   23339336.2724
       167.0004        170.0004
 -16242905.34949 -12306994.92747  21448817.725    21448818.4244   21448825.2914
       204.0004        204.0004
  -7346173.54248  -5698781.73746  22954227.728    22954228.0034   22954234.3634
       168.0004        169.0004
 -16669578.71448 -12969595.15447  21480963.296    21480963.5124   21480970.1244
       193.0004        193.0004
 21  2  5  1 25  0.0000000  0  9G30G07G14G08G21G17G09G04G01
  -8797757.35448  -6836242.21446  22895631.820    22895632.0544   22895638.8874
       170.0004        171.0004
 -19289046.60349 -15000603.38447  21214892.024    21214892.3634   21214896.4024
       203.0004        204.0004
  -2764995.86847  -2133160.48145  23387030.171    23387031.0444   23387035.0034
       154.0004        156.0004
 -12012209.09649  -9332302.27747  22256695.730    22256696.1714   22256703.7094
       212.0004        212.0004
 -15455972.02548 -12030631.01546  21795637.657    21795637.4144   21795642.8764
       186.0004        186.0004
  -5122593.06548  -3968523.24746  23323611.662    23323611.6734   23323619.3274
       168.0004        169.0004
 -16185847.87749 -12262534.54847  21459676.006    21459676.0624   21459683.1314
       204.0004        204.0004
  -7249287.52048  -5623286.13646  22972665.030    22972665.2114   22972671.4374
       169.0004        169.0004
 -16728624.39848 -13015604.74347  21469725.425    21469726.2854   21469734.1284
       192.0004        192.0004
 21  2  5  1 25 30.0000000  0  9G30G07G14G08G21G17G09G04G01
  -8885096.78248  -6904298.91946  22879011.111    22879011.6994   22879019.6214
       170.0004        172.0004
 -19353071.77449 -15050493.14147  21202707.747    21202708.2664   21202712.7114
       203.0004        203.0004
  -2790689.07947  -2153181.18745  23382141.125    23382141.9224   23382146.9814
       155.0004        157.0004
 -11922076.66849  -9262069.24448  22273849.290    22273848.5344   22273855.4154
       212.0004        213.0004
 -15444146.22448 -12021416.09746  21797888.285    21797888.2794   21797893.5124
       186.0004        187.0004
  -5204860.56648  -4032627.77546  23307956.557    23307957.1824   23307963.5194
       168.0004        169.0004
 -16128425.73949 -12217790.04747  21470602.745    21470603.1254   21470609.9934
       203.0004        203.0004
  -7152317.96148  -5547725.48246  22991118.280    22991119.0534   22991123.8504
       169.0004        170.0004
 -16787319.67848 -13061341.31647  21458555.346    21458555.3554   21458564.5754
       190.0004        189.0004
 21  2  5  1 26  0.0000000  0  9G30G07G14G08G21G17G09G04G01
  -8972395.14448  -6972323.60946  22862400.534    22862400.5854   22862407.0564
       172.0004        174.0004
 -19416851.52749 -15100191.66347  21190570.967    21190571.5304   21190575.8184
       203.0004        203.0004
  -2816374.96547  -2173196.17645  23377253.894    23377254.1244   23377258.9844
       156.0004        158.0004
 -11831788.92549  -9191715.17047  22291029.737    22291029.9164   22291036.5314
       213.0004        212.0004
 -15431832.23748 -12011820.79046  21800231.758    21800231.3264   21800237.2744
       187.0004        187.0004
  -5286802.27148  -4096478.37846  23292365.190    23292365.0024   23292370.0914
       167.0004        168.0004
 -16070644.22449 -12172765.50447  21481597.072    21481597.7194   21481605.7044
       203.0004        203.0004
  -7055270.30148  -5472103.96446  23009585.608    23009585.6974   23009592.1324
       169.0004        170.0004
 -16845663.91348 -13106804.32247  21447451.248    21447452.2964   21447461.9164
       188.0004        188.0004
 21  2  5  1 26 30.0000000  0  9G30G07G14G08G21G17G09G04G01
  -9059649.58548  -7040314.04346  22845796.786    22845796.1254   22845802.8764
       172.0004        173.0004
 -19480382.44349 -15149696.25247  21178482.357    21178482.6744   21178486.1634
       204.0004        204.0004
  -2842053.96947  -2193205.77545  23372366.614    23372366.7904   23372370.8624
       155.0004        155.0004
 -11741347.80249  -9121241.53747  22308238.824    22308239.4634   22308247.0494
       211.0004        210.0004
 -15419028.99348 -12001844.18846  21802667.668    21802667.1904   21802673.6234
       186.0004        185.0004
  -5368415.69148  -4160073.20846  23276834.119    23276835.0324   23276838.7054
       165.0004        168.0004
 -16012505.40249 -12127462.50947  21492661.366    21492661.6354   21492668.9334
       202.0004        202.0004
  -6958146.77148  -5396423.30146  23028065.917    23028066.9064   23028073.1904
       169.0004        168.0004
 -16903653.23248 -13151990.74647  21436417.860    21436417.8664   21436426.5514
       188.0004        188.0004
 21  2  5  1 27  0.0000000  0  9G30G07G14G08G21G17G09G04G01
  -9146856.59448  -7108267.58346  22829201.906    22829202.0554   22829208.3184
       172.0004        173.0004
 -19543660.34149 -15199003.73047  21166440.500    21166440.7834   21166444.6994
       204.0004        204.0004
  -2867726.08547  -2213209.99745  23367480.047    23367480.7644   23367486.6304
       154.0004        156.0004
 -11650755.08949  -9050649.82447  22325478.060    22325478.1064   22325486.2644
       210.0004        209.0004
 -15405734.92048 -11991485.18246  21805196.965    21805196.9434   21805202.9814
       186.0004        185.0004
  -5449697.85148  -4223409.94746  23261366.821    23261366.6004   23261370.2134
       165.0004        165.0004
 -15954010.81649 -12081882.32047  21503792.730    21503793.2244   21503800.1904
       202.0004        203.0004
  -6860948.96648  -5320684.80846  23046562.249    23046563.6964   23046571.0904
       168.0004        168.0004
 -16961283.35048 -13196897.32947  21425451.672    21425452.2664   21425459.8464
       189.0004        192.0004
 21  2  5  1 27 30.0000000  0  9G30G07G14G08G21G17G09G04G01
  -9234012.64648  -7176181.37146  22812616.075    22812616.0334   22812622.4994
       172.0004        174.0004
 -19606681.42549 -15248111.04847  21154447.419    21154447.8334   21154452.4404
       203.0004        203.0004
  -2893391.05147  -2233208.64745  23362597.422    23362598.2094   23362604.0574
       155.0004        158.0004
 -11560012.21149  -8979941.07947  22342745.555    22342746.1794   22342753.7554
       209.0004        209.0004
 -15391948.01748 -11980742.10346  21807821.287    21807820.7294   21807826.1134
       186.0004        186.0004
  -5530645.88347  -4286486.27546  23245962.165    23245962.0174   23245966.2344
       163.0004        163.0004
 -15895161.92149 -12036026.04147  21514991.300    21514991.5724   21514998.2384
       202.0004        202.0004
  -6763678.56048  -5244889.71446  23065072.727    23065073.1884   23065080.4814
       168.0004        169.0004
 -17018549.77648 -13241520.48247  21414554.394    21414555.1544   21414562.5644
       192.0004        194.0004
 21  2  5  1 28  0.0000000  0 10G30G07G14G28G08G21G17G09G04G01
  -9321117.94348  -7244055.61246  22796040.778    22796040.2854   22796047.6684
       176.0004        178.0004
 -19669445.11849 -15297017.81447  21142504.601    21142505.1804   21142509.1234
       204.0004        204.0004
  -2919052.51947  -2253204.56845  23357715.118    23357714.9064   23357719.7874
       158.0004        161.0004
  -1540599.05157  -1195464.88745  23689863.483    23689863.8875   23689869.1464
       135.0004        143.0004
 -11469124.70749  -8909119.64047  22360042.058    22360042.0404   22360049.0254
       209.0004        209.0004
 -15377670.39248 -11969616.65646  21810537.693    21810537.3424   21810543.1174
       185.0004        185.0004
  -5611260.16647  -4349302.54745  23230620.854    23230621.2134   23230624.0424
       160.0004        160.0004
 -15835964.07249 -11989897.83847  21526256.371    21526256.5704   21526263.7254
       202.0004        202.0004
  -6666340.88648  -5169042.21946  23083595.584    23083596.5044   23083602.8954
       168.0004        168.0004
 -17075451.97448 -13285859.81447  21403726.993    21403727.1784   21403734.3504
       193.0004        194.0004
 21  2  5  1 28 30.0000000  0 10G30G07G14G28G08G21G17G09G04G01
  -9408170.23848  -7311888.58646  22779475.735    22779475.7764   22779481.7394
       177.0004        179.0004
 -19731948.59449 -15345721.82147  21130610.366    21130610.4934   21130614.9934
       204.0004        204.0004
  -2944711.55247  -2273198.59745  23352831.817    23352831.7894   23352836.5494
       159.0004        161.0004
  -1555572.06147  -1207132.18845  23687016.857    23687014.9594   23687020.3154
       137.0004        144.0004
 -11378094.90749  -8838187.34847  22377364.026    22377364.3234   22377371.6934
       210.0004        209.0004
 -15362901.79448 -11958108.66146  21813349.186    21813348.8604   21813353.5424
       185.0004        186.0004
  -5691540.16047  -4411858.33545  23215344.443    23215344.2054   23215346.9984
       159.0004        161.0004
 -15776419.97649 -11943499.85347  21537586.738    21537587.4204   21537594.8054
       202.0004        203.0004
  -6568938.79348  -5093144.54646  23102131.988    23102132.5544   23102137.9584
       167.0004        167.0004
 -17131986.79048 -13329912.91447  21392968.969    21392968.9134   21392975.9304
       193.0004        193.0004
 21  2  5  1 29  0.0000000  0 10G30G07G14G28G08G21G17G09G04G01
  -9495170.31048  -7379680.85046  22762918.822    22762918.8994   22762925.9814
       178.0004        178.0004
 -19794192.39549 -15394223.48247  21118764.692    21118766.1024   21118770.4834
       204.0004        204.0004
  -2970372.36747  -2293194.02045  23347948.953    23347949.5364   23347954.2654
       159.0004        160.0004
  -1570531.14947  -1218788.58645  23684167.444    23684168.9804   23684173.2224
       138.0004        143.0004
 -11286929.15049  -8767149.09147  22394711.259    22394712.1354   22394720.6164
       209.0004        209.0004
 -15347644.73248 -11946220.02846  21816252.527    21816251.9774   21816257.4054
       186.0004        186.0004
  -5771486.88747  -4474154.47045  23200130.566    23200131.4694   23200134.7134
       158.0004        160.0004
 -15716535.50449 -11896836.62947  21548983.232    21548982.8574   21548990.0034
       202.0004        202.0004
  -6471478.21048  -5017201.27946  23120676.099    23120678.1544   23120684.4724
       165.0004        166.0004
 -17188154.20948 -13373679.71647  21382279.073    21382280.0214   21382287.7494
       193.0004        193.0004
 21  2  5  1 29 30.0000000  0 10G30G07G14G28G08G21G17G09G04G01
  -9582111.35748  -7447427.10646  22746375.491    22746375.0754   22746382.1774
       178.0004        180.0004
 -19856169.11249 -15442517.03147  21106972.756    21106972.4034   21106976.3734
       204.0004        204.0004
  -2996031.56747  -2313188.17445  23343065.483    23343065.6334   23343071.1374
       159.0004        161.0004
  -1585473.71447  -1230432.11945  23681324.798    23681324.7714   23681329.6544
       139.0004        143.0004
 -11195625.31649  -8696003.25247  22412086.598    22412086.6484   22412094.5744
       208.0004        207.0004
 -15331894.35648 -11933946.98846  21819248.245    21819248.4284   21819254.5154
       186.0004        185.0004
  -5851094.39347  -4536186.25846  23184982.019    23184983.2544   23184987.7924
       161.0004        164.0004
 -15656309.00249 -11849906.90447  21560443.506    21560444.0044   21560451.4504
       203.0004        204.0004
  -6373957.47948  -4941211.15546  23139236.098    23139235.9674   23139241.2914
       165.0004        165.0004
 -17243946.65048 -13417154.31247  21371662.965    21371663.3944   21371670.6414
       192.0004        192.0004
 21  2  5  1 30  0.0000000  0 10G30G07G14G28G08G21G17G09G04G01
  -9668990.67248  -7515125.29446  22729842.657    22729842.5004   22729849.6924
       180.0004        181.0004
 -19917875.39849 -15490599.86047  21095229.344    21095230.1224   21095233.8984
       204.0004        205.0004
  -3021689.84947  -2333181.63345  23338183.693    23338184.0854   23338188.4154
       159.0004        161.0004
  -1600401.03247  -1242063.79445  23678485.468    23678484.6614   23678489.5134
       140.0004        144.0004
 -11104185.60649  -8624751.54747  22429487.642    22429487.5814   22429494.8214
       207.0004        207.0004
 -15315649.95548 -11921288.99946  21822339.654    21822339.7444   21822345.9024
       185.0004        186.0004
  -5930360.44847  -4597952.00046  23169898.520    23169898.1894   23169904.0644
       163.0004        165.0004
 -15595742.85549 -11802712.51247  21571969.574    21571969.3894   21571975.8484
       204.0004        204.0004
  -6276379.10647  -4865176.12746  23157802.778    23157803.7904   23157810.7854
       164.0004        165.0004
 -17299360.61148 -13460334.00647  21361116.864    21361117.7904   21361126.3614
       191.0004        191.0004
 21  2  5  1 30 30.0000000  0 10G30G07G14G28G08G21G17G09G04G01
  -9755805.80348  -7582773.45346  22713322.735    22713322.7464   22713328.9044
       181.0004        183.0004
 -19979308.62349 -15538469.90647  21083538.589    21083539.0904   21083544.1284
       204.0004        204.0004
  -3047348.19147  -2353175.13645  23333300.775    23333301.3694   23333305.2864
       159.0004        161.0004
  -1615313.99047  -1253684.27745  23675646.300    23675646.5634   23675653.3674
       141.0004        146.0004
 -11012613.02749  -8553396.28647  22446913.047    22446912.7114   22446920.9284
       208.0004        208.0004
 -15298911.06548 -11908245.69046  21825525.418    21825525.2244   21825530.0454
       185.0004        185.0004
  -6009283.28948  -4659450.28946  23154880.226    23154881.1104   23154885.9364
       166.0004        169.0004
 -15534839.78749 -11755255.59047  21583558.685    21583559.4914   21583566.0004
       204.0004        205.0004
  -6178745.80847  -4789098.29246  23176381.450    23176382.2884   23176390.0584
       163.0004        165.0004
 -17354392.92648 -13503216.30047  21350644.285    21350644.8874   21350654.0904
       190.0004        191.0004
 21  2  5  1 31  0.0000000  0 10G30G07G14G28G08G21G17G09G04G01
  -9842554.56948  -7650369.87146  22696814.017    22696814.4474   22696821.6344
       180.0004        179.0004
 -20040465.91349 -15586124.92747  21071901.429    21071901.9904   21071905.5224
       204.0004        204.0004
  -3073007.79547  -2373169.60745  23328418.080    23328418.0394   23328422.5854
       160.0004        162.0004
  -1630214.74747  -1265295.22845  23672811.267    23672810.6374   23672816.7104
       142.0004        147.0004
 -10920910.44849  -8481939.73347  22464362.834    22464363.0204   22464371.5804
       208.0004        208.0004
 -15281677.40548 -11894816.82046  21828804.461    21828804.7674   21828810.3664
       185.0004        185.0004
  -6087861.47248  -4720680.00946  23139926.943    23139926.8264   23139934.1404
       168.0004        171.0004
 -15473602.73849 -11707538.40347  21595211.451    21595211.7804   21595219.0844
       204.0004        204.0004
  -6081060.47047  -4712979.90546  23194972.129    23194972.5274   23194978.5874
       163.0004        165.0004
 -17409040.66348 -13545798.90447  21340244.873    21340245.4984   21340254.9304
       190.0004        190.0004
 21  2  5  1 31 30.0000000  0 10G30G07G14G28G08G21G17G09G04G01
  -9929234.34648  -7717912.56646  22680319.642    22680319.3414   22680326.1534
       179.0004        179.0004
 -20101344.12249 -15633562.50547  21060316.932    21060317.4364   21060321.0764
       205.0004        205.0004
  -3098669.42747  -2393165.68845  23323533.596    23323534.2944   23323539.5374
       160.0004        161.0004
  -1645104.30847  -1276897.47445  23669977.916    23669977.9044   23669981.2304
       143.0004        148.0004
 -10829079.65249  -8410383.27847  22481838.823    22481838.4664   22481845.8744
       208.0004        207.0004
 -15263948.54148 -11881002.09846  21832178.734    21832178.2024   21832183.4244
       186.0004        186.0004
  -6166093.26348  -4781639.79346  23125039.945    23125039.9984   23125047.6214
       169.0004        171.0004
 -15412034.22049 -11659562.93847  21606927.118    21606927.8204   21606935.2804
       204.0004        204.0004
  -5983325.71447  -4636823.04746  23213568.381    23213569.7244   23213576.8374
       163.0004        163.0004
 -17463300.46548 -13588079.24247  21329919.764    21329920.5264   21329929.4604
       190.0004        191.0004
 21  2  5  1 32  0.0000000  0 10G30G07G14G28G08G21G17G09G04G01
 -10015844.78448  -7785401.21846  22663838.711    22663838.1894   22663844.0284
       179.0004        180.0004
 -20161942.56449 -15680782.04247  21048784.646    21048785.1374   21048789.8084
       204.0004        204.0004
  -3124336.11547  -2413165.67945  23318650.854    23318651.0414   23318655.5724
       161.0004        162.0004
  -1659986.02847  -1288493.58045  23667146.556    23667146.5904   23667150.7294
       147.0004        151.0004
 -10737126.28949  -8338731.30147  22499336.875    22499336.5794   22499343.8314
       207.0004        207.0004
 -15245726.18048 -11866802.82246  21835645.900    21835646.0154   21835651.6264
       185.0004        185.0004
  -6243979.19248  -4842330.05746  23110218.457    23110219.6574   23110225.2044
       170.0004        171.0004
 -15350139.08849 -11611332.95547  21618706.190    21618706.4454   21618713.1654
       204.0004        204.0004
  -5885546.27447  -4560631.31145  23232176.222    23232177.1124   23232184.2004
       161.0004        162.0004
 -17517171.24848 -13630056.44547  21319669.001    21319669.8574   21319677.6834
       191.0004        192.0004
 21  2  5  1 32 30.0000000  0 10G30G07G14G28G08G21G17G09G04G01
 -10102382.64848  -7852833.33446  22647370.991    22647370.8104   22647378.2254
       182.0004        184.0004
 -20222257.72249 -15727780.88947  21037307.715    21037308.0894   21037311.4754
       204.0004        205.0004
  -3150008.17047  -2433169.85745  23313765.398    23313765.8184   23313769.4144
       159.0004        160.0004
  -1674860.65247  -1300084.19745  23664315.222    23664315.4354   23664320.6334
       149.0004        153.0004
 -10645051.21849  -8266984.51847  22516857.538    22516857.5954   22516865.2684
       206.0004        206.0004
 -15227009.12748 -11852218.10546  21839208.022    21839207.4514   21839213.3604
       185.0004        186.0004
  -6321516.74648  -4902748.87246  23095464.347    23095464.6164   23095470.6684
       171.0004        173.0004
 -15287919.33549 -11562850.04547  21630545.885    21630546.2184   21630552.9274
       203.0004        202.0004
  -5787724.18547  -4484406.38046  23250791.888    23250792.5594   23250798.7704
       162.0004        164.0004
 -17570649.18948 -13671727.56447  21309492.334    21309493.3874   21309501.5464
       192.0004        193.0004
 21  2  5  1 33  0.0000000  0 10G30G07G14G28G08G21G17G09G04G01
 -10188845.79548  -7920207.18546  22630917.594    22630918.4374   22630925.2144
       183.0004        184.0004
 -20282286.86949 -15774556.84647  21025884.681    21025884.9544   21025888.5904
       205.0004        205.0004
  -3175686.79147  -2453179.14345  23308878.881    23308878.6824   23308883.8144
       158.0004        160.0004
  -1689729.90247  -1311670.58845  23661485.107    23661485.7684   23661490.3104
       149.0004        152.0004
 -10552858.25549  -8195145.84047  22534400.258    22534400.8674   22534408.6884
       205.0004        205.0004
 -15207797.39148 -11837247.91246  21842862.886    21842863.2404   21842868.5264
       185.0004        185.0004
  -6398704.51648  -4962895.12046  23080775.145    23080775.2014   23080780.9534
       170.0004        169.0004
 -15225378.02849 -11514116.57147  21642446.649    21642447.2564   21642454.2384
       202.0004        202.0004
  -5689862.45247  -4408150.53146  23269414.112    23269413.9574   23269422.0134
       163.0004        164.0004
 -17623731.42248 -13713090.32147  21299390.599    21299391.4724   21299399.8964
       192.0004        193.0004
 21  2  5  1 33 30.0000000  0 10G30G07G14G28G08G21G17G09G04G01
 -10275230.90848  -7987520.25346  22614478.842    22614479.0224   22614485.8454
       182.0004        183.0004
 -20342026.21949 -15821106.97947  21014516.261    21014516.7784   21014521.0134
       205.0004        205.0004
  -3201372.12247  -2473193.68645  23303991.368    23303992.3284   23303996.3044
       158.0004        160.0004
  -1704594.43647  -1323253.34345  23658657.104    23658657.1074   23658661.1854
       150.0004        153.0004
 -10460548.60649  -8123216.24447  22551966.766    22551966.9844   22551974.8804
       205.0004        205.0004
 -15188089.85048 -11821891.37346  21846613.817    21846613.6024   21846619.4004
       185.0004        185.0004
  -6475540.47348  -5022767.27146  23066154.263    23066154.8564   23066159.9174
       169.0004        171.0004
 -15162517.09749 -11465134.03147  21654408.921    21654409.1154   21654416.8364
       201.0004        202.0004
  -5591962.90547  -4331865.24746  23288043.513    23288043.5064   23288052.1154
       162.0004        163.0004
 -17676414.00448 -13754141.66347  21289365.749    21289366.3444   21289375.6134
       193.0004        194.0004
 21  2  5  1 34  0.0000000  0 10G30G07G14G28G08G21G17G09G04G01
 -10361537.20948  -8054771.91346  22598055.547    22598055.0674   22598062.7774
       182.0004        183.0004
 -20401474.48649 -15867430.31847  21003203.878    21003204.5144   21003208.1134
       205.0004        205.0004
  -3227066.74147  -2493215.47545  23299101.664    23299102.1434   23299107.0214
       158.0004        160.0004
  -1719457.10947  -1334834.65945  23655829.497    23655829.5134   23655833.5694
       151.0004        155.0004
 -10368126.79949  -8051199.26047  22569554.511    22569554.2634   22569562.3754
       205.0004        205.0004
 -15167887.80948 -11806149.52046  21850458.691    21850458.3854   21850463.7524
       185.0004        185.0004
  -6552024.35348  -5082365.05546  23051599.081    23051599.1604   23051603.8534
       167.0004        168.0004
 -15099340.95449 -11415905.89147  21666431.991    21666431.7974   21666439.2734
       201.0004        202.0004
  -5494029.95547  -4255553.94246  23306679.336    23306679.8304   23306687.5394
       162.0004        163.0004
 -17728695.52348 -13794880.50047  21279418.161    21279418.4754   21279426.3104
       194.0004        195.0004
 21  2  5  1 34 30.0000000  0 10G30G07G14G28G08G21G17G09G04G01
 -10447762.15348  -8121960.16846  22581647.422    22581646.9494   22581653.6684
       181.0004        181.0004
 -20460628.85449 -15913524.61647  20991947.345    20991947.5014   20991951.6744
       205.0004        205.0004
  -3252771.58747  -2513245.19145  23294209.953    23294210.7854   23294215.2964
       158.0004        160.0004
  -1734319.47947  -1346415.68145  23653000.270    23653000.4114   23653004.8864
       152.0004        154.0004
 -10275595.20549  -7979096.70647  22587161.477    22587162.0224   22587170.5154
       205.0004        205.0004
 -15147191.20948 -11790022.27546  21854397.430    21854396.6244   21854402.0574
       185.0004        186.0004
  -6628154.88848  -5141687.46146  23037111.954    23037112.2764   23037118.1274
       167.0004        169.0004
 -15035852.36849 -11366434.25547  21678511.839    21678512.4634   21678520.2174
       200.0004        200.0004
  -5396066.23147  -4179218.62346  23325321.535    23325321.8254   23325329.8194
       163.0004        164.0004
 -17780572.87648 -13835304.38347  21269546.321    21269546.5064   21269553.8504
       194.0004        194.0004
 21  2  5  1 35  0.0000000  0 10G30G07G14G28G08G21G17G09G04G01
 -10533901.75648  -8189081.91946  22565255.706    22565255.6564   22565262.3894
       181.0004        181.0004
 -20519484.85949 -15959386.42547  20980746.845    20980747.2884   20980751.4814
       205.0004        205.0004
  -3278486.08747  -2533282.44345  23289316.683    23289316.8384   23289321.2464
       159.0004        162.0004
  -1749181.18047  -1357996.21345  23650172.942    23650172.1974   23650176.6544
       152.0004        155.0004
 -10182955.24649  -7906909.75447  22604790.283    22604790.7534   22604799.5654
       204.0004        203.0004
 -15125998.15648 -11773508.19846  21858429.297    21858429.3184   21858434.6484
       185.0004        186.0004
  -6703929.20648  -5200732.34646  23022693.223    23022693.3364   23022697.5524
       169.0004        171.0004
 -14972052.61149 -11316720.15947  21690652.236    21690652.5144   21690660.5134
       200.0004        200.0004
  -5298072.93747  -4102860.30246  23343968.351    23343968.7514   23343976.4494
       162.0004        164.0004
 -17832041.59849 -13875409.85747  21259752.227    21259752.2334   21259759.9504
       195.0004        195.0004
 21  2  5  1 35 30.0000000  0 10G30G07G14G28G08G21G17G09G04G01
 -10619955.02648  -8256136.42046  22548879.020    22548879.6374   22548886.3464
       179.0004        178.0004
 -20578041.16349 -16005014.72547  20969604.374    20969604.7404   20969608.5764
       205.0004        205.0004
  -3304212.69947  -2553329.14945  23284420.840    23284420.8484   23284425.3644
       160.0004        162.0004
  -1764045.10947  -1369578.49345  23647344.645    23647343.9634   23647348.8834
       153.0004        155.0004
 -10090210.63549  -7834641.24947  22622439.728    22622439.9404   22622448.1524
       203.0004        203.0004
 -15104310.08048 -11756608.40046  21862556.728    21862556.6534   21862561.4744
       186.0004        186.0004
  -6779346.98548  -5259499.38646  23008341.066    23008341.6264   23008345.0624
       169.0004        170.0004
 -14907945.97449 -11266766.97047  21702852.903    21702853.1534   21702859.3194
       200.0004        200.0004
  -5200054.25847  -4026482.21046  23362621.390    23362622.1004   23362628.2454
       162.0004        163.0004
 -17883099.84649 -13915195.49747  21250035.377    21250035.7804   21250043.5924
       195.0004        195.0004
 21  2  5  1 36  0.0000000  0 10G30G07G14G28G08G21G17G09G04G01
 -10705919.38248  -8323121.62246  22532521.148    22532521.4444   22532528.8464
       179.0004        179.0004
 -20636294.93649 -16050407.27647  20958519.184    20958519.4154   20958523.2494
       205.0004        205.0004
  -3329952.23947  -2573385.92645  23279522.615    23279523.1614   23279527.4254
       160.0004        161.0004
  -1778912.69347  -1381163.60045  23644515.320    23644514.4804   23644519.7994
       151.0004        154.0004
  -9997363.76449  -7762293.03447  22640106.777    22640107.6604   22640116.0764
       203.0004        202.0004
 -15082126.70648 -11739322.63646  21866777.784    21866777.2584   21866783.3214
       185.0004        185.0004
  -6854406.38048  -5317987.17546  22994057.020    22994058.4944   22994061.4364
       168.0004        170.0004
 -14843535.20149 -11216576.76147  21715109.014    21715109.5904   21715116.4764
       200.0004        200.0004
  -5102012.78547  -3950086.34645  23381278.418    23381279.3024   23381285.6154
       162.0004        162.0004
 -17933744.72048 -13954659.01547  21240397.488    21240398.1414   21240406.6784
       194.0004        194.0004
 21  2  5  1 36 30.0000000  0 10G30G07G14G28G08G21G17G09G04G01
 -10791792.34348  -8390035.60546  22516180.394    22516180.1344   22516186.9434
       178.0004        178.0004
 -20694243.10649 -16095561.69647  20947491.214    20947491.8434   20947495.7614
       205.0004        205.0004
  -3355705.71947  -2593453.54146  23274621.642    23274621.8074   23274627.5964
       160.0004        163.0004
  -1793785.15547  -1392752.50045  23641685.700    23641685.5014   23641689.5234
       153.0004        156.0004
  -9904417.47849  -7689867.36247  22657794.918    22657795.2854   22657803.3944
       203.0004        203.0004
 -15059448.18248 -11721651.03946  21871093.764    21871093.5494   21871099.0194
       185.0004        185.0004
  -6929106.21848  -5376194.81946  22979844.182    22979843.3364   22979847.4944
       170.0004        171.0004
 -14778823.15949 -11166151.80647  21727424.038    21727424.0794   21727431.3384
       200.0004        201.0004
  -5003951.24647  -3873674.83745  23399939.868    23399940.2174   23399945.1564
       160.0004        161.0004
 -17983973.16648 -13993798.04547  21230839.691    21230839.9294   21230848.5324
       194.0004        194.0004
 21  2  5  1 37  0.0000000  0 10G30G07G14G28G08G21G17G09G04G01
 -10877572.13248  -8456876.98446  22499856.687    22499856.6164   22499864.0424
       179.0004        180.0004
 -20751883.79749 -16140476.51047  20936522.489    20936523.1624   20936527.6354
       205.0004        205.0004
  -3381474.80947  -2613533.31946  23269718.384    23269718.8124   23269723.5604
       162.0004        164.0004
  -1808664.80647  -1404346.99145  23638853.473    23638852.7244   23638856.5284
       152.0004        154.0004
  -9811374.75849  -7617366.53747  22675500.944    22675500.5034   22675508.6094
       202.0004        202.0004
 -15036274.61448 -11703593.68946  21875503.165    21875502.9834   21875508.2474
       185.0004        185.0004
  -7003445.29348  -5434121.37346  22965697.344    22965697.2694   22965701.3984
       170.0004        173.0004
 -14713813.38949 -11115494.84247  21739794.703    21739794.5574   21739802.3754
       200.0004        200.0004
  -4905873.01747  -3797250.31545  23418603.928    23418602.9094   23418609.5904
       159.0004        160.0004
 -18033782.96148 -14032610.83147  21221361.374    21221361.4884   21221370.1074
       194.0004        194.0004
 21  2  5  1 37 30.0000000  0 10G30G07G14G28G08G21G17G09G04G01
 -10963256.24848  -8523643.83646  22483551.683    22483551.9364   22483559.1674
       179.0004        181.0004
 -20809213.87549 -16185149.29647  20925613.508    20925613.8394   20925618.2204
       205.0004        206.0004
  -3407260.38547  -2633625.94045  23264810.710    23264811.4444   23264815.7454
       161.0004        161.0004
  -1823553.20347  -1415948.32045  23636019.790    23636019.4914   23636025.2894
       151.0004        152.0004
  -9718238.18549  -7544792.59947  22693223.430    22693223.7784   22693232.6034
       202.0004        202.0004
 -15012606.06248 -11685150.62946  21880007.535    21880007.7954   21880012.1854
       185.0004        184.0004
  -7077423.26948  -5491766.52146  22951618.765    22951619.4774   22951625.0364
       172.0004        174.0004
 -14648508.73349 -11064608.10447  21752221.567    21752221.9444   21752229.4914
       200.0004        200.0004
  -4807780.78947  -3720814.88445  23437268.330    23437269.0744   23437276.4134
       157.0004        159.0004
 -18083171.11148 -14071095.07747  21211962.412    21211963.2284   21211971.1484
       193.0004        193.0004
 21  2  5  1 38  0.0000000  0 10G30G07G14G28G08G21G17G09G04G01
 -11048840.60448  -8590332.93846  22467265.070    22467265.3704   22467273.5684
       180.0004        181.0004
 -20866228.92549 -16229576.60547  20914763.658    20914764.4184   20914768.4384
       206.0004        206.0004
  -3433061.82747  -2653730.96145  23259901.165    23259902.6604   23259905.7314
       159.0004        159.0004
  -1838449.86447  -1427556.09745  23633184.984    23633185.5794   23633189.8624
       149.0004        151.0004
  -9625008.88049  -7472146.40547  22710963.554    22710963.8614   22710973.5384
       200.0004        200.0004
 -14988440.89248 -11666320.60946  21884605.840    21884605.7094   21884610.8524
       185.0004        185.0004
  -7151036.58448  -5549127.49046  22937611.227    22937611.5284   22937615.2814
       171.0004        171.0004
 -14582910.47749 -11013492.58747  21764703.959    21764704.7554   21764712.1654
       200.0004        200.0004
  -4709675.69447  -3644369.44145  23455938.748    23455938.4054   23455944.8744
       158.0004        160.0004
 -18132133.02948 -14109247.19647  21202644.929    21202645.7194   21202654.2774
       193.0004        193.0004
 21  2  5  1 38 30.0000000  0 10G30G07G14G28G08G21G17G09G04G01
 -11134323.93548  -8656943.32346  22450998.424    22450998.7914   22451005.6194
       180.0004        180.0004
 -20922927.54149 -16273757.35447  20903974.616    20903975.0474   20903978.7544
       206.0004        206.0004
  -3458881.35747  -2673850.09345  23254987.899    23254988.7414   23254993.4934
       159.0004        161.0004
  -1853357.43847  -1439172.39745  23630348.352    23630348.3474   23630353.1084
       151.0004        154.0004
  -9531691.02649  -7399431.22447  22728721.383    22728722.0514   22728731.2194
       200.0004        201.0004
 -14963780.41548 -11647104.64746  21889299.000    21889298.7294   21889302.9924
       185.0004        185.0004
  -7224285.02148  -5606204.18146  22923672.215    22923673.1164   22923677.7444
       172.0004        172.0004
 -14517022.68649 -10962151.48047  21777241.883    21777242.5824   21777249.9844
       199.0004        199.0004
  -4611561.63947  -3567917.04245  23474608.983    23474609.0484   23474616.0194
       158.0004        160.0004
 -18180667.05948 -14147065.89847  21193409.836    21193410.3484   21193418.5324
       194.0004        194.0004
 21  2  5  1 39  0.0000000  0 10G30G07G14G28G08G21G17G09G04G01
 -11219702.69148  -8723472.20146  22434751.214    22434752.1514   22434758.6444
       180.0004        182.0004
 -20979305.69949 -16317688.37747  20893246.368    20893246.5594   20893250.7784
       206.0004        206.0004
  -3484718.80247  -2693983.15046  23250072.149    23250072.9914   23250077.2644
       162.0004        165.0004
  -1868276.24947  -1450797.43845  23627508.814    23627509.2564   23627514.5944
       152.0004        154.0004
  -9438285.57349  -7326647.74447  22746496.249    22746496.5024   22746505.4334
       201.0004        201.0004
 -14938623.69848 -11627501.97146  21894085.813    21894085.6494   21894090.5364
       185.0004        185.0004
  -7297166.34648  -5662994.75346  22909802.531    22909803.2644   22909809.7534
       172.0004        174.0004
 -14450847.24949 -10910586.20647  21789834.992    21789835.8304   21789842.8704
       198.0004        199.0004
  -4513440.29047  -3491458.95645  23493280.276    23493280.7544   23493286.7824
       156.0004        157.0004
 -18228769.25748 -14184548.09747  21184255.619    21184256.5984   21184264.7274
       194.0004        195.0004
 21  2  5  1 39 30.0000000  0 10G30G07G14G28G08G21G17G09G04G01
 -11304975.94548  -8789918.87746  22418524.213    22418524.9144   22418531.1544
       181.0004        182.0004
 -21035362.41349 -16361368.91947  20882578.505    20882579.1064   20882583.4734
       206.0004        206.0004
  -3510576.78047  -2714132.16646  23245150.120    23245151.4414   23245156.5634
       163.0004        165.0004
  -1883209.34747  -1462433.58945  23624668.373    23624667.9124   23624672.8724
       151.0004        153.0004
  -9344797.18949  -7253799.61547  22764287.055    22764287.0354   22764295.4564
       200.0004        200.0004
 -14912972.47548 -11607513.96746  21898965.890    21898966.1464   21898972.0204
       185.0004        185.0004
  -7369680.46248  -5719499.21046  22896004.959    22896005.2964   22896010.2464
       175.0004        177.0004
 -14384388.65749 -10858800.27647  21802481.854    21802482.5704   21802489.3374
       198.0004        198.0004
  -4415315.87447  -3414998.43145  23511953.612    23511953.1774   23511959.5644
       155.0004        158.0004
 -18276438.33049 -14221692.77647  21175185.326    21175186.0494   21175193.8544
       195.0004        197.0004
 21  2  5  1 40  0.0000000  0 10G30G07G14G28G08G21G17G09G04G01
 -11390140.43348  -8856280.81346  22402317.434    22402318.2674   22402326.1334
       182.0004        183.0004
 -21091094.13349 -16404796.24647  20871973.488    20871973.8584   20871978.2044
       206.0004        206.0004
  -3536455.41547  -2734297.29246  23240226.841    23240226.7254   23240231.9254
       163.0004        164.0004
  -1898157.38047  -1474081.37645  23621823.544    23621823.5404   23621827.9824
       151.0004        154.0004
  -9251227.09549  -7180887.86947  22782091.814    22782092.6774   22782102.0684
       199.0004        198.0004
 -14886825.94248 -11587140.03746  21903942.100    21903941.9574   21903946.6244
       185.0004        185.0004
  -7441825.70248  -5775716.21646  22882275.965    22882275.7714   22882281.7354
       176.0004        177.0004
 -14317649.03249 -10806795.36547  21815181.878    21815182.2664   21815189.9074
       198.0004        198.0004
  -4317190.35047  -3338537.09145  23530625.858    23530626.2374   23530632.6364
       155.0004        157.0004
 -18323670.59649 -14258497.11347  21166197.405    21166197.9324   21166206.0504
       196.0004        196.0004
 21  2  5  1 40 30.0000000  0 10G30G07G14G28G08G21G17G09G04G01
 -11475194.10948  -8922556.41846  22386133.669    22386133.5854   22386140.1304
       182.0004        184.0004
 -21146498.16649 -16447968.24147  20861430.321    20861430.8364   20861435.0244
       206.0004        207.0004
  -3562356.13548  -2754479.68746  23235298.375    23235299.1674   23235303.8194
       165.0004        167.0004
  -1913122.13647  -1485742.23845  23618975.650    23618976.0794   23618979.8614
       152.0004        155.0004
  -9157578.42649  -7107914.90747  22799913.573    22799913.5544   22799923.0104
       198.0004        198.0004
 -14860184.40348 -11566380.38946  21909012.429    21909012.0874   21909017.0034
       185.0004        185.0004
  -7513601.04748  -5831645.02946  22868616.514    22868616.5934   22868623.1224
       174.0004        173.0004
 -14250631.79449 -10754574.17547  21827935.144    21827935.4224   21827942.2644
       198.0004        198.0004
  -4219066.87947  -3262077.36045  23549299.001    23549298.9844   23549305.2744
       155.0004        157.0004
 -18370463.73849 -14294959.28247  21157292.977    21157293.5934   21157301.7064
       196.0004        197.0004
 21  2  5  1 41  0.0000000  0 10G30G07G14G28G08G21G17G09G04G01
 -11560135.06948  -8988744.16246  22369970.124    22369969.5124   22369976.8344
       183.0004        185.0004
 -21201572.44849 -16490883.25647  20850949.894    20850950.2114   20850954.8734
       206.0004        206.0004
  -3588280.43148  -2774680.43146  23230365.015    23230365.2504   23230370.5944
       166.0004        168.0004
  -1928105.62547  -1497417.65845  23616123.836    23616124.5624   23616128.8874
       153.0004        156.0004
  -9063854.61349  -7034883.39247  22817748.654    22817748.3044   22817757.2474
       197.0004        196.0004
 -14833048.57648 -11545235.57646  21914175.093    21914174.8364   21914181.4514
       184.0004        184.0004
  -7585005.82948  -5887285.06346  22855028.808    22855029.9324   22855035.2474
       175.0004        177.0004
 -14183340.39849 -10702139.32647  21840740.798    21840741.1234   21840747.4434
       198.0004        199.0004
  -4120948.67947  -3185621.72545  23567970.036    23567970.7794   23567977.3114
       156.0004        158.0004
 -18416815.44349 -14331077.46347  21148472.024    21148473.0324   21148480.7814
       197.0004        197.0004
 21  2  5  1 41 30.0000000  0 10G30G07G14G28G08G21G17G09G04G01
 -11644959.64048  -9054841.25446  22353828.447    22353828.2814   22353834.8434
       184.0004        185.0004
 -21256313.15049 -16533538.36647  20840533.516    20840533.8134   20840537.7244
       206.0004        207.0004
  -3614228.15348  -2794899.45246  23225427.178    23225428.5794   23225432.1544
       167.0004        168.0004
  -1943108.13347  -1509107.92645  23613270.231    23613269.6764   23613273.5594
       154.0004        157.0004
  -8970056.67349  -6961794.12347  22835598.578    22835598.5744   22835606.0234
       198.0004        199.0004
 -14805417.76948 -11523705.07246  21919434.088    21919433.0314   21919439.1914
       184.0004        184.0004
  -7656037.49748  -5942634.39946  22841512.407    22841512.6414   22841518.0564
       176.0004        177.0004
 -14115776.66149 -10649492.27947  21853597.859    21853598.0824   21853604.5344
       198.0004        198.0004
  -4022837.27947  -3109171.43245  23586640.446    23586640.5224   23586647.4924
       155.0004        157.0004
 -18462721.81649 -14366848.66147  21139736.679    21139737.1164   21139744.8494
       197.0004        197.0004
 21  2  5  1 42  0.0000000  0 10G30G07G14G28G08G21G17G09G04G01
 -11729666.32648  -9120846.43746  22337708.105    22337708.4264   22337715.9694
       185.0004        186.0004
 -21310718.66549 -16575932.25247  20830180.104    20830180.3424   20830184.9584
       206.0004        207.0004
  -3640201.22348  -2815138.17946  23220485.326    23220485.4624   23220489.9744
       167.0004        168.0004
  -1958132.05747  -1520814.82145  23610410.572    23610410.6154   23610414.8854
       154.0004        157.0004
  -8876188.51149  -6888650.08447  22853460.811    22853460.6754   22853468.7184
       198.0004        198.0004
 -14777293.20948 -11501789.79346  21924786.299    21924785.3404   21924790.3954
       184.0004        184.0004
  -7726696.15448  -5997693.02746  22828067.237    22828067.6724   22828071.6974
       176.0004        178.0004
 -14047944.59549 -10596636.10247  21866506.059    21866506.1844   21866512.9174
       198.0004        198.0004
  -3924736.48047  -3032729.33745  23605307.632    23605308.0974   23605315.3074
       155.0004        156.0004
 -18508181.10149 -14402271.43847  21131086.052    21131086.5574   21131094.5904
       197.0004        198.0004
 21  2  5  1 42 30.0000000  0 10G30G07G14G28G08G21G17G09G04G01
 -11814251.38848  -9186756.87546  22321612.800    22321612.9064   22321619.2404
       185.0004        187.0004
 -21364784.38549 -16618061.38147  20819891.593    20819892.0544   20819896.8124
       207.0004        207.0004
  -3666199.36448  -2835396.46346  23215537.155    23215537.9194   23215542.2254
       166.0004        166.0004
  -1973177.47247  -1532538.50945  23607547.754    23607547.2814   23607551.9084
       155.0004        157.0004
  -8782251.23149  -6815452.21747  22871335.588    22871335.7284   22871343.8984
       197.0004        196.0004
 -14748673.92548 -11479489.03146  21930231.979    21930231.4684   21930237.1274
       184.0004        184.0004
  -7796979.08348  -6052458.87646  22814692.217    22814692.4934   22814697.6184
       175.0004        175.0004
 -13979845.93249 -10543572.20447  21879463.609    21879464.2894   21879471.5584
       197.0004        196.0004
  -3826647.61647  -2956296.57945  23623973.346    23623973.3644   23623981.5624
       154.0004        156.0004
 -18553189.28049 -14437342.72247  21122521.336    21122522.1874   21122530.0294
       198.0004        198.0004
 21  2  5  1 43  0.0000000  0 10G30G07G14G28G08G21G17G09G04G01
 -11898713.69648  -9252571.65646  22305540.149    22305540.0314   22305547.4704
       186.0004        186.0004
 -21418509.79949 -16659925.35247  20809668.713    20809668.9334   20809672.9314
       207.0004        208.0004
  -3692224.89447  -2855676.09046  23210583.967    23210584.5414   23210589.9564
       163.0004        163.0004
  -1988247.28947  -1544281.20645  23604679.608    23604680.0764   23604684.7964
       155.0004        157.0004
  -8688248.54749  -6742203.37347  22889224.031    22889224.4044   22889232.6624
       195.0004        195.0004
 -14719561.19948 -11456803.79746  21935771.886    21935771.9574   21935776.4664
       184.0004        184.0004
  -7866886.83248  -6106932.43946  22801389.334    22801389.8204   22801394.6714
       175.0004        175.0004
 -13911484.97149 -10490303.94247  21892471.813    21892472.5074   21892480.7334
       195.0004        195.0004
  -3728574.80947  -2879876.34145  23642634.634    23642636.5264   23642644.0014
       153.0004        156.0004
 -18597744.97049 -14472061.43047  21114041.207    21114042.6504   21114051.2894
       198.0004        198.0004
 21  2  5  1 43 30.0000000  0 10G30G07G14G28G08G21G17G09G04G01
 -11983047.84548  -9318286.58746  22289490.898    22289491.4584   22289499.1364
       186.0004        186.0004
 -21471888.77449 -16701519.38147  20799510.975    20799511.3104   20799515.3494
       207.0004        208.0004
  -3718275.81547  -2875975.51346  23205625.798    23205627.6954   23205633.1094
       163.0004        165.0004
  -2003339.97447  -1556041.73745  23601808.266    23601808.2864   23601811.8934
       155.0004        158.0004
  -8594180.55049  -6668903.67847  22907123.405    22907124.5484   22907133.1364
       195.0004        195.0004
 -14689952.59448 -11433732.16746  21941406.700    21941406.1114   21941411.6484
       184.0004        185.0004
  -7936415.19648  -6161110.37546  22788158.588    22788159.0664   22788163.1664
       173.0004        174.0004
 -13842861.76848 -10436831.35647  21905529.759    21905530.2284   21905538.4904
       193.0004        193.0004
  -3630517.78647  -2803468.42245  23661294.887    23661295.2474   23661303.5394
       154.0004        156.0004
 -18641842.53949 -14506423.16847  21105651.598    21105652.0094   21105659.9194
       198.0004        199.0004
 21  2  5  1 44  0.0000000  0 10G30G07G14G28G08G21G17G09G04G01
 -12067254.03748  -9383901.79947  22273467.540    22273468.0624   22273474.9784
       187.0004        188.0004
 -21524921.60349 -16742843.66447  20789418.999    20789419.2164   20789423.3944
       207.0004        208.0004
  -3744355.87448  -2896297.61246  23200665.245    23200665.1734   23200669.5434
       165.0004        167.0004
  -2018459.60647  -1567823.25245  23598931.645    23598931.1044   23598934.8814
       154.0004        157.0004
  -8500052.32049  -6595557.01147  22925036.769    22925036.7644   22925045.5224
       195.0004        196.0004
 -14659851.31148 -11410276.60046  21947133.617    21947133.7274   21947139.9794
       184.0004        184.0004
  -8005565.61648  -6214993.77346  22774999.563    22775000.1334   22775004.3724
       174.0004        175.0004
 -13773982.10948 -10383158.92347  21918636.571    21918637.3764   21918645.6004
       191.0004        191.0004
  -3532482.03747  -2727077.07245  23679952.085    23679951.5444   23679958.0294
       154.0004        156.0004
 -18685482.11849 -14540428.01347  21097346.881    21097347.3454   21097355.8314
       199.0004        199.0004
 21  2  5  1 44 30.0000000  0 10G30G07G14G28G08G21G17G09G04G01
 -12151329.74248  -9449415.30747  22257468.993    22257469.2224   22257476.4144
       187.0004        188.0004
 -21577605.35849 -16783895.91147  20779393.603    20779393.8594   20779398.0174
       207.0004        208.0004
  -3770465.90647  -2916643.03946  23195695.066    23195694.9774   23195701.1484
       164.0004        163.0004
  -2033607.67447  -1579626.87245  23596047.534    23596047.1774   23596053.1054
       154.0004        156.0004
  -8405866.26049  -6522165.26247  22942959.466    22942959.1684   22942968.2964
       195.0004        195.0004
 -14629257.51548 -11386437.23046  21952955.775    21952955.2964   21952961.1994
       184.0004        183.0004
  -8074337.04448  -6268581.84946  22761911.509    22761912.0344   22761916.9834
       173.0004        172.0004
 -13704848.95748 -10329288.93047  21931793.190    21931793.7264   21931801.2704
       191.0004        192.0004
  -3434470.14547  -2650704.25145  23698602.655    23698602.2194   23698610.3224
       156.0004        159.0004
 -18728660.94549 -14574073.79847  21089129.791    21089130.6044   21089138.9114
       198.0004        198.0004
 21  2  5  1 45  0.0000000  0 10G30G07G14G28G08G21G17G09G04G01
 -12235271.15248  -9514824.18647  22241494.649    22241495.5564   22241502.7574
       188.0004        189.0004
 -21629935.90849 -16824672.97447  20769435.317    20769435.8614   20769440.3304
       208.0004        208.0004
  -3796605.59847  -2937011.61145  23190721.043    23190720.4824   23190726.3384
       162.0004        162.0004
  -2048784.16547  -1591452.71445  23593159.610    23593160.3084   23593164.3324
       154.0004        157.0004
  -8311623.85649  -6448729.63247  22960894.590    22960893.9584   22960902.1544
       195.0004        196.0004
 -14598170.39948 -11362213.50646  21958871.008    21958871.0384   21958876.7374
       183.0004        182.0004
  -8142727.35648  -6321872.97746  22748898.195    22748898.6864   22748902.5174
       171.0004        172.0004
 -13635464.02648 -10275222.75447  21944997.732    21944998.0004   21945005.6814
       193.0004        196.0004
  -3336483.52147  -2574351.18645  23717248.007    23717248.8954   23717256.9784
       157.0004        159.0004
 -18771375.08149 -14607357.53047  21081001.415    21081001.9274   21081010.4094
       197.0004        197.0004
 21  2  5  1 45 30.0000000  0 10G30G07G14G28G08G21G17G09G04G01
 -12319076.80448  -9580127.28747  22225547.489    22225548.3314   22225555.1994
       189.0004        191.0004
 -21681911.64149 -16865173.53047  20759544.665    20759544.9184   20759549.3394
       208.0004        208.0004
  -3822776.90547  -2957404.83945  23185741.135    23185741.1444   23185746.8044
       161.0004        162.0004
  -2063991.50247  -1603302.57845  23590265.749    23590265.7754   23590270.2414
       154.0004        156.0004
  -8217328.21548  -6375252.51247  22978838.838    22978838.4654   22978845.7584
       194.0004        195.0004
 -14566591.25248 -11337606.35646  21964881.040    21964880.7984   21964886.2504
       183.0004        183.0004
  -8210736.31348  -6374866.92246  22735956.666    22735955.6684   22735961.6754
       171.0004        173.0004
 -13565831.41049 -10220963.56147  21958248.675    21958249.1884   21958256.5154
       196.0004        197.0004
  -3238525.85547  -2498020.64545  23735888.524    23735889.4944   23735899.2814
       157.0004        158.0004
 -18813622.94749 -14640277.91747  21072961.420    21072962.3124   21072970.6984
       197.0004        197.0004
 21  2  5  1 46  0.0000000  0 10G30G07G14G28G08G21G17G09G04G01
 -12402743.34048  -9645322.00747  22209626.311    22209626.3604   22209633.2694
       190.0004        190.0004
 -21733529.39849 -16905395.17847  20749721.705    20749722.1364   20749726.6624
       208.0004        208.0004
  -3848979.93547  -2977822.81546  23180754.400    23180755.5254   23180759.7574
       161.0004        163.0004
  -2079230.35747  -1615177.00245  23587365.923    23587366.8184   23587370.9784
       152.0004        154.0004
  -8122981.48649  -6301735.61347  22996791.635    22996791.1154   22996799.9544
       195.0004        195.0004
 -14534519.43748 -11312615.32946  21970983.784    21970983.2654   21970990.3154
       183.0004        184.0004
  -8278362.21248  -6427562.42346  22723088.084    22723088.3054   22723091.6484
       172.0004        174.0004
 -13495953.23549 -10166513.06047  21971546.892    21971546.7634   21971553.3074
       197.0004        198.0004
  -3140598.93047  -2421714.09445  23754524.879    23754524.6984   23754533.0554
       156.0004        158.0004
 -18855401.08049 -14672832.31347  21065011.626    21065012.5404   21065020.6604
       197.0004        198.0004
 21  2  5  1 46 30.0000000  0 10G30G07G14G28G08G21G17G09G04G01
 -12486269.41948  -9710407.23047  22193732.176    22193732.0544   22193739.4314
       190.0004        190.0004
 -21784787.44849 -16945336.49647  20739968.200    20739968.5884   20739972.7194
       208.0004        208.0004
  -3875216.73847  -2998267.06146  23175762.142    23175762.6964   23175767.4084
       162.0004        165.0004
  -2094503.14947  -1627077.86545  23584458.967    23584459.5674   23584464.0064
       150.0004        151.0004
  -8028587.21049  -6228181.65447  23014754.315    23014754.6494   23014762.0684
       195.0004        196.0004
 -14501956.92348 -11287241.89446  21977179.300    21977179.5934   21977185.6854
       183.0004        184.0004
  -8345604.99448  -6479959.36246  22710291.631    22710292.5074   22710296.5654
       172.0004        174.0004
 -13425833.75049 -10111874.47647  21984890.542    21984890.6004   21984896.3314
       198.0004        199.0004
  -3042706.61347  -2345434.46845  23773151.871    23773153.5064   23773161.1994
       155.0004        157.0004
 -18896708.09649 -14705019.54047  21057152.219    21057152.1604   21057160.0634
       197.0004        197.0004
 21  2  5  1 47  0.0000000  0 10G30G07G14G28G08G21G17G09G04G01
 -12569650.36548  -9775379.41547  22177864.730    22177864.8434   22177871.4074
       189.0004        189.0004
 -21835681.06649 -16984993.87047  20730282.977    20730283.7244   20730288.1974
       208.0004        208.0004
  -3901486.24648  -3018736.77546  23170763.883    23170764.3184   23170769.2454
       165.0004        168.0004
  -2109809.24347  -1639004.70045  23581546.821    23581547.0714   23581550.2354
       148.0004        151.0004
  -7934146.03249  -6154591.13647  23032725.147    23032725.5934   23032733.7994
       195.0004        196.0004
 -14468901.91848 -11261484.73546  21983469.680    21983469.8184   21983475.3244
       183.0004        184.0004
  -8412461.49848  -6532055.29146  22697569.044    22697569.7734   22697574.1934
       172.0004        175.0004
 -13355473.86749 -10057048.61147  21998279.610    21998279.4934   21998285.5144
       199.0004        198.0004
  -2944849.51047  -2269182.32045  23791773.892    23791774.9224   23791783.2844
       154.0004        156.0004
 -18937539.32149 -14736836.07247  21049381.236    21049382.1334   21049390.3264
       197.0004        197.0004
 21  2  5  1 47 30.0000000  0 10G30G07G14G28G08G21G17G09G04G01
 -12652885.13248  -9840237.67247  22162025.942    22162025.7954   22162033.0164
       188.0004        189.0004
 -21886209.11349 -17024366.36847  20720668.547    20720668.7584   20720672.8334
       208.0004        209.0004
  -3927790.77248  -3039233.77246  23165759.030    23165759.5554   23165762.0224
       167.0004        169.0004
  -2125151.62247  -1650959.77245  23578627.199    23578627.6804   23578632.3044
       148.0004        152.0004
  -7839661.16349  -6080966.57547  23050706.237    23050706.0794   23050713.3524
       195.0004        196.0004
 -14435356.40648 -11235345.33746  21989854.980    21989853.9734   21989858.8764
       184.0004        184.0004
  -8478932.37948  -6583850.73646  22684921.056    22684921.5574   22684924.9054
       174.0004        175.0004
 -13284878.06649 -10002038.87947  22011712.481    22011712.5754   22011719.5624
       198.0004        197.0004
  -2847031.68647  -2192960.76745  23810388.151    23810388.3794   23810396.8034
       154.0004        158.0004
 -18977893.64749 -14768280.97747  21041702.585    21041703.0534   21041710.9914
       197.0004        197.0004
 21  2  5  1 48  0.0000000  0 10G30G07G14G28G08G21G17G09G04G01
 -12735972.79148  -9904981.28347  22146214.219    22146214.9614   22146221.8644
       188.0004        189.0004
 -21936370.41349 -17063453.09747  20711122.689    20711123.2514   20711127.3574
       208.0004        209.0004
  -3954132.77348  -3059759.95246  23160746.778    23160747.2664   23160750.1234
       169.0004        170.0004
  -2140533.00647  -1662945.25145  23575699.304    23575700.5124   23575704.4124
       148.0004        150.0004
  -7745137.04849  -6007311.43347  23068692.013    23068692.3494   23068700.4414
       195.0004        195.0004
 -14401322.52648 -11208825.40346  21996331.298    21996330.7194   21996336.1184
       184.0004        184.0004
  -8545017.89548  -6635345.93046  22672344.378    22672345.1864   22672349.2924
       174.0004        174.0004
 -13214050.95149  -9946848.92647  22025189.072    22025189.9244   22025197.5404
       195.0004        194.0004
  -2749257.35847  -2116773.11745  23828994.438    23828995.1394   23829003.9154
       156.0004        159.0004
 -19017770.14049 -14799353.55647  21034113.036    21034114.1684   21034122.5764
       196.0004        196.0004
 21  2  5  1 48 30.0000000  0 10G30G07G14G28G08G21G17G09G04G01
 -12818907.80748  -9969605.95047  22130432.784    22130432.8304   22130439.7714
       189.0004        189.0004
 -21986159.19249 -17102249.53247  20701648.315    20701648.6754   20701653.0834
       209.0004        210.0004
  -3980510.24548  -3080313.78846  23155725.366    23155725.2044   23155731.1704
       168.0004        167.0004
  -2155952.03747  -1674960.06545  23572764.794    23572764.7604   23572769.8094
       144.0004        146.0004
  -7650573.70648  -5933625.70447  23086685.906    23086686.4754   23086696.1194
       194.0004        194.0004
 -14366797.80048 -11181922.98946  22002900.103    22002899.6724   22002905.1954
       183.0004        184.0004
  -8610714.62848  -6686538.12546  22659841.547    22659842.4484   22659847.3864
       173.0004        174.0004
 -13142992.62548  -9891478.79447  22038711.142    22038711.8164   22038719.7814
       193.0004        193.0004
  -2651526.22047  -2040619.14645  23847594.197    23847593.1554   23847600.8994
       157.0004        158.0004
 -19057163.35449 -14830049.53247  21026617.802    21026618.1734   21026626.1124
       196.0004        196.0004
 21  2  5  1 49  0.0000000  0 11G30G19G07G14G28G08G21G17G09G04G01
 -12901688.10148 -10034110.10247  22114680.144    22114679.9924   22114686.6744
       188.0004        189.0004
  -2394355.67154  -1845424.642 5                                  24579120.433
        74.0004        137.000
 -22035573.52849 -17140754.22947  20692245.311    20692245.7214   20692249.6734
       209.0004        210.0004
  -4006924.45047  -3100896.30145  23150695.166    23150696.9854   23150705.1984
       163.0004        162.0004
  -2171410.48447  -1687005.58545  23569824.937    23569825.0214   23569830.8484
       143.0004        146.0004
  -7555973.40048  -5859911.21447  23104688.122    23104688.3584   23104698.3344
       194.0004        194.0004
 -14331783.36448 -11154639.01946  22009564.117    22009564.2404   22009568.2404
       184.0004        184.0004
  -8676021.97648  -6737426.96946  22647415.425    22647415.4694   22647420.5204
       174.0004        176.0004
 -13071706.63448  -9835931.31647  22052275.835    22052276.6804   22052285.3524
       193.0004        193.0004
  -2553841.34347  -1964501.24845  23866183.066    23866183.6234   23866190.3384
       156.0004        157.0004
 -19096071.22349 -14860367.34847  21019212.974    21019213.3204   21019222.4914
       196.0004        196.0004
 21  2  5  1 49 30.0000000  0 10G30G07G14G28G08G21G17G09G04G01
 -12984311.12048 -10098491.67947  22098957.097    22098957.8244   22098965.1624
       189.0004        190.0004
 -22084610.92049 -17178965.20347  20682914.093    20682914.1384   20682918.0124
       209.0004        210.0004
  -4033376.32747  -3121508.18546  23145664.980    23145665.6124   23145670.8814
       163.0004        164.0004
  -2186909.45047  -1699082.69945  23566875.493    23566874.7144   23566879.7464
       145.0004        150.0004
  -7461338.42248  -5786169.71547  23122697.215    23122697.3594   23122706.2604
       193.0004        194.0004
 -14296279.81148 -11126973.90146  22016319.789    22016320.1804   22016324.3434
       184.0004        183.0004
  -8740939.14048  -6788011.76246  22635062.243    22635062.8294   22635067.2604
       174.0004        176.0004
 -13000196.01448  -9780208.77647  22065883.829    22065885.0054   22065892.5804
       191.0004        192.0004
  -2456205.32447  -1888421.43145  23884761.672    23884761.9474   23884769.5664
       154.0004        155.0004
 -19134491.29049 -14890305.05447  21011902.479    21011903.2714   21011911.5164
       196.0004        197.0004
 21  2  5  1 50  0.0000000  0 10G30G07G14G28G08G21G17G09G04G01
 -13066775.80848 -10162749.86047  22083266.021    22083265.2754   22083272.7204
       189.0004        189.0004
 -22133270.23649 -17216881.54447  20673654.237    20673654.5374   20673659.1774
       209.0004        210.0004
  -4059868.30447  -3142151.25246  23140626.356    23140626.5364   23140629.9414
       164.0004        167.0004
  -2202451.96147  -1711193.73245  23563917.167    23563916.4134   23563922.7474
       149.0004        153.0004
  -7366673.16148  -5712404.57847  23140710.294    23140711.3244   23140721.3744
       194.0004        196.0004
 -14260289.15248 -11098929.19746  22023168.218    22023168.2294   22023173.4084
       183.0004        183.0004
  -8805466.05648  -6838292.42946  22622783.037    22622783.5854   22622788.5574
       177.0004        179.0004
 -12928465.26748  -9724314.69947  22079535.849    22079536.0774   22079542.4964
       192.0004        193.0004
  -2358622.22347  -1812382.79545  23903332.306    23903332.0974   23903339.2064
       152.0004        154.0004
 -19172422.58949 -14919861.87647  21004684.716    21004684.7724   21004693.3504
       197.0004        197.0004
 21  2  5  1 50 30.0000000  0 10G30G07G14G28G08G21G17G09G04G01
 -13149078.24948 -10226881.60947  22067603.046    22067602.7544   22067610.7534
       188.0004        188.0004
 -22181547.35849 -17254500.07147  20664466.932    20664467.6194   20664472.1004
       210.0004        211.0004
  -4086399.86348  -3162825.14846  23135576.405    23135576.9704   23135581.1794
       166.0004        167.0004
  -2218038.05947  -1723338.74045  23560951.145    23560951.3564   23560956.2074
       150.0004        152.0004
  -7271978.38249  -5638616.44547  23158729.793    23158731.2184   23158741.0094
       195.0004        195.0004
 -14223810.51048 -11070504.26846  22030109.969    22030110.0764   22030115.1044
       183.0004        183.0004
  -8869601.11448  -6888267.78946  22610578.200    22610578.3084   22610583.8744
       177.0004        178.0004
 -12856516.11548  -9668250.43447  22093227.392    22093227.6664   22093233.9574
       193.0004        193.0004
  -2261093.39247  -1736386.45945  23921889.552    23921890.1064   23921898.6174
       151.0004        152.0004
 -19209861.34849 -14949034.91847  20997560.142    20997560.8824   20997569.0824
       197.0004        197.0004
 21  2  5  1 51  0.0000000  0 10G30G07G14G28G08G21G17G09G04G01
 -13231215.68348 -10290884.78847  22051973.481    22051973.6364   22051980.3844
       188.0004        190.0004
 -22229439.32849 -17291818.48347  20655353.946    20655354.2884   20655358.1394
       210.0004        210.0004
  -4112971.64848  -3183530.42546  23130519.417    23130519.0044   23130523.0884
       165.0004        165.0004
  -2233668.75447  -1735518.49245  23557976.733    23557976.4974   23557981.0394
       149.0004        152.0004
  -7177256.65048  -5564807.29847  23176757.003    23176756.7824   23176764.9964
       194.0004        194.0004
 -14186844.46848 -11041699.53146  22037144.916    22037144.3354   22037149.0444
       183.0004        184.0004
  -8933343.62248  -6937937.24246  22598448.735    22598449.1494   22598453.8264
       177.0004        179.0004
 -12784351.46248  -9612018.22347  22106959.608    22106959.8024   22106966.7924
       193.0004        193.0004
  -2163621.17047  -1660434.25345  23940438.462    23940440.6324   23940446.7434
       150.0004        153.0004
 -19246804.95249 -14977822.12647  20990529.316    20990530.4334   20990538.6234
       197.0004        197.0004
 21  2  5  1 51 30.0000000  0 10G30G07G14G28G08G21G17G09G04G01
 -13313186.71048 -10354758.33247  22036374.781    22036375.0274   22036382.0024
       189.0004        190.0004
 -22276944.74549 -17328835.69847  20646313.648    20646313.9404   20646318.0554
       210.0004        210.0004
  -4139585.69848  -3204268.64846  23125453.414    23125453.9994   23125460.1664
       165.0004        167.0004
  -2249346.88947  -1747735.20645  23554994.680    23554994.1304   23554997.7634
       149.0004        152.0004
  -7082511.54948  -5490979.97547  23194785.249    23194786.2814   23194794.4994
       193.0004        193.0004
 -14149393.35448 -11012516.84446  22044271.719    22044270.6604   22044275.5374
       183.0004        182.0004
  -8996693.41848  -6987300.70646  22586393.687    22586394.0944   22586398.6744
       178.0004        179.0004
 -12711975.51648  -9555621.40947  22120731.376    22120731.6264   22120739.2754
       192.0004        191.0004
  -2066209.37247  -1584529.13145  23958975.592    23958975.5024   23958984.8714
       150.0004        153.0004
 -19283252.26349 -15006222.62847  20983594.848    20983595.5584   20983602.8574
       197.0004        198.0004
 21  2  5  1 52  0.0000000  0 10G30G07G14G28G08G21G17G09G04G01
 -13394986.88848 -10418498.73147  22020807.795    22020808.2274   22020815.2564
       188.0004        188.0004
 -22324059.39149 -17365548.41747  20637347.980    20637348.4304   20637352.5924
       210.0004        211.0004
  -4166241.02048  -3225039.01046  23120381.413    23120381.7724   23120387.7374
       166.0004        167.0004
  -2265071.58647  -1759988.20645  23552000.617    23552000.2804   23552005.5864
       148.0004        151.0004
  -6987743.50848  -5417134.77847  23212820.218    23212819.6614   23212828.1674
       192.0004        192.0004
 -14111455.29748 -10982954.71546  22051489.840    22051489.7754   22051495.0904
       183.0004        182.0004
  -9059647.85648  -7036356.08646  22574412.808    22574412.9734   22574417.9034
       177.0004        176.0004
 -12639389.40948  -9499060.83647  22134543.104    22134544.1464   22134552.4364
       191.0004        191.0004
  -1968858.59947  -1508671.57345  23977500.793    23977501.5004   23977510.8074
       150.0004        153.0004
 -19319198.90049 -15034232.99347  20976754.315    20976754.4294   20976763.0824
       198.0004        199.0004
 21  2  5  1 52 30.0000000  0 10G30G07G14G28G08G21G17G09G04G01
 -13476615.79248 -10482105.63947  22005274.675    22005274.9894   22005281.9884
       188.0004        189.0004
 -22370782.96049 -17401956.37747  20628456.950    20628457.2634   20628461.2894
       210.0004        211.0004
  -4192940.62247  -3245843.84546  23115301.021    23115300.8174   23115307.5714
       164.0004        163.0004
  -2280846.30947  -1772280.16045  23548999.369    23548999.5844   23549004.0454
       149.0004        152.0004
  -6892956.97148  -5343275.14547  23230857.626    23230857.3814   23230865.2494
       191.0004        191.0004
 -14073033.49548 -10953015.60546  22058801.809    22058801.1634   22058806.0874
       182.0004        182.0004
  -9122208.29848  -7085104.42446  22562508.540    22562509.7074   22562513.8374
       177.0004        179.0004
 -12566598.37648  -9442340.55047  22148395.523    22148396.4724   22148404.3774
       191.0004        192.0004
  -1871573.65147  -1432865.33145  23996014.158    23996013.9494   23996023.5124
       148.0004        151.0004
 -19354644.76049 -15061853.10647  20970007.325    20970008.9254   20970017.6304
       198.0004        198.0004
 21  2  5  1 53  0.0000000  0 11G30G19G07G14G28G08G21G17G09G04G01
 -13558068.53248 -10545575.31747  21989775.071    21989775.1964   21989782.0684
       189.0004        190.0004
  -1296930.49954   -975849.12043  24831255.221
        74.0004         74.0004
 -22417110.32849 -17438055.64347  20619640.840    20619641.4654   20619645.8294
       210.0004        211.0004
  -4219682.98947  -3266682.07846  23110211.060    23110212.6074   23110218.1414
       162.0004        163.0004
  -2296670.17747  -1784610.43745  23545987.286    23545987.8294   23545992.4774
       148.0004        151.0004
  -6798152.08248  -5269401.23047  23248898.102    23248897.9484   23248905.9974
       191.0004        192.0004
 -14034126.29448 -10922698.31446  22066205.296    22066205.6144   22066210.8514
       183.0004        184.0004
  -9184371.47248  -7133543.24046  22550680.211    22550679.8314   22550684.3744
       178.0004        178.0004
 -12493603.19148  -9385461.21747  22162286.676    22162286.8804   22162293.8284
       191.0004        191.0004
  -1774354.74847  -1357110.58845  24014515.640    24014515.2624   24014522.3254
       147.0004        149.0004
 -19389585.19949 -15089079.42647  20963359.517    20963360.4094   20963368.6084
       198.0004        199.0004
 21  2  5  1 53 30.0000000  0 11G30G19G07G14G28G08G21G17G09G04G01
 -13639344.25648 -10608907.03947  21974308.661    21974309.1484   21974315.5684
       190.0004        191.0004
  -1388254.76044  -1047011.32445  24813874.648
        74.0004        146.0004
 -22463040.70349 -17473845.55447  20610900.794    20610901.1824   20610905.1984
       210.0004        211.0004
  -4246470.71947  -3287555.60346  23105113.591    23105113.9614   23105119.5184
       161.0004        163.0004
  -2312546.30747  -1796981.42445  23542966.860    23542966.7404   23542971.1784
       150.0004        154.0004
  -6703333.18348  -5195516.39047  23266941.438    23266941.3554   23266949.5494
       192.0004        192.0004
 -13994736.51548 -10892004.96346  22073701.736    22073700.6244   22073705.8644
       183.0004        183.0004
  -9246138.17048  -7181673.11846  22538924.579    22538925.6044   22538930.6474
       178.0004        180.0004
 -12420408.61748  -9328426.49847  22176215.306    22176215.6834   22176222.8154
       191.0004        192.0004
  -1677206.17747  -1281410.58745  24033000.388    24033001.9874   24033008.7734
       146.0004        148.0004
 -19424019.63049 -15115911.43747  20956807.198    20956808.0114   20956815.6834
       199.0004        199.0004
 21  2  5  1 54  0.0000000  0 11G30G19G07G14G28G08G21G17G09G04G01
 -13720438.42448 -10672097.28647  21958878.292    21958878.0094   21958884.2614
       191.0004        192.0004
  -1476336.94444  -1115646.588 5                                  24797116.197
        74.0004        146.000
 -22508569.77849 -17509322.74347  20602237.394    20602237.4314   20602241.5074
       211.0004        211.0004
  -4273302.66247  -3308463.59446  23100008.035    23100008.2904   23100013.4684
       162.0004        166.0004
  -2328474.02547  -1809392.59745  23539936.769    23539936.2984   23539940.5094
       151.0004        155.0004
  -6608500.44148  -5121620.74647  23284985.238    23284986.3414   23284995.7784
       190.0004        190.0004
 -13954862.65348 -10860934.39546  22081288.806    22081289.2774   22081293.3314
       182.0004        182.0004
  -9307506.47648  -7229492.52746  22527246.985    22527247.9854   22527252.3304
       179.0004        181.0004
 -12347015.83048  -9271237.30147  22190181.876    22190181.8634   22190188.9354
       191.0004        190.0004
  -1580128.58047  -1205765.90045  24051474.753    24051475.4844   24051482.8664
       144.0004        148.0004
 -19457943.85749 -15142345.86447  20950351.836    20950352.5004   20950360.4934
       199.0004        200.0004
 21  2  5  1 54 30.0000000  0 11G30G19G07G14G28G08G21G17G09G04G01
 -13801349.75648 -10735145.08247  21943481.270    21943480.9304   21943487.3714
       192.0004        192.0004
  -1570278.47647  -1188847.54945  24779236.853                    24779243.8164
       135.0004        147.0004
 -22553696.22749 -17544486.21247  20593649.786    20593650.0964   20593654.3254
       210.0004        211.0004
  -4300180.96848  -3329407.72246  23094893.029    23094894.4764   23094900.1394
       165.0004        168.0004
  -2344455.73047  -1821845.87445  23536894.673    23536895.3664   23536900.5074
       153.0004        157.0004
  -6513657.42848  -5047717.11047  23303033.664    23303034.5064   23303043.8164
       189.0004        190.0004
 -13914506.72648 -10829488.20246  22088968.905    22088968.0614   22088972.7634
       182.0004        181.0004
  -9368476.50148  -7277001.61446  22515646.122    22515645.7044   22515651.0924
       181.0004        183.0004
 -12273429.17948  -9213897.07747  22204185.143    22204185.0474   22204192.3094
       191.0004        192.0004
  -1483125.77947  -1130179.52445  24069935.249    24069934.0594   24069941.6664
       144.0004        148.0004
 -19491356.85149 -15168381.95247  20943993.680    20943994.3084   20944002.0844
       200.0004        200.0004
 21  2  5  1 55  0.0000000  0 12G30G19G22G07G14G28G08G21G17G09G04G01
 -13882076.77548 -10798049.24547  21928118.585    21928118.8144   21928126.2164
       192.0004        192.0004
  -1660977.19147  -1259521.76345  24761978.142    24761976.1794   24761983.2414
       140.0004        145.0004
   2096423.29854   1657301.44445                                  24791402.2224
        74.0004        143.0004
 -22598418.48349 -17579334.72947  20585139.116    20585139.7674   20585143.9604
       210.0004        211.0004
  -4327107.55148  -3350389.47746  23089770.545    23089770.8954   23089775.3444
       167.0004        168.0004
  -2360494.25447  -1834343.42545  23533843.708    23533843.0224   23533847.6454
       152.0004        153.0004
  -6418807.90248  -4973808.38547  23321081.308    23321083.1484   23321093.2314
       189.0004        188.0004
 -13873671.03348 -10797668.15446  22096739.776    22096739.5424   22096743.8084
       181.0004        182.0004
  -9429048.93248  -7324200.88646  22504118.100    22504119.5234   22504124.0224
       182.0004        183.0004
 -12199652.82448  -9156409.01547  22218223.044    22218223.4164   22218231.8014
       191.0004        191.0004
  -1386201.43447  -1054654.29045  24088378.339    24088378.9564   24088387.2244
       145.0004        149.0004
 -19524257.59849 -15194018.88447  20937733.004    20937733.4644   20937741.6704
       200.0004        200.0004
 21  2  5  1 55 30.0000000  0 11G30G19G07G14G28G08G21G17G09G04G01
 -13962616.08848 -10860807.13147  21912791.874    21912792.5194   21912799.0824
       191.0004        192.0004
  -1751464.65147  -1330031.37045  24744758.782    24744758.3384   24744762.6034
       142.0004        146.0004
 -22642733.57649 -17613865.96647  20576705.656    20576706.5844   20576710.7664
       210.0004        211.0004
  -4354082.45148  -3371408.82846  23084636.146    23084636.2164   23084642.4914
       165.0004        165.0004
  -2376589.94747  -1846885.50645  23530780.110    23530780.0004   23530783.4494
       149.0004        151.0004
  -6323953.23648  -4899895.69646  23339133.436    23339134.2784   23339143.1614
       187.0004        187.0004
 -13832355.36048 -10765474.10446  22104600.890    22104601.2704   22104605.8984
       182.0004        182.0004
  -9489222.01348  -7371088.97646  22492668.279    22492668.7734   22492673.8704
       182.0004        184.0004
 -12125689.05548  -9098774.91047  22232297.955    22232298.6054   22232305.4554
       190.0004        190.0004
  -1289357.27347   -979191.56145  24106807.216    24106807.8054   24106815.5884
       146.0004        150.0004
 -19556642.99749 -15219254.23147  20931570.549    20931570.6614   20931578.5594
       200.0004        201.0004
 21  2  5  1 56  0.0000000  0 11G30G19G07G14G28G08G21G17G09G04G01
 -14042965.80848 -10923417.30647  21897502.434    21897502.5924   21897509.2344
       192.0004        193.0004
  -1841739.77947  -1400375.49245  24727580.650    24727579.3104   24727583.7714
       141.0004        145.0004
 -22686639.71849 -17648078.54047  20568351.385    20568351.9844   20568355.9194
       210.0004        211.0004
  -4381107.11547  -3392467.01646  23079494.709    23079494.4884   23079498.5844
       164.0004        166.0004
  -2392744.48247  -1859473.45245  23527705.058    23527705.6544   23527710.1064
       148.0004        150.0004
  -6229096.58948  -4825981.41747  23357187.170    23357186.1724   23357195.4354
       188.0004        189.0004
 -13790561.76148 -10732907.63946  22112553.971    22112554.0144   22112559.0744
       181.0004        180.0004
  -9548995.86148  -7417665.97446  22481294.070    22481293.8564   22481298.6074
       184.0004        184.0004
 -12051541.64748  -9040997.72547  22246407.986    22246408.4864   22246415.2874
       190.0004        190.0004
  -1192596.52047   -903793.83045  24125219.785    24125221.0234   24125229.8614
       147.0004        151.0004
 -19588511.60949 -15244086.90047  20925505.441    20925506.0884   20925514.0044
       200.0004        200.0004
 21  2  5  1 56 30.0000000  0 11G30G19G07G14G28G08G21G17G09G04G01
 -14123121.00048 -10985875.89647  21882249.281    21882249.4974   21882256.6084
       194.0004        195.0004
  -1931799.03747  -1470551.44545  24710443.473    24710441.9964   24710445.0154
       141.0004        145.0004
 -22730131.62049 -17681968.35047  20560075.142    20560075.4634   20560079.4314
       210.0004        211.0004
  -4408180.05148  -3413562.81346  23074343.006    23074343.2264   23074347.5514
       165.0004        167.0004
  -2408957.18447  -1872106.69345  23524621.917    23524622.3334   23524625.2404
       149.0004        153.0004
  -6134237.73048  -4752065.46947  23375240.738    23375238.3604   23375245.7374
       189.0004        190.0004
 -13748288.18948 -10699967.18346  22120599.069    22120598.6474   22120602.8644
       180.0004        180.0004
  -9608367.57748  -7463929.63046  22469995.340    22469996.7004   22470001.1824
       183.0004        183.0004
 -11977211.35648  -8983078.03647  22260552.747    22260553.1564   22260560.2024
       189.0004        189.0004
  -1095919.30047   -828461.23345  24143619.767    24143618.5434   24143625.9734
       148.0004        151.0004
 -19619858.93049 -15268513.37547  20919540.214    20919540.8844   20919548.7064
       200.0004        200.0004
 21  2  5  1 57  0.0000000  0 11G30G19G07G14G28G08G21G17G09G04G01
 -14203081.30849 -11048182.60247  21867032.872    21867033.5954   21867040.9074
       195.0004        195.0004
  -2021642.92647  -1540559.53145  24693346.418    24693346.4774   24693350.0564
       143.0004        147.0004
 -22773209.38449 -17715535.41447  20551877.185    20551877.8824   20551882.1584
       210.0004        211.0004
  -4435304.31048  -3434698.56246  23069179.854    23069180.6554   23069186.6634
       166.0004        167.0004
  -2425231.40847  -1884787.85445  23521524.253    23521523.9044   23521529.2334
       150.0004        153.0004
  -6039381.39448  -4678151.44247  23393290.873    23393290.1864   23393295.2474
       190.0004        190.0004
 -13705538.39948 -10666655.62446  22128733.883    22128732.9044   22128738.6874
       180.0004        179.0004
  -9667338.90348  -7509881.25546  22458773.800    22458774.6464   22458779.4054
       182.0004        183.0004
 -11902703.49848  -8925019.95747  22274731.903    22274731.3974   22274739.5984
       189.0004        190.0004
   -999330.49047   -753197.47845  24161997.211    24161998.2444   24162007.1494
       149.0004        152.0004
 -19650685.11049 -15292533.73447  20913674.842    20913675.0704   20913682.7194
       200.0004        201.0004
 21  2  5  1 57 30.0000000  0 11G30G19G07G14G28G08G21G17G09G04G01
 -14282840.99048 -11110333.01847  21851855.872    21851855.8434   21851862.5634
       194.0004        194.0004
  -2111266.91547  -1610396.32045  24676291.674    24676290.7624   24676293.5714
       142.0004        145.0004
 -22815867.36449 -17748775.42647  20543760.156    20543760.6374   20543764.5954
       210.0004        211.0004
  -4462477.45148  -3455872.43346  23064010.257    23064010.5394   23064014.8254
       167.0004        168.0004
  -2441565.16747  -1897515.47745  23518415.705    23518414.6554   23518419.3814
       150.0004        153.0004
  -5944526.60348  -4604238.65047  23411338.129    23411338.3404   23411344.8124
       189.0004        188.0004
 -13662309.64148 -10632970.89346  22136959.916    22136959.3844   22136963.8214
       180.0004        180.0004
  -9725905.72348  -7555517.74346  22447630.354    22447629.1384   22447634.2694
       183.0004        184.0004
 -11828017.98248  -8866823.49146  22288942.689    22288943.6264   22288950.8954
       188.0004        186.0004
   -902829.32647   -678002.10945  24180362.678    24180362.2754   24180370.6204
       148.0004        150.0004
 -19680984.77449 -15316143.87647  20907908.854    20907909.4594   20907916.6474
       201.0004        200.0004
 21  2  5  1 58  0.0000000  0 11G30G19G07G14G28G08G21G17G09G04G01
 -14362398.99748 -11172326.26147  21836716.040    21836716.1344   21836722.4774
       194.0004        194.0004
  -2200670.96547  -1680061.67845  24659277.923    24659277.1654   24659281.6604
       142.0004        146.0004
 -22858104.81149 -17781687.70747  20535722.871    20535723.0284   20535726.8024
       211.0004        211.0004
  -4489701.87948  -3477086.23646  23058828.561    23058829.4304   23058834.1314
       165.0004        167.0004
  -2457961.26447  -1910291.64645  23515295.771    23515296.6874   23515299.6064
       149.0004        153.0004
  -5849677.28948  -4530330.10447  23429388.520    23429387.8834   23429395.4044
       189.0004        189.0004
 -13618604.55348 -10598914.95346  22145276.736    22145276.3774   22145280.8934
       180.0004        181.0004
  -9784069.48248  -7600840.11246  22436559.803    22436560.6464   22436565.4264
       182.0004        182.0004
 -11753159.46448  -8808492.16146  22303187.729    22303188.0474   22303195.2464
       186.0004        186.0004
   -806419.89747   -602878.17545  24198708.275    24198708.3254   24198716.3644
       147.0004        149.0004
 -19710757.51249 -15339343.37947  20902243.318    20902243.7464   20902251.6364
       201.0004        201.0004
 21  2  5  1 58 30.0000000  0 11G30G19G07G14G28G08G21G17G09G04G01
 -14441750.75149 -11234158.81147  21821616.515    21821616.2934   21821622.8214
       195.0004        196.0004
  -2289851.68947  -1749553.07945  24642306.116    24642305.6664   24642310.8374
       140.0004        143.0004
 -22899917.01649 -17814268.66147  20527766.183    20527766.4814   20527770.5554
       211.0004        211.0004
  -4516976.38548  -3498339.11446  23053638.805    23053639.7854   23053643.5614
       165.0004        167.0004
  -2474419.33747  -1923116.11545  23512164.194    23512163.6914   23512167.9234
       151.0004        153.0004
  -5754834.16448  -4456426.40446  23447435.276    23447435.0824   23447442.2274
       186.0004        186.0004
 -13574422.77748 -10564487.59946  22153683.487    22153684.3644   22153688.2734
       180.0004        180.0004
  -9841827.54548  -7645846.41046  22425570.656    22425570.8664   22425574.0754
       182.0004        182.0004
 -11678129.05448  -8750026.92946  22317466.499    22317467.0504   22317473.8954
       186.0004        187.0004
   -710102.78347   -527826.25345  24217037.974    24217039.1164   24217045.1034
       148.0004        151.0004
 -19739999.24349 -15362129.13247  20896678.478    20896679.2224   20896686.8794
       201.0004        201.0004
 21  2  5  1 59  0.0000000  0 11G30G19G07G14G28G08G21G17G09G04G01
 -14520895.47849 -11295830.00647  21806555.866    21806555.6664   21806561.7914
       195.0004        196.0004
  -2378809.37947  -1818870.68945  24625378.718    24625378.1524   24625381.2484
       138.0004        142.0004
 -22941303.70049 -17846518.01547  20519890.095    20519890.6014   20519894.9424
       211.0004        211.0004
  -4544303.51948  -3519632.94846  23048438.954    23048438.6614   23048444.9534
       167.0004        168.0004
  -2490942.29147  -1935991.11245  23509018.336    23509019.1694   23509022.5964
       148.0004        149.0004
  -5660000.87948  -4382530.30746  23465481.000    23465480.6464   23465489.4444
       186.0004        186.0004
 -13529766.67648 -10529690.59446  22162181.985    22162180.9954   22162185.8114
       179.0004        180.0004
  -9899181.00248  -7690537.35346  22414655.704    22414656.0394   22414659.4104
       181.0004        181.0004
 -11602931.67448  -8691431.55346  22331775.829    22331775.7484   22331783.7824
       186.0004        187.0004
   -613882.18147   -452849.47745  24235347.392    24235348.4304   24235356.1474
       148.0004        151.0004
 -19768709.74149 -15384500.91447  20891214.315    20891215.2354   20891223.8904
       201.0004        201.0004
 21  2  5  1 59 30.0000000  0 11G30G19G07G14G28G08G21G17G09G04G01
 -14599829.32149 -11357336.90647  21791534.950    21791534.9364   21791541.6354
       196.0004        196.0004
  -2467541.32247  -1888012.36145  24608491.752    24608491.1614   24608497.0384
       137.0004        141.0004
 -22982261.17349 -17878432.94847  20512096.579    20512097.0044   20512100.9204
       211.0004        212.0004
  -4571682.80048  -3540967.45346  23043228.626    23043228.7294   23043234.9224
       167.0004        168.0004
  -2507530.13647  -1948916.70945  23505862.694    23505862.5174   23505867.2894
       147.0004        151.0004
  -5565178.42848  -4308642.71046  23483521.839    23483523.5274   23483533.3424
       185.0004        185.0004
 -13484635.55448 -10494523.48546  22170770.803    22170769.4554   22170774.5274
       179.0004        180.0004
  -9956128.12148  -7734911.73746  22403819.309    22403819.2744   22403823.1364
       182.0004        182.0004
 -11527569.14848  -8632707.53446  22346117.206    22346117.0584   22346124.4424
       186.0004        187.0004
   -517759.35847   -377948.93145  24253638.721    24253639.2684   24253649.0444
       148.0004        151.0004
 -19796885.78649 -15406456.27047  20885852.493    20885853.4804   20885862.1924
       200.0004        201.0004
 21  2  5  2  0  0.0000000  0 11G30G19G07G14G28G08G21G17G09G04G01
 -14678549.62549 -11418677.38747  21776554.606    21776554.8094   21776561.6714
       196.0004        195.0004
  -2556045.79247  -1956976.79845  24591651.228    24591649.7644   24591653.9524
       136.0004        142.0004
 -23022786.81049 -17910011.35347  20504384.695    20504385.0254   20504389.0404
       211.0004        212.0004
  -4599114.95648  -3562343.13746  23038008.161    23038008.4534   23038014.0844
       167.0004        168.0004
  -2524183.94347  -1961893.68245  23502694.025    23502695.1004   23502698.9094
       149.0004        153.0004
  -5470369.23448  -4234765.41147  23501566.134    23501566.8744   23501575.3384
       187.0004        189.0004
 -13439031.04748 -10458987.47546  22179448.290    22179448.1664   22179452.9804
       180.0004        180.0004
 -10012668.45748  -7778969.11146  22393059.887    22393060.1794   22393063.8204
       182.0004        183.0004
 -11452044.51548  -8573857.16346  22360488.971    22360489.5674   22360495.8584
       186.0004        187.0004
   -421736.72247   -303126.46845  24271910.669    24271911.4354   24271921.8694
       148.0004        151.0004
 -19824525.28149 -15427993.51447  20880594.079    20880594.2154   20880602.2724
       200.0004        200.0004
 21  2  5  2  0 30.0000000  0 11G30G19G07G14G28G08G21G17G09G04G01
 -14757055.54549 -11479850.82147  21761615.674    21761615.6194   21761622.2404
       195.0004        196.0004
  -2644323.11647  -2025764.22845  24574854.499    24574854.4734   24574856.9394
       141.0004        147.0004
 -23062880.09049 -17941252.87547  20496755.152    20496755.6234   20496759.5564
       211.0004        212.0004
  -4626602.40148  -3583761.92146  23032778.911    23032778.7634   23032783.0974
       167.0004        169.0004
  -2540906.65547  -1974924.35945  23499510.698    23499510.7204   23499516.8474
       149.0004        151.0004
  -5375577.33648  -4160901.61047  23519604.974    23519605.2544   23519613.2914
       187.0004        188.0004
 -13392956.11948 -10423084.91146  22188216.414    22188215.7204   22188220.6204
       180.0004        180.0004
 -10068802.77148  -7822710.09146  22382377.287    22382378.3874   22382382.8764
       182.0004        182.0004
 -11376362.57248  -8514884.22347  22374891.127    22374890.8904   22374898.3764
       187.0004        188.0004
   -325818.52447   -228385.43245  24290165.429    24290164.7914   24290174.1314
       148.0004        151.0004
 -19851628.03449 -15449112.50847  20875435.529    20875435.7484   20875444.6124
       200.0004        200.0004
 21  2  5  2  1  0.0000000  0 11G30G19G07G14G28G08G21G17G09G04G01
 -14835344.04649 -11540854.86747  21746718.145    21746717.8624   21746724.4944
       195.0004        196.0004
  -2732371.71047  -2094373.42145  24558099.182    24558098.0924   24558102.5054
       146.0004        151.0004
 -23102538.32749 -17972155.42347  20489208.329    20489208.7494   20489213.2394
       211.0004        212.0004
  -4654145.61348  -3605224.14346  23027535.060    23027535.9174   23027542.9794
       168.0004        168.0004
  -2557699.19347  -1988009.44245  23496315.605    23496315.1614   23496320.2234
       149.0004        153.0004
  -5280804.32048  -4087052.53947  23537640.446    23537640.9474   23537648.1444
       188.0004        188.0004
 -13346411.08448 -10386816.06046  22197072.187    22197072.3444   22197077.8104
       179.0004        179.0004
 -10124531.39348  -7866134.99646  22371773.471    22371773.1334   22371777.6494
       182.0004        182.0004
 -11300526.05948  -8455790.88347  22389322.712    22389322.9534   22389330.0474
       187.0004        188.0004
   -230006.73947   -153727.31845  24308394.860    24308396.8534   24308407.2994
       147.0004        149.0004
 -19878191.70849 -15469811.48147  20870380.567    20870381.4244   20870389.5054
       199.0004        200.0004
 21  2  5  2  1 30.0000000  0 11G30G19G07G14G28G08G21G17G09G04G01
 -14913412.16249 -11601687.17047  21731861.511    21731861.7844   21731868.6944
       196.0004        196.0004
  -2820189.89147  -2162803.08045  24541387.056    24541386.8574   24541391.0244
       148.0004        152.0004
 -23141758.81549 -18002716.84647  20481745.074    20481745.3684   20481749.7544
       211.0004        212.0004
  -4681744.85948  -3626730.06546  23022283.968    23022285.5614   23022289.7784
       168.0004        168.0004
  -2574562.58247  -2001149.75345  23493106.732    23493106.8934   23493112.0284
       153.0004        157.0004
  -5186052.26148  -4013219.77947  23555671.612    23555671.7194   23555679.6534
       188.0004        190.0004
 -13299397.16048 -10350181.82046  22206019.412    22206018.9434   22206024.0764
       179.0004        179.0004
 -10179852.99748  -7909242.72346  22361245.302    22361245.8624   22361249.9854
       182.0004        182.0004
 -11224537.68248  -8396579.17146  22403781.412    22403782.0784   22403789.3724
       186.0004        185.0004
   -134303.47247    -79153.76845  24326605.950    24326609.0564   24326618.3844
       146.0004        148.0004
 -19904214.05749 -15490088.61447  20865429.132    20865429.5184   20865437.9244
       200.0004        200.0004
 21  2  5  2  2  0.0000000  0 11G30G19G07G14G28G08G21G17G09G04G01
 -14991257.44049 -11662345.82047  21717048.175    21717048.4694   21717055.7244
       196.0004        196.0004
  -2907776.17747  -2231052.03445  24524720.854    24524719.4484   24524723.6814
       149.0004        152.0004
 -23180539.21949 -18032935.34748  20474365.100    20474365.5634   20474370.2304
       212.0004        213.0004
  -4709400.97348  -3648280.30046  23017022.242    23017022.2634   23017027.5384
       167.0004        168.0004
  -2591497.90047  -2014346.10745  23489885.118    23489884.5804   23489888.5344
       156.0004        159.0004
  -5091323.29048  -3939405.02347  23573697.469    23573697.9764   23573706.3164
       188.0004        189.0004
 -13251915.34248 -10313183.00246  22215055.640    22215054.5694   22215060.0364
       179.0004        180.0004
 -10234766.75848  -7952032.65646  22350796.139    22350796.4084   22350800.8514
       182.0004        184.0004
 -11148400.63548  -8337251.63646  22418270.427    22418270.8074   22418276.9094
       184.0004        184.0004
    -38711.29247     -4666.79545  24344798.987    24344801.3124   24344808.8314
       144.0004        147.0004
 -19929693.29749 -15509942.55547  20860580.674    20860581.3104   20860588.8174
       200.0004        200.0004
 21  2  5  2  2 30.0000000  0 11G30G19G07G14G28G08G21G17G09G04G01
 -15068877.80649 -11722829.21347  21702278.277    21702277.5724   21702284.6414
       196.0004        197.0004
  -2995129.80847  -2299119.67445  24508095.323    24508095.2974   24508101.6844
       150.0004        153.0004
 -23218877.84649 -18062809.60548  20467069.874    20467070.3934   20467074.6164
       212.0004        213.0004
  -4737115.27648  -3669875.81746  23011746.674    23011747.0174   23011753.3814
       167.0004        167.0004
  -2608507.20147  -2027600.05845  23486648.453    23486648.3704   23486652.3674
       157.0004        159.0004
  -4996620.40048  -3865610.57346  23591718.917    23591719.0454   23591726.0064
       187.0004        187.0004
 -13203967.22148 -10275820.81546  22224179.323    22224178.9784   22224184.5304
       180.0004        180.0004
 -10289273.22448  -7994505.18846  22340423.562    22340424.1264   22340428.1964
       183.0004        183.0004
 -11072118.57848  -8277811.07146  22432785.527    22432786.5704   22432794.1124
       184.0004        184.0004
     56766.81547     69731.27245  24362970.060    24362970.5784   24362978.2084
       143.0004        148.0004
 -19954628.12449 -15529372.26447  20855835.427    20855835.9764   20855844.3304
       199.0004        200.0004
 21  2  5  2  3  0.0000000  0 11G30G19G07G14G28G08G21G17G09G04G01
 -15146269.15349 -11783134.14547  21687550.839    21687550.9294   21687557.8954
       197.0004        198.0004
  -3082247.86847  -2367003.78745  24491518.499    24491518.0794   24491522.7674
       151.0004        154.0004
 -23256771.01049 -18092336.73348  20459858.596    20459859.1494   20459863.6824
       212.0004        213.0004
  -4764887.01048  -3691516.10046  23006463.405    23006463.6274   23006467.1594
       165.0004        166.0004
  -2625590.08547  -2040911.36945  23483396.982    23483397.1354   23483401.1854
       156.0004        159.0004
  -4901944.58848  -3791837.22146  23609734.674    23609734.3924   23609743.2264
       186.0004        185.0004
 -13155552.97648 -10238095.39646  22233391.909    22233391.8744   22233397.2344
       179.0004        180.0004
 -10343370.80248  -8036659.10146  22330128.239    22330128.8534   22330134.4214
       182.0004        182.0004
 -10995693.10248  -8218258.75646  22447330.701    22447330.4044   22447337.2614
       184.0004        185.0004
    152129.96747    144039.76345  24381116.138    24381118.2644   24381125.5324
       142.0004        145.0004
 -19979015.21149 -15548375.15847  20851195.262    20851195.5544   20851203.8834
       200.0004        201.0004
 21  2  5  2  3 30.0000000  0 11G30G19G07G14G28G08G21G17G09G04G01
 -15223428.01749 -11843257.95647  21672867.829    21672867.9714   21672874.9894
       198.0004        197.0004
  -3169128.19647  -2434702.65445  24474985.378    24474983.9494   24474989.9584
       150.0004        152.0004
 -23294215.24749 -18121514.07948  20452733.954    20452734.1874   20452738.3264
       212.0004        214.0004
  -4792715.94648  -3713200.99946  23001168.089    23001168.3574   23001171.3644
       165.0004        165.0004
  -2642746.88947  -2054280.30445  23480133.927    23480133.9844   23480137.0524
       158.0004        160.0004
  -4807296.96448  -3718085.87146  23627743.816    23627744.1854   23627754.4804
       184.0004        184.0004
 -13106673.05748 -10200007.15846  22242693.793    22242693.6944   22242698.6094
       179.0004        179.0004
 -10397058.09648  -8078493.35946  22319912.324    22319912.8684   22319917.2564
       182.0004        183.0004
 -10919126.42248  -8158596.45546  22461899.691    22461899.6644   22461907.3484
       184.0004        184.0004
    247376.54447    218257.38045  24399241.092    24399241.2244   24399252.1774
       140.0004        143.0004
 -20002851.91549 -15566949.20847  20846659.272    20846659.4854   20846667.8584
       200.0004        200.0004
 21  2  5  2  4  0.0000000  0 11G30G19G07G14G28G08G21G17G09G04G01
 -15300353.05649 -11903199.53747  21658229.806    21658229.5384   21658236.5474
       197.0004        197.0004
  -3255770.50347  -2502216.07545  24458497.788    24458497.0894   24458501.6494
       148.0004        150.0004
 -23331209.96949 -18150341.14048  20445693.596    20445694.0124   20445698.5614
       213.0004        214.0004
  -4820604.09848  -3734932.02046  22995860.223    22995860.7164   22995866.0394
       166.0004        167.0004
  -2659980.19147  -2067708.82045  23476854.311    23476854.1874   23476855.9904
       156.0004        156.0004
  -4712680.85148  -3644359.02046  23645749.127    23645750.0294   23645758.2104
       184.0004        185.0004
 -13057329.31248 -10161557.47246  22252083.133    22252083.0264   22252087.6814
       179.0004        179.0004
 -10450336.11748  -8120008.67246  22309774.206    22309774.7674   22309778.9804
       183.0004        184.0004
 -10842422.90748  -8098827.50246  22476496.111    22476496.2694   22476503.9054
       184.0004        185.0004
    342502.94647    292381.39045  24417341.985    24417344.7234   24417354.1304
       139.0004        144.0004
 -20026137.71249 -15585093.97347  20842227.319    20842228.0284   20842236.0824
       199.0004        199.0004
 21  2  5  2  4 30.0000000  0 11G30G19G07G14G28G08G21G17G09G04G01
 -15377041.39249 -11962956.66847  21643635.345    21643635.6444   21643643.5464
       196.0004        196.0004
  -3342173.16747  -2569542.72845  24442056.240    24442055.6824   24442060.3044
       149.0004        153.0004
 -23367752.62949 -18178815.94248  20438739.456    20438739.8144   20438744.5534
       212.0004        213.0004
  -4848551.86148  -3756709.47646  22990542.449    22990543.2664   22990547.8914
       167.0004        169.0004
  -2677290.67947  -2081197.49845  23473558.733    23473556.9874   23473563.0794
       151.0004        152.0004
  -4618098.07848  -3570658.16446  23663748.064    23663748.4904   23663757.7124
       183.0004        183.0004
 -13007522.54448 -10122746.99846  22261561.159    22261561.3704   22261565.9584
       179.0004        180.0004
 -10503204.33348  -8161204.67846  22299713.721    22299713.9234   22299718.7184
       183.0004        184.0004
 -10765585.31848  -8038954.08146  22491118.224    22491118.7844   22491125.0954
       184.0004        184.0004
    437506.98247    366409.97545  24435422.272    24435422.0694   24435433.2414
       138.0004        142.0004
 -20048870.58149 -15602807.88547  20837901.427    20837902.2574   20837909.7304
       199.0004        199.0004
 21  2  5  2  5  0.0000000  0 11G30G19G07G14G28G08G21G17G09G04G01
 -15453490.92049 -12022527.71847  21629088.671    21629088.8544   21629095.4674
       197.0004        198.0004
  -3428335.35047  -2636682.01645  24425660.704    24425659.9414   24425664.3174
       151.0004        154.0004
 -23403841.15449 -18206936.86848  20431872.372    20431872.8774   20431876.9294
       212.0004        213.0004
  -4876560.41848  -3778534.29746  22985212.541    22985212.4414   22985218.0384
       169.0004        170.0004
  -2694680.18147  -2094747.78645  23470245.706    23470246.3604   23470253.2204
       148.0004        151.0004
  -4523551.60348  -3496985.61046  23681741.581    23681740.8774   23681749.0494
       183.0004        184.0004
 -12957255.33548 -10083577.72046  22271126.120    22271126.2324   22271131.8904
       179.0004        179.0004
 -10555662.56948  -8202081.18346  22289730.511    22289730.8004   22289735.4484
       183.0004        184.0004
 -10688617.27348  -7978979.00646  22505764.225    22505764.5584   22505772.0314
       183.0004        184.0004
    532385.76847    440340.94345  24453478.471    24453478.9724   24453489.1104
       137.0004        142.0004
 -20071049.30549 -15620089.98347  20833680.981    20833681.7154   20833689.6714
       199.0004        199.0004
 21  2  5  2  5 30.0000000  0 11G30G19G07G14G28G08G21G17G09G04G01
 -15529697.55849 -12081909.52547  21614587.074    21614587.1944   21614593.2834
       198.0004        197.0004
  -3514254.58047  -2703632.02145  24409310.812    24409310.0734   24409313.0654
       150.0004        153.0004
 -23439472.05549 -18234701.22348  20425092.129    20425092.6274   20425096.8334
       212.0004        214.0004
  -4904628.99248  -3800405.92346  22979872.056    22979871.5324   22979875.2854
       168.0004        168.0004
  -2712148.17547  -2108359.21745  23466925.034    23466926.2624   23466929.8914
       149.0004        154.0004
  -4429041.92348  -3423341.75346  23699726.028    23699724.8454   23699734.1794
       182.0004        182.0004
 -12906527.07448 -10044049.18846  22280780.264    22280779.5914   22280785.3814
       179.0004        179.0004
 -10607709.73748  -8242637.39946  22279825.958    22279827.0954   22279831.6394
       183.0004        185.0004
 -10611520.44148  -7918903.57246  22520434.563    22520435.1424   22520443.1464
       184.0004        184.0004
    627138.43847    514173.65445  24471511.306    24471512.0264   24471520.5954
       137.0004        142.0004
 -20092670.71649 -15636937.82047  20829567.430    20829567.3564   20829575.7304
       199.0004        200.0004
 21  2  5  2  6  0.0000000  0 11G30G19G07G14G28G08G21G17G09G04G01
 -15605660.29849 -12141101.26047  21600131.386    21600131.0474   21600138.0544
       197.0004        196.0004
  -3599930.62147  -2770392.52345  24393007.088    24393006.2404   24393009.0144
       150.0004        153.0004
 -23474644.72249 -18262108.51148  20418398.770    20418399.3104   20418403.5874
       212.0004        214.0004
  -4932759.79848  -3822326.03846  22974517.406    22974519.3474   22974523.4644
       168.0004        170.0004
  -2729697.53047  -2122034.00745  23463588.274    23463587.6444   23463589.9014
       153.0004        157.0004
  -4334572.71548  -3349729.41146  23717698.293    23717700.2244   23717710.6804
       181.0004        181.0004
 -12855341.04848 -10004163.97446  22290519.868    22290520.0124   22290525.8934
       179.0004        179.0004
 -10659346.95048  -8282874.18246  22270000.158    22270000.0694   22270006.1654
       184.0004        184.0004
 -10534299.37948  -7858731.35546  22535130.533    22535130.9264   22535137.0504
       183.0004        184.0004
    721760.99447    587904.95345  24489515.925    24489516.1834   24489526.9674
       138.0004        143.0004
 -20113734.70049 -15653351.30647  20825557.662    20825558.6984   20825566.9754
       199.0004        199.0004
 21  2  5  2  6 30.0000000  0 11G30G19G07G14G28G08G21G17G09G04G01
 -15681375.10849 -12200099.78547  21585723.093    21585723.4004   21585729.7374
       197.0004        197.0004
  -3685361.00347  -2836961.54645  24376749.548    24376748.8884   24376752.7414
       151.0004        154.0004
 -23509355.36549 -18289155.75548  20411793.629    20411794.2384   20411798.0614
       212.0004        213.0004
  -4960952.12548  -3844294.04746  22969153.245    22969153.9424   22969159.1684
       171.0004        172.0004
  -2747328.02547  -2135772.03745  23460232.332    23460231.4074   23460234.8744
       155.0004        157.0004
  -4240145.07148  -3276149.43446  23735666.382    23735668.6404   23735679.1954
       179.0004        180.0004
 -12803697.20548  -9963921.99946  22300347.720    22300347.5654   22300352.5644
       178.0004        178.0004
 -10710571.99348  -8322789.75946  22260252.991    22260253.4774   22260257.9284
       185.0004        186.0004
 -10456955.84748  -7798463.66446  22549849.121    22549848.7164   22549856.3674
       184.0004        185.0004
    816252.53447    661534.11545  24507498.496    24507500.4914   24507510.0954
       137.0004        142.0004
 -20134238.23749 -15669328.05947  20821656.324    20821657.2254   20821664.8534
       199.0004        199.0004
 21  2  5  2  7  0.0000000  0 11G30G19G07G14G28G08G21G17G09G04G01
 -15756838.18849 -12258902.19847  21571363.022    21571363.2124   21571369.7914
       197.0004        198.0004
  -3770543.34047  -2903337.28345  24360540.008    24360539.7404   24360544.0544
       154.0004        156.0004
 -23543601.02949 -18315840.70248  20405277.037    20405277.5944   20405281.4614
       212.0004        213.0004
  -4989205.40648  -3866309.61146  22963777.297    22963777.4834   22963781.6594
       171.0004        171.0004
  -2765039.85647  -2149573.45745  23456858.980    23456858.8314   23456864.8574
       153.0004        154.0004
  -4145759.85548  -3202602.54546  23753630.124    23753630.8064   23753639.6924
       179.0004        180.0004
 -12751595.11648  -9923322.96846  22310262.361    22310262.6894   22310269.0544
       179.0004        180.0004
 -10761383.48848  -8362383.12146  22250583.520    22250584.4574   22250588.7094
       186.0004        187.0004
 -10379491.69048  -7738102.01146  22564589.322    22564589.0794   22564597.1424
       185.0004        185.0004
    910611.76847    735060.16245  24525454.432    24525455.5464   24525464.9324
       137.0004        142.0004
 -20154178.55349 -15684865.96347  20817861.642    20817862.5104   20817870.4934
       199.0004        199.0004
 21  2  5  2  7 30.0000000  0 11G30G19G07G14G28G08G21G17G09G04G01
 -15832048.60249 -12317507.73047  21557051.574    21557051.5744   21557057.9164
       198.0004        199.0004
  -3855477.82647  -2969519.94845  24344377.233    24344376.0294   24344381.0124
       152.0004        155.0004
 -23577380.92949 -18342162.72848  20398849.264    20398849.5024   20398853.7244
       213.0004        214.0004
  -5017521.96848  -3888374.46246  22958388.999    22958389.2594   22958393.2864
       170.0004        171.0004
  -2782835.53947  -2163440.24145  23453472.099    23453473.2294   23453477.6754
       151.0004        154.0004
  -4051420.33648  -3129091.28046  23771583.389    23771583.0564   23771592.5904
       180.0004        181.0004
 -12699038.47448  -9882369.74646  22320264.556    22320263.8894   22320269.7964
       179.0004        179.0004
 -10811784.20348  -8401656.40546  22240992.437    22240992.2414   22240998.1874
       186.0004        186.0004
 -10301911.63348  -7677650.06146  22579351.280    22579351.8884   22579359.3584
       183.0004        181.0004
   1004834.81047    808480.05645  24543383.988    24543384.6634   24543397.1324
       138.0004        143.0004
 -20173555.63449 -15699964.99247  20814174.463    20814175.4284   20814183.1024
       199.0004        199.0004
 21  2  5  2  8  0.0000000  0 11G30G19G07G14G28G08G21G17G09G04G01
 -15907003.09649 -12375913.82947  21542788.234    21542788.4224   21542794.7594
       199.0004        200.0004
  -3940162.95447  -3035508.28045  24328262.157    24328262.2154   24328265.3374
       153.0004        156.0004
 -23610692.33849 -18368119.67148  20392509.998    20392510.4294   20392514.4854
       213.0004        213.0004
  -5045901.78548  -3910488.56746  22952987.533    22952988.3004   22952992.4114
       170.0004        170.0004
  -2800715.67647  -2177372.78145  23450071.942    23450071.5284   23450075.0784
       151.0004        155.0004
  -3957128.31948  -3055616.99546  23789525.552    23789526.5814   23789534.6414
       178.0004        179.0004
 -12646028.33248  -9841063.13146  22330351.423    22330351.6664   22330356.2934
       178.0004        179.0004
 -10861772.66548  -8440608.43546  22231480.049    22231480.8144   22231484.8994
       185.0004        186.0004
 -10224218.14448  -7617109.68646  22594135.968    22594136.9764   22594144.1664
       181.0004        182.0004
   1098919.90547    881792.38345  24561288.651    24561288.7534   24561300.7404
       138.0004        142.0004
 -20192367.35049 -15714623.45347  20810593.886    20810595.1184   20810603.2794
       199.0004        199.0004
 21  2  5  2  8 30.0000000  0 11G30G19G07G14G28G08G21G17G09G04G01
 -15981699.25249 -12434118.60847  21528573.895    21528573.6084   21528580.7844
       199.0004        200.0004
  -4024597.25347  -3101301.19445  24312194.076    24312193.0524   24312199.4284
       153.0004        156.0004
 -23643533.36849 -18393710.08548  20386260.769    20386261.4114   20386265.1554
       213.0004        214.0004
  -5074345.65948  -3932652.62546  22947575.260    22947575.0934   22947580.0694
       169.0004        170.0004
  -2818681.54147  -2191372.15845  23446653.034    23446652.6564   23446657.1634
       154.0004        159.0004
  -3862886.34348  -2982181.70146  23807459.121    23807459.8194   23807470.9044
       179.0004        180.0004
 -12592565.30548  -9799403.61946  22340525.031    22340524.8344   22340530.8844
       178.0004        179.0004
 -10911348.41948  -8479238.84546  22222046.243    22222046.9474   22222051.4334
       185.0004        185.0004
 -10146414.42048  -7556483.42846  22608943.055    22608943.1954   22608949.8194
       182.0004        184.0004
   1192864.56947    954995.30045  24579165.175    24579166.7614   24579178.6824
       139.0004        144.0004
 -20210612.30349 -15728840.27547  20807122.832    20807123.8874   20807131.8024
       199.0004        200.0004
 21  2  5  2  9  0.0000000  0 11G30G19G07G14G28G08G21G17G09G04G01
 -16056134.36249 -12492119.98347  21514409.328    21514409.1744   21514416.2084
       199.0004        200.0004
  -4108779.36047  -3166897.53145  24296174.214    24296173.5704   24296179.5454
       153.0004        156.0004
 -23675901.74249 -18418932.21148  20380101.408    20380101.7134   20380105.5844
       213.0004        214.0004
  -5102854.11748  -3954867.00146  22942150.134    22942150.0584   22942156.0694
       170.0004        171.0004
  -2836734.38147  -2205439.26845  23443216.967    23443217.5154   23443221.5544
       155.0004        158.0004
  -3768696.14848  -2908786.77446  23825382.927    23825384.1854   23825393.3084
       178.0004        179.0004
 -12538650.97748  -9757392.43946  22350783.968    22350784.4794   22350789.7204
       178.0004        179.0004
 -10960511.54048  -8517547.74546  22212690.401    22212690.6564   22212695.3354
       185.0004        186.0004
 -10068503.47748  -7495773.61746  22623768.397    22623769.3104   22623775.9984
       184.0004        185.0004
   1286666.50247   1028086.98445  24597017.571    24597018.6314   24597029.9054
       140.0004        144.0004
 -20228288.92049 -15742614.24047  20803759.574    20803760.3344   20803768.1094
       200.0004        200.0004
 21  2  5  2  9 30.0000000  0 11G30G19G07G14G28G08G21G17G09G04G01
 -16130305.42849 -12549915.62147  21500294.717    21500295.1374   21500302.1574
       200.0004        201.0004
  -4192707.63947  -3232296.12245  24280204.901    24280203.8584   24280207.9354
       152.0004        154.0004
 -23707794.97549 -18443784.09648  20374032.003    20374032.6124   20374036.8024
       213.0004        214.0004
  -5131427.38648  -3977131.86046  22936713.694    22936714.8534   22936717.9904
       170.0004        172.0004
  -2854874.38247  -2219574.34745  23439766.068    23439765.8984   23439769.9394
       156.0004        159.0004
  -3674559.16148  -2835433.32746  23843298.422    23843298.2164   23843306.7984
       177.0004        177.0004
 -12484286.69948  -9715030.66346  22361129.888    22361129.5454   22361135.7024
       178.0004        178.0004
 -11009261.89848  -8555535.03347  22203414.471    22203414.4434   22203418.9944
       187.0004        189.0004
  -9990487.96548  -7434982.33446  22638614.400    22638614.9964   22638621.6294
       183.0004        182.0004
   1380323.91547   1101065.98245  24614840.828    24614842.4714   24614851.2584
       140.0004        144.0004
 -20245395.28449 -15755943.87147  20800504.092    20800504.5504   20800512.6964
       200.0004        200.0004
 21  2  5  2 10  0.0000000  0 11G30G19G07G14G28G08G21G17G09G04G01
 -16204210.88049 -12607504.28847  21486231.126    21486231.2984   21486238.0744
       201.0004        201.0004
  -4276381.91547  -3297496.79245  24264281.223    24264280.5984   24264284.9184
       150.0004        153.0004
 -23739211.97049 -18468264.89248  20368053.581    20368053.8174   20368058.1104
       213.0004        214.0004
  -5160067.06148  -3999448.49546  22931262.348    22931263.5594   22931268.5384
       171.0004        172.0004
  -2873104.22047  -2233779.41345  23436297.295    23436297.4354   23436300.3424
       156.0004        158.0004
  -3580479.20348  -2762124.28246  23861202.546    23861202.6054   23861209.9424
       178.0004        179.0004
 -12429475.08048  -9672320.31046  22371559.724    22371559.1334   22371565.2134
       178.0004        178.0004
 -11057599.65448  -8593200.80247  22194215.724    22194216.0944   22194220.5904
       187.0004        188.0004
  -9912371.97148  -7374112.74546  22653479.729    22653479.9814   22653486.5014
       182.0004        183.0004
   1473833.38147   1173929.65945  24632636.361    24632636.7384   24632647.2364
       139.0004        143.0004
 -20261931.04249 -15768828.87347  20797357.413    20797357.7734   20797365.8554
       199.0004        199.0004
 21  2  5  2 10 30.0000000  0 11G30G19G07G14G28G08G21G17G09G04G01
 -16277847.60649 -12664883.53947  21472218.306    21472218.8964   21472225.3464
       201.0004        201.0004
  -4359800.74147  -3362498.39545  24248407.845    24248407.1354   24248411.2804
       149.0004        151.0004
 -23770150.53249 -18492372.86748  20362166.000    20362166.6014   20362170.6664
       213.0004        214.0004
  -5188773.25948  -4021816.95646  22925800.409    22925801.1094   22925804.6684
       171.0004        170.0004
  -2891424.37747  -2248054.83045  23432809.693    23432809.9534   23432813.2124
       155.0004        157.0004
  -3486457.20348  -2688860.39246  23879093.223    23879093.7534   23879101.9384
       177.0004        178.0004
 -12374217.08848  -9629262.11246  22382074.623    22382075.3204   22382080.0834
       177.0004        177.0004
 -11105525.46148  -8630545.56546  22185095.688    22185095.5374   22185100.5114
       187.0004        187.0004
  -9834158.07448  -7313166.86846  22668362.808    22668362.9464   22668370.8514
       183.0004        184.0004
   1567193.14547   1246676.68145  24650401.608    24650402.7304   24650413.1444
       138.0004        143.0004
 -20277894.19349 -15781267.66847  20794320.033    20794320.7354   20794328.7204
       199.0004        200.0004
 21  2  5  2 11  0.0000000  0 11G30G19G07G14G28G08G21G17G09G04G01
 -16351211.89549 -12722050.51547  21458258.599    21458258.1064   21458265.0224
       201.0004        201.0004
  -4442961.72747  -3427299.09945  24232581.626    24232581.4054   24232585.2204
       147.0004        150.0004
 -23800607.04349 -18516105.21148  20356370.523    20356370.8784   20356375.2014
       213.0004        215.0004
  -5217545.45948  -4044236.83946  22920324.850    22920326.5574   22920330.2114
       169.0004        169.0004
  -2909834.87847  -2262400.67145  23429307.096    23429306.9734   23429311.6944
       157.0004        159.0004
  -3392494.29448  -2615642.58646  23896973.863    23896974.1854   23896981.3514
       178.0004        180.0004
 -12318513.51448  -9585856.71646  22392676.093    22392675.6074   22392679.7344
       177.0004        177.0004
 -11153037.60348  -8667567.99446  22176053.746    22176054.1404   22176059.1864
       186.0004        186.0004
  -9755848.21548  -7252146.21246  22683263.800    22683264.3694   22683272.6424
       183.0004        184.0004
   1660401.97447   1319306.04845  24668139.001    24668139.8374   24668152.9204
       139.0004        143.0004
 -20293282.28749 -15793258.36247  20791391.401    20791392.1344   20791400.1194
       200.0004        200.0004
 21  2  5  2 11 30.0000000  0 11G30G19G07G14G28G08G21G17G09G04G01
 -16424300.21849 -12779002.46047  21444349.663    21444350.0894   21444356.8834
       202.0004        202.0004
  -4525862.26847  -3491896.90545  24216807.831    24216806.5684   24216810.5504
       149.0004        154.0004
 -23830578.49349 -18539459.59648  20350667.104    20350667.5904   20350671.9304
       214.0004        215.0004
  -5246383.29848  -4066707.88746  22914836.921    22914837.5804   22914842.7654
       168.0004        167.0004
  -2928335.70247  -2276816.90045  23425787.352    23425787.3234   23425789.9564
       157.0004        160.0004
  -3298591.72348  -2542471.75046  23914841.751    23914842.8904   23914851.9824
       181.0004        182.0004
 -12262364.26548  -9542104.05546  22403360.473    22403360.5754   22403365.6084
       177.0004        178.0004
 -11200134.91848  -8704267.19047  22167092.043    22167092.3994   22167097.2874
       187.0004        188.0004
  -9677444.50948  -7191052.45546  22698184.205    22698184.6324   22698191.9274
       182.0004        182.0004
   1753458.59447   1391816.77645  24685848.164    24685848.3454   24685860.7004
       138.0004        143.0004
 -20308092.99149 -15804799.16247  20788573.567    20788573.8204   20788581.7294
       200.0004        200.0004
 21  2  5  2 12  0.0000000  0 11G30G19G07G14G28G08G21G17G09G04G01
 -16497111.70949 -12835738.70247  21430494.417    21430493.7204   21430500.9024
       202.0004        202.0004
  -4608503.50247  -3556292.66345  24201080.449    24201080.7474   24201083.9024
       152.0004        156.0004
 -23860065.06349 -18562436.17048  20345055.706    20345056.3504   20345060.4224
       214.0004        215.0004
  -5275289.03248  -4089231.84946  22909337.142    22909336.9924   22909342.4314
       169.0004        171.0004
  -2946929.95247  -2291305.93145  23422247.742    23422248.4134   23422251.7144
       157.0004        159.0004
  -3204753.12648  -2469350.81846  23932699.455    23932699.2384   23932707.3164
       178.0004        177.0004
 -12205772.63448  -9498006.69446  22414128.754    22414128.2684   22414134.2534
       176.0004        177.0004
 -11246819.11548  -8740644.48447  22158207.473    22158208.5684   22158212.8354
       188.0004        189.0004
  -9598951.69448  -7129889.28546  22713122.051    22713121.9774   22713128.7804
       181.0004        182.0004
   1846359.01347   1464205.71345  24703526.744    24703527.6214   24703540.0194
       138.0004        142.0004
 -20322326.73649 -15815890.39847  20785864.599    20785865.2624   20785872.8944
       200.0004        200.0004
 21  2  5  2 12 30.0000000  0 11G30G19G07G14G28G08G21G17G09G04G01
 -16569641.80649 -12892255.64447  21416691.482    21416691.9054   21416698.3844
       202.0004        202.0004
  -4690881.96247  -3620483.54845  24185404.779    24185403.6484   24185407.0574
       155.0004        158.0004
 -23889062.80849 -18585031.80748  20339537.660    20339538.3654   20339542.6554
       214.0004        215.0004
  -5304261.23248  -4111807.56946  22903822.612    22903824.4044   22903829.3584
       170.0004        170.0004
  -2965616.26247  -2305866.65945  23418692.591    23418691.9484   23418697.2004
       156.0004        158.0004
  -3110978.32348  -2396279.52146  23950544.754    23950544.6554   23950552.9294
       179.0004        180.0004
 -12148738.95548  -9453564.85246  22424982.521    22424981.8764   22424987.0094
       176.0004        177.0004
 -11293088.59348  -8776698.58847  22149403.703    22149404.0914   22149408.3984
       189.0004        190.0004
  -9520370.90748  -7068657.49846  22728074.908    22728075.2414   22728082.3654
       181.0004        180.0004
   1939102.98947   1536472.75045  24721176.140    24721176.6964   24721190.0414
       137.0004        143.0004
 -20335980.19749 -15826529.43847  20783266.086    20783266.6574   20783274.7824
       200.0004        200.0004
 21  2  5  2 13  0.0000000  0 10G30G19G07G14G28G08G21G17G09G01
 -16641888.25849 -12948551.57747  21402944.002    21402944.4294   21402950.9004
       202.0004        202.0004
  -4772996.94247  -3684469.14945  24169775.961    24169776.2504   24169782.3474
       155.0004        157.0004
 -23917569.71649 -18607244.96948  20334113.575    20334113.6294   20334117.8644
       214.0004        215.0004
  -5333300.88748  -4134435.84246  22898297.033    22898298.0074   22898301.3904
       169.0004        169.0004
  -2984396.24447  -2320500.37045  23415118.978    23415117.9744   23415121.4654
       157.0004        158.0004
  -3017270.13448  -2323260.16546  23968375.577    23968376.8394   23968384.4824
       179.0004        180.0004
 -12091264.14048  -9408779.25946  22435920.217    22435919.6474   22435923.5984
       176.0004        177.0004
 -11338943.68248  -8812429.80547  22140677.005    22140677.5884   22140682.0984
       188.0004        189.0004
  -9441705.49348  -7007359.78746  22743042.978    22743043.6894   22743052.5804
       179.0004        178.0004
 -20349052.47649 -15836715.60947  20780778.657    20780779.4194   20780787.4004
       200.0004        200.0004
 21  2  5  2 13 30.0000000  0 10G30G19G07G14G28G08G21G17G09G01
 -16713843.74049 -13004620.77847  21389251.425    21389251.1644   21389257.9864
       202.0004        202.0004
  -4854842.59847  -3748244.94145  24154204.094    24154203.0274   24154207.6784
       155.0004        158.0004
 -23945579.27649 -18629070.60348  20328783.120    20328783.7474   20328787.5474
       214.0004        215.0004
  -5362403.75948  -4157113.40146  22892759.537    22892759.7044   22892764.7774
       169.0004        171.0004
  -3003266.29447  -2335204.31045  23411527.983    23411527.7864   23411531.3444
       157.0004        160.0004
  -2923625.58048  -2250290.41146  23986196.921    23986196.9954   23986204.6624
       177.0004        176.0004
 -12033345.72148  -9363648.01046  22446940.949    22446940.7354   22446944.9344
       175.0004        176.0004
 -11384379.73748  -8847834.50147  22132030.892    22132030.9324   22132036.0254
       188.0004        188.0004
  -9362953.79048  -6945994.85846  22758029.054    22758029.5224   22758037.9874
       178.0004        178.0004
 -20361537.60249 -15846444.26347  20778402.870    20778403.5924   20778411.2334
       200.0004        200.0004
 21  2  5  2 14  0.0000000  0 10G30G19G07G14G28G08G21G17G09G01
 -16785513.51449 -13060467.36447  21375612.438    21375612.6694   21375619.9294
       202.0004        202.0004
  -4936425.72347  -3811816.15845  24138677.063    24138677.3194   24138682.7694
       153.0004        155.0004
 -23973097.53049 -18650513.40448  20323546.456    20323546.9534   20323551.1724
       214.0004        215.0004
  -5391578.20448  -4179846.74246  22887207.632    22887208.0314   22887212.7074
       169.0004        170.0004
  -3022235.25447  -2349985.28845  23407917.807    23407917.3124   23407921.9644
       157.0004        158.0004
  -2830054.36248  -2177377.80146  24004005.454    24004004.3354   24004011.0914
       177.0004        178.0004
 -11974993.18448  -9318178.50846  22458044.319    22458044.4324   22458048.9954
       175.0004        175.0004
 -11429404.64548  -8882918.83947  22123463.655    22123464.4414   22123467.9614
       188.0004        189.0004
  -9284126.66748  -6884571.15946  22773030.328    22773031.1464   22773038.2954
       178.0004        179.0004
 -20373442.17049 -15855720.54547  20776137.783    20776138.0074   20776145.8344
       200.0004        200.0004
 21  2  5  2 14 30.0000000  0 10G30G19G07G14G28G08G21G17G09G01
 -16856893.65749 -13116088.25547  21362030.131    21362029.9844   21362036.6914
       202.0004        202.0004
  -5017743.60147  -3875180.67545  24123205.512    24123204.4804   24123208.3284
       153.0004        156.0004
 -24000121.09249 -18671570.72448  20318404.278    20318404.5124   20318408.8464
       214.0004        215.0004
  -5420823.43548  -4202635.21946  22881642.710    22881642.8514   22881646.9684
       170.0004        171.0004
  -3041303.00147  -2364843.27045  23404288.474    23404289.8054   23404293.0564
       156.0004        158.0004
  -2736557.19748  -2104522.87546  24021794.483    24021794.4214   24021802.4664
       176.0004        175.0004
 -11916206.71648  -9272370.86546  22469232.858    22469231.9244   22469236.2804
       175.0004        176.0004
 -11474017.05048  -8917681.73747  22114973.647    22114973.6534   22114978.9704
       188.0004        188.0004
  -9205225.79448  -6823089.99746  22788044.424    22788044.8104   22788052.1264
       178.0004        179.0004
 -20384763.66449 -15864542.48047  20773983.032    20773983.7064   20773991.6534
       200.0004        200.0004
 21  2  5  2 15  0.0000000  0 10G30G19G07G14G28G08G21G17G09G01
 -16927981.18349 -13171481.13947  21348501.601    21348502.0574   21348508.6214
       202.0004        202.0004
  -5098795.08047  -3938337.67745  24107782.136    24107780.7854   24107785.5644
       156.0004        159.0004
 -24026647.59049 -18692240.73848  20313356.471    20313356.8274   20313360.9714
       214.0004        216.0004
  -5450139.54148  -4225478.94546  22876063.004    22876063.7034   22876068.5174
       170.0004        169.0004
  -3060469.78847  -2379778.42945  23400642.020    23400641.1544   23400646.6304
       156.0004        158.0004
  -2643135.89548  -2031727.06646  24039572.269    24039571.9894   24039580.9524
       175.0004        176.0004
 -11856987.73448  -9226226.18946  22480500.298    22480500.3974   22480505.1714
       175.0004        175.0004
 -11518216.78548  -8952123.09347  22106562.524    22106563.0254   22106567.8484
       188.0004        188.0004
  -9126253.82848  -6761553.43846  22803073.670    22803073.3934   22803080.2934
       179.0004        180.0004
 -20395500.49649 -15872908.84247  20771940.045    20771940.5104   20771949.2074
       200.0004        201.0004
 21  2  5  2 15 30.0000000  0 10G30G19G07G14G28G08G21G17G09G01
 -16998772.49449 -13226643.20247  21335030.689    21335031.0614   21335037.9894
       202.0004        203.0004
  -5179577.91547  -4001285.22645  24092407.304    24092407.5394   24092411.8104
       153.0004        155.0004
 -24052674.38449 -18712521.37048  20308403.720    20308404.2874   20308408.5264
       215.0004        216.0004
  -5479526.00848  -4248377.50846  22870472.091    22870472.8334   22870476.4194
       170.0004        171.0004
  -3079736.06947  -2394791.09045  23396975.800    23396975.5714   23396979.3294
       156.0004        158.0004
  -2549791.17348  -1958990.90646  24057330.791    24057333.1274   24057343.9174
       177.0004        177.0004
 -11797336.69948  -9179744.86246  22491852.469    22491851.7784   22491856.3134
       174.0004        175.0004
 -11562002.34748  -8986241.69947  22098230.503    22098231.2574   22098235.8004
       188.0004        188.0004
  -9047212.74848  -6699963.02846  22818113.211    22818113.3874   22818121.2544
       178.0004        178.0004
 -20405650.53349 -15880817.94747  20770009.084    20770009.6784   20770017.1464
       201.0004        201.0004
 21  2  5  2 16  0.0000000  0 10G30G19G07G14G28G08G21G17G09G01
 -17069262.70449 -13281570.63347  21321616.896    21321617.4634   21321624.0704
       203.0004        203.0004
  -5260088.80847  -4064020.93845  24077087.428    24077087.1944   24077092.9754
       154.0004        157.0004
 -24078197.36649 -18732409.41448  20303546.511    20303547.1764   20303551.4494
       215.0004        216.0004
  -5508981.01648  -4271329.45646  22864866.731    22864866.7164   22864871.3084
       170.0004        171.0004
  -3099100.27047  -2409880.04545  23393290.809    23393291.0344   23393295.7484
       158.0004        161.0004
  -2456522.66348  -1886314.17346  24075079.958    24075081.2834   24075092.3614
       174.0004        174.0004
 -11737253.30048  -9132926.62746  22503285.769    22503284.9834   22503289.4634
       174.0004        174.0004
 -11605372.81648  -9020036.84747  22089976.982    22089977.4904   22089982.2324
       188.0004        189.0004
  -8968103.30448  -6638319.31946  22833167.780    22833168.3574   22833175.7614
       178.0004        179.0004
 -20415210.36949 -15888267.15847  20768189.334    20768190.1544   20768198.1574
       201.0004        201.0004
 21  2  5  2 16 30.0000000  0 10G30G19G07G14G28G08G21G17G09G01
 -17139451.10449 -13336262.89647  21308261.347    21308260.9274   21308267.2844
       202.0004        202.0004
  -5340328.40747  -4126545.29045  24061818.924    24061818.1534   24061822.8114
       157.0004        160.0004
 -24103216.11849 -18751904.54648  20298785.841    20298786.2634   20298790.4124
       214.0004        216.0004
  -5538506.97148  -4294336.67446  22859247.695    22859248.3324   22859252.7894
       168.0004        168.0004
  -3118565.22347  -2425047.53345  23389586.783    23389585.8164   23389590.3124
       157.0004        156.0004
  -2363334.32748  -1813699.89946  24092815.984    24092815.9394   24092824.5624
       173.0004        174.0004
 -11676740.94448  -9085774.12046  22514801.072    22514800.7394   22514804.4534
       174.0004        175.0004
 -11648329.87248  -9053509.86747  22081803.485    22081803.8074   22081808.1684
       189.0004        190.0004
  -8888930.33948  -6576626.12446  22848234.407    22848233.8954   22848242.0574
       177.0004        176.0004
 -20424180.75049 -15895257.04447  20766482.650    20766483.1424   20766490.8984
       200.0004        201.0004
 21  2  5  2 17  0.0000000  0 10G30G19G07G14G28G08G21G17G09G01
 -17209334.71749 -13390717.69547  21294961.875    21294962.3774   21294969.4054
       202.0004        203.0004
  -5420295.32447  -4188857.12945  24046602.352    24046600.9784   24046604.8534
       156.0004        157.0004
 -24127728.79449 -18771005.37248  20294121.514    20294121.5534   20294126.0784
       215.0004        216.0004
  -5568103.98048  -4317399.31146  22853616.309    22853615.8924   22853621.1824
       169.0004        171.0004
  -3138131.89347  -2440294.27345  23385861.953    23385862.2874   23385867.3474
       154.0004        157.0004
  -2270227.42748  -1741149.08846  24110532.260    24110532.8344   24110543.7604
       173.0004        174.0004
 -11615801.21748  -9038288.63746  22526397.546    22526397.4394   22526400.5594
       174.0004        174.0004
 -11690873.30548  -9086660.59747  22073706.973    22073707.9874   22073711.6464
       189.0004        188.0004
  -8809696.57348  -6514885.61346  22863311.350    22863311.5934   22863319.1184
       176.0004        177.0004
 -20432560.39649 -15901786.66147  20764888.268    20764888.4404   20764895.7844
       200.0004        200.0004
 21  2  5  2 17 30.0000000  0 10G30G19G07G14G28G08G21G17G09G01
 -17278911.61749 -13444933.42847  21281722.604    21281722.2144   21281729.8304
       203.0004        204.0004
  -5499989.10047  -4250956.13945  24031436.717    24031435.8984   24031438.2334
       155.0004        158.0004
 -24151734.13349 -18789710.81548  20289553.238    20289553.7834   20289558.0254
       215.0004        216.0004
  -5597772.94148  -4340517.92046  22847969.042    22847970.1804   22847975.4194
       169.0004        170.0004
  -3157801.39447  -2455621.14945  23382120.351    23382120.2914   23382125.2844
       156.0004        160.0004
  -2177205.05548  -1668664.12146  24128237.306    24128236.2364   24128243.8144
       174.0004        176.0004
 -11554435.98948  -8990471.54446  22538074.819    22538074.2104   22538078.5684
       174.0004        174.0004
 -11733003.59848  -9119489.36447  22065689.946    22065690.1994   22065695.7584
       189.0004        191.0004
  -8730405.45548  -6453100.31346  22878399.453    22878399.5884   22878408.2154
       175.0004        176.0004
 -20440348.67749 -15907855.41547  20763405.676    20763406.4204   20763414.0414
       200.0004        200.0004
 21  2  5  2 18  0.0000000  0 10G30G19G07G14G28G08G21G17G09G01
 -17348177.89949 -13498907.15847  21268541.561    21268541.4664   21268548.6104
       203.0004        204.0004
  -5579407.41847  -4312840.48745  24016323.854    24016322.8044   24016324.0634
       154.0004        156.0004
 -24175229.01749 -18808018.52848  20285082.575    20285082.6714   20285087.0044
       215.0004        216.0004
  -5627513.16048  -4363692.12246  22842310.540    22842311.7414   22842316.6214
       170.0004        171.0004
  -3177573.70847  -2471028.16245  23378357.584    23378357.6594   23378362.1394
       157.0004        159.0004
  -2084267.01448  -1596244.91246  24145922.498    24145922.3134   24145929.7114
       175.0004        175.0004
 -11492645.89348  -8942323.40646  22549832.804    22549832.0004   22549836.3694
       174.0004        174.0004
 -11774719.60548  -9151995.33347  22057751.898    22057752.7504   22057756.3464
       190.0004        189.0004
  -8651058.75348  -6391271.76546  22893498.628    22893499.3844   22893507.3894
       175.0004        175.0004
 -20447543.41149 -15913461.69847  20762036.769    20762037.2294   20762044.8464
       200.0004        200.0004
 21  2  5  2 18 30.0000000  0 10G30G19G07G14G28G08G21G17G09G01
 -17417132.17149 -13552637.76547  21255419.395    21255419.9174   21255427.0894
       203.0004        204.0004
  -5658550.21347  -4374510.15445  24001262.101    24001261.2884   24001264.2364
       153.0004        155.0004
 -24198212.82949 -18825928.01148  20280708.065    20280708.8954   20280713.6034
       215.0004        216.0004
  -5657326.15248  -4386923.05746  22836638.447    22836637.8614   22836642.3364
       170.0004        170.0004
  -3197450.99547  -2486516.93645  23374574.805    23374575.1414   23374580.3004
       156.0004        159.0004
  -1991416.82948  -1523894.14146  24163588.881    24163590.4374   24163598.5114
       175.0004        177.0004
 -11430434.20848  -8893846.76546  22561671.719    22561670.9704   22561675.6084
       174.0004        176.0004
 -11816023.36748  -9184180.07947  22049892.546    22049893.2954   22049896.5104
       190.0004        190.0004
  -8571660.58748  -6329403.11946  22908609.337    22908609.2164   22908616.4084
       175.0004        176.0004
 -20454144.77649 -15918605.62147  20760780.683    20760781.1394   20760788.7754
       200.0004        200.0004
 21  2  5  2 19  0.0000000  0 10G30G19G07G14G28G08G21G17G09G01
 -17485770.72149 -13606122.34747  21242358.484    21242358.0914   21242365.4674
       203.0004        203.0004
  -5737415.58247  -4435963.69045  23986254.653    23986255.5204   23986258.2134
       154.0004        156.0004
 -24220682.92349 -18843437.19148  20276432.767    20276433.3014   20276437.6264
       215.0004        216.0004
  -5687211.30548  -4410210.18146  22830949.816    22830951.3974   22830954.9424
       168.0004        169.0004
  -3217432.87147  -2502087.22945  23370772.391    23370772.3674   23370776.2034
       157.0004        158.0004
  -1898655.02648  -1451612.25146  24181240.205    24181241.3894   24181251.0834
       176.0004        176.0004
 -11367801.23348  -8845041.84746  22573590.546    22573589.8384   22573594.2604
       175.0004        176.0004
 -11856913.65448  -9216042.62747  22042110.465    22042111.1504   22042115.8144
       190.0004        191.0004
  -8492212.82348  -6267495.80846  22923726.460    22923726.7784   22923734.2784
       175.0004        175.0004
 -20460150.69849 -15923285.54247  20759636.893    20759637.9934   20759645.7904
       200.0004        200.0004
 21  2  5  2 19 30.0000000  0 10G30G19G07G14G28G08G21G17G09G01
 -17554090.09549 -13659358.21547  21229357.244    21229357.2094   21229364.4574
       203.0004        204.0004
  -5816001.66147  -4497199.53245  23971300.712    23971300.0174   23971304.2024
       156.0004        158.0004
 -24242636.56349 -18860543.92648  20272255.496    20272255.6954   20272259.6984
       215.0004        216.0004
  -5717168.04248  -4433553.11146  22825250.718    22825251.0044   22825254.4374
       170.0004        172.0004
  -3237519.27747  -2517738.95645  23366950.221    23366950.4954   23366954.4294
       156.0004        158.0004
  -1805982.60648  -1379399.97546  24198875.674    24198876.4324   24198885.7544
       173.0004        174.0004
 -11304748.30248  -8795909.67946  22585588.609    22585588.5154   22585593.4364
       176.0004        176.0004
 -11897390.04948  -9247582.66947  22034408.242    22034408.7824   22034413.3674
       190.0004        191.0004
  -8412717.54548  -6205551.46446  22938854.076    22938854.7384   22938861.5284
       173.0004        174.0004
 -20465559.39249 -15927500.09647  20758607.853    20758608.7534   20758616.6634
       200.0004        200.0004
 21  2  5  2 20  0.0000000  0 10G30G19G07G14G28G08G21G17G09G01
 -17622088.93649 -13712344.33347  21216417.463    21216418.0004   21216424.7184
       204.0004        204.0004
  -5894308.32447  -4558217.65845  23956399.381    23956399.0094   23956402.7544
       156.0004        158.0004
 -24264073.34949 -18877247.93048  20268175.638    20268176.3374   20268180.5584
       215.0004        217.0004
  -5747198.04948  -4456953.09646  22819537.067    22819536.5544   22819542.1604
       171.0004        171.0004
  -3257712.67647  -2533474.05945  23363107.344    23363107.4344   23363111.8844
       156.0004        157.0004
  -1713402.60848  -1307259.72946  24216493.939    24216494.5144   24216503.8204
       173.0004        175.0004
 -11241278.59648  -8746452.77146  22597667.069    22597667.2484   22597671.5184
       176.0004        177.0004
 -11937453.92348  -9278801.27847  22026784.682    22026785.6834   22026789.0054
       190.0004        191.0004
  -8333178.95548  -6143573.36046  22953990.317    22953990.9834   22953997.3824
       174.0004        176.0004
 -20470371.16449 -15931249.53147  20757692.251    20757693.0084   20757701.1304
       200.0004        200.0004
