     2.11           OBSERVATION DATA    G (GPS)             RINEX VERSION / TYPE
teqc  2018Jun8                          20210202 03:10:37UTCPGM / RUN BY / DATE
Linux2.6.32-573.12.1.el6.x86_64|x86_64|gcc|Win64-MinGW64|=+ COMMENT
BIT 2 OF LLI FLAGS DATA COLLECTED UNDER A/S CONDITION       COMMENT
-Unknown-                                                   MARKER NAME
CRNO                                                        MARKER NUMBER
-Unknown-           -Unknown-                               OBSERVER / AGENCY
-Unknown-           ASHTECH             -Unknown-           REC # / TYPE / VERS
-Unknown-           -Unknown-                               ANT # / TYPE
   408078.3534 -6158372.6261  1605162.9233                  APPROX POSITION XYZ
        0.0000        0.0000        0.0000                  ANTENNA: DELTA H/E/N
     1     1                                                WAVELENGTH FACT L1/2
     7    L1    L2    C1    P1    P2    S1    S2            # / TYPES OF OBSERV
    30.0000                                                 INTERVAL
Forced Modulo Decimation to 30 seconds                      COMMENT
 SNR is mapped to RINEX snr flag value [1-9]                COMMENT
  L1: 1 -> 1;  90 -> 5; 210 -> 9                            COMMENT
  L2: 1 -> 1; 150 -> 5; 250 -> 9                            COMMENT
pseudorange smoothing corrections not applied               COMMENT
  2021     2     3     0     0   30.0000000     GPS         TIME OF FIRST OBS
                                                            END OF HEADER
 21  2  3  0  0 30.0000000  0  9G16G21G07G01G03G09G08G27G04
  -2712121.73946  -2082822.19845  24362416.515    24362415.1024   24362421.1444
       130.0004        137.0004
 -10429242.54047  -8115696.38245  22690965.716    22690964.8254   22690971.2654
       157.0004        160.0004
  -5461494.91847  -4243904.78746  23775054.691    23775055.6614   23775059.8664
       162.0004        164.0004
  -2855614.46347  -2206890.92445  24039297.211    24039298.3854   24039305.2404
       146.0004        150.0004
   -268535.02948   -191939.84246  24269496.630    24269497.2034   24269505.5504
       176.0004        178.0004
 -18463875.58449 -14360224.83947  21029812.183    21029812.6534   21029818.6034
       209.0004        209.0004
 -23159055.47149 -18028150.71348  20172595.156    20172595.4084   20172602.9664
       213.0004        213.0004
 -16448065.85849 -12804600.76548  21873393.940    21873394.1074   21873400.7284
       219.0004        218.0004
 -20642859.02749 -16068227.38247  20406815.011    20406815.7994   20406821.2834
       211.0004        209.0004
 21  2  3  0  1  0.0000000  0  9G16G21G07G01G03G09G08G27G04
  -2633708.08046  -2021720.67645  24377339.269    24377338.6494   24377346.4804
       131.0004        139.0004
 -10479134.98347  -8154573.58045  22681470.549    22681470.7784   22681476.3444
       157.0004        159.0004
  -5530645.97847  -4297788.70946  23761896.953    23761897.0964   23761900.6854
       164.0004        166.0004
  -2925400.98947  -2261269.94045  24026015.857    24026016.0584   24026024.7054
       144.0004        148.0004
   -212062.07848   -147935.01546  24280243.032    24280243.7974   24280252.2804
       176.0004        176.0004
 -18501903.13849 -14389856.68847  21022575.222    21022575.8134   21022582.5444
       209.0004        209.0004
 -23144623.98349 -18016905.37848  20175341.515    20175341.7364   20175349.3614
       213.0004        213.0004
 -16368180.18749 -12742352.18048  21888595.597    21888596.0234   21888602.6614
       219.0004        218.0004
 -20609210.88749 -16042008.05847  20413218.818    20413218.8354   20413225.1274
       211.0004        209.0004
 21  2  3  0  1 30.0000000  0  9G16G21G07G01G03G09G08G27G04
  -2555445.50746  -1960736.85145  24392233.011    24392232.3274   24392236.0874
       130.0004        136.0004
 -10528917.17447  -8193364.86945  22671997.912    22671997.6484   22672003.4384
       157.0004        159.0004
  -5599928.20848  -4351774.83546  23748712.154    23748712.4594   23748716.9684
       165.0004        166.0004
  -2995381.72247  -2315800.27945  24012700.563    24012700.2114   24012707.6804
       146.0004        150.0004
   -155780.16048   -104079.06546  24290952.671    24290953.3764   24290961.9744
       173.0004        174.0004
 -18539397.39049 -14419072.97347  21015440.434    21015440.6304   21015447.3914
       209.0004        209.0004
 -23129592.97849 -18005192.88548  20178201.852    20178202.3054   20178209.5534
       213.0004        213.0004
 -16287884.51349 -12679784.10748  21903875.028    21903875.6134   21903882.1934
       219.0004        218.0004
 -20575014.78749 -16015361.73947  20419725.959    20419726.3194   20419731.3884
       211.0004        209.0004
 21  2  3  0  2  0.0000000  0  9G16G21G07G01G03G09G08G27G04
  -2477334.70846  -1899871.25345  24407098.126    24407095.5554   24407099.2654
       128.0004        136.0004
 -10578586.42547  -8232068.16245  22662545.386    22662545.9654   22662550.5854
       157.0004        158.0004
  -5669340.91847  -4405862.62146  23735502.482    23735503.4674   23735507.4954
       164.0004        164.0004
  -3065554.33147  -2370480.14345  23999345.999    23999346.8514   23999354.3394
       146.0004        149.0004
    -99691.11448    -60373.43546  24301624.686    24301626.1044   24301635.7784
       173.0004        174.0004
 -18576356.90949 -14447872.58547  21008406.968    21008407.5334   21008414.2984
       209.0004        210.0004
 -23113963.31849 -17993013.90748  20181175.660    20181176.3284   20181183.7664
       213.0004        213.0004
 -16207181.60049 -12616898.70048  21919232.700    21919233.1274   21919239.4044
       218.0004        218.0004
 -20540271.82649 -15988289.28847  20426336.896    20426337.7834   20426343.2234
       210.0004        208.0004
 21  2  3  0  2 30.0000000  0  9G16G21G07G01G03G09G08G27G04
  -2399376.61046  -1839124.69745  24421931.658    24421931.3384   24421933.8604
       129.0004        138.0004
 -10628140.07547  -8270681.39045  22653117.032    22653115.0324   22653121.8774
       157.0004        157.0004
  -5738882.73347  -4460051.03446  23722268.777    23722270.1314   23722274.4914
       162.0004        164.0004
  -3135916.86047  -2425307.96745  23985956.806    23985956.6444   23985966.5434
       145.0004        149.0004
    -43796.90848    -16819.58546  24312263.895    24312264.0274   24312273.4424
       175.0004        177.0004
 -18612780.51649 -14476254.59647  21001475.726    21001476.3634   21001483.6334
       210.0004        211.0004
 -23097736.06349 -17980369.28148  20184263.862    20184264.1144   20184271.3604
       212.0004        213.0004
 -16126074.31149 -12553698.19348  21934667.055    21934666.9414   21934673.8454
       218.0004        217.0004
 -20504983.30049 -15960791.73347  20433052.197    20433052.4644   20433058.5404
       210.0004        208.0004
 21  2  3  0  3  0.0000000  0  9G16G21G07G01G03G09G08G27G04
  -2321571.90446  -1778497.67845  24436736.587    24436737.0504   24436740.7124
       129.0004        137.0004
 -10677575.33447  -8309202.33845  22643708.989    22643708.2304   22643714.2314
       155.0004        157.0004
  -5808552.39047  -4514339.05246  23709011.577    23709012.2784   23709017.2804
       162.0004        165.0004
  -3206466.93747  -2480281.99645  23972532.653    23972532.8824   23972540.6724
       144.0004        148.0004
     11900.69848     26581.07146  24322860.452    24322861.7964   24322871.3744
       174.0004        175.0004
 -18648666.72949 -14504217.86147  20994647.588    20994647.5964   20994654.6104
       210.0004        211.0004
 -23080911.98649 -17967259.59347  20187465.083    20187465.5774   20187472.9664
       212.0004        212.0004
 -16044565.38349 -12490184.73348  21950176.438    21950177.6374   21950184.5684
       217.0004        217.0004
 -20469150.29649 -15932869.90547  20439870.713    20439870.9574   20439877.3654
       210.0004        208.0004
 21  2  3  0  3 30.0000000  0  9G16G21G07G01G03G09G08G27G04
  -2243922.08446  -1717991.32645  24451512.530    24451510.8404   24451516.4004
       125.0004        133.0004
 -10726889.90947  -8347629.28445  22634324.765    22634325.0474   22634330.0264
       155.0004        158.0004
  -5878349.85048  -4568726.64946  23695731.077    23695731.9434   23695735.6474
       165.0004        168.0004
  -3277203.11847  -2535401.04145  23959069.762    23959071.0044   23959078.9994
       143.0004        146.0004
     67399.13248     69826.53046  24333422.405    24333422.8464   24333432.4204
       172.0004        172.0004
 -18684015.01049 -14531761.97447  20987920.707    20987920.9274   20987927.9234
       210.0004        210.0004
 -23063492.47949 -17953685.94648  20190780.174    20190780.6094   20190787.8904
       212.0004        213.0004
 -15962658.34549 -12426361.05648  21965763.640    21965763.9594   21965770.6844
       217.0004        216.0004
 -20432774.71549 -15904525.29847  20446793.111    20446793.2804   20446799.1324
       209.0004        208.0004
 21  2  3  0  4  0.0000000  0  9G16G21G07G01G03G09G08G27G04
  -2166427.25346  -1657605.73945  24466259.820    24466260.3254   24466263.8294
       126.0004        135.0004
 -10776080.11947  -8385959.26645  22624963.270    22624963.7644   22624971.5774
       156.0004        158.0004
  -5948273.28748  -4623212.41646  23682424.641    23682425.2004   23682428.6394
       166.0004        168.0004
  -3348122.42947  -2590662.76545  23945574.900    23945576.4334   23945583.7704
       144.0004        149.0004
    122697.29248    112915.89546  24343946.441    24343946.8884   24343955.4704
       171.0004        172.0004
 -18718823.37149 -14558885.36347  20981296.967    20981297.4614   20981304.2764
       210.0004        211.0004
 -23045477.72049 -17939648.45748  20194208.651    20194208.7734   20194215.8814
       212.0004        213.0004
 -15880355.23849 -12362228.75048  21981424.682    21981425.3464   21981432.3384
       216.0004        215.0004
 -20395857.12549 -15875758.34247  20453818.173    20453818.6294   20453824.6114
       209.0004        208.0004
 21  2  3  0  4 30.0000000  0  9G16G21G07G01G03G09G08G27G04
  -2089088.66346  -1597341.88945  24480975.664    24480975.4144   24480981.6854
       127.0004        135.0004
 -10825144.73147  -8424191.41645  22615628.587    22615627.4224   22615633.4084
       157.0004        158.0004
  -6018322.27147  -4677796.03846  23669094.846    23669095.1874   23669098.6434
       164.0004        163.0004
  -3419223.42147  -2646066.04545  23932046.536    23932046.5934   23932053.7554
       144.0004        148.0004
    177792.73948    155847.32046  24354429.908    24354431.0364   24354439.3954
       172.0004        173.0004
 -18753091.29649 -14585587.63447  20974776.303    20974776.2944   20974783.5604
       211.0004        212.0004
 -23026869.37849 -17925148.44348  20197749.216    20197749.7144   20197757.0764
       212.0004        213.0004
 -15797659.66949 -12297790.63948  21997161.987    21997162.4034   21997168.9964
       216.0004        216.0004
 -20358399.52449 -15846570.60547  20460946.195    20460946.5774   20460952.1434
       209.0004        208.0004
 21  2  3  0  5  0.0000000  0  9G16G21G07G01G03G09G08G27G04
  -2011906.73346  -1537200.14445  24495662.842    24495661.2134   24495668.6214
       126.0004        134.0004
 -10874080.14947  -8462322.86145  22606315.708    22606314.8854   22606320.8784
       157.0004        159.0004
  -6088495.27147  -4732476.26245  23655739.153    23655740.2854   23655744.9284
       161.0004        162.0004
  -3490503.41347  -2701608.82445  23918482.563    23918481.7124   23918489.8514
       146.0004        150.0004
    232683.88848    198619.55446  24364874.463    24364875.8394   24364884.8404
       172.0004        172.0004
 -18786817.19249 -14611867.54047  20968357.729    20968358.4324   20968365.4884
       211.0004        211.0004
 -23007668.44749 -17910186.66448  20201403.167    20201403.5844   20201410.7624
       212.0004        213.0004
 -15714574.08149 -12233048.60048  22012972.719    22012972.9504   22012979.3144
       216.0004        216.0004
 -20320402.80449 -15816962.76747  20468176.831    20468177.3974   20468182.7434
       209.0004        208.0004
 21  2  3  0  5 30.0000000  0  9G16G21G07G01G03G09G08G27G04
  -1934882.11046  -1477180.96845  24510321.512    24510322.4564   24510323.7694
       127.0004        135.0004
 -10922883.19247  -8500351.17145  22597026.157    22597027.1414   22597032.8834
       155.0004        157.0004
  -6158790.88147  -4787252.03946  23642364.126    23642364.5404   23642367.8584
       162.0004        164.0004
  -3561959.73747  -2757288.99945  23904882.024    23904882.6694   23904892.9454
       146.0004        148.0004
    287369.47248    241231.60646  24375281.106    24375282.3334   24375290.6164
       172.0004        173.0004
 -18819999.40249 -14637723.80647  20962043.806    20962043.9884   20962051.1564
       211.0004        211.0004
 -22987875.14549 -17894763.30348  20205169.455    20205170.3094   20205177.3134
       212.0004        213.0004
 -15631100.91849 -12168004.57248  22028856.104    22028856.6964   22028864.0674
       215.0004        214.0004
 -20281867.88649 -15786935.55647  20475509.260    20475510.0444   20475515.9694
       209.0004        208.0004
 21  2  3  0  6  0.0000000  0  9G16G21G07G01G03G09G08G27G04
  -1858015.35846  -1417284.76145  24524949.906    24524948.8804   24524948.6824
       125.0004        132.0004
 -10971551.13347  -8538274.20645  22587766.789    22587766.0774   22587771.2104
       154.0004        156.0004
  -6229208.01947  -4842122.50146  23628965.474    23628964.2934   23628968.6454
       163.0004        165.0004
  -3633590.39347  -2813105.02045  23891251.705    23891251.6684   23891260.9144
       144.0004        146.0004
    341847.45948    283681.90246  24385648.867    24385649.4524   24385659.2224
       173.0004        174.0004
 -18852637.00949 -14663155.69747  20955832.390    20955833.3034   20955840.1694
       211.0004        211.0004
 -22967490.75449 -17878879.34248  20209048.965    20209049.3464   20209056.2774
       212.0004        213.0004
 -15547243.25249 -12102660.92648  22044814.617    22044814.4244   22044821.9044
       215.0004        214.0004
 -20242796.32749 -15756490.18447  20482944.812    20482945.2284   20482951.1944
       209.0004        208.0004
 21  2  3  0  6 30.0000000  0  9G16G21G07G01G03G09G08G27G04
  -1781308.38146  -1357513.08745  24539542.935    24539543.6494   24539550.7444
       126.0004        135.0004
 -11020082.33547  -8576090.71045  22578532.305    22578532.1784   22578536.9464
       155.0004        158.0004
  -6299746.85647  -4897087.78146  23615541.259    23615541.4824   23615545.5644
       162.0004        164.0004
  -3705394.28747  -2869056.03545  23877587.125    23877587.9524   23877597.7984
       141.0004        145.0004
    396114.87048    325968.09946  24395974.384    24395975.8724   24395987.1514
       175.0004        176.0004
 -18884730.00649 -14688163.22547  20949726.151    20949726.3984   20949733.0504
       211.0004        211.0004
 -22946517.41449 -17862536.45447  20213039.693    20213040.0584   20213047.2854
       212.0004        212.0004
 -15463005.11449 -12037020.80648  22060844.283    22060844.6354   22060851.7534
       214.0004        214.0004
 -20203190.67349 -15725628.63947  20490481.284    20490482.0004   20490487.8194
       209.0004        208.0004
 21  2  3  0  7  0.0000000  0  9G16G21G07G01G03G09G08G27G04
  -1704761.15146  -1297865.90345  24554111.731    24554110.9584   24554116.3824
       128.0004        136.0004
 -11068473.72047  -8613798.25345  22569324.590    22569323.0604   22569329.2684
       157.0004        160.0004
  -6370405.19347  -4952146.21046  23602095.662    23602096.1604   23602099.7864
       164.0004        166.0004
  -3777368.12347  -2925139.49545  23863892.383    23863892.8124   23863900.6634
       143.0004        147.0004
    450170.91048    368089.56646  24406262.258    24406262.9584   24406272.8744
       175.0004        176.0004
 -18916276.37749 -14712744.80147  20943722.478    20943722.9844   20943730.1004
       211.0004        212.0004
 -22924955.73449 -17845735.12247  20217142.214    20217142.7924   20217150.3884
       211.0004        212.0004
 -15378388.49849 -11971085.76247  22076945.934    22076946.4954   22076953.4944
       213.0004        212.0004
 -20163051.40749 -15694351.28147  20498119.408    20498120.0464   20498125.9844
       209.0004        207.0004
 21  2  3  0  7 30.0000000  0  9G16G21G07G01G03G09G08G27G04
  -1628374.64146  -1238343.98245  24568646.059    24568648.8664   24568655.1454
       128.0004        135.0004
 -11116722.31147  -8651394.50745  22560141.016    22560141.6434   22560146.8344
       158.0004        160.0004
  -6441182.48347  -5007297.31446  23588627.603    23588627.0504   23588631.9244
       164.0004        166.0004
  -3849510.23247  -2981354.09745  23850163.466    23850164.5794   23850171.7394
       141.0004        145.0004
    504013.30048    410044.54646  24416507.843    24416509.1674   24416517.6204
       172.0004        171.0004
 -18947275.49949 -14736899.94847  20937823.800    20937824.2704   20937831.1924
       211.0004        211.0004
 -22902807.21749 -17828476.50447  20221357.741    20221357.9724   20221365.2214
       212.0004        212.0004
 -15293396.68949 -11904858.36348  22093119.490    22093119.7374   22093127.1804
       213.0004        213.0004
 -20122380.41449 -15662659.59147  20505859.106    20505859.2774   20505865.4284
       209.0004        207.0004
 21  2  3  0  8  0.0000000  0  9G16G21G07G01G03G09G08G27G04
  -1552149.56146  -1178947.80545  24583151.729    24583150.9644   24583156.4514
       128.0004        134.0004
 -11164824.97547  -8688877.07145  22550988.440    22550988.7084   22550993.2154
       158.0004        160.0004
  -6512076.99847  -5062539.75546  23575135.434    23575135.4844   23575140.3934
       164.0004        165.0004
  -3921817.88847  -3037697.65045  23836401.341    23836402.1874   23836413.1174
       140.0004        144.0004
    557640.70648    451832.02846  24426713.332    24426713.8914   24426722.7604
       170.0004        171.0004
 -18977725.95649 -14760627.57947  20932029.458    20932029.6824   20932036.3824
       211.0004        211.0004
 -22880072.28949 -17810760.96247  20225683.851    20225684.1394   20225691.2414
       212.0004        212.0004
 -15208032.29049 -11838340.62947  22109363.078    22109363.7014   22109371.3254
       212.0004        212.0004
 -20081178.80449 -15630554.44347  20513699.407    20513699.7764   20513705.7174
       208.0004        207.0004
 21  2  3  0  8 30.0000000  0  9G16G21G07G01G03G09G08G27G04
  -1476085.08846  -1119676.78145  24597625.389    24597625.4684   24597632.8854
       127.0004        134.0004
 -11212778.51647  -8726243.42645  22541864.446    22541864.2934   22541867.5244
       159.0004        161.0004
  -6583086.92647  -5117872.12346  23561622.081    23561622.5134   23561627.3064
       163.0004        166.0004
  -3994287.81347  -3094167.67545  23822610.010    23822612.6794   23822623.4884
       140.0004        144.0004
    611052.17448    493451.31546  24436876.764    24436877.0674   24436886.1444
       170.0004        171.0004
 -19007625.79549 -14783926.13347  20926339.506    20926339.9424   20926346.3494
       210.0004        210.0004
 -22856751.73049 -17792589.07147  20230121.360    20230121.5474   20230129.2394
       211.0004        212.0004
 -15122297.28649 -11771534.13147  22125677.755    22125678.3894   22125686.2084
       212.0004        212.0004
 -20039447.12949 -15598036.25747  20521640.452    20521640.8334   20521646.9904
       208.0004        207.0004
 21  2  3  0  9  0.0000000  0  9G16G21G07G01G03G09G08G27G04
  -1400183.33146  -1060532.55245  24612070.638    24612070.6024   24612074.7944
       126.0004        133.0004
 -11260581.46347  -8763492.44345  22532766.536    22532765.5434   22532771.9554
       159.0004        161.0004
  -6654211.85048  -5173294.13646  23548088.010    23548089.1204   23548092.7444
       165.0004        168.0004
  -4066918.87847  -3150763.27445  23808789.233    23808790.7844   23808802.0134
       140.0004        145.0004
    664244.92948    534900.11846  24446999.884    24447000.8534   24447008.4994
       171.0004        174.0004
 -19036975.13049 -14806795.74447  20920754.606    20920755.0334   20920761.5564
       210.0004        211.0004
 -22832847.32549 -17773962.23947  20234669.823    20234670.3004   20234678.2204
       211.0004        212.0004
 -15036195.72749 -11704442.00447  22142063.465    22142063.4934   22142071.0464
       212.0004        212.0004
 -19997188.05649 -15565107.11247  20529682.209    20529682.4294   20529688.8784
       208.0004        207.0004
 21  2  3  0  9 30.0000000  0  9G16G21G07G01G03G09G08G27G04
  -1324444.95546  -1001515.65945  24626483.647    24626484.0874   24626485.3884
       125.0004        133.0004
 -11308230.17247  -8800621.27045  22523699.183    22523698.3684   22523703.2294
       160.0004        162.0004
  -6725451.04948  -5228805.19246  23534531.531    23534533.2384   23534536.9324
       168.0004        170.0004
  -4139708.54247  -3207482.45345  23794941.010    23794941.1244   23794948.7954
       142.0004        146.0004
    717217.39048    576177.29046  24457080.242    24457080.7714   24457089.1074
       172.0004        172.0004
 -19065772.79249 -14829235.47647  20915274.239    20915274.6694   20915281.5574
       210.0004        210.0004
 -22808360.35949 -17754881.47147  20239329.714    20239330.0594   20239338.0854
       211.0004        212.0004
 -14949730.38249 -11637066.38947  22158517.222    22158516.9434   22158524.8194
       212.0004        212.0004
 -19954402.89149 -15531768.02447  20537823.857    20537824.2524   20537830.8264
       208.0004        206.0004
 21  2  3  0 10  0.0000000  0  9G16G21G07G01G03G09G08G27G04
  -1248870.87146   -942626.76345  24640861.962    24640862.8584   24640869.8254
       124.0004        132.0004
 -11355722.82347  -8837628.51145  22514662.362    22514661.4504   22514666.7454
       160.0004        162.0004
  -6796803.55448  -5284404.51546  23520952.595    23520953.4644   23520958.7574
       167.0004        168.0004
  -4212655.15547  -3264323.93045  23781059.243    23781059.5044   23781068.3204
       143.0004        147.0004
    769967.23148    617281.00446  24467118.826    24467118.6234   24467128.2374
       172.0004        173.0004
 -19094018.54649 -14851245.14547  20909898.949    20909899.4934   20909906.7694
       210.0004        210.0004
 -22783292.95849 -17735348.41047  20244100.177    20244100.2694   20244107.8994
       211.0004        211.0004
 -14862904.83549 -11569410.11247  22175038.929    22175039.2144   22175047.2584
       211.0004        211.0004
 -19911093.92449 -15498020.77747  20546065.999    20546066.0504   20546072.0984
       208.0004        206.0004
 21  2  3  0 10 30.0000000  0  9G16G21G07G01G03G09G08G27G04
  -1173461.10446   -883865.92145  24655215.508    24655214.9194   24655217.4394
       123.0004        132.0004
 -11403056.25647  -8874511.64246  22505654.971    22505654.1594   22505659.6394
       161.0004        164.0004
  -6868267.44148  -5340090.62146  23507353.882    23507354.9004   23507359.5664
       166.0004        168.0004
  -4285755.62147  -3321285.27845  23767146.127    23767148.5784   23767157.4664
       144.0004        148.0004
    822493.46348    658210.42346  24477112.891    24477113.8694   24477123.4974
       172.0004        172.0004
 -19121710.62849 -14872823.38747  20904630.737    20904630.7404   20904637.1904
       211.0004        212.0004
 -22757645.92149 -17715363.68447  20248979.848    20248980.5464   20248988.4124
       211.0004        211.0004
 -14775721.25949 -11501474.86247  22191628.992    22191629.7564   22191637.0524
       211.0004        211.0004
 -19867261.92349 -15463865.96647  20554406.266    20554406.7844   20554413.0614
       207.0004        206.0004
 21  2  3  0 11  0.0000000  0  9G16G21G07G01G03G09G08G27G04
  -1098216.51046   -825233.73645  24669533.261    24669533.2064   24669538.0944
       128.0004        136.0004
 -11450227.76047  -8911268.61946  22496677.379    22496677.7454   22496682.5654
       162.0004        164.0004
  -6939841.82148  -5395862.84546  23493735.684    23493736.3984   23493739.4254
       168.0004        171.0004
  -4359007.74547  -3378364.80845  23753207.362    23753209.0084   23753218.6954
       144.0004        148.0004
    874794.22448    698964.16646  24487065.352    24487066.2294   24487076.1674
       169.0004        170.0004
 -19148848.40749 -14893969.69947  20899465.685    20899466.0594   20899472.8834
       211.0004        211.0004
 -22731420.28849 -17694928.10547  20253970.801    20253971.1014   20253978.6544
       210.0004        211.0004
 -14688182.83549 -11433263.09347  22208288.624    22208288.6694   22208294.8394
       211.0004        211.0004
 -19822908.71449 -15429305.02347  20562846.635    20562846.8074   20562853.0284
       207.0004        206.0004
 21  2  3  0 11 30.0000000  0  9G16G21G07G01G03G09G08G27G04
  -1023138.20646   -766731.19245  24683819.790    24683820.9604   24683826.3144
       132.0004        139.0004
 -11497234.78547  -8947897.42646  22487733.225    22487733.0024   22487738.1864
       163.0004        165.0004
  -7011525.87248  -5451720.55146  23480094.498    23480095.4154   23480098.5794
       170.0004        171.0004
  -4432409.82447  -3435561.20545  23739241.043    23739240.9894   23739250.9254
       145.0004        150.0004
    926867.14048    739540.35746  24496976.200    24496976.2944   24496985.4714
       170.0004        171.0004
 -19175431.56949 -14914683.83947  20894406.950    20894407.0484   20894414.1714
       211.0004        211.0004
 -22704618.29849 -17674043.41847  20259071.100    20259071.4794   20259079.0514
       211.0004        211.0004
 -14600293.11549 -11364777.58347  22225013.328    22225013.5364   22225019.6424
       211.0004        211.0004
 -19778036.52949 -15394339.68447  20571385.591    20571385.9794   20571391.9754
       207.0004        206.0004
 21  2  3  0 12  0.0000000  0  9G16G21G07G01G03G09G08G27G04
   -948226.37947   -708358.32145  24698077.022    24698075.9664   24698082.0774
       135.0004        141.0004
 -11544074.65047  -8984395.96246  22478818.464    22478818.1264   22478824.6594
       163.0004        164.0004
  -7083317.81748  -5507662.30746  23466431.001    23466431.1724   23466437.0614
       169.0004        169.0004
  -4505959.05547  -3492872.24645  23725243.407    23725244.8454   23725254.9624
       147.0004        150.0004
    978710.96348    779938.05546  24506840.253    24506841.3104   24506850.0164
       169.0004        170.0004
 -19201458.88549 -14934964.85247  20889453.969    20889454.5414   20889460.9974
       210.0004        211.0004
 -22677240.75049 -17652710.24847  20264280.955    20264281.3324   20264288.7974
       211.0004        212.0004
 -14512054.69149 -11296020.35447  22241805.705    22241805.1754   22241810.8424
       211.0004        211.0004
 -19732646.62949 -15358970.93447  20580022.699    20580023.4354   20580029.0774
       207.0004        205.0004
 21  2  3  0 12 30.0000000  0  8G21G07G01G03G09G08G27G04
 -11590743.75047  -9020761.44246  22469936.857    22469937.4284   22469942.8034
       163.0004        164.0004
  -7155216.01948  -5563686.86746  23452750.652    23452751.0514   23452754.8984
       169.0004        170.0004
  -4579652.12047  -3550295.35445  23711219.716    23711221.4574   23711231.5714
       148.0004        152.0004
   1030325.00048    820156.71046  24516662.270    24516663.4464   24516672.5734
       170.0004        171.0004
 -19226928.61349 -14954811.39147  20884608.030    20884608.1394   20884614.5794
       211.0004        212.0004
 -22649288.05249 -17630928.91047  20269600.239    20269600.6754   20269607.8344
       211.0004        211.0004
 -14423469.57949 -11226992.99647  22258661.261    22258661.8844   22258668.6434
       211.0004        211.0004
 -19686739.76549 -15323199.36147  20588758.757    20588758.8174   20588765.2644
       206.0004        205.0004
 21  2  3  0 13  0.0000000  0  8G21G07G01G03G09G08G27G04
 -11637237.64947  -9056990.41446  22461089.731    22461089.9334   22461096.9384
       164.0004        165.0004
  -7227217.32548  -5619791.74946  23439047.750    23439048.6084   23439053.9224
       168.0004        169.0004
  -4653485.06847  -3607827.49145  23697170.304    23697171.7724   23697182.5064
       149.0004        151.0004
   1081709.12448    860196.20646  24526441.015    24526441.8114   24526451.7514
       170.0004        171.0004
 -19251838.43249 -14974221.63747  20879867.907    20879867.9354   20879874.6384
       211.0004        212.0004
 -22620760.86249 -17608699.91547  20275029.063    20275029.1424   20275036.2394
       211.0004        211.0004
 -14334539.30049 -11157696.66747  22275583.973    22275584.8144   22275591.4434
       211.0004        211.0004
 -19640316.09849 -15287025.06947  20597591.973    20597592.7474   20597599.2284
       206.0004        204.0004
 21  2  3  0 13 30.0000000  0  8G21G07G01G03G09G08G27G04
 -11683556.13047  -9093082.72246  22452275.931    22452276.3664   22452281.8604
       163.0004        163.0004
  -7299323.19348  -5675978.10246  23425326.794    23425327.9234   23425333.0144
       168.0004        171.0004
  -4727458.35647  -3665468.96745  23683094.686    23683094.5884   23683104.0284
       149.0004        152.0004
   1132858.90248    900053.06046  24536174.760    24536175.3004   24536184.7234
       169.0004        170.0004
 -19276190.35649 -14993197.15847  20875233.698    20875233.9924   20875240.6934
       211.0004        212.0004
 -22591662.42649 -17586025.80147  20280565.927    20280566.3474   20280573.5964
       211.0004        211.0004
 -14245269.52049 -11088135.79847  22292572.137    22292572.5904   22292579.1524
       211.0004        211.0004
 -19593380.14049 -15250451.60847  20606524.390    20606524.9784   20606530.9274
       205.0004        204.0004
 21  2  3  0 14  0.0000000  0  8G21G07G01G03G09G08G27G04
 -11729697.33947  -9129036.85646  22443496.468    22443495.5544   22443500.6854
       163.0004        165.0004
  -7371532.80448  -5732245.30746  23411587.984    23411588.1734   23411592.1564
       172.0004        175.0004
  -4801570.01847  -3723218.28045  23668991.674    23668992.7604   23669000.5874
       149.0004        152.0004
   1183772.08548    939725.59446  24545863.123    24545863.8444   24545873.0954
       168.0004        169.0004
 -19299984.16449 -15011737.78647  20870704.991    20870705.7554   20870712.1094
       211.0004        211.0004
 -22561995.09249 -17562908.37447  20286211.727    20286212.1284   20286218.8824
       211.0004        212.0004
 -14155663.84949 -11018313.17247  22309623.773    22309624.0454   22309630.6334
       212.0004        211.0004
 -19545934.16649 -15213480.70747  20615553.090    20615553.5164   20615558.9034
       205.0004        204.0004
 21  2  3  0 14 30.0000000  0  8G21G07G01G03G09G08G27G04
 -11775657.84547  -9164850.20946  22434750.432    22434749.0534   22434756.0094
       164.0004        166.0004
  -7443844.79148  -5788592.28546  23397825.810    23397826.8304   23397831.6414
       173.0004        174.0004
  -4875817.04147  -3781073.10245  23654863.087    23654863.9774   23654871.6134
       149.0004        152.0004
   1234447.70248    979212.99446  24555507.290    24555507.0954   24555516.9794
       169.0004        171.0004
 -19323218.57449 -15029842.51447  20866284.490    20866284.4864   20866290.9704
       211.0004        211.0004
 -22531759.84949 -17539348.43147  20291965.178    20291965.5984   20291972.8884
       211.0004        212.0004
 -14065724.61549 -10948230.64647  22326738.110    22326738.5214   22326745.2364
       212.0004        211.0004
 -19497979.36849 -15176113.34647  20624678.207    20624679.0514   20624684.5714
       205.0004        203.0004
 21  2  3  0 15  0.0000000  0  8G21G07G01G03G09G08G27G04
 -11821434.27647  -9200520.11046  22426038.473    22426038.7224   22426045.3574
       164.0004        165.0004
  -7516256.83948  -5845017.23146  23384046.177    23384047.5554   23384050.9944
       173.0004        174.0004
  -4950196.49247  -3839031.09345  23640710.107    23640710.5634   23640718.7544
       150.0004        153.0004
   1284884.71148   1018514.44646  24565104.973    24565104.8284   24565114.1904
       168.0004        168.0004
 -19345892.38049 -15047510.40647  20861969.636    20861969.7304   20861976.5484
       211.0004        212.0004
 -22500958.00349 -17515346.97647  20297826.470    20297827.0914   20297834.3144
       211.0004        212.0004
 -13975454.39449 -10877890.20347  22343915.088    22343915.8394   22343923.3224
       211.0004        211.0004
 -19449517.04649 -15138350.49647  20633900.925    20633901.0694   20633906.6554
       205.0004        203.0004
 21  2  3  0 15 30.0000000  0  8G21G07G01G03G09G08G27G04
 -11867023.40748  -9236044.06446  22417364.890    22417364.3474   22417368.1344
       165.0004        166.0004
  -7588767.25848  -5901518.84846  23370250.048    23370248.5944   23370252.7524
       174.0004        174.0004
  -5024705.52347  -3897090.01645  23626531.107    23626531.6374   23626539.5144
       150.0004        153.0004
   1335081.83547   1057629.00946  24574653.902    24574655.3764   24574665.6824
       164.0004        164.0004
 -19368004.47449 -15064740.59847  20857762.174    20857762.2024   20857768.8834
       212.0004        212.0004
 -22469590.74549 -17490904.93447  20303795.116    20303796.0744   20303803.3474
       211.0004        212.0004
 -13884855.68949 -10807293.80147  22361156.440    22361156.3484   22361163.0464
       210.0004        209.0004
 -19400548.54249 -15100193.21947  20643218.957    20643219.3544   20643225.3434
       205.0004        203.0004
 21  2  3  0 16  0.0000000  0  8G21G07G01G03G09G08G27G04
 -11912424.15947  -9271421.24746  22408724.205    22408724.9164   22408728.7364
       164.0004        166.0004
  -7661376.03748  -5958097.08246  23356430.474    23356430.9364   23356435.6154
       170.0004        169.0004
  -5099342.86147  -3955248.95845  23612328.693    23612328.7514   23612336.2994
       151.0004        154.0004
   1385036.32748   1096554.51246  24584163.065    24584163.2114   24584171.9944
       166.0004        168.0004
 -19389555.45749 -15081533.55247  20853660.419    20853660.8594   20853667.6804
       211.0004        212.0004
 -22437660.53449 -17466024.23047  20309871.946    20309872.2354   20309879.5934
       211.0004        212.0004
 -13793932.80049 -10736444.76647  22378457.849    22378458.6924   22378465.1464
       210.0004        209.0004
 -19351076.95549 -15061643.92447  20652633.262    20652633.8844   20652639.7834
       205.0004        204.0004
 21  2  3  0 16 30.0000000  0  8G21G07G01G03G09G08G27G04
 -11957632.24547  -9306648.28946  22400122.086    22400122.0204   22400127.1084
       164.0004        165.0004
  -7734080.27048  -6014749.70746  23342596.766    23342596.4624   23342599.6774
       169.0004        171.0004
  -5174104.38447  -4013504.64645  23598102.714    23598102.7374   23598110.0394
       152.0004        156.0004
   1434748.22848   1135290.96746  24593623.500    24593623.4884   24593632.1074
       169.0004        171.0004
 -19410543.08749 -15097887.54347  20849667.070    20849667.2424   20849673.8844
       211.0004        212.0004
 -22405167.50049 -17440704.96747  20316054.749    20316055.1704   20316062.5564
       211.0004        212.0004
 -13702687.12749 -10665344.22347  22395821.387    22395821.6814   22395828.5574
       209.0004        208.0004
 -19301102.48149 -15022702.77947  20662142.946    20662143.2264   20662149.5984
       205.0004        203.0004
 21  2  3  0 17  0.0000000  0  8G21G07G01G03G09G08G27G04
 -12002646.03247  -9341723.95946  22391555.984    22391555.6214   22391561.8364
       164.0004        165.0004
  -7806880.12348  -6071476.85146  23328741.922    23328743.0324   23328747.3924
       171.0004        172.0004
  -5248989.25947  -4071856.49545  23583852.770    23583852.4544   23583860.0784
       154.0004        157.0004
   1484214.28848   1173835.87146  24603036.552    24603036.9204   24603045.5704
       171.0004        173.0004
 -19430968.42349 -15113803.38247  20845779.960    20845780.1164   20845787.0644
       211.0004        212.0004
 -22372114.62449 -17414949.46647  20322344.847    20322345.0774   20322352.5824
       211.0004        211.0004
 -13611123.26549 -10593995.75847  22413244.260    22413245.3704   22413252.8824
       208.0004        208.0004
 -19250628.64149 -14983372.52247  20671748.131    20671748.7144   20671753.9424
       204.0004        203.0004
 21  2  3  0 17 30.0000000  0  8G21G07G01G03G09G08G27G04
 -12047460.90648  -9376644.60746  22383028.487    22383027.8124   22383032.9484
       165.0004        165.0004
  -7879772.25448  -6128275.87746  23314871.318    23314871.2454   23314876.7834
       172.0004        172.0004
  -5323992.99747  -4130300.91545  23569577.728    23569578.5144   23569586.5574
       154.0004        156.0004
   1533435.01048   1212189.62146  24612401.813    24612402.5544   24612411.9164
       170.0004        171.0004
 -19450828.91249 -15129279.07647  20842000.038    20842000.5924   20842008.0814
       212.0004        212.0004
 -22338502.05249 -17388757.83347  20328741.548    20328741.3024   20328748.7404
       211.0004        211.0004
 -13519242.27249 -10522400.17147  22430729.382    22430730.0024   22430737.0414
       208.0004        208.0004
 -19199655.32649 -14943653.05447  20681447.722    20681448.1454   20681453.8894
       204.0004        202.0004
 21  2  3  0 18  0.0000000  0  8G21G07G01G03G09G08G27G04
 -12092075.34248  -9411409.06746  22374538.710    22374537.6504   22374543.8074
       165.0004        166.0004
  -7952756.19248  -6185146.43146  23300983.004    23300982.7844   23300988.0834
       172.0004        172.0004
  -5399113.82747  -4188836.59045  23555283.384    23555283.7704   23555292.3244
       153.0004        155.0004
   1582408.17048   1250350.43646  24621721.060    24621721.9604   24621731.3834
       170.0004        170.0004
 -19470124.75549 -15144314.79147  20838328.867    20838329.1414   20838335.8934
       212.0004        212.0004
 -22304331.81849 -17362131.66247  20335243.706    20335243.6334   20335251.3394
       211.0004        211.0004
 -13427047.89549 -10450560.37647  22448273.435    22448274.1844   22448280.9914
       208.0004        207.0004
 -19148185.16349 -14903546.44447  20691242.172    20691242.5414   20691248.4094
       203.0004        202.0004
 21  2  3  0 18 30.0000000  0  8G21G07G01G03G09G08G27G04
 -12136486.64948  -9446015.24746  22366087.159    22366086.5044   22366092.0324
       165.0004        166.0004
  -8025830.57648  -6242087.50146  23287077.714    23287078.2264   23287081.4544
       170.0004        170.0004
  -5474349.50947  -4247461.74645  23540965.855    23540966.5464   23540975.2804
       152.0004        155.0004
   1631131.80948   1288316.82446  24630992.873    24630993.4774   24631003.8204
       169.0004        169.0004
 -19488855.73749 -15158910.36047  20834764.415    20834764.5224   20834771.7444
       212.0004        212.0004
 -22269606.10049 -17335072.65547  20341851.470    20341851.5174   20341858.6764
       211.0004        211.0004
 -13334543.42449 -10378478.96947  22465876.874    22465877.2074   22465884.1734
       208.0004        207.0004
 -19096220.45049 -14863054.46247  20701130.062    20701130.5194   20701136.6344
       203.0004        201.0004
 21  2  3  0 19  0.0000000  0  8G21G07G01G03G09G08G27G04
 -12180692.29747  -9480461.16646  22357673.291    22357673.4824   22357679.8204
       164.0004        166.0004
  -8098994.13648  -6299098.05146  23273155.195    23273155.5854   23273159.4594
       170.0004        172.0004
  -5549697.53147  -4306174.47245  23526627.773    23526628.9914   23526637.4574
       153.0004        157.0004
   1679604.42748   1326087.61846  24640216.243    24640217.0264   24640227.5494
       167.0004        168.0004
 -19507021.44349 -15173065.45247  20831307.192    20831307.6574   20831314.8474
       212.0004        212.0004
 -22234326.99449 -17307582.42247  20348564.409    20348564.8704   20348572.3334
       211.0004        211.0004
 -13241732.04549 -10306158.39547  22483539.464    22483538.9014   22483545.5944
       207.0004        207.0004
 -19043763.16849 -14822178.65447  20711112.615    20711113.2584   20711119.4784
       202.0004        201.0004
 21  2  3  0 19 30.0000000  0  8G21G07G01G03G09G08G27G04
 -12224689.59147  -9514744.74546  22349302.853    22349302.1614   22349307.5904
       164.0004        166.0004
  -8172246.14548  -6356177.49046  23259216.135    23259215.9614   23259221.2314
       172.0004        174.0004
  -5625155.81747  -4364973.10745  23512268.474    23512267.9354   23512277.6954
       153.0004        156.0004
   1727824.17148   1363661.37446  24649393.327    24649394.1424   24649403.2094
       167.0004        168.0004
 -19524621.78149 -15186779.99247  20827958.474    20827958.6054   20827965.4414
       212.0004        212.0004
 -22198496.03849 -17279662.17647  20355382.660    20355383.1154   20355390.6294
       210.0004        211.0004
 -13148617.09149 -10233601.27847  22501258.837    22501258.7724   22501265.0094
       208.0004        208.0004
 -18990815.66949 -14780920.86447  20721188.966    20721189.0994   20721195.0344
       203.0004        202.0004
 21  2  3  0 20  0.0000000  0  8G21G07G01G03G09G08G27G04
 -12268475.75147  -9548863.81146  22340970.983    22340970.4774   22340974.7154
       164.0004        165.0004
  -8245584.47648  -6413324.23246  23245259.395    23245260.3834   23245263.4144
       171.0004        169.0004
  -5700721.41247  -4423855.35645  23497888.841    23497889.7684   23497898.3584
       154.0004        157.0004
   1775789.79148   1401037.09846  24658521.663    24658521.8454   24658532.4634
       169.0004        171.0004
 -19541656.04349 -15200053.44848  20824716.582    20824717.3714   20824723.7554
       212.0004        213.0004
 -22162115.08049 -17251313.36047  20362305.611    20362306.1344   20362313.5934
       210.0004        210.0004
 -13055201.33449 -10160809.77547  22519034.276    22519034.6534   22519041.6454
       207.0004        206.0004
 -18937379.66749 -14739282.42547  20731357.142    20731357.6614   20731363.8924
       203.0004        202.0004
 21  2  3  0 20 30.0000000  0  8G21G07G01G03G09G08G27G04
 -12312048.32847  -9582816.43146  22332677.810    22332677.7364   22332683.5974
       164.0004        166.0004
  -8319007.70948  -6470537.11846  23231287.874    23231288.7634   23231292.1814
       169.0004        171.0004
  -5776391.90547  -4482819.34945  23483488.700    23483489.3154   23483498.6344
       154.0004        155.0004
   1823499.74448   1438213.59846  24667600.235    24667601.0084   24667610.8184
       170.0004        171.0004
 -19558123.89249 -15212885.53348  20821582.911    20821583.0564   20821590.4244
       212.0004        213.0004
 -22125186.07949 -17222537.49447  20369333.561    20369333.8124   20369340.8224
       210.0004        210.0004
 -12961487.91049 -10087786.32047  22536866.938    22536867.4534   22536874.2434
       207.0004        206.0004
 -18883457.22249 -14697264.94247  20741618.320    20741619.0884   20741624.5794
       203.0004        201.0004
 21  2  3  0 21  0.0000000  0  8G21G07G01G03G09G08G27G04
 -12355403.70248  -9616599.79846  22324427.980    22324428.2884   22324432.4934
       165.0004        168.0004
  -8392513.83848  -6527814.59546  23217301.402    23217300.7904   23217304.4454
       170.0004        172.0004
  -5852163.94947  -4541862.46545  23469068.639    23469070.0024   23469078.8194
       153.0004        155.0004
   1870953.37348   1475190.36446  24676629.726    24676630.5924   24676640.3454
       169.0004        170.0004
 -19574024.20749 -15225275.37847  20818556.900    20818557.3874   20818564.4184
       212.0004        212.0004
 -22087709.93749 -17193335.28647  20376464.587    20376465.3684   20376472.5594
       210.0004        210.0004
 -12867479.00249 -10014532.61947  22554755.887    22554756.4444   22554763.3674
       205.0004        204.0004
 -18829049.64249 -14654869.42647  20751972.176    20751972.4464   20751977.9714
       203.0004        202.0004
 21  2  3  0 21 30.0000000  0  8G21G07G01G03G09G08G27G04
 -12398539.66048  -9650212.21546  22316221.053    22316220.4794   22316224.3924
       166.0004        166.0004
  -8466102.00848  -6585156.01046  23203295.457    23203297.1674   23203301.2544
       169.0004        170.0004
  -5928035.50847  -4600983.09545  23454631.211    23454632.8474   23454640.6174
       153.0004        156.0004
   1918148.57948   1511965.78846  24685609.879    24685610.9994   24685621.3464
       168.0004        168.0004
 -19589357.25449 -15237223.20748  20815640.008    20815640.0574   20815646.6004
       212.0004        213.0004
 -22049688.95149 -17163708.52447  20383699.539    20383700.1584   20383707.7684
       210.0004        211.0004
 -12773178.33649  -9941051.58647  22572701.469    22572701.3984   22572708.6814
       205.0004        205.0004
 -18774159.55449 -14612097.93847  20762416.479    20762417.4224   20762423.3084
       203.0004        201.0004
 21  2  3  0 22  0.0000000  0  8G21G07G01G03G09G08G27G04
 -12441452.70848  -9683650.89046  22308052.887    22308053.1414   22308058.2554
       165.0004        163.0004
  -8539769.75348  -6642559.39246  23189277.515    23189279.1474   23189283.6324
       171.0004        174.0004
  -6004003.07047  -4660178.55645  23440174.585    23440175.8804   23440185.8734
       154.0004        157.0004
   1965084.89648   1548539.47946  24694543.182    24694543.4044   24694553.1744
       168.0004        170.0004
 -19604121.74349 -15248727.98648  20812829.850    20812830.3334   20812837.0724
       213.0004        213.0004
 -22011124.44749 -17133658.23647  20391037.961    20391038.4904   20391046.2174
       210.0004        210.0004
 -12678588.01749  -9867344.81647  22590700.724    22590701.0024   22590708.1074
       204.0004        203.0004
 -18718788.10549 -14568951.34647  20772953.675    20772953.9084   20772960.4664
       202.0004        201.0004
 21  2  3  0 22 30.0000000  0  8G21G07G01G03G09G08G27G04
 -12484141.50747  -9716914.84646  22299929.592    22299929.3864   22299935.7954
       164.0004        165.0004
  -8613516.64748  -6700024.47646  23175244.598    23175245.1204   23175248.9544
       172.0004        173.0004
  -6080065.09647  -4719447.60845  23425700.929    23425701.7854   23425711.3904
       154.0004        156.0004
   2011759.78748   1584909.48746  24703425.216    24703425.6834   24703435.7554
       171.0004        172.0004
 -19618318.46649 -15259790.36948  20810128.522    20810128.8954   20810135.6164
       213.0004        213.0004
 -21972019.40149 -17103186.76047  20398480.299    20398480.6064   20398487.3264
       210.0004        210.0004
 -12583712.11049  -9793415.54147  22608754.126    22608755.1424   22608762.7504
       204.0004        204.0004
 -18662938.47349 -14525432.15747  20783581.365    20783581.6364   20783588.1054
       202.0004        201.0004
 21  2  3  0 23  0.0000000  0  8G21G07G01G03G09G08G27G04
 -12526602.71247  -9750001.47946  22291850.995    22291850.4384   22291855.9254
       164.0004        166.0004
  -8687340.78648  -6757549.75046  23161196.362    23161197.2164   23161199.9864
       171.0004        171.0004
  -6156218.67547  -4778788.03045  23411209.924    23411210.8164   23411220.0184
       154.0004        156.0004
   2058172.21948   1621074.93246  24712256.369    24712257.0014   24712267.9044
       170.0004        170.0004
 -19631946.81349 -15270409.85548  20807534.934    20807535.2224   20807542.3044
       213.0004        214.0004
 -21932374.85649 -17072294.89347  20406024.048    20406024.4754   20406031.5564
       210.0004        210.0004
 -12488553.37749  -9719265.86947  22626862.820    22626863.1394   22626870.8924
       204.0004        204.0004
 -18606612.42149 -14481541.72547  20794300.264    20794300.8954   20794305.9874
       202.0004        201.0004
 21  2  3  0 23 30.0000000  0  8G21G07G01G03G09G08G27G04
 -12568834.03747  -9782908.96445  22283811.371    22283810.1664   22283818.7534
       162.0004        161.0004
  -8761241.00648  -6815134.32046  23147134.027    23147134.5834   23147138.1664
       171.0004        173.0004
  -6232461.28747  -4838197.83945  23396702.455    23396702.8714   23396711.1434
       153.0004        155.0004
   2104320.49548   1657034.57746  24721037.501    24721038.0754   24721049.8334
       168.0004        169.0004
 -19645006.70949 -15280586.39848  20805049.739    20805050.1814   20805056.8834
       213.0004        214.0004
 -21892193.03149 -17040984.37147  20413669.546    20413670.4444   20413678.3404
       210.0004        210.0004
 -12393114.98449  -9644898.29447  22645025.845    22645025.0174   22645032.0354
       203.0004        204.0004
 -18549812.21549 -14437281.83647  20805109.383    20805109.3294   20805114.8854
       202.0004        201.0004
 21  2  3  0 24  0.0000000  0  8G21G07G01G03G09G08G27G04
 -12610832.34647  -9815634.83646  22275818.379    22275819.3464   22275826.4984
       161.0004        163.0004
  -8835215.85148  -6872776.99146  23133055.440    23133057.0774   23133061.5864
       171.0004        172.0004
  -6308790.43447  -4897675.05445  23382176.039    23382176.5034   23382186.8324
       152.0004        154.0004
   2150203.21548   1692787.27446  24729770.983    24729771.3634   24729781.3424
       171.0004        173.0004
 -19657498.09449 -15290319.93948  20802673.049    20802673.1904   20802680.0274
       213.0004        214.0004
 -21851476.43949 -17009257.14047  20421419.042    20421419.0714   20421426.6054
       210.0004        210.0004
 -12297400.16149  -9570315.31847  22663237.776    22663239.0024   22663245.9324
       203.0004        203.0004
 -18492540.19349 -14392654.27547  20816007.084    20816007.5064   20816013.9184
       202.0004        201.0004
 21  2  3  0 24 30.0000000  0  8G21G07G01G03G09G08G27G04
 -12652595.37447  -9848177.43446  22267877.141    22267875.8274   22267879.4024
       164.0004        169.0004
  -8909263.30748  -6930476.27446  23118966.673    23118966.5584   23118969.9664
       171.0004        172.0004
  -6385202.93247  -4957217.20945  23367636.271    23367636.6794   23367645.3994
       151.0004        154.0004
   2195819.42848   1728332.27246  24738452.985    24738452.9524   24738460.5214
       171.0004        172.0004
 -19669420.28249 -15299609.94848  20800403.642    20800403.9664   20800411.1764
       213.0004        213.0004
 -21810226.36149 -16977114.20947  20429267.960    20429268.3444   20429276.0314
       209.0004        210.0004
 -12201411.42749  -9495518.89347  22681505.073    22681504.9234   22681511.5444
       202.0004        201.0004
 -18434797.99149 -14347660.35347  20826995.381    20826995.5364   20827002.1604
       202.0004        201.0004
 21  2  3  0 25  0.0000000  0  8G21G07G01G03G09G08G27G04
 -12694121.66548  -9880535.59646  22259974.249    22259973.2914   22259976.9074
       168.0004        169.0004
  -8983383.35148  -6988232.14346  23104861.143    23104862.1274   23104865.4614
       172.0004        174.0004
  -6461697.88047  -5016823.60845  23353079.876    23353079.8624   23353089.3564
       152.0004        155.0004
   2241166.07448   1763667.21146  24747078.598    24747079.1414   24747088.7104
       167.0004        166.0004
 -19680774.83549 -15308457.65848  20798243.300    20798243.4334   20798250.5554
       213.0004        213.0004
 -21768446.43649 -16944558.41647  20437218.475    20437218.8424   20437226.2984
       209.0004        210.0004
 -12105153.57449  -9420512.77147  22699821.360    22699822.4354   22699829.0604
       202.0004        202.0004
 -18376589.52049 -14302303.11047  20838072.021    20838072.3034   20838078.3724
       202.0004        201.0004
 21  2  3  0 25 30.0000000  0  8G21G07G01G03G09G08G27G04
 -12735406.46448  -9912705.53346  22252115.517    22252114.3804   22252120.1204
       167.0004        167.0004
  -9057572.52948  -7046041.85046  23090743.881    23090743.4464   23090747.7454
       173.0004        174.0004
  -6538270.53547  -5076490.54645  23338507.890    23338508.9834   23338516.2654
       153.0004        156.0004
   2286243.83948   1798792.64346  24755656.806    24755657.7254   24755667.8864
       165.0004        166.0004
 -19691559.54649 -15316861.32148  20796191.206    20796191.5244   20796197.9514
       213.0004        213.0004
 -21726136.77349 -16911589.82347  20445269.474    20445269.9464   20445277.3834
       209.0004        210.0004
 -12008627.59449  -9345297.68147  22718190.489    22718191.0254   22718196.9314
       202.0004        202.0004
 -18317914.90949 -14256582.63247  20849237.060    20849237.8544   20849243.8514
       202.0004        200.0004
 21  2  3  0 26  0.0000000  0  8G21G07G01G03G09G08G27G04
 -12776447.42747  -9944685.43346  22244303.037    22244303.2604   22244311.1954
       163.0004        163.0004
  -9131829.76148  -7103904.59846  23076612.269    23076612.9724   23076616.9294
       173.0004        175.0004
  -6614918.66847  -5136216.32245  23323922.124    23323922.1934   23323931.4954
       151.0004        154.0004
   2331051.01248   1833707.25146  24764185.578    24764185.3494   24764195.6354
       168.0004        170.0004
 -19701774.72149 -15324821.19448  20794247.564    20794247.6484   20794254.0924
       213.0004        213.0004
 -21683299.68749 -16878210.27447  20453421.839    20453422.0354   20453428.9594
       209.0004        210.0004
 -11911836.96649  -9269876.41747  22736609.137    22736609.6534   22736615.6994
       202.0004        202.0004
 -18258776.78949 -14210500.98447  20860491.145    20860491.0804   20860497.6384
       202.0004        200.0004
 21  2  3  0 26 30.0000000  0  8G21G07G01G03G09G08G27G04
 -12817240.85547  -9976472.47746  22236542.005    22236541.3114   22236547.3434
       163.0004        165.0004
  -9206152.23948  -7161818.18646  23062468.496    23062469.1094   23062473.6064
       174.0004        176.0004
  -6691638.56847  -5195997.99645  23309322.646    23309323.1284   23309332.2284
       151.0004        154.0004
   2375587.06448   1868410.60046  24772658.089    24772659.3014   24772670.7054
       168.0004        170.0004
 -19711419.40449 -15332336.52548  20792411.632    20792412.0964   20792419.2024
       213.0004        214.0004
 -21639936.39849 -16844420.67647  20461673.055    20461673.5114   20461680.9664
       209.0004        210.0004
 -11814783.79549  -9194250.56347  22755077.390    22755078.1594   22755084.4094
       202.0004        201.0004
 -18199176.51949 -14164059.21747  20871832.257    20871832.8654   20871838.3424
       201.0004        199.0004
 21  2  3  0 27  0.0000000  0  8G21G07G01G03G09G08G27G04
 -12857785.29448 -10008065.51946  22228827.228    22228827.1904   22228832.3944
       165.0004        167.0004
  -9280539.26648  -7219782.07446  23048314.909    23048314.8344   23048318.7004
       176.0004        179.0004
  -6768428.15447  -5255833.96845  23294710.867    23294710.7294   23294719.7604
       152.0004        155.0004
   2419850.16548   1902901.24146  24781082.693    24781082.5614   24781093.3194
       169.0004        169.0004
 -19720494.10849 -15339407.73048  20790684.935    20790685.1064   20790691.9364
       213.0004        214.0004
 -21596049.47749 -16810223.06847  20470024.595    20470024.8974   20470032.2194
       209.0004        209.0004
 -11717471.75049  -9118423.00647  22773595.360    22773595.9724   22773601.9104
       200.0004        200.0004
 -18139116.94649 -14117259.55947  20883261.405    20883261.8954   20883268.0084
       201.0004        200.0004
 21  2  3  0 27 30.0000000  0  8G21G07G01G03G09G08G27G04
 -12898079.60148 -10039463.63846  22221160.781    22221160.4264   22221164.8844
       168.0004        171.0004
  -9354990.43848  -7277795.95546  23034147.354    23034147.3174   23034151.5684
       177.0004        178.0004
  -6845286.12847  -5315723.23045  23280084.007    23280084.7004   23280094.5204
       153.0004        156.0004
   2463837.62148   1937177.05446  24789453.940    24789453.9244   24789463.0194
       167.0004        168.0004
 -19729000.20249 -15346035.84748  20789066.469    20789066.5694   20789073.5504
       213.0004        214.0004
 -21551642.52349 -16775620.22947  20478474.958    20478475.2904   20478482.6234
       209.0004        209.0004
 -11619905.23249  -9042397.12747  22792161.345    22792161.6284   22792168.5484
       200.0004        200.0004
 -18078601.68849 -14070104.81147  20894777.306    20894777.6524   20894783.1674
       201.0004        200.0004
 21  2  3  0 28  0.0000000  0  7G21G07G01G09G08G27G04
 -12938113.34248 -10070658.73846  22213542.698    22213541.1994   22213546.1624
       169.0004        170.0004
  -9429496.84148  -7335852.85746  23019969.199    23019969.5164   23019972.3104
       177.0004        177.0004
  -6922202.50647  -5375658.01945  23265447.074    23265447.9944   23265456.9034
       153.0004        156.0004
 -19736930.45749 -15352215.25648  20787557.032    20787557.4474   20787564.4604
       213.0004        213.0004
 -21506710.19449 -16740608.00347  20487024.741    20487025.5524   20487033.1194
       209.0004        209.0004
 -11522080.07649  -8966169.73647  22810777.413    22810777.9564   22810783.7714
       201.0004        202.0004
 -18017625.80749 -14022591.13647  20906380.635    20906381.1094   20906386.6524
       201.0004        200.0004
 21  2  3  0 28 30.0000000  0  7G21G07G01G09G08G27G04
 -12977892.22948 -10101655.24146  22205971.896    22205971.2924   22205977.8834
       169.0004        170.0004
  -9504065.14548  -7393958.00146  23005778.892    23005779.1524   23005783.0834
       178.0004        179.0004
  -6999182.74047  -5435642.55445  23250798.954    23250799.7844   23250807.1264
       153.0004        155.0004
 -19744292.98849 -15357952.28948  20786156.529    20786156.6754   20786162.9324
       213.0004        213.0004
 -21461263.20649 -16705194.74147  20495673.987    20495674.2894   20495681.4734
       209.0004        210.0004
 -11424007.47149  -8889749.51047  22829438.750    22829439.9264   22829445.9014
       200.0004        199.0004
 -17956199.71649 -13974726.64647  20918069.583    20918069.9994   20918075.6144
       201.0004        199.0004
 21  2  3  0 29  0.0000000  0  7G21G07G01G09G08G27G04
 -13017412.45148 -10132450.17046  22198451.501    22198451.3744   22198456.6974
       169.0004        170.0004
  -9578692.72848  -7452109.32446  22991577.065    22991578.1554   22991582.3584
       179.0004        180.0004
  -7076222.95247  -5495673.82745  23236138.100    23236139.6854   23236148.6134
       154.0004        157.0004
 -19751086.80749 -15363246.16648  20784863.338    20784863.8464   20784870.7344
       213.0004        214.0004
 -21415302.26549 -16669381.00247  20504419.823    20504420.2644   20504427.5204
       209.0004        210.0004
 -11325689.39349  -8813138.00547  22848149.282    22848149.8554   22848155.6644
       201.0004        202.0004
 -17894324.72149 -13926512.35947  20929843.885    20929844.2114   20929849.7194
       201.0004        199.0004
 21  2  3  0 29 30.0000000  0  7G21G07G01G09G08G27G04
 -13056672.20748 -10163042.17946  22190980.600    22190979.3814   22190985.9494
       168.0004        168.0004
  -9653378.35248  -7510305.89946  22977364.531    22977365.8044   22977370.1434
       179.0004        178.0004
  -7153320.87947  -5555750.09545  23221467.315    23221467.6714   23221477.1814
       156.0004        158.0004
 -19757312.53049 -15368097.39248  20783678.393    20783678.9604   20783685.8574
       213.0004        214.0004
 -21368830.59649 -16633169.31147  20513263.261    20513263.3304   20513270.5714
       209.0004        209.0004
 -11227129.37549  -8736337.99747  22866905.298    22866905.5454   22866910.6834
       202.0004        201.0004
 -17832003.60349 -13877950.46447  20941703.592    20941703.8804   20941709.3554
       200.0004        199.0004
 21  2  3  0 30  0.0000000  0  7G21G07G01G09G08G27G04
 -13095667.49948 -10193428.05246  22183559.099    22183559.2304   22183565.2244
       167.0004        167.0004
  -9728118.88548  -7568545.26346  22963142.360    22963142.7964   22963147.5444
       179.0004        180.0004
  -7230472.54447  -5615868.22945  23206786.288    23206787.0784   23206795.6244
       157.0004        160.0004
 -19762969.01149 -15372505.02748  20782602.633    20782602.6464   20782609.6004
       213.0004        214.0004
 -21321848.61049 -16596559.95247  20522203.166    20522203.8504   20522210.6124
       208.0004        209.0004
 -11128329.21149  -8659350.84747  22885706.050    22885706.1104   22885712.8194
       202.0004        202.0004
 -17769237.52949 -13829041.83747  20953647.243    20953647.9674   20953653.5744
       201.0004        199.0004
 21  2  3  0 30 30.0000000  0  7G21G07G01G09G08G27G04
 -13134396.41848 -10223606.41246  22176189.569    22176189.5934   22176194.2044
       166.0004        167.0004
  -9802913.70048  -7626826.91446  22948909.131    22948909.9304   22948914.8304
       180.0004        181.0004
  -7307676.09947  -5676026.83745  23192095.904    23192096.3484   23192103.7764
       158.0004        160.0004
 -19768057.29449 -15376469.93048  20781634.232    20781634.4354   20781640.8334
       213.0004        213.0004
 -21274359.53249 -16559555.45747  20531240.481    20531240.5164   20531247.5804
       208.0004        209.0004
 -11029292.89449  -8582179.68647  22904551.368    22904552.0284   22904558.8784
       201.0004        202.0004
 -17706029.76849 -13779789.03447  20965674.984    20965675.4524   20965680.9904
       200.0004        198.0004
 21  2  3  0 31  0.0000000  0  7G21G07G01G09G08G27G04
 -13172855.49248 -10253574.48146  22168871.110    22168870.5714   22168875.9734
       166.0004        168.0004
  -9877759.75148  -7685148.49046  22934666.611    22934667.6854   22934671.9664
       180.0004        181.0004
  -7384927.34147  -5736222.58545  23177395.308    23177394.9644   23177402.8384
       158.0004        160.0004
 -19772576.20149 -15379991.15248  20780773.719    20780774.4544   20780781.1294
       213.0004        213.0004
 -21226364.33949 -16522156.59747  20540373.733    20540373.8114   20540381.1224
       208.0004        208.0004
 -10930022.07749  -8504825.79047  22923440.928    22923441.7454   22923448.9784
       200.0004        199.0004
 -17642381.30149 -13730192.82447  20977787.492    20977787.9054   20977793.7304
       200.0004        199.0004
 21  2  3  0 31 30.0000000  0  7G21G07G01G09G08G27G04
 -13211042.52948 -10283330.57446  22161604.151    22161604.0564   22161610.0534
       167.0004        169.0004
  -9952655.47948  -7743508.78646  22920414.430    22920415.0714   22920418.8354
       180.0004        180.0004
  -7462223.68847  -5796453.43445  23162685.055    23162685.3954   23162695.0534
       159.0004        162.0004
 -19776526.09949 -15383068.99748  20780022.791    20780023.0324   20780029.7954
       214.0004        214.0004
 -21177865.24349 -16484365.09447  20549602.759    20549603.0684   20549609.9774
       208.0004        208.0004
 -10830520.03049  -8427291.71447  22942376.984    22942376.7544   22942383.6214
       199.0004        199.0004
 -17578294.76349 -13680255.27247  20989982.777    20989983.1654   20989988.3584
       200.0004        199.0004
 21  2  3  0 32  0.0000000  0  7G21G07G01G09G08G27G04
 -13248954.13948 -10312872.04146  22154390.782    22154390.0484   22154396.1164
       168.0004        171.0004
 -10027599.16048  -7801906.43446  22906152.910    22906153.8184   22906157.3914
       180.0004        181.0004
  -7539562.24147  -5856717.17646  23147968.977    23147969.7334   23147977.3994
       161.0004        163.0004
 -19779907.18249 -15385703.59748  20779379.019    20779379.4204   20779386.1314
       214.0004        214.0004
 -21128864.61349 -16446182.77247  20558927.806    20558927.9534   20558934.9224
       208.0004        209.0004
 -10730789.73949  -8349579.79247  22961354.320    22961354.9034   22961361.1164
       199.0004        199.0004
 -17513772.52749 -13629978.20447  21002260.249    21002261.1214   21002266.4674
       200.0004        198.0004
 21  2  3  0 32 30.0000000  0  7G21G07G01G09G08G27G04
 -13286588.05448 -10342197.12746  22147229.132    22147229.2224   22147233.3974
       170.0004        171.0004
 -10102588.81048  -7860339.90446  22891883.813    22891884.0284   22891887.1314
       180.0004        182.0004
  -7616939.90047  -5917011.39946  23133244.159    23133244.5684   23133253.2144
       161.0004        163.0004
 -19782719.32549 -15387894.87548  20778844.280    20778844.4224   20778851.0804
       214.0004        215.0004
 -21079364.57949 -16407611.30247  20568347.515    20568347.7904   20568354.1144
       209.0004        209.0004
 -10630833.85649  -8271692.07347  22980375.956    22980375.7294   22980382.8814
       199.0004        199.0004
 -17448816.66949 -13579363.24647  21014621.108    21014621.8114   21014627.6264
       199.0004        198.0004
 21  2  3  0 33  0.0000000  0  7G21G07G01G09G08G27G04
 -13323942.12848 -10371304.16346  22140121.488    22140120.9214   22140125.2294
       171.0004        171.0004
 -10177623.68248  -7918808.61946  22877604.527    22877604.8594   22877608.6104
       180.0004        180.0004
  -7694354.94747  -5977334.75946  23118512.631    23118513.2844   23118520.3354
       161.0004        163.0004
 -19784963.92749 -15389643.92048  20778417.033    20778417.4414   20778423.8844
       214.0004        214.0004
 -21029368.25749 -16368653.11147  20577861.185    20577861.3004   20577868.2254
       209.0004        209.0004
 -10530656.60949  -8193631.87947  22999438.719    22999439.4724   22999445.6064
       199.0004        199.0004
 -17383430.71249 -13528413.15847  21027063.257    21027064.0884   21027070.4864
       199.0004        198.0004
 21  2  3  0 33 30.0000000  0  7G21G07G01G09G08G27G04
 -13361013.24048 -10400190.72046  22133066.204    22133066.2954   22133071.0384
       171.0004        172.0004
 -10252701.08248  -7977310.46846  22863317.229    22863318.1394   22863321.8914
       179.0004        179.0004
  -7771803.61347  -6037684.29545  23103773.253    23103773.9964   23103782.3954
       160.0004        160.0004
 -19786640.41249 -15390950.26348  20778097.760    20778097.9184   20778104.8194
       214.0004        214.0004
 -20978877.39949 -16329309.56647  20587468.497    20587468.9914   20587476.1854
       208.0004        208.0004
 -10430260.07249  -8115400.79447  23018542.913    23018544.0534   23018550.8444
       198.0004        198.0004
 -17317616.26949 -13477129.17647  21039588.381    21039588.8184   21039593.7414
       199.0004        198.0004
 21  2  3  0 34  0.0000000  0  7G21G07G01G09G08G27G04
 -13397799.16348 -10428855.04946  22126065.650    22126065.6614   22126071.6584
       171.0004        173.0004
 -10327819.60048  -8035844.35446  22849024.331    22849023.1944   22849028.1494
       179.0004        179.0004
  -7849283.26847  -6098058.01145  23089029.449    23089030.8584   23089038.7264
       159.0004        161.0004
 -19787749.31649 -15391814.34748  20777886.684    20777886.7814   20777894.0684
       213.0004        214.0004
 -20927894.26749 -16289582.43847  20597169.779    20597170.1714   20597177.8044
       207.0004        207.0004
 -10329647.49549  -8037001.37447  23037688.805    23037689.8334   23037696.7834
       196.0004        196.0004
 -17251376.00649 -13425513.39347  21052193.293    21052193.5564   21052199.2494
       199.0004        197.0004
 21  2  3  0 34 30.0000000  0  7G21G07G01G09G08G27G04
 -13434297.69248 -10457295.42646  22119119.789    22119120.7654   22119126.2154
       171.0004        171.0004
 -10402977.45348  -8094408.87946  22834721.485    22834721.2104   22834726.0754
       179.0004        180.0004
  -7926791.26947  -6158453.81645  23074280.527    23074281.2954   23074289.7324
       160.0004        162.0004
 -19788291.13149 -15392236.52648  20777783.792    20777784.1084   20777790.8964
       214.0004        215.0004
 -20876421.57349 -16249473.82847  20606964.568    20606965.1114   20606972.6204
       207.0004        207.0004
 -10228822.14249  -7958436.14247  23056876.717    23056876.6994   23056883.6084
       197.0004        197.0004
 -17184712.57949 -13373567.86247  21064878.391    21064879.3014   21064884.1154
       198.0004        196.0004
 21  2  3  0 35  0.0000000  0  7G21G07G01G09G08G27G04
 -13470506.67948 -10485510.22046  22112230.147    22112229.5544   22112235.5394
       171.0004        172.0004
 -10478173.77848  -8153003.41146  22820411.529    22820412.6024   22820415.6894
       180.0004        181.0004
  -8004325.61347  -6218870.16746  23059527.272    23059527.3574   23059535.8514
       162.0004        164.0004
 -19788267.13249 -15392217.83348  20777788.845    20777788.7884   20777795.2674
       214.0004        215.0004
 -20824462.31949 -16208986.09947  20616851.586    20616852.6054   20616860.6114
       206.0004        207.0004
 -10127787.81749  -7879708.10247  23076101.953    23076101.7264   23076109.9484
       196.0004        196.0004
 -17117629.38749 -13321295.25347  21077644.594    21077644.5754   21077649.8434
       198.0004        196.0004
 21  2  3  0 35 30.0000000  0  7G21G07G01G09G08G27G04
 -13506422.81348 -10513496.77646  22105395.457    22105394.7564   22105400.5314
       170.0004        170.0004
 -10553405.62148  -8211625.61346  22806096.794    22806096.6114   22806099.8184
       180.0004        181.0004
  -8081882.17047  -6279303.78346  23044768.473    23044769.4784   23044777.3964
       163.0004        165.0004
 -19787676.49949 -15391757.59548  20777900.566    20777900.9794   20777908.0904
       215.0004        215.0004
 -20772017.96149 -16168120.34947  20626832.690    20626833.1934   20626840.2654
       207.0004        208.0004
 -10026546.34749  -7800818.64047  23095367.263    23095367.6394   23095374.9494
       195.0004        195.0004
 -17050127.68849 -13268696.52447  21090489.410    21090490.0224   21090495.5704
       198.0004        197.0004
 21  2  3  0 36  0.0000000  0  7G21G07G01G09G08G27G04
 -13542042.98248 -10541252.72546  22098617.065    22098616.3514   22098621.6124
       170.0004        170.0004
 -10628670.70148  -8270273.71246  22791773.400    22791773.5554   22791776.7764
       179.0004        178.0004
  -8159457.54047  -6339752.07246  23030005.278    23030005.8834   23030015.2384
       162.0004        164.0004
 -19786519.10149 -15390855.72348  20778120.732    20778121.2034   20778128.0494
       215.0004        215.0004
 -20719090.07149 -16126877.82647  20636904.717    20636905.0374   20636912.3684
       208.0004        208.0004
  -9925100.26949  -7721769.73647  23114671.259    23114672.1154   23114679.5644
       195.0004        195.0004
 -16982209.48349 -13215773.25647  21103413.638    21103413.8854   21103420.2144
       198.0004        197.0004
 21  2  3  0 36 30.0000000  0  7G21G07G01G09G08G27G04
 -13577363.82048 -10568775.42746  22091895.604    22091895.3044   22091900.0834
       170.0004        170.0004
 -10703965.85048  -8328945.23946  22777444.347    22777445.2064   22777448.7164
       178.0004        178.0004
  -8237047.59047  -6400211.80846  23015240.766    23015241.5954   23015249.4004
       162.0004        163.0004
 -19784794.23849 -15389511.67748  20778449.343    20778449.5434   20778456.4044
       215.0004        216.0004
 -20665679.77049 -16085259.39747  20647068.143    20647068.5934   20647075.7024
       207.0004        208.0004
  -9823451.30948  -7642562.74647  23134014.714    23134015.7624   23134022.5524
       193.0004        194.0004
 -16913876.13449 -13162526.49447  21116416.549    21116417.3114   21116423.9024
       198.0004        197.0004
 21  2  3  0 37  0.0000000  0  7G21G07G01G09G08G27G04
 -13612382.81148 -10596062.91646  22085232.124    22085231.0744   22085237.2184
       171.0004        171.0004
 -10779290.18748  -8387639.51346  22763111.613    22763112.0714   22763115.9094
       178.0004        179.0004
  -8314650.26247  -6460681.37845  23000472.244    23000473.6124   23000481.7454
       161.0004        162.0004
 -19782503.23049 -15387726.47648  20778885.328    20778885.4674   20778892.3544
       215.0004        215.0004
 -20611791.00349 -16043268.13647  20657322.927    20657323.2074   20657329.9644
       207.0004        206.0004
  -9721603.40448  -7563200.73547  23153394.946    23153396.3874   23153403.9564
       193.0004        193.0004
 -16845130.99849 -13108958.86547  21129498.656    21129499.0564   21129505.0564
       197.0004        196.0004
 21  2  3  0 37 30.0000000  0  7G21G07G01G09G08G27G04
 -13647099.16348 -10623114.60046  22078625.835    22078625.0634   22078631.3254
       170.0004        172.0004
 -10854642.96948  -8446355.94046  22748771.990    22748773.1604   22748776.6994
       179.0004        179.0004
  -8392263.91647  -6521159.50146  22985704.465    22985704.7794   22985712.5514
       161.0004        164.0004
 -19779647.84349 -15385501.48948  20779428.596    20779428.7924   20779435.4014
       214.0004        215.0004
 -20557426.83449 -16000906.42747  20667667.861    20667667.9924   20667675.2054
       206.0004        206.0004
  -9619560.77648  -7483686.99047  23172813.675    23172814.1574   23172822.2284
       192.0004        192.0004
 -16775977.90949 -13055073.34547  21142658.161    21142658.8114   21142664.9434
       197.0004        196.0004
 21  2  3  0 38  0.0000000  0  7G21G07G01G09G08G27G04
 -13681510.81648 -10649928.84546  22072077.960    22072077.1014   22072081.4034
       171.0004        171.0004
 -10930022.57448  -8505093.27546  22734428.019    22734428.3454   22734432.1964
       179.0004        179.0004
  -8469885.93247  -6581644.13446  22970933.425    22970934.3444   22970941.9524
       162.0004        164.0004
 -19776228.91249 -15382837.37748  20780079.137    20780079.3064   20780086.0264
       214.0004        214.0004
 -20502590.50449 -15958176.80747  20678102.303    20678102.7684   20678110.1414
       205.0004        206.0004
  -9517326.73348  -7404024.06947  23192268.615    23192269.0884   23192277.0714
       192.0004        193.0004
 -16706419.77149 -13000872.20547  21155894.473    21155894.7294   21155900.9864
       197.0004        196.0004
 21  2  3  0 38 30.0000000  0  7G21G07G01G09G08G27G04
 -13715615.48648 -10676503.89046  22065587.371    22065587.2404   22065592.5294
       171.0004        173.0004
 -11005427.85148  -8563850.62846  22720077.981    22720078.6914   22720083.0834
       178.0004        178.0004
  -8547513.79447  -6642133.32345  22956160.701    22956161.0194   22956170.0224
       161.0004        162.0004
 -19772247.42649 -15379734.92348  20780836.301    20780836.8384   20780843.6514
       214.0004        214.0004
 -20447284.41149 -15915081.14947  20688626.976    20688627.6034   20688634.6534
       206.0004        207.0004
  -9414904.69148  -7324214.69647  23211758.850    23211758.5254   23211766.0904
       190.0004        189.0004
 -16636459.57149 -12946357.77247  21169207.362    21169207.7544   21169213.9794
       197.0004        196.0004
 21  2  3  0 39  0.0000000  0  7G21G07G01G09G08G27G04
 -13749408.47648 -10702836.05546  22059156.523    22059156.4584   22059162.3834
       172.0004        173.0004
 -11080854.21848  -8622624.40046  22705724.513    22705724.9584   22705729.5784
       178.0004        180.0004
  -8625142.25547  -6702623.00445  22941388.169    22941389.1994   22941397.8954
       161.0004        161.0004
 -19767701.68649 -15376192.78348  20781701.522    20781701.8984   20781708.7104
       213.0004        214.0004
 -20391508.98749 -15871619.76447  20699241.328    20699241.6704   20699248.2204
       206.0004        207.0004
  -9312295.34948  -7244259.36847  23231284.384    23231284.9744   23231293.1924
       190.0004        191.0004
 -16566097.63349 -12891530.29147  21182596.976    21182597.5844   21182603.6304
       197.0004        196.0004
 21  2  3  0 39 30.0000000  0  7G21G07G01G09G08G27G04
 -13782887.99048 -10728923.97146  22052786.435    22052785.6824   22052789.6104
       173.0004        174.0004
 -11156300.63348  -8681413.82046  22691368.200    22691367.7404   22691373.0904
       180.0004        181.0004
  -8702768.80447  -6763111.19945  22926615.482    22926617.3384   22926624.6464
       160.0004        162.0004
 -19762592.71849 -15372211.76648  20782673.693    20782674.0344   20782680.9824
       214.0004        214.0004
 -20335266.96349 -15827794.80247  20709944.047    20709944.2064   20709950.9474
       206.0004        207.0004
  -9209502.11948  -7164160.73647  23250845.917    23250846.1374   23250853.5474
       190.0004        190.0004
 -16495336.98849 -12836392.14447  21196062.473    21196062.8724   21196068.8684
       197.0004        196.0004
 21  2  3  0 40  0.0000000  0  7G21G07G01G09G08G27G04
 -13816052.17948 -10754766.17846  22046475.300    22046474.3714   22046478.9634
       173.0004        174.0004
 -11231765.52648  -8740217.61246  22677007.063    22677008.2844   22677011.7634
       180.0004        180.0004
  -8780391.10747  -6823596.07945  22911846.130    22911845.6034   22911854.0294
       161.0004        162.0004
 -19756921.85249 -15367792.91048  20783753.708    20783753.9044   20783759.9654
       214.0004        215.0004
 -20278562.19649 -15783609.25347  20720734.296    20720734.4194   20720741.6674
       206.0004        206.0004
  -9106528.69048  -7083921.70747  23270441.572    23270440.6924   23270448.0174
       189.0004        188.0004
 -16424180.91949 -12780945.86247  21209603.279    21209603.3584   21209609.4904
       197.0004        195.0004
 21  2  3  0 40 30.0000000  0  7G21G07G01G09G08G27G04
 -13848898.65248 -10780360.81646  22040223.649    22040223.9664   22040229.2734
       173.0004        173.0004
 -11307247.50848  -8799034.73746  22662644.044    22662643.7714   22662647.9684
       179.0004        180.0004
  -8858006.63447  -6884075.68346  22897076.926    22897076.7324   22897085.0444
       162.0004        164.0004
 -19750690.18049 -15362937.07048  20784939.140    20784939.1914   20784946.0024
       215.0004        215.0004
 -20221396.90149 -15739064.86147  20731611.704    20731612.1134   20731619.3404
       205.0004        204.0004
  -9003378.45048  -7003544.88547  23290068.959    23290070.0524   23290077.7294
       189.0004        190.0004
 -16352632.51449 -12725193.87147  21223218.027    21223218.5394   21223225.1734
       197.0004        195.0004
 21  2  3  0 41  0.0000000  0  7G21G07G01G09G08G27G04
 -13881425.81348 -10805706.63546  22034035.469    22034034.7704   22034038.4164
       174.0004        175.0004
 -11382744.85648  -8857863.82946  22648276.570    22648277.3844   22648280.5534
       179.0004        179.0004
  -8935612.64247  -6944547.86345  22882308.804    22882309.0974   22882316.0454
       161.0004        162.0004
 -19743898.60849 -15357644.93148  20786231.254    20786231.5594   20786238.2054
       214.0004        214.0004
 -20163773.75349 -15694163.69747  20742577.305    20742577.4994   20742585.0204
       204.0004        205.0004
  -8900054.61648  -6923032.80747  23309731.696    23309731.8114   23309739.2694
       189.0004        190.0004
 -16280694.64949 -12669138.39547  21236907.478    21236908.0084   21236914.3594
       197.0004        195.0004
 21  2  3  0 41 30.0000000  0  7G21G07G01G09G08G27G04
 -13913630.27448 -10830801.00046  22027906.672    22027905.3594   22027911.0434
       174.0004        175.0004
 -11458255.04248  -8916702.91546  22633907.054    22633908.2144   22633912.9714
       180.0004        182.0004
  -9013205.52347  -7005009.81345  22867543.055    22867542.9334   22867551.4554
       160.0004        162.0004
 -19736547.22949 -15351916.58448  20787630.694    20787630.8324   20787637.0414
       214.0004        214.0004
 -20105695.32149 -15648907.76647  20753628.462    20753629.1324   20753636.8084
       204.0004        204.0004
  -8796559.49948  -6842387.26747  23329426.889    23329426.6144   23329434.0064
       190.0004        191.0004
 -16208369.34549 -12612781.01647  21250670.738    21250670.9834   21250676.4614
       196.0004        194.0004
 21  2  3  0 42  0.0000000  0  7G21G07G01G09G08G27G04
 -13945509.51648 -10855641.93346  22021840.637    22021840.2954   22021844.9364
       174.0004        174.0004
 -11533776.46948  -8975550.75646  22619536.332    22619536.7934   22619541.2114
       181.0004        182.0004
  -9090782.60847  -7065459.44146  22852781.028    22852781.7144   22852788.7354
       161.0004        163.0004
 -19728637.20849 -15345752.92248  20789135.616    20789135.8114   20789142.0914
       214.0004        214.0004
 -20047164.21349 -15603299.09647  20764767.004    20764767.4864   20764774.7454
       204.0004        204.0004
  -8692896.46548  -6761610.85047  23349151.922    23349152.6464   23349160.0324
       189.0004        190.0004
 -16135659.65349 -12556124.10647  21264506.428    21264507.2484   21264513.5244
       195.0004        194.0004
 21  2  3  0 42 30.0000000  0  7G21G07G01G09G08G27G04
 -13977062.20148 -10880228.42446  22015836.638    22015835.6994   22015840.1824
       174.0004        173.0004
 -11609306.80248  -9034405.57646  22605165.128    22605165.2554   22605167.7864
       182.0004        183.0004
  -9168340.70547  -7125894.28446  22838021.540    22838021.7154   22838029.8004
       162.0004        163.0004
 -19720169.04249 -15339154.34948  20790746.618    20790747.0664   20790753.7424
       214.0004        214.0004
 -19988182.98749 -15557339.68747  20775991.355    20775991.7064   20775998.5144
       205.0004        205.0004
  -8589068.19248  -6680705.72747  23368910.111    23368910.7174   23368918.5984
       191.0004        191.0004
 -16062568.01749 -12499169.59047  21278415.281    21278415.8844   21278422.3444
       195.0004        194.0004
 21  2  3  0 43  0.0000000  0  7G21G07G01G09G08G27G04
 -14008285.20648 -10904558.01146  22009894.470    22009894.0894   22009897.9934
       174.0004        174.0004
 -11684844.14948  -9093265.84746  22590790.082    22590790.4874   22590793.9244
       182.0004        183.0004
  -9245876.79347  -7186312.01446  22823266.592    22823266.9864   22823274.9224
       162.0004        164.0004
 -19711143.56949 -15332121.50948  20792464.604    20792464.8834   20792471.5184
       214.0004        215.0004
 -19928754.01449 -15511031.38647  20787300.555    20787300.6494   20787307.6324
       205.0004        205.0004
  -8485077.78848  -6599674.22447  23388700.340    23388699.5074   23388707.0684
       192.0004        192.0004
 -15989097.16649 -12441919.58147  21292397.297    21292397.3054   21292402.8894
       195.0004        194.0004
 21  2  3  0 43 30.0000000  0  7G21G07G01G09G08G27G04
 -14039175.23248 -10928628.14346  22004015.668    22004015.7764   22004020.8604
       173.0004        173.0004
 -11760385.82848  -9152129.48946  22576415.537    22576415.6804   22576419.5974
       184.0004        185.0004
  -9323387.07747  -7246709.59446  22808517.267    22808517.5174   22808525.7954
       162.0004        164.0004
 -19701560.80749 -15324654.42448  20794287.866    20794288.0624   20794295.1844
       214.0004        214.0004
 -19868878.79149 -15464375.35347  20798693.728    20798694.1034   20798701.6944
       204.0004        204.0004
  -8380927.27448  -6518517.98947  23408518.469    23408518.5034   23408526.0404
       191.0004        191.0004
 -15915248.99949 -12384375.56647  21306450.096    21306450.2814   21306456.0154
       195.0004        195.0004
 21  2  3  0 44  0.0000000  0  7G21G07G01G09G08G27G04
 -14069730.45948 -10952437.39046  21998201.991    21998201.7354   21998205.7724
       173.0004        174.0004
 -11835930.27148  -9210995.27346  22562038.669    22562039.3964   22562043.8744
       184.0004        184.0004
  -9400868.92547  -7307085.02446  22793772.641    22793773.2724   22793780.9144
       163.0004        165.0004
 -19691422.06249 -15316754.10748  20796216.862    20796217.0794   20796224.2944
       213.0004        213.0004
 -19808561.24449 -15417374.67747  20810172.139    20810172.4254   20810179.3624
       204.0004        204.0004
  -8276620.10148  -6437239.66947  23428367.415    23428367.8674   23428375.2934
       191.0004        192.0004
 -15841026.65749 -12326539.98447  21320573.696    21320574.1464   21320579.8384
       196.0004        194.0004
 21  2  3  0 44 30.0000000  0  7G21G07G01G09G08G27G04
 -14099948.13748 -10975983.61946  21992449.593    21992450.0454   21992457.0964
       173.0004        173.0004
 -11911474.77448  -9269861.10046  22547663.877    22547664.4604   22547667.7634
       184.0004        185.0004
  -9478318.72347  -7367435.47246  22779033.984    22779035.6124   22779043.4584
       164.0004        167.0004
 -19680727.60449 -15308420.75848  20798252.401    20798252.5854   20798259.4624
       213.0004        214.0004
 -19747802.82949 -15370030.44847  20821733.883    20821734.2334   20821741.5764
       203.0004        204.0004
  -8172158.65148  -6355841.12047  23448244.970    23448245.8904   23448252.7964
       192.0004        191.0004
 -15766432.30649 -12268414.50747  21334768.290    21334768.9744   21334774.2964
       195.0004        193.0004
 21  2  3  0 45  0.0000000  0  7G21G07G01G09G08G27G04
 -14129826.28048 -10999265.24746  21986763.747    21986764.5234   21986769.9214
       172.0004        172.0004
 -11987017.65548  -9328725.67946  22533287.871    22533288.1824   22533292.1314
       184.0004        185.0004
  -9555733.89848  -7427758.96446  22764303.429    22764303.7904   22764311.8754
       167.0004        168.0004
 -19669478.81149 -15299655.46448  20800393.083    20800393.0494   20800399.6844
       213.0004        214.0004
 -19686606.53749 -15322345.02147  20833378.991    20833379.0934   20833386.6514
       203.0004        203.0004
  -8067546.17748  -6274324.89547  23468152.601    23468153.0694   23468160.5284
       191.0004        191.0004
 -15691469.09349 -12210001.61247  21349033.113    21349033.8704   21349039.9084
       195.0004        194.0004
 21  2  3  0 45 30.0000000  0  7G21G07G01G09G08G27G04
 -14159363.52848 -11022281.28046  21981144.399    21981143.9394   21981148.9374
       172.0004        173.0004
 -12062557.94548  -9387588.23546  22518913.733    22518914.0334   22518918.1974
       185.0004        187.0004
  -9633112.33848  -7488053.83546  22749578.829    22749579.1064   22749587.2894
       168.0004        169.0004
 -19657677.57449 -15290459.69248  20802638.178    20802638.5434   20802645.7184
       213.0004        213.0004
 -19624976.42449 -15274321.55047  20845107.113    20845107.2784   20845114.1004
       203.0004        203.0004
  -7962786.70748  -6192694.14147  23488088.251    23488088.7434   23488094.3894
       191.0004        191.0004
 -15616140.74349 -12151304.20647  21363367.792    21363367.8584   21363374.4294
       195.0004        193.0004
 21  2  3  0 46  0.0000000  0  7G21G07G01G09G08G27G04
 -14188556.73648 -11045029.20046  21975589.837    21975588.8794   21975593.6844
       171.0004        172.0004
 -12138092.99948  -9446446.70646  22504539.509    22504540.1624   22504543.8044
       186.0004        187.0004
  -9710450.35648  -7548317.20546  22734861.749    22734862.0404   22734869.6294
       167.0004        168.0004
 -19645324.21349 -15280833.69348  20804989.330    20804989.4004   20804996.6604
       213.0004        214.0004
 -19562914.44249 -15225961.55047  20856917.523    20856917.6924   20856924.3714
       203.0004        204.0004
  -7857882.52148  -6110950.61747  23508051.619    23508051.1434   23508057.5954
       191.0004        190.0004
 -15540449.41348 -12092323.95147  21377771.518    21377771.8094   21377778.0574
       194.0004        192.0004
 21  2  3  0 46 30.0000000  0  7G21G07G01G09G08G27G04
 -14217403.76048 -11067507.36746  21970100.114    21970099.6794   21970105.1084
       172.0004        173.0004
 -12213621.08448  -9505299.75046  22490167.065    22490167.8084   22490171.0504
       186.0004        186.0004
  -9787745.05248  -7608546.80446  22720153.602    22720153.7444   22720160.8154
       167.0004        169.0004
 -19632419.89249 -15270778.37248  20807444.862    20807445.0614   20807452.0714
       214.0004        214.0004
 -19500423.33349 -15177267.15347  20868808.471    20868809.0224   20868816.4014
       203.0004        204.0004
  -7752836.67448  -6029096.69547  23528041.360    23528040.8744   23528046.3454
       189.0004        189.0004
 -15464398.01948 -12033063.12147  21392243.426    21392243.5984   21392250.1274
       193.0004        192.0004
 21  2  3  0 47  0.0000000  0  7G21G07G01G09G08G27G04
 -14245902.73048 -11089714.33046  21964677.046    21964675.7334   21964681.4194
       172.0004        174.0004
 -12289139.67848  -9564145.38746  22475796.618    22475796.8144   22475800.1374
       186.0004        187.0004
  -9864993.26048  -7668740.18546  22705453.215    22705453.5194   22705461.1414
       167.0004        169.0004
 -19618965.50949 -15260294.44248  20810005.187    20810005.4424   20810012.1984
       214.0004        214.0004
 -19437505.41349 -15128240.20247  20880781.159    20880781.6084   20880789.3324
       203.0004        203.0004
  -7647651.97448  -5947134.61047  23548057.193    23548056.9324   23548062.9624
       190.0004        191.0004
 -15387989.23948 -11973523.81347  21406783.642    21406784.3824   21406790.2344
       193.0004        193.0004
 21  2  3  0 47 30.0000000  0  8G30G21G07G01G09G08G27G04
   -630180.15956   -479042.15245  24389887.498                    24389893.7424
       123.0004        145.0004
 -14274050.91148 -11111647.96946  21959319.963    21959319.5924   21959325.1514
       173.0004        173.0004
 -12364646.50348  -9622981.87246  22461427.479    22461428.1504   22461431.7844
       187.0004        187.0004
  -9942191.46948  -7728894.61946  22690761.500    22690762.3154   22690771.4164
       168.0004        170.0004
 -19604961.64249 -15249382.34048  20812670.151    20812670.4554   20812677.3124
       214.0004        214.0004
 -19374162.90949 -15078882.40247  20892834.925    20892835.2394   20892842.7714
       202.0004        203.0004
  -7542330.95348  -5865066.28147  23568098.432    23568098.4084   23568104.7744
       189.0004        189.0004
 -15311225.42448 -11913707.86647  21421391.519    21421391.9514   21421397.3624
       193.0004        192.0004
 21  2  3  1 56 30.0000000  0  6G14G21G01G09G11G17
    -15619.91254     -3644.04443  20010527.352
        74.0004         74.0004
        36.80254        11.50443  18861025.667
        74.0004         81.0004
    -23472.78154     -4428.98744  17884439.113
        74.0004         98.0004
     13013.85054      2192.25943  18886832.876
        74.0004         86.0004
      1309.34957       580.37847  17964150.731                    17964154.7374
       159.0004        198.0004
                                  19531353.958

 21  2  3  1 57  0.0000000  0 11G04G30G14G21G28G01G07G08G09G19G17
     15401.97354      3692.20243  20703659.913
        74.0004         74.0004
   -150848.40748    -98457.49847  18961743.699    18961743.6614   18961749.9424
       182.0004        190.0004
    -76584.59546    -51149.00646  19998922.686                    19998930.6744
       122.0004        164.0004
       388.38548       285.39446  18861094.547                    18861097.9374
       172.0004        185.0004
    -29252.33154    -10758.32243  20420087.317
        74.0004         74.0004
    -97094.52948    -61796.60047  17870429.066    17870429.3524   17870438.1584
       190.0004        197.0004
    -82944.50459    -44347.48147  17545255.046                    17545259.3364
       196.0004        211.0004
     58405.43654     31601.89843  19954475.362
        74.0004         74.0004
     49549.16548     30661.65647  18893785.432    18893785.4864   18893793.9034
       187.0004        195.0004
 -26124369.46854 -20344576.800 3                                  23629570.205
        74.0004         74.000
   -130016.69545    -68427.13546  19512283.402                    19512288.4554
        79.0004        174.0004
 21  2  3  1 57 30.0000000  0  8G04G30G14G21G01G07G08G09
     78336.36544     52731.53545  24013354.727
        74.0004        151.0004
   -268073.87948   -189801.96447  22237153.236    22237153.3524   22237160.4754
       188.0004        190.0004
   -137653.34247    -98735.02346  23285021.434    23285021.4174   23285026.4744
       158.0004        164.0004
      1139.49648       870.74346  22158953.744    22158953.5214   22158958.2004
       182.0004        184.0004
   -170291.65549   -118833.25747  21154217.506    21154217.8694   21154226.7514
       195.0004        197.0004
   -166846.44849   -109725.57447  20827006.007    20827006.4444   20827010.1544
       207.0004        210.0004
    118355.54544     78316.57847  23263600.165
        74.0004        195.0004
     86208.17648     59227.15947  22198478.020    22198478.2844   22198486.2634
       192.0004        193.0004
 21  2  3  1 58  0.0000000  0 10G04G30G14G21G28G01G07G08G09G17
    141202.79647    101718.49545  24025317.518                    24025324.8444
       142.0004        156.0004
   -385223.71148   -281087.50447  22214860.623    22214860.6854   22214866.9904
       189.0004        189.0004
   -198823.80547   -146400.23546  23273382.385    23273382.5124   23273386.1584
       164.0004        169.0004
      2338.18348      1804.84946  22159180.934    22159181.3464   22159185.7504
       184.0004        184.0004
   -129665.83144    -89002.08045  23698696.772
        74.0004        153.0004
   -243067.27149   -175541.47447  21140369.197    21140369.8834   21140377.5524
       197.0004        197.0004
   -250441.81849   -174864.78247  20811098.674    20811098.9304   20811102.5414
       209.0004        210.0004
    178319.14148    125041.47147  23275011.374                    23275020.7714
       182.0004        197.0004
    123062.88048     87945.14847  22205491.640    22205492.0994   22205499.1104
       192.0004        193.0004
   -329461.64048   -223838.67146  22772047.341    22772048.1154   22772052.6534
       175.0004        178.0004
 21  2  3  1 58 30.0000000  0 10G04G30G14G21G28G01G07G08G09G17
   -461084.17347   -367596.01945  23910703.599    23910704.7324   23910712.2444
       149.0004        153.0004
  -1167314.52748   -890508.84647  22066033.317    22066033.1464   22066040.4684
       188.0004        188.0004
   -925135.81748   -712357.56246  23135169.674    23135169.9584   23135173.7964
       167.0004        168.0004
   -661076.90848   -515141.90946  22032938.299    22032937.8054   22032941.9844
       184.0004        184.0004
   -845068.26147   -646458.50345  23562560.512                    23562564.2744
       143.0004        153.0004
   -980453.53549   -750128.11247  21000048.840    21000049.4074   21000057.6364
       197.0004        199.0004
   -998758.85649   -757968.91647  20668698.463    20668698.5614   20668702.7194
       210.0004        211.0004
   -426788.57548   -346470.98947  23159861.957    23159862.5604   23159872.1994
       193.0004        196.0004
   -504963.22648   -401425.80247  22085983.838    22085983.5894   22085989.7534
       193.0004        194.0004
  -1093739.83548   -819380.05046  22626610.851    22626610.7384   22626615.4064
       178.0004        179.0004
 21  2  3  1 59  0.0000000  0 10G04G30G14G21G28G01G07G08G09G17
   -363600.64247   -291634.78345  23929254.629    23929255.9524   23929261.7084
       150.0004        152.0004
  -1249412.13148   -954480.94247  22050410.996    22050411.0674   22050418.0284
       189.0004        190.0004
   -951660.19448   -733025.84846  23130121.237    23130120.6314   23130125.3684
       165.0004        165.0004
   -624178.08848   -486389.51546  22039960.724    22039959.1194   22039963.5894
       184.0004        184.0004
   -860687.38547   -658629.20245  23559588.662    23559587.0754   23559592.0464
       149.0004        153.0004
  -1017517.75449   -779009.26447  20992995.744    20992996.6164   20993004.2864
       198.0004        198.0004
  -1046864.36549   -795453.68747  20659544.278    20659544.6964   20659548.5104
       210.0004        211.0004
   -332043.24949   -272643.40347  23177893.462    23177892.9584   23177901.1934
       195.0004        195.0004
   -432946.03348   -345308.46047  22099688.511    22099688.2284   22099694.7474
       193.0004        193.0004
  -1157797.92648   -869295.39046  22614420.160    22614420.5244   22614425.4474
       177.0004        178.0004
 21  2  3  1 59 30.0000000  0 10G04G30G14G21G28G01G07G08G09G17
   -266175.49147   -215719.04145  23947795.047    23947796.1284   23947801.4584
       151.0004        155.0004
  -1331342.82048  -1018323.00047  22034819.487    22034820.3154   22034826.9204
       190.0004        190.0004
   -978225.89448   -753726.33746  23125063.812    23125065.2284   23125070.8224
       165.0004        167.0004
   -586793.24948   -457258.41346  22047074.427    22047073.4834   22047078.1894
       184.0004        184.0004
   -876352.61147   -670835.79945  23556607.774    23556607.3324   23556610.7474
       149.0004        153.0004
  -1054085.72449   -807503.73147  20986037.406    20986038.2984   20986045.8914
       198.0004        198.0004
  -1094583.97849   -832637.76347  20650463.510    20650463.8754   20650468.0654
       210.0004        211.0004
   -237273.74948   -198797.01347  23195927.201    23195927.4824   23195935.2254
       194.0004        195.0004
   -360715.24048   -289024.67847  22113432.781    22113432.7894   22113439.5724
       193.0004        193.0004
  -1221463.60648   -918904.95046  22602305.054    22602305.8184   22602309.8964
       178.0004        179.0004
 21  2  3  2  0  0.0000000  0 10G04G30G14G21G28G01G07G08G09G17
   -168810.36447   -139850.09045  23966323.537    23966323.6204   23966329.8324
       151.0004        153.0004
  -1413103.13748  -1082032.28647  22019260.599    22019260.9634   22019268.1334
       189.0004        188.0004
  -1004832.82648   -774458.96646  23120001.923    23120003.2374   23120007.9044
       166.0004        167.0004
   -548922.50948   -427748.68446  22054280.157    22054280.3684   22054284.2714
       183.0004        183.0004
   -892064.48847   -683078.76245  23553617.713    23553617.0574   23553621.0644
       149.0004        151.0004
  -1090154.20349   -835608.96647  20979174.280    20979174.5854   20979182.7364
       199.0004        199.0004
  -1141914.46049   -869518.61347  20641456.554    20641457.2374   20641461.1184
       210.0004        211.0004
   -142481.12948   -124932.61647  23213966.249    23213965.8284   23213973.2804
       194.0004        193.0004
   -288272.89548   -232576.05247  22127216.325    22127217.1604   22127225.1794
       192.0004        192.0004
  -1284735.16148   -968207.37946  22590265.302    22590265.6064   22590269.4564
       178.0004        179.0004
 21  2  3  2  0 30.0000000  0 10G04G30G14G21G28G01G07G08G09G17
    -71508.80947    -64030.68745  23984837.425    23984838.1404   23984847.0984
       150.0004        152.0004
  -1494691.53148  -1145607.60847  22003735.989    22003735.3034   22003742.4424
       188.0004        190.0004
  -1031482.90047   -795225.18546  23114931.367    23114931.1954   23114937.7194
       164.0004        164.0004
   -510567.37448   -397861.51246  22061579.086    22061578.7954   22061582.6824
       183.0004        184.0004
   -907825.55347   -695360.05745  23550617.292    23550616.6964   23550620.8804
       148.0004        151.0004
  -1125721.78549   -863323.91947  20972404.203    20972405.6014   20972413.9614
       199.0004        199.0004
  -1188854.13849   -906094.95347  20632524.678    20632525.0434   20632528.6834
       211.0004        212.0004
    -47669.53148    -51053.41047  23232008.288    23232007.5784   23232015.3624
       193.0004        192.0004
   -215623.07748   -175965.77247  22141041.142    22141041.9184   22141050.2774
       191.0004        191.0004
  -1347612.36348  -1017202.54646  22578299.177    22578299.4044   22578303.6634
       177.0004        177.0004
 21  2  3  2  1  0.0000000  0 10G04G30G14G21G28G01G07G08G09G17
     25728.17047     11738.35045  24003343.066    24003342.8564   24003349.2844
       148.0004        150.0004
  -1576103.77648  -1209045.67347  21988243.349    21988243.4394   21988250.3844
       189.0004        190.0004
  -1058175.31947   -816024.42646  23109850.799    23109852.2584   23109857.2174
       163.0004        164.0004
   -471726.89148   -367596.13946  22068969.978    22068969.5474   22068974.3814
       183.0004        184.0004
   -923634.85847   -707678.95745  23547609.690    23547609.0824   23547613.7544
       149.0004        152.0004
  -1160784.58249   -890645.53347  20965733.206    20965734.0274   20965741.4374
       199.0004        199.0004
  -1235398.84049   -942363.51447  20623667.331    20623667.6254   20623671.6734
       211.0004        212.0004
     47160.57148     22840.21147  23250054.013    23250053.1584   23250061.1704
       192.0004        192.0004
   -142767.30748   -119195.02047  22154906.541    22154906.7154   22154913.6364
       191.0004        191.0004
  -1410093.50348  -1065889.07846  22566409.701    22566410.3944   22566415.0284
       178.0004        180.0004
 21  2  3  2  1 30.0000000  0 10G04G30G14G21G28G01G07G08G09G17
    122896.70647     87454.09245  24021833.790    24021833.9174   24021838.5734
       146.0004        149.0004
  -1657338.60048  -1272345.49847  21972785.054    21972785.2234   21972791.5384
       190.0004        191.0004
  -1084912.22947   -836858.34246  23104763.503    23104763.6424   23104768.6404
       162.0004        164.0004
   -432403.41748   -336954.42746  22076453.358    22076452.3384   22076457.6964
       183.0004        183.0004
   -939495.41247   -720037.78245  23544591.077    23544591.2644   23544596.0694
       150.0004        154.0004
  -1195341.58249   -917573.01547  20959157.465    20959157.6624   20959165.4934
       199.0004        199.0004
  -1281547.40449   -978323.40147  20614885.457    20614885.8044   20614889.8884
       211.0004        212.0004
    142005.87148     96745.67047  23268102.027    23268101.0704   23268109.5494
       192.0004        192.0004
    -69709.92648    -62267.15447  22168808.079    22168809.2804   22168815.5014
       191.0004        191.0004
  -1472179.20648  -1114267.47946  22554595.077    22554595.1554   22554599.7484
       178.0004        179.0004
 21  2  3  2  2  0.0000000  0 10G04G30G14G21G28G01G07G08G09G17
    219994.85847    163115.00445  24040309.115    24040309.4904   24040315.2104
       146.0004        149.0004
  -1738392.84048  -1335504.61547  21957362.206    21957361.2154   21957367.7824
       191.0004        192.0004
  -1111693.87847   -857727.09946  23099666.996    23099667.1184   23099672.3614
       163.0004        165.0004
   -392597.38848   -305936.68446  22084028.211    22084027.5744   22084032.3204
       183.0004        183.0004
   -955407.72547   -732436.92945  23541562.628    23541562.3084   23541567.0114
       150.0004        152.0004
  -1229389.89949   -944104.11147  20952678.008    20952678.7274   20952686.4774
       199.0004        200.0004
  -1327296.47249  -1013971.99347  20606179.808    20606180.0164   20606184.2734
       211.0004        211.0004
    236864.32248    170661.38147  23286149.429    23286150.9754   23286160.7044
       191.0004        191.0004
      3546.58048     -5184.12947  22182749.945    22182749.5484   22182756.4394
       191.0004        191.0004
  -1533867.80748  -1162336.46746  22542856.193    22542856.8144   22542861.3754
       179.0004        181.0004
 21  2  3  2  2 30.0000000  0 10G04G30G14G21G28G01G07G08G09G17
    317021.15347    238719.93045  24058775.260    24058775.1134   24058780.3014
       146.0004        149.0004
  -1819262.85748  -1398520.17347  21941972.974    21941972.4354   21941979.0194
       192.0004        193.0004
  -1138520.01948   -878630.54546  23094562.255    23094562.4804   23094568.5734
       165.0004        168.0004
   -352307.53348   -274541.95446  22091695.347    22091694.3424   22091698.9634
       182.0004        182.0004
   -971372.36447   -744876.86045  23538524.557    23538524.7474   23538529.1124
       152.0004        155.0004
  -1262926.23149   -970236.28147  20946296.563    20946297.0384   20946304.6384
       200.0004        200.0004
  -1372642.25049  -1049306.34347  20597551.009    20597551.1394   20597555.0534
       211.0004        211.0004
    331734.82348    244586.48447  23304203.703    23304204.5244   23304214.1214
       190.0004        190.0004
     77000.21548     52052.49947  22196726.797    22196726.9704   22196734.4104
       190.0004        190.0004
  -1595157.24948  -1210094.40646  22531192.717    22531193.9324   22531199.1644
       180.0004        182.0004
 21  2  3  2  3  0.0000000  0 10G04G30G14G21G28G01G07G08G09G17
    413971.66947    314265.77645  24077224.685    24077223.5604   24077230.3404
       145.0004        148.0004
  -1899947.41848  -1461391.21647  21926617.730    21926617.7864   21926625.4034
       192.0004        192.0004
  -1165392.84748   -899570.37146  23089448.844    23089449.8704   23089454.2404
       167.0004        168.0004
   -311536.54948   -242772.30746  22099453.808    22099453.0714   22099457.8574
       182.0004        182.0004
   -987391.78047   -757359.48945  23535477.510    23535477.1394   23535481.4474
       153.0004        155.0004
  -1295949.68449   -995968.79447  20940012.518    20940012.9764   20940020.7394
       200.0004        200.0004
  -1417584.27349  -1084326.07247  20588998.192    20588998.7024   20589003.0184
       210.0004        211.0004
    426612.94248    318517.51647  23322258.009    23322259.0704   23322268.4864
       189.0004        188.0004
    150646.53648    109439.27947  22210741.128    22210741.6854   22210748.6354
       191.0004        192.0004
  -1656048.44348  -1257542.04346  22519606.818    22519606.4764   22519611.4944
       182.0004        183.0004
 21  2  3  2  3 30.0000000  0 10G04G30G14G21G28G01G07G08G09G17
    510843.34147    389750.20245  24095657.618    24095657.6514   24095663.6184
       146.0004        150.0004
  -1980444.46148  -1524116.14747  21911299.766    21911300.2114   21911306.4504
       192.0004        192.0004
  -1192313.71948   -920547.62046  23084325.993    23084325.6104   23084331.2764
       165.0004        165.0004
   -270285.69848   -210628.74846  22107303.124    22107302.8264   22107307.4164
       182.0004        182.0004
  -1003467.71447   -769886.13545  23532416.459    23532417.0514   23532421.3504
       150.0004        152.0004
  -1328458.61149  -1021300.38147  20933827.129    20933826.9424   20933834.2584
       200.0004        201.0004
  -1462120.21149  -1119029.37447  20580523.548    20580523.8284   20580528.0124
       211.0004        212.0004
    521496.40548    392452.68847  23340315.656    23340315.9024   23340324.2284
       188.0004        188.0004
    224481.91948    166973.36947  22224790.971    22224791.5304   22224799.0544
       190.0004        191.0004
  -1716541.35348  -1304679.33846  22508095.152    22508095.0754   22508099.9984
       182.0004        183.0004
 21  2  3  2  4  0.0000000  0 10G04G30G14G21G28G01G07G08G09G17
    607633.77747    465171.30845  24114075.202    24114076.3974   24114083.0214
       147.0004        150.0004
  -2060751.18648  -1586692.78247  21896018.321    21896018.4884   21896024.9274
       193.0004        194.0004
  -1219283.16048   -941562.72346  23079194.049    23079194.6174   23079198.6914
       165.0004        166.0004
   -228556.21248   -178112.22146  22115243.993    22115243.2304   22115247.6184
       181.0004        182.0004
  -1019601.56847   -782457.94645  23529348.313    23529347.5734   23529350.7804
       148.0004        151.0004
  -1360450.55249  -1046229.12547  20927738.679    20927739.3554   20927746.2194
       200.0004        201.0004
  -1506247.28649  -1153414.07747  20572126.003    20572126.7144   20572130.7524
       211.0004        211.0004
    616383.14648    466390.43447  23358374.069    23358373.0444   23358381.3564
       189.0004        190.0004
    298503.52748    224652.57147  22238877.150    22238877.5554   22238884.8214
       190.0004        190.0004
  -1776635.20248  -1351505.66546  22496659.248    22496659.8114   22496664.2264
       182.0004        183.0004
 21  2  3  2  4 30.0000000  0 10G04G30G14G21G28G01G07G08G09G17
    704340.42847    540527.13345  24132478.915    24132479.3564   24132485.5524
       148.0004        151.0004
  -2140865.14848  -1649119.21247  21880772.879    21880773.1194   21880780.0334
       194.0004        195.0004
  -1246302.19048   -962616.47546  23074052.752    23074052.8324   23074057.1294
       166.0004        168.0004
   -186348.54048   -145223.08246  22123276.291    22123275.3264   22123279.7604
       181.0004        180.0004
  -1035794.89047   -795076.05945  23526265.845    23526265.9694   23526270.2274
       147.0004        150.0004
  -1391923.56149  -1070753.50547  20921749.214    20921749.8384   20921757.2984
       200.0004        201.0004
  -1549963.24649  -1187478.43347  20563808.291    20563808.2354   20563811.6654
       211.0004        211.0004
    711270.52648    540328.65447  23376432.365    23376430.6894   23376437.5824
       189.0004        190.0004
    372708.10948    282474.35247  22252998.065    22252998.1874   22253005.7434
       190.0004        190.0004
  -1836328.96748  -1398020.23046  22485300.516    22485300.7954   22485304.6294
       183.0004        184.0004
 21  2  3  2  5  0.0000000  0 11G04G30G14G21G28G01G07G08G09G19G17
    800961.05047    615815.90745  24150866.686    24150865.9934   24150872.0964
       149.0004        152.0004
  -2220783.44749  -1711393.16747  21865565.294    21865565.2784   21865573.0994
       195.0004        196.0004
  -1273371.30448   -983709.23846  23068900.547    23068900.5084   23068906.4404
       166.0004        167.0004
   -143664.15548   -111962.47846  22131398.185    22131397.3304   22131401.9454
       180.0004        180.0004
  -1052047.93547   -807740.72845  23523172.740    23523172.5474   23523178.3324
       149.0004        153.0004
  -1422875.15849  -1094871.57947  20915859.266    20915859.8294   20915867.3994
       200.0004        201.0004
  -1593265.22049  -1221220.20547  20555567.145    20555567.7404   20555571.7064
       210.0004        211.0004
    806156.68448    614265.92847  23394488.912    23394487.6294   23394492.6874
       190.0004        191.0004
    447092.90048    340436.55747  22267152.918    22267153.5534   22267160.5714
       189.0004        189.0004
   -298526.99354   -209044.78543  24704830.096
        74.0004         74.0004
  -1895622.26048  -1444222.74246  22474017.194    22474017.3394   22474022.1704
       183.0004        183.0004
 21  2  3  2  5 30.0000000  0 11G04G30G14G21G28G01G07G08G09G19G17
    897493.60047    691036.05545  24169234.448    24169234.5304   24169240.5824
       149.0004        151.0004
  -2300502.98249  -1773512.24847  21850395.194    21850394.8064   21850401.8444
       195.0004        195.0004
  -1300490.76048  -1004841.23346  23063740.584    23063740.9254   23063745.6344
       166.0004        168.0004
   -100502.53148    -78330.00546  22139611.294    22139610.5504   22139615.5624
       179.0004        180.0004
  -1068361.77447   -820452.75945  23520069.416    23520069.3054   23520072.1104
       149.0004        151.0004
  -1453302.67849  -1118581.30447  20910069.212    20910069.6974   20910077.1664
       201.0004        201.0004
  -1636150.45149  -1254637.24247  20547406.767    20547407.1604   20547410.9164
       210.0004        211.0004
    901039.47948    688200.60247  23412539.895    23412540.9584   23412547.5444
       189.0004        188.0004
    521655.35448    398537.19547  22281342.136    22281342.0764   22281349.4814
       188.0004        188.0004
   -388258.01844   -278961.54844  24687753.845
        74.0004        106.0004
  -1954513.94048  -1490112.30946  22462810.346    22462810.9204   22462815.4854
       182.0004        183.0004
 21  2  3  2  6  0.0000000  0 11G04G30G14G21G28G01G07G08G09G19G17
    993937.12747    766186.83945  24187586.942    24187586.7264   24187592.8814
       147.0004        150.0004
  -2380019.61448  -1835473.24447  21835263.267    21835263.6544   21835269.6934
       194.0004        194.0004
  -1327659.78248  -1026011.86146  23058569.728    23058570.0324   23058575.8934
       165.0004        166.0004
    -56863.41648    -44325.47246  22147915.401    22147915.0964   22147920.0914
       180.0004        180.0004
  -1084736.37347   -833212.14645  23516952.252    23516952.6644   23516956.9854
       148.0004        151.0004
  -1483202.58049  -1141879.89747  20904379.750    20904379.9064   20904387.6774
       201.0004        201.0004
  -1678614.84549  -1287726.35547  20539326.445    20539326.5444   20539330.2564
       211.0004        212.0004
    995918.31848    762132.17647  23430595.893    23430595.6924   23430603.8914
       188.0004        188.0004
    596393.89448    456775.03746  22295563.767    22295564.4494   22295570.8724
       187.0004        186.0004
   -476278.69744   -347545.646 4                                  24671064.044
        74.0004        110.000
  -2013001.47148  -1535686.98746  22451680.945    22451680.5114   22451685.7654
       183.0004        183.0004
 21  2  3  2  6 30.0000000  0 10G04G30G14G21G28G01G07G08G09G17
   1090288.71347    841265.97745  24205921.872    24205922.9304   24205928.3664
       147.0004        151.0004
  -2459331.14949  -1897274.41747  21820171.071    21820171.0164   21820177.1894
       195.0004        195.0004
  -1354879.60748  -1047222.08746  23053390.142    23053390.8784   23053395.5144
       166.0004        167.0004
    -12748.22148     -9949.96546  22156309.809    22156310.3394   22156314.5494
       180.0004        180.0004
  -1101173.39547   -846020.19945  23513824.856    23513824.8094   23513830.2744
       151.0004        154.0004
  -1512573.18949  -1164766.04147  20898790.426    20898790.8454   20898798.5154
       201.0004        201.0004
  -1720656.60449  -1320486.14047  20531326.079    20531326.3374   20531329.9974
       211.0004        212.0004
   1090790.47848    836058.53746  23448649.660    23448649.6814   23448656.9224
       187.0004        186.0004
    671304.98148    515147.33946  22309819.066    22309819.0584   22309825.7594
       186.0004        186.0004
  -2071085.05848  -1580946.86946  22440626.681    22440627.1144   22440631.8044
       182.0004        182.0004
 21  2  3  2  7  0.0000000  0 10G04G30G14G21G28G01G07G08G09G17
   1186545.06347    916270.87445  24224239.982    24224240.1584   24224244.3134
       148.0004        151.0004
  -2538435.87449  -1958914.44447  21805117.807    21805117.9354   21805124.6534
       195.0004        196.0004
  -1382151.78548  -1068473.09646  23048200.501    23048201.7804   23048205.9924
       167.0004        169.0004
     31841.00648     24794.91746  22164795.667    22164795.2594   22164799.5804
       180.0004        179.0004
  -1117674.68947   -858878.33945  23510683.526    23510683.6314   23510688.2424
       149.0004        151.0004
  -1541413.25249  -1187238.79247  20893301.749    20893302.4944   20893310.5724
       201.0004        201.0004
  -1762273.71049  -1352915.04247  20523406.306    20523406.4904   20523410.4644
       211.0004        211.0004
   1185653.11248    909977.49946  23466700.513    23466700.6654   23466709.1454
       186.0004        187.0004
    746384.72748    573651.05446  22324106.199    22324106.8654   22324113.9944
       186.0004        186.0004
  -2128764.92848  -1625892.21146  22429651.910    22429652.1314   22429656.0044
       182.0004        182.0004
 21  2  3  2  7 30.0000000  0 10G04G30G14G21G28G01G07G08G09G17
   1282704.05047    991199.90745  24242537.796    24242538.5394   24242543.3114
       148.0004        152.0004
  -2617330.75249  -2020390.94347  21790105.406    21790104.7604   21790111.8694
       196.0004        197.0004
  -1409476.72148  -1089765.21946  23043000.950    23043001.3164   23043006.5974
       168.0004        169.0004
     76903.54048     59908.61646  22173370.937    22173369.9114   22173374.2704
       180.0004        180.0004
  -1134241.50047   -871787.52145  23507531.563    23507531.2724   23507536.1344
       147.0004        151.0004
  -1569720.40849  -1209296.27547  20887915.156    20887915.8984   20887923.9444
       201.0004        200.0004
  -1803463.71749  -1385011.13247  20515568.002    20515568.1714   20515572.3124
       211.0004        211.0004
   1280503.74448    983887.09446  23484748.188    23484748.6934   23484758.5994
       185.0004        185.0004
    821630.46848    632284.11646  22338424.934    22338425.5594   22338433.2124
       186.0004        187.0004
  -2186040.17348  -1670522.20846  22418751.975    22418752.9404   22418755.5024
       181.0004        182.0004
 21  2  3  2  8  0.0000000  0 10G04G30G14G21G28G01G07G08G09G17
   1378763.00547   1066051.01845  24260816.591    24260816.4804   24260823.7264
       149.0004        151.0004
  -2696013.38549  -2081702.07247  21775131.270    21775131.8974   21775138.5364
       196.0004        196.0004
  -1436855.38148  -1111099.21246  23037790.571    23037791.3614   23037796.7004
       167.0004        168.0004
    122438.29348     95390.27546  22182036.119    22182035.5154   22182040.5764
       180.0004        180.0004
  -1150875.21947   -884748.81445  23504366.412    23504366.7624   23504371.5024
       148.0004        152.0004
  -1597492.87349  -1230937.13147  20882630.827    20882631.1084   20882638.8174
       200.0004        200.0004
  -1844224.06449  -1416772.42947  20507811.829    20507811.9444   20507815.8804
       211.0004        212.0004
   1375340.41248   1057785.82647  23502796.298    23502796.7844   23502805.2494
       187.0004        188.0004
    897038.83348    691043.89646  22352775.034    22352775.3224   22352782.1804
       186.0004        187.0004
  -2242910.34348  -1714836.60046  22407930.498    22407930.5424   22407934.4904
       182.0004        181.0004
 21  2  3  2  8 30.0000000  0 10G04G30G14G21G28G01G07G08G09G17
   1474719.16747   1140822.01645  24279076.430    24279076.5574   24279083.1574
       148.0004        151.0004
  -2774481.54049  -2142846.07047  21760200.337    21760199.7664   21760206.2494
       196.0004        196.0004
  -1464288.87048  -1132475.94546  23032571.202    23032571.4724   23032575.6944
       167.0004        168.0004
    168443.53348    131238.53846  22190790.222    22190790.0444   22190794.0724
       180.0004        181.0004
  -1167577.24847   -897763.35545  23501188.790    23501187.9744   23501193.1264
       149.0004        152.0004
  -1624729.02049  -1252160.07447  20877447.363    20877447.6024   20877455.9714
       200.0004        200.0004
  -1884553.01149  -1448197.56447  20500137.003    20500137.5204   20500141.7444
       211.0004        212.0004
   1470160.36348   1131671.51247  23520839.973    23520841.1684   23520848.8124
       187.0004        188.0004
    972606.43648    749927.75946  22367155.107    22367154.7614   22367162.1874
       186.0004        187.0004
  -2299375.43348  -1758835.33346  22397185.918    22397185.8784   22397189.7004
       183.0004        184.0004
 21  2  3  2  9  0.0000000  0 11G04G30G14G21G28G01G07G08G09G19G17
   1570570.40947   1215511.21845  24297316.368    24297316.7934   24297323.8744
       147.0004        150.0004
  -2852732.24949  -2203820.62947  21745309.351    21745309.3174   21745315.6624
       196.0004        197.0004
  -1491777.55348  -1153895.63346  23027338.760    23027339.4544   23027345.9044
       167.0004        167.0004
    214918.97148    167453.19046  22199633.580    22199632.9284   22199638.1564
       179.0004        179.0004
  -1184348.23547   -910831.63545  23497996.755    23497996.1234   23498001.2744
       149.0004        152.0004
  -1651426.53649  -1272963.31547  20872366.033    20872367.3354   20872375.2244
       199.0004        199.0004
  -1924447.92649  -1479284.50247  20492545.791    20492545.9214   20492550.0434
       211.0004        212.0004
   1564961.78248   1205542.76247  23538881.876    23538881.8774   23538889.1684
       188.0004        189.0004
   1048330.55648    808933.57946  22381564.555    22381565.4174   22381572.1844
       186.0004        187.0004
  -1567865.16154  -1194618.24943  24569413.472
        74.0004         74.0004
  -2355434.81348  -1802517.93046  22386517.200    22386517.6154   22386521.6454
       183.0004        183.0004
 21  2  3  2  9 30.0000000  0 11G04G30G14G21G28G01G07G08G09G19G17
   1666314.69447   1290117.09245  24315534.947    24315535.3724   24315544.3444
       147.0004        149.0004
  -2930762.44849  -2264623.36147  21730460.082    21730460.2454   21730467.3064
       196.0004        196.0004
  -1519321.73048  -1175358.61546  23022097.595    23022098.5154   23022102.8064
       167.0004        168.0004
    261863.36548    204033.27146  22208566.790    22208566.6204   22208571.8874
       179.0004        180.0004
  -1201189.38247   -923954.58845  23494792.616    23494792.0644   23494796.2984
       151.0004        155.0004
  -1677583.09649  -1293345.02047  20867389.650    20867390.1864   20867397.9574
       199.0004        200.0004
  -1963905.95249  -1510031.00147  20485036.638    20485036.9444   20485041.1774
       211.0004        212.0004
   1659742.41148   1279397.81547  23556917.687    23556918.1844   23556926.0724
       188.0004        189.0004
   1124208.49348    868059.25846  22396004.286    22396004.3784   22396011.4124
       186.0004        185.0004
  -1655797.79244  -1263137.47045  24552680.131
        74.0004        147.0004
  -2411087.45448  -1845883.58446  22375926.952    22375926.8674   22375931.7994
       182.0004        182.0004
 21  2  3  2 10  0.0000000  0 11G04G30G14G21G28G01G07G08G09G19G17
   1761949.47747   1364637.65045  24333733.117    24333735.2314   24333741.0294
       145.0004        148.0004
  -3008569.69749  -2325252.36047  21715653.989    21715654.2534   21715661.4364
       196.0004        197.0004
  -1546922.25248  -1196865.52346  23016847.304    23016846.9634   23016851.2954
       168.0004        169.0004
    309275.96748    240978.16846  22217589.774    22217589.2414   22217594.4304
       180.0004        180.0004
  -1218101.80447   -937133.08345  23491575.322    23491575.1504   23491578.6454
       155.0004        159.0004
  -1703196.92049  -1313303.82247  20862515.421    20862516.1334   20862523.5704
       200.0004        200.0004
  -2002924.83949  -1540435.31647  20477611.522    20477612.1034   20477616.3254
       211.0004        212.0004
   1754500.26948   1353235.08947  23574950.289    23574950.3104   23574957.6194
       188.0004        189.0004
   1200237.05248    927302.29346  22410471.758    22410471.7544   22410477.9714
       184.0004        184.0004
  -1743499.02744  -1331475.98345  24535992.640
        74.0004        152.0004
  -2466332.92648  -1888931.98346  22365414.201    22365414.7074   22365418.4604
       183.0004        182.0004
 21  2  3  2 10 30.0000000  0 11G04G30G14G21G28G01G07G08G09G19G17
   1857471.72147   1439070.53545  24351911.334    24351912.0894   24351917.6754
       143.0004        146.0004
  -3086152.00949  -2385706.08847  21700890.991    21700891.0594   21700897.3564
       196.0004        197.0004
  -1574580.50448  -1218417.35746  23011582.563    23011582.5624   23011588.5134
       167.0004        166.0004
    357155.19148    278286.68746  22226700.635    22226700.6474   22226705.0844
       180.0004        179.0004
  -1235087.45147   -950368.61745  23488342.427    23488342.4444   23488345.9584
       157.0004        159.0004
  -1728266.76949  -1332838.74347  20857745.352    20857745.6084   20857752.8864
       200.0004        200.0004
  -2041502.74449  -1570496.00648  20470270.595    20470271.2614   20470275.4694
       212.0004        213.0004
   1849232.32748   1427052.29046  23592976.432    23592976.8354   23592983.2694
       187.0004        187.0004
   1276412.52048    986659.82046  22424966.949    22424967.7084   22424973.7744
       184.0004        184.0004
  -1830968.08347  -1399633.55845  24519347.248                    24519350.5164
       142.0004        153.0004
  -2521171.64048  -1931663.41146  22354979.170    22354979.9504   22354983.7634
       183.0004        185.0004
 21  2  3  2 11  0.0000000  0 11G04G30G14G21G28G01G07G08G09G19G17
   1952879.01847   1513413.86445  24370068.544    24370067.7584   24370073.4754
       141.0004        145.0004
  -3163506.73249  -2445982.48247  21686170.717    21686171.2314   21686177.7754
       197.0004        198.0004
  -1602297.19248  -1240014.73246  23006308.120    23006309.0064   23006312.6524
       165.0004        166.0004
    405499.19248    315957.37246  22235899.431    22235899.4924   22235904.1804
       179.0004        179.0004
  -1252147.51047   -963662.12545  23485094.997    23485095.9724   23485099.1484
       156.0004        159.0004
  -1752790.83149  -1351948.37347  20853078.521    20853078.6844   20853086.6704
       200.0004        200.0004
  -2079637.65849  -1600211.51248  20463014.240    20463014.2694   20463018.3624
       212.0004        213.0004
   1943936.86748   1500848.03346  23610996.922    23610997.6514   23611005.8894
       185.0004        185.0004
   1352731.81548   1046129.42546  22439490.353    22439491.1684   22439497.6324
       183.0004        184.0004
  -1918203.58547  -1467609.21945  24502745.594    24502744.7194   24502750.5764
       148.0004        153.0004
  -2575603.37948  -1974077.70146  22344620.703    22344620.6994   22344625.3274
       183.0004        182.0004
 21  2  3  2 11 30.0000000  0 11G04G30G14G21G28G01G07G08G09G19G17
   2048169.64247   1587666.25545  24388199.648    24388200.6564   24388207.8094
       140.0004        144.0004
  -3240630.58049  -2506078.97447  21671494.746    21671494.6834   21671500.7274
       197.0004        197.0004
  -1630072.26548  -1261657.62746  23001023.432    23001023.5554   23001027.8374
       165.0004        166.0004
    454307.62348    353989.92546  22245187.945    22245187.5814   22245193.1904
       179.0004        179.0004
  -1269282.54247   -977014.06245  23481835.617    23481835.5704   23481838.9534
       157.0004        160.0004
  -1776766.52149  -1370630.70747  20848515.679    20848516.3334   20848524.0544
       200.0004        200.0004
  -2117326.46649  -1629579.40648  20455841.704    20455842.1624   20455846.4154
       212.0004        213.0004
   2038612.03448   1574620.90646  23629012.058    23629013.2104   23629021.9184
       184.0004        185.0004
   1429192.59748   1105709.27346  22454041.320    22454041.2094   22454047.4044
       185.0004        185.0004
  -2005203.63047  -1535401.37745  24486189.528    24486189.1174   24486194.6884
       150.0004        153.0004
  -2629627.06348  -2016174.06346  22334339.527    22334340.1534   22334344.0134
       181.0004        181.0004
 21  2  3  2 12  0.0000000  0 11G04G30G14G21G28G01G07G08G09G19G17
   2143341.47847   1661826.10445  24406309.541    24406310.5864   24406318.0464
       141.0004        144.0004
  -3317520.60049  -2565993.26847  21656863.186    21656862.7624   21656869.7344
       196.0004        196.0004
  -1657906.06148  -1283346.28346  22995726.267    22995726.9734   22995731.5804
       165.0004        167.0004
    503579.67148    392383.75446  22254563.605    22254563.9874   22254568.4334
       179.0004        179.0004
  -1286493.48847   -990425.15045  23478561.635    23478561.0764   23478564.4364
       157.0004        158.0004
  -1800191.76549  -1388884.13347  20844057.388    20844058.2084   20844066.2384
       200.0004        200.0004
  -2154566.38149  -1658597.51948  20448755.900    20448756.2894   20448760.1184
       212.0004        214.0004
   2133255.62248   1648369.15946  23647024.317    23647024.2714   23647031.5154
       185.0004        185.0004
   1505792.09148   1165397.18546  22468616.580    22468617.2584   22468623.7724
       184.0004        185.0004
  -2091966.15647  -1603008.46445  24469679.845    24469678.4204   24469683.1144
       148.0004        151.0004
  -2683241.27348  -2057951.33746  22324137.575    22324138.0614   22324142.6864
       183.0004        184.0004
 21  2  3  2 12 30.0000000  0 11G04G30G14G21G28G01G07G08G09G19G17
   2238392.99847   1735892.16845  24424397.155    24424398.5144   24424406.4704
       139.0004        144.0004
  -3394173.38249  -2625722.67847  21642275.075    21642275.6344   21642283.3194
       196.0004        197.0004
  -1685798.51448  -1305080.63346  22990418.349    22990419.2674   22990424.1464
       167.0004        169.0004
    553314.60348    431138.26646  22264028.101    22264028.5704   22264033.3424
       179.0004        180.0004
  -1303780.53147  -1003895.53445  23475271.082    23475270.6044   23475272.8024
       153.0004        153.0004
  -1823063.98849  -1406706.62347  20839705.429    20839705.9754   20839713.6184
       199.0004        199.0004
  -2191354.61749  -1687263.67148  20441754.879    20441755.3564   20441759.3944
       212.0004        213.0004
   2227866.92648   1722092.26746  23665027.230    23665027.2904   23665036.2234
       183.0004        182.0004
   1582527.99848   1225191.40446  22483219.256    22483219.3144   22483226.0194
       183.0004        184.0004
  -2178488.88547  -1670428.69745  24453214.754    24453214.2194   24453218.5034
       147.0004        151.0004
  -2736445.80548  -2099409.37646  22314012.745    22314013.2894   22314017.1584
       182.0004        183.0004
 21  2  3  2 13  0.0000000  0 11G04G30G14G21G28G01G07G08G09G19G17
   2333321.50647   1809862.38145  24442464.065    24442464.5574   24442471.3524
       138.0004        143.0004
  -3470586.54549  -2685265.38747  21627735.813    21627735.6734   21627742.1984
       197.0004        198.0004
  -1713750.55648  -1326861.40646  22985100.343    22985100.2834   22985105.0324
       169.0004        170.0004
    603511.58848    470252.81846  22273580.526    22273580.1754   22273585.3574
       179.0004        180.0004
  -1321144.95047  -1017426.25345  23471962.578    23471961.9894   23471970.4104
       149.0004        150.0004
  -1845381.69949  -1424097.01947  20835458.512    20835459.1524   20835466.5714
       199.0004        199.0004
  -2227689.12849  -1715576.26448  20434839.967    20434840.8284   20434844.7444
       212.0004        213.0004
   2322443.01648   1795787.94746  23683025.378    23683025.1904   23683033.3034
       182.0004        184.0004
   1659397.00648   1285089.34146  22497847.594    22497847.4024   22497853.8134
       183.0004        184.0004
  -2264771.10347  -1737661.50345  24436795.671    24436795.0274   24436800.9804
       149.0004        153.0004
  -2789240.21448  -2140547.85346  22303966.829    22303967.1604   22303971.1204
       183.0004        184.0004
 21  2  3  2 13 30.0000000  0 11G04G30G14G21G28G01G07G08G09G19G17
   2428124.45647   1883734.76445  24460505.389    24460505.2644   24460509.6274
       138.0004        142.0004
  -3546757.63849  -2744619.47247  21613240.743    21613240.6024   21613246.6514
       197.0004        197.0004
  -1741762.98048  -1348689.26046  22979769.500    22979769.4904   22979773.6144
       168.0004        168.0004
    654168.92748    509726.09946  22283219.759    22283219.5024   22283226.0084
       179.0004        179.0004
  -1338588.30347  -1031018.47945  23468643.877    23468644.4274   23468650.1434
       148.0004        152.0004
  -1867143.35649  -1441054.12847  20831318.393    20831318.1264   20831325.4124
       199.0004        200.0004
  -2263567.67449  -1743533.56748  20428013.111    20428013.6694   20428017.5694
       212.0004        214.0004
   2416981.51248   1869454.29746  23701016.624    23701014.6384   23701023.4774
       181.0004        181.0004
   1736395.92648   1345088.49946  22512499.572    22512499.7904   22512506.9494
       184.0004        185.0004
  -2350811.55647  -1804705.95045  24420424.072    24420423.0134   24420426.1724
       150.0004        153.0004
  -2841624.19848  -2181366.50746  22293998.023    22293997.7844   22294002.7264
       183.0004        183.0004
 21  2  3  2 14  0.0000000  0 11G04G30G14G21G28G01G07G08G09G19G17
   2522799.51747   1957507.47245  24478520.696    24478520.7504   24478527.1334
       137.0004        142.0004
  -3622684.08749  -2803782.91647  21598792.144    21598791.8044   21598799.0234
       196.0004        196.0004
  -1769836.50248  -1370564.71446  22974427.380    22974427.4974   22974432.0714
       168.0004        171.0004
    705284.89148    549556.74346  22292946.923    22292946.7254   22292952.6144
       179.0004        178.0004
  -1356111.80447  -1044673.11445  23465314.099    23465313.1304   23465315.3114
       151.0004        156.0004
  -1888347.27149  -1457576.63547  20827281.922    20827282.5464   20827291.2344
       199.0004        200.0004
  -2298988.07449  -1771133.86048  20421272.653    20421273.0444   20421277.4484
       212.0004        213.0004
   2511480.78548   1943090.06446  23718996.961    23718996.8524   23719005.6974
       180.0004        180.0004
   1813521.56848   1405186.43846  22527175.311    22527175.6844   22527182.9774
       183.0004        182.0004
  -2436608.81347  -1871560.90645  24404096.559    24404095.9874   24404098.1814
       149.0004        152.0004
  -2893598.07648  -2221865.59946  22284107.821    22284108.4804   22284112.7094
       183.0004        184.0004
 21  2  3  2 14 30.0000000  0 11G04G30G14G21G28G01G07G08G09G19G17
   2617344.82947   2031179.08245  24496511.259    24496511.6074   24496519.3054
       137.0004        142.0004
  -3698362.70949  -2862753.26147  21584390.219    21584390.7724   21584397.7414
       196.0004        197.0004
  -1797971.23148  -1392487.85746  22969072.219    22969073.4794   22969078.5304
       170.0004        171.0004
    756858.40048    589743.89746  22302760.637    22302760.4144   22302766.2784
       178.0004        177.0004
  -1373716.27947  -1058390.86345  23461963.891    23461963.1694   23461966.1064
       154.0004        157.0004
  -1908991.26749  -1473662.84947  20823353.745    20823354.4804   20823362.2404
       199.0004        199.0004
  -2333947.62349  -1798375.06248  20414620.275    20414620.7524   20414624.5484
       212.0004        213.0004
   2605938.92748   2016693.83046  23736970.141    23736970.8954   23736980.1264
       179.0004        179.0004
   1890771.47548   1465381.15746  22541876.683    22541876.9874   22541883.2064
       183.0004        184.0004
  -2522161.15347  -1938225.01145  24387817.055    24387816.3794   24387818.6714
       150.0004        153.0004
  -2945160.76448  -2262044.29246  22274295.324    22274295.8694   22274300.9474
       184.0004        185.0004
 21  2  3  2 15  0.0000000  0 11G04G30G14G21G28G01G07G08G09G19G17
   2711758.24147   2104747.88545  24514477.459    24514477.7524   24514486.4844
       137.0004        142.0004
  -3773790.73149  -2921528.32847  21570037.159    21570037.2374   21570044.0244
       197.0004        197.0004
  -1826167.61548  -1414459.06046  22963707.795    22963708.7504   22963711.9984
       170.0004        170.0004
    808888.78148    630287.06346  22312662.401    22312662.2384   22312667.6924
       178.0004        180.0004
  -1391402.45247  -1072172.28245  23458595.428    23458595.2804   23458600.7264
       154.0004        155.0004
  -1929073.57049  -1489311.38147  20819531.974    20819532.9004   20819540.3034
       199.0004        199.0004
  -2368443.95549  -1825255.31448  20408055.747    20408056.1984   20408060.0374
       212.0004        213.0004
   2700354.08448   2090264.08846  23754937.826    23754938.1244   23754946.8404
       179.0004        180.0004
   1968142.68048   1525670.42746  22556600.225    22556600.1964   22556606.8664
       184.0004        185.0004
  -2607467.14347  -2004697.11845  24371583.653    24371582.7114   24371586.4534
       153.0004        157.0004
  -2996311.70648  -2301902.14946  22264562.880    22264563.1294   22264566.9254
       185.0004        186.0004
 21  2  3  2 15 30.0000000  0 11G04G30G14G21G28G01G07G08G09G19G17
   2806037.34147   2178212.02945  24532416.905    24532417.7924   24532426.2914
       138.0004        142.0004
  -3848965.50749  -2980106.06047  21555732.397    21555732.5414   21555738.8874
       198.0004        199.0004
  -1854426.28148  -1436478.76446  22958330.251    22958330.9274   22958335.4514
       170.0004        171.0004
    861375.02748    671185.45946  22322650.544    22322649.9524   22322655.0784
       179.0004        179.0004
  -1409171.34147  -1086018.15145  23455211.870    23455211.7184   23455218.9014
       151.0004        153.0004
  -1948592.48949  -1504520.90047  20815818.264    20815818.9094   20815826.3774
       199.0004        199.0004
  -2402475.00949  -1851773.01248  20401580.393    20401580.6274   20401584.3424
       212.0004        214.0004
   2794724.23548   2163799.25146  23772895.634    23772896.0204   23772905.0664
       179.0004        180.0004
   2045632.22748   1586051.90746  22571345.195    22571345.7804   22571352.7044
       184.0004        184.0004
  -2692525.01847  -2070975.92445  24355396.637    24355395.7174   24355400.5654
       153.0004        155.0004
  -3047050.88748  -2341439.14146  22254907.274    22254907.6284   22254912.3334
       186.0004        187.0004
 21  2  3  2 16  0.0000000  0 11G04G30G14G21G28G01G07G08G09G19G17
   2900180.27947   2251570.09945  24550332.340    24550333.7894   24550340.9084
       138.0004        143.0004
  -3923884.09249  -3038484.17547  21541476.295    21541476.1114   21541482.8244
       199.0004        200.0004
  -1882747.52248  -1458547.22646  22952941.015    22952941.5334   22952945.1864
       169.0004        168.0004
    914315.69048    712437.92646  22332724.434    22332723.9574   22332728.8944
       178.0004        179.0004
  -1427023.92147  -1099929.22845  23451816.157    23451817.2574   23451819.2374
       149.0004        152.0004
  -1967546.11949  -1519289.94247  20812210.549    20812211.6544   20812219.0314
       199.0004        199.0004
  -2436037.98449  -1877925.97748  20395193.265    20395193.7524   20395197.6604
       213.0004        214.0004
   2889047.36848   2237297.79646  23790844.386    23790845.3104   23790853.5344
       178.0004        179.0004
   2123237.32048   1646523.41846  22586112.442    22586113.1284   22586119.2204
       182.0004        182.0004
  -2777333.52447  -2137060.40845  24339258.862    24339257.8454   24339261.7984
       153.0004        155.0004
  -3097378.09048  -2380655.12246  22245329.158    22245329.6644   22245335.4114
       185.0004        184.0004
 21  2  3  2 16 30.0000000  0 11G04G30G14G21G28G01G07G08G09G19G17
   2994184.25947   2324819.84645  24568221.868    24568222.3764   24568230.3834
       138.0004        144.0004
  -3998544.35549  -3096660.98147  21527268.500    21527268.2064   21527275.5404
       199.0004        199.0004
  -1911132.37848  -1480665.29046  22947539.285    22947540.3194   22947543.1734
       168.0004        169.0004
    967708.65348    754042.83846  22342884.656    22342884.3864   22342889.4974
       178.0004        179.0004
  -1444961.52847  -1113906.56945  23448404.907    23448404.4414   23448407.2614
       152.0004        155.0004
  -1985933.37749  -1533617.65647  20808712.078    20808712.8804   20808720.4174
       199.0004        199.0004
  -2469131.56049  -1903713.17348  20388895.323    20388895.8504   20388899.9834
       212.0004        213.0004
   2983320.68148   2310757.52346  23808783.106    23808784.6914   23808795.2754
       178.0004        178.0004
   2200954.49948   1707082.25746  22600902.085    22600902.3684   22600909.6774
       182.0004        183.0004
  -2861891.98847  -2202950.08345  24323167.310    24323166.7314   24323171.2454
       154.0004        156.0004
  -3147293.03348  -2419549.86946  22235831.548    22235831.9074   22235836.5924
       184.0004        185.0004
 21  2  3  2 17  0.0000000  0 11G04G30G14G21G28G01G07G08G09G19G17
   3088046.61147   2397959.23545  24586082.633    24586084.2814   24586091.1684
       139.0004        144.0004
  -4072943.86749  -3154634.62347  21513110.092    21513110.7884   21513117.3134
       199.0004        200.0004
  -1939581.72748  -1502833.62946  22942125.343    22942125.6924   22942130.2684
       169.0004        171.0004
   1021552.63848    795999.21946  22353131.674    22353131.1034   22353136.1514
       178.0004        179.0004
  -1462985.63247  -1127951.30245  23444974.012    23444973.4394   23444978.4824
       154.0004        157.0004
  -2003752.99349  -1547503.05247  20805321.965    20805322.1834   20805330.0584
       199.0004        200.0004
  -2501753.76849  -1929133.07948  20382688.093    20382688.2904   20382691.9954
       212.0004        214.0004
   3077542.40048   2384177.03746  23826714.724    23826715.6384   23826724.0694
       177.0004        178.0004
   2278780.43548   1767725.84346  22615712.519    22615712.5714   22615718.3264
       183.0004        184.0004
  -2946199.16047  -2268643.93245  24307124.203    24307122.8964   24307128.3454
       155.0004        157.0004
  -3196796.14648  -2458123.68846  22226411.390    22226412.3334   22226415.5904
       185.0004        186.0004
 21  2  3  2 17 30.0000000  0 11G04G30G14G21G28G01G07G08G09G19G17
   3181765.12447   2470986.56245  24603917.826    24603918.5204   24603925.1804
       139.0004        144.0004
  -4147080.04849  -3212403.06847  21499003.632    21499003.4884   21499009.7984
       200.0004        202.0004
  -1968096.20048  -1525052.65946  22936699.863    22936700.5324   22936704.4974
       170.0004        172.0004
   1075845.68848    838305.50446  22363462.775    22363462.6534   22363467.9704
       178.0004        179.0004
  -1481097.46847  -1142064.39845  23441528.092    23441527.9944   23441532.4334
       156.0004        158.0004
  -2021003.48049  -1560944.96147  20802038.453    20802039.0914   20802046.8284
       199.0004        200.0004
  -2533902.47149  -1954184.00848  20376570.255    20376570.3504   20376574.5094
       213.0004        213.0004
   3171710.24248   2457554.57146  23844635.857    23844635.2834   23844642.6334
       176.0004        176.0004
   2356712.04948   1828451.78846  22630541.931    22630542.2234   22630548.5454
       183.0004        183.0004
  -3030253.85847  -2334141.03645  24291129.132    24291127.8204   24291132.6254
       153.0004        154.0004
  -3245887.26748  -2496376.46746  22217069.317    22217069.7414   22217074.4494
       185.0004        186.0004
 21  2  3  2 18  0.0000000  0 11G04G30G14G21G28G01G07G08G09G19G17
   3275337.33447   2543899.88245  24621724.834    24621726.0224   24621729.5404
       139.0004        144.0004
  -4220950.42649  -3269964.38847  21484945.709    21484946.0214   21484952.5374
       200.0004        200.0004
  -1996676.51548  -1547323.00746  22931260.674    22931260.7064   22931265.7784
       171.0004        172.0004
   1130586.99748    880961.07546  22373879.520    22373878.8494   22373883.8304
       178.0004        179.0004
  -1499298.39847  -1156246.90745  23438064.882    23438063.9814   23438066.5484
       156.0004        157.0004
  -2037683.51849  -1573942.38247  20798864.617    20798865.3124   20798872.6554
       199.0004        199.0004
  -2565575.92449  -1978864.61248  20370542.899    20370543.3964   20370547.6354
       213.0004        214.0004
   3265821.94748   2530888.36946  23862545.645    23862545.2584   23862552.0724
       177.0004        178.0004
   2434746.14548   1889257.59546  22645390.408    22645390.7544   22645397.1954
       181.0004        181.0004
  -3114054.96247  -2399440.54345  24275182.743    24275181.7304   24275186.1324
       150.0004        152.0004
  -3294566.30248  -2534308.16447  22207806.514    22207807.0034   22207811.6054
       187.0004        188.0004
 21  2  3  2 18 30.0000000  0 11G04G30G14G21G28G01G07G08G09G19G17
   3368761.25247   2616697.66445  24639502.267    24639502.3474   24639507.8604
       139.0004        143.0004
  -4294552.12649  -3327316.35247  21470940.318    21470940.3404   21470946.5664
       200.0004        200.0004
  -2025322.95148  -1569644.90546  22925809.288    22925809.7264   22925813.9284
       170.0004        170.0004
   1185774.79848    923964.56146  22384380.872    22384380.5564   22384386.1504
       177.0004        177.0004
  -1517589.10547  -1170499.39445  23434584.144    23434583.3084   23434587.6404
       155.0004        156.0004
  -2053791.38249  -1586493.95247  20795800.138    20795800.2654   20795807.8004
       199.0004        200.0004
  -2596771.21849  -2003172.63248  20364606.787    20364607.0344   20364611.1024
       213.0004        214.0004
   3359875.87148   2604177.12146  23880441.105    23880441.6004   23880449.9924
       176.0004        177.0004
   2512879.96548   1950141.09446  22660260.019    22660259.7284   22660266.6114
       181.0004        182.0004
  -3197600.98947  -2464541.31345  24259283.873    24259283.8494   24259286.7544
       149.0004        152.0004
  -3342833.32048  -2571918.80847  22198621.433    22198621.9464   22198626.7804
       187.0004        188.0004
 21  2  3  2 19  0.0000000  0 11G04G30G14G21G28G01G07G08G09G19G17
   3462035.81047   2689379.08645  24657251.886    24657252.9974   24657258.0934
       138.0004        142.0004
  -4367881.31749  -3384455.98047  21456986.166    21456985.9104   21456992.9104
       200.0004        201.0004
  -2054034.88148  -1592017.81746  22920344.692    22920345.5494   22920350.1894
       168.0004        168.0004
   1241408.55548    967315.55646  22394968.469    22394967.7794   22394972.7844
       177.0004        178.0004
  -1535969.43047  -1184821.71445  23431085.211    23431086.0194   23431090.3364
       154.0004        157.0004
  -2069324.45749  -1598597.62447  20792843.923    20792843.9264   20792851.8264
       199.0004        200.0004
  -2627485.37049  -2027105.73548  20358761.694    20358762.2664   20358766.4744
       213.0004        214.0004
   3453871.19448   2677420.22646  23898329.434    23898329.3594   23898335.8864
       178.0004        179.0004
   2591111.67248   2011100.87946  22675146.177    22675146.9394   22675153.0284
       182.0004        183.0004
  -3280889.42947  -2529441.33345  24243435.659    24243434.3294   24243438.3784
       148.0004        150.0004
  -3390686.66348  -2609207.10246  22189514.630    22189514.9344   22189520.3844
       186.0004        186.0004
 21  2  3  2 19 30.0000000  0 11G04G30G14G21G28G01G07G08G09G19G17
   3555158.38147   2761942.09245  24674972.891    24674973.8014   24674978.6244
       139.0004        143.0004
  -4440935.79249  -3441381.52047  21443084.158    21443084.0514   21443091.4774
       201.0004        202.0004
  -2082813.33748  -1614442.56646  22914869.599    22914868.8624   22914873.7644
       168.0004        168.0004
   1297486.86648   1011012.95946  22405640.244    22405639.3544   22405644.0814
       177.0004        177.0004
  -1554440.90247  -1199215.05445  23427570.251    23427570.8654   23427575.1344
       156.0004        159.0004
  -2084281.73449  -1610252.62147  20789997.127    20789998.0394   20790005.4164
       200.0004        200.0004
  -2657716.76149  -2050662.64748  20353009.280    20353009.7024   20353013.7114
       213.0004        215.0004
   3547805.41848   2750615.73746  23916201.908    23916203.4324   23916212.5844
       180.0004        180.0004
   2669437.81448   2072134.25446  22690051.458    22690052.0924   22690058.6114
       183.0004        183.0004
  -3363919.45247  -2594140.01045  24227634.544    24227634.3534   24227637.4614
       147.0004        151.0004
  -3438126.89348  -2646173.49346  22180486.985    22180487.8364   22180492.6854
       186.0004        186.0004
 21  2  3  2 20  0.0000000  0 11G04G30G14G21G28G01G07G08G09G19G17
   3648127.02247   2834385.14745  24692663.943    24692664.6504   24692670.4614
       140.0004        144.0004
  -4513712.57949  -3498090.69547  21429235.013    21429235.1414   21429242.0964
       201.0004        202.0004
  -2111658.43048  -1636919.24546  22909380.011    22909380.7324   22909384.4574
       168.0004        169.0004
   1354008.29848   1055055.64346  22416395.247    22416395.1454   22416399.8674
       176.0004        177.0004
  -1573004.06947  -1213679.85345  23424038.975    23424037.8684   23424042.3594
       157.0004        160.0004
  -2098661.47849  -1621457.59847  20787260.172    20787261.1684   20787269.1854
       199.0004        199.0004
  -2687462.89649  -2073841.44948  20347348.620    20347348.9914   20347353.1504
       213.0004        214.0004
   3641676.94048   2823762.38046  23934066.364    23934066.9394   23934074.6804
       178.0004        177.0004
   2747855.71148   2133239.10346  22704973.705    22704974.1324   22704981.1704
       182.0004        181.0004
  -3446689.69747  -2658636.28245  24211883.470    24211883.2314   24211886.4274
       149.0004        153.0004
  -3485153.72948  -2682817.75347  22171539.412    22171539.3184   22171543.5894
       187.0004        188.0004
 21  2  3  2 20 30.0000000  0 11G04G30G14G21G28G01G07G08G09G19G17
   3740939.56047   2906706.55345  24710324.855    24710325.3244   24710332.8314
       139.0004        143.0004
  -4586208.92149  -3554581.34247  21415439.535    21415439.5544   21415446.4074
       201.0004        201.0004
  -2140570.62248  -1659448.21346  22903878.660    22903878.7724   22903884.4444
       169.0004        170.0004
   1410971.41548   1099442.49646  22427235.316    22427234.7534   22427239.1544
       176.0004        177.0004
  -1591660.03047  -1228216.94345  23420488.396    23420487.8274   23420492.3214
       156.0004        157.0004
  -2112462.29349  -1632211.46347  20784634.202    20784634.9994   20784643.0344
       199.0004        199.0004
  -2716722.03149  -2096640.78148  20341781.249    20341781.4594   20341785.1594
       213.0004        215.0004
   3735483.63148   2896858.51946  23951918.914    23951918.4784   23951927.0224
       179.0004        180.0004
   2826362.47648   2194413.20346  22719913.687    22719913.6194   22719920.3534
       181.0004        181.0004
  -3529198.44847  -2722928.77045  24196183.364    24196182.7644   24196185.9724
       153.0004        157.0004
  -3531766.75748  -2719139.56947  22162668.313    22162668.5524   22162673.1984
       188.0004        188.0004
 21  2  3  2 21  0.0000000  0 11G04G30G14G21G28G01G07G08G09G19G17
   3833593.22747   2978904.16245  24727955.967    24727956.1814   24727963.3634
       139.0004        143.0004
  -4658422.87849  -3610851.95247  21401697.732    21401697.9704   21401704.8384
       202.0004        202.0004
  -2169551.09448  -1682030.37146  22898363.255    22898363.9654   22898368.8604
       169.0004        170.0004
   1468374.17948   1144171.94246  22438159.410    22438158.4514   22438162.0334
       176.0004        176.0004
  -1610410.57647  -1242827.72645  23416920.284    23416920.2694   23416924.1664
       156.0004        158.0004
  -2125683.50349  -1642513.68447  20782118.036    20782119.3104   20782126.8224
       199.0004        199.0004
  -2745492.57349  -2119059.36848  20336306.149    20336306.2364   20336310.5814
       214.0004        215.0004
   3829222.97048   2969902.15346  23969756.408    23969756.8284   23969764.4224
       179.0004        179.0004
   2904954.39348   2255653.67746  22734868.313    22734868.1014   22734876.2554
       180.0004        179.0004
  -3611445.40647  -2787017.23445  24180531.043    24180530.6604   24180534.5324
       154.0004        156.0004
  -3577966.50748  -2755139.35247  22153876.529    22153877.2424   22153881.5804
       188.0004        188.0004
 21  2  3  2 21 30.0000000  0 10G30G14G21G28G01G07G08G09G19G17
  -4730349.37249  -3666898.56247  21388010.306    21388010.5094   21388017.3104
       201.0004        202.0004
  -2198597.85748  -1704664.20746  22892836.316    22892837.1124   22892840.8354
       169.0004        170.0004
   1526217.18248   1189244.42246  22449165.182    22449165.1084   22449169.8504
       175.0004        175.0004
  -1629253.86247  -1257510.78945  23413334.385    23413334.5234   23413338.0834
       156.0004        158.0004
  -2138321.30649  -1652361.30647  20779713.878    20779714.2054   20779721.9974
       199.0004        200.0004
  -2773769.94749  -2141093.68448  20330924.510    20330925.1414   20330929.2524
       213.0004        214.0004
   3922895.38448   3042893.66246  23987580.347    23987580.8904   23987589.8804
       177.0004        176.0004
   2983630.95948   2316960.09746  22749839.319    22749840.7244   22749847.5094
       178.0004        178.0004
  -3693427.20947  -2850899.10545  24164930.223    24164929.7334   24164935.2164
       154.0004        155.0004
  -3623750.37148  -2790815.08247  22145164.669    22145165.1534   22145168.8724
       188.0004        188.0004
 21  2  3  2 22  0.0000000  0 10G30G14G21G28G01G07G08G09G19G17
  -4801986.49449  -3722719.68547  21374377.917    21374378.3594   21374385.5414
       201.0004        202.0004
  -2227712.16448  -1727350.68246  22887295.941    22887296.2904   22887300.9834
       169.0004        170.0004
   1584498.16448   1234658.18946  22460255.208    22460254.7864   22460260.5664
       175.0004        175.0004
  -1648192.00847  -1272267.77945  23409731.246    23409730.7834   23409735.2314
       156.0004        159.0004
  -2150375.21449  -1661753.94547  20777420.075    20777420.5184   20777428.3304
       199.0004        200.0004
  -2801552.99949  -2162742.81548  20325638.498    20325638.5324   20325642.3284
       214.0004        215.0004
   4016498.44848   3115831.10046  24005395.758    24005394.8274   24005401.3664
       177.0004        178.0004
   3062388.42748   2378329.55346  22764826.661    22764827.1344   22764834.3184
       178.0004        179.0004
  -3775143.20747  -2914573.85045  24149379.522    24149378.7834   24149385.3374
       152.0004        154.0004
  -3669120.24148  -2826168.19547  22136530.536    22136531.1734   22136535.7614
       188.0004        188.0004
 21  2  3  2 22 30.0000000  0 10G30G14G21G28G01G07G08G09G19G17
  -4873333.99949  -3778315.13247  21360801.774    21360801.5354   21360808.2814
       202.0004        202.0004
  -2256896.87448  -1750091.98946  22881742.720    22881743.7144   22881747.2794
       169.0004        170.0004
   1643212.99848   1280410.02046  22471429.615    22471429.3434   22471432.6394
       174.0004        175.0004
  -1667228.16647  -1287101.12145  23406106.959    23406108.1284   23406111.0394
       156.0004        157.0004
  -2161846.36049  -1670692.48947  20775236.880    20775237.6714   20775245.1454
       200.0004        200.0004
  -2828842.22049  -2184007.14748  20320444.669    20320445.3244   20320449.6954
       214.0004        215.0004
   4110027.81048   3188711.11546  24023192.220    24023191.7764   24023198.8434
       175.0004        174.0004
   3141221.39448   2439757.84146  22779828.446    22779828.6724   22779835.5224
       177.0004        177.0004
  -3856594.57747  -2978042.42845  24133881.702    24133880.1344   24133885.0984
       151.0004        154.0004
  -3714078.04148  -2861200.23547  22127976.667    22127976.5294   22127980.4234
       188.0004        188.0004
 21  2  3  2 23  0.0000000  0 10G30G14G21G28G01G07G08G09G19G17
  -4944388.46349  -3833682.24047  21347279.671    21347279.8864   21347286.7594
       201.0004        201.0004
  -2286151.66648  -1772887.92646  22876174.695    22876175.5174   22876180.0534
       170.0004        170.0004
   1702361.19048   1326499.54046  22482684.948    22482684.6574   22482688.8774
       174.0004        175.0004
  -1686362.62347  -1302011.06445  23402466.709    23402467.2414   23402471.1054
       156.0004        157.0004
  -2172732.71049  -1679175.34047  20773165.130    20773166.1574   20773174.2384
       200.0004        201.0004
  -2855634.88049  -2204884.53748  20315346.351    20315346.9084   20315350.9744
       214.0004        215.0004
   4203481.91948   3261532.52246  24040975.001    24040974.4144   24040982.8994
       174.0004        175.0004
   3220127.75248   2501243.31846  22794844.349    22794844.9994   22794851.2954
       177.0004        178.0004
  -3937779.50247  -3041303.36245  24118433.648    24118432.4554   24118436.9444
       153.0004        157.0004
  -3758622.83348  -2895910.44546  22119498.349    22119498.8074   22119503.5824
       187.0004        187.0004
 21  2  3  2 23 30.0000000  0 10G30G14G21G28G01G07G08G09G19G17
  -5015146.56749  -3888818.41947  21333815.088    21333815.4334   21333822.1644
       201.0004        203.0004
  -2315476.29148  -1795738.28646  22870594.675    22870595.4164   22870599.9164
       169.0004        170.0004
   1761941.95848   1372926.12846  22494022.187    22494021.9604   22494026.1894
       174.0004        175.0004
  -1705596.02947  -1316998.11245  23398805.787    23398807.2124   23398810.6854
       155.0004        157.0004
  -2183032.41949  -1687201.06847  20771205.804    20771206.2844   20771214.3194
       200.0004        201.0004
  -2881928.41849  -2225373.01148  20310343.414    20310343.7474   20310347.5024
       214.0004        215.0004
   4296860.08248   3334294.72246  24058741.082    24058742.8204   24058751.8884
       175.0004        175.0004
   3299105.10948   2562784.11846  22809873.351    22809872.9994   22809880.0304
       178.0004        179.0004
  -4018695.97347  -3104355.11945  24103034.855    24103033.4844   24103036.8724
       153.0004        155.0004
  -3802753.92348  -2930298.29646  22111101.216    22111101.4324   22111105.8494
       187.0004        187.0004
 21  2  3  2 24  0.0000000  0 10G30G14G21G28G01G07G08G09G19G17
  -5085605.00449  -3943721.08747  21320407.441    21320407.7684   21320414.5124
       202.0004        203.0004
  -2344870.53048  -1818642.87546  22865001.752    22865001.9174   22865006.8634
       170.0004        169.0004
   1821954.02548   1419688.77046  22505443.219    22505442.8894   22505445.6054
       174.0004        174.0004
  -1724928.16147  -1332062.09545  23395128.239    23395128.2084   23395131.7844
       156.0004        159.0004
  -2192743.62949  -1694768.22847  20769358.067    20769358.2474   20769366.1724
       200.0004        200.0004
  -2907720.22449  -2245470.52048  20305435.453    20305435.4214   20305439.5574
       214.0004        215.0004
   4390160.80248   3406996.56146  24076496.129    24076497.4444   24076505.8184
       172.0004        172.0004
   3378151.24748   2624378.50146  22824914.607    22824914.7444   22824922.3684
       176.0004        176.0004
  -4099342.26147  -3167196.29845  24087687.048    24087687.0384   24087691.8654
       153.0004        155.0004
  -3846470.94648  -2964363.48947  22102782.349    22102782.9264   22102786.9004
       187.0004        188.0004
 21  2  3  2 24 30.0000000  0 10G30G14G21G28G01G07G08G09G19G17
  -5155761.25249  -3998388.29447  21307057.290    21307057.4814   21307063.3574
       202.0004        201.0004
  -2374334.93048  -1841602.12046  22859394.615    22859394.9034   22859399.0094
       168.0004        168.0004
   1882394.94648   1466785.60946  22516944.754    22516943.9594   22516947.3824
       174.0004        175.0004
  -1744360.43647  -1347204.12645  23391430.811    23391430.6084   23391434.0844
       157.0004        159.0004
  -2201865.32549  -1701876.02347  20767621.884    20767622.5134   20767630.2564
       200.0004        200.0004
  -2933008.47849  -2265175.64748  20300622.822    20300623.2324   20300627.1744
       214.0004        215.0004
   4483382.29548   3479636.72646  24094236.618    24094237.3684   24094245.2694
       172.0004        172.0004
   3457263.09848   2686024.11446  22839969.902    22839970.2144   22839976.2024
       176.0004        176.0004
  -4179717.39047  -3229826.24245  24072393.453    24072393.2394   24072397.7284
       156.0004        159.0004
  -3889773.83248  -2998105.98947  22094542.210    22094542.6324   22094546.4874
       188.0004        188.0004
 21  2  3  2 25  0.0000000  0 11G30G14G21G28G01G07G08G09G19G22G17
  -5225614.14349  -4052819.11247  21293764.566    21293764.7854   21293771.8834
       202.0004        202.0004
  -2403871.39248  -1864617.54046  22853773.794    22853775.1824   22853778.5044
       168.0004        170.0004
   1943262.68248   1514215.04346  22528526.930    22528526.2724   22528530.3364
       174.0004        174.0004
  -1763894.83147  -1362425.70745  23387712.266    23387711.6214   23387717.4444
       154.0004        155.0004
  -2210397.82049  -1708524.71147  20765998.398    20765999.0654   20766006.2284
       200.0004        200.0004
  -2957792.96149  -2284488.23248  20295906.381    20295906.8574   20295911.0554
       214.0004        215.0004
   4576521.08848   3552212.38846  24111960.956    24111960.3324   24111970.1924
       171.0004        172.0004
   3536436.20048   2747717.43446  22855035.765    22855036.2214   22855043.2344
       175.0004        175.0004
  -4259821.57247  -3292245.03245  24057150.926    24057149.5884   24057153.4004
       157.0004        159.0004
      2362.93554      1401.359 3                                  17964355.212
        74.0004         74.000
  -3932664.68148  -3031527.41447  22086380.207    22086380.4744   22086384.1864
       189.0004        189.0004
 21  2  3  2 25 30.0000000  0 11G30G14G21G28G01G07G08G09G19G22G17
  -5295159.89549  -4107010.60047  21280530.942    21280530.7984   21280537.7564
       203.0004        203.0004
  -2433479.08648  -1887688.45846  22848139.049    22848139.3014   22848145.2564
       169.0004        170.0004
   2004556.29248   1561976.30246  22540190.928    22540190.1354   22540193.7894
       173.0004        174.0004
  -1783531.44247  -1377726.93745  23383976.235    23383976.7684   23383980.6704
       154.0004        158.0004
  -2218338.88449  -1714712.53847  20764486.972    20764487.3464   20764495.2744
       200.0004        200.0004
  -2982070.14649  -2303405.53748  20291286.403    20291286.9594   20291291.5984
       214.0004        216.0004
   4669576.73648   3624723.26646  24129670.486    24129670.1554   24129678.5734
       173.0004        176.0004
   3615668.78248   2809457.10746  22870112.649    22870112.9614   22870120.0254
       175.0004        176.0004
  -4339652.31747  -3354450.79445  24041958.408    24041958.0784   24041959.8584
       154.0004        156.0004
      2362.93544      1401.359 4                                  17964355.212
        74.0004        110.000
  -3975141.87248  -3064626.50547  22078296.914    22078297.4194   22078301.8534
       189.0004        190.0004
 21  2  3  2 26  0.0000000  0 10G30G14G21G28G01G07G08G09G19G17
  -5364395.48949  -4160960.40147  21267355.636    21267355.9484   21267362.5054
       203.0004        203.0004
  -2463158.11048  -1910814.94246  22842491.959    22842492.4194   22842496.9334
       169.0004        169.0004
   2066273.66848   1610067.78946  22551934.491    22551934.1914   22551938.3494
       174.0004        174.0004
  -1803270.83647  -1393108.29045  23380219.939    23380219.8984   23380224.1104
       157.0004        160.0004
  -2225687.07449  -1720438.38047  20763088.894    20763089.2714   20763096.4054
       200.0004        200.0004
  -3005838.02349  -2321925.93548  20286764.361    20286764.3624   20286768.2714
       215.0004        216.0004
   4762547.09748   3697167.67046  24147362.665    24147362.3834   24147370.0274
       174.0004        174.0004
   3694958.30248   2871241.15846  22885200.807    22885201.2814   22885208.9034
       175.0004        176.0004
  -4419208.85247  -3416442.85845  24026819.996    24026818.7564   24026820.9354
       155.0004        157.0004
  -4017205.94648  -3097403.68547  22070292.296    22070292.6214   22070296.8574
       189.0004        190.0004
 21  2  3  2 26 30.0000000  0 11G30G14G21G28G01G07G08G09G19G22G17
  -5433318.63049  -4214666.74047  21254239.812    21254239.8674   21254246.9454
       203.0004        204.0004
  -2492909.09848  -1933997.54546  22836831.947    22836831.4774   22836835.6254
       169.0004        169.0004
   2128413.94548   1658488.78846  22563760.552    22563760.3344   22563764.3544
       174.0004        175.0004
  -1823114.12847  -1408570.56945  23376443.146    23376443.0504   23376447.1874
       156.0004        157.0004
  -2232441.66749  -1725701.69347  20761803.144    20761804.0874   20761811.2374
       199.0004        199.0004
  -3029095.16349  -2340048.37948  20282338.054    20282338.4164   20282342.8814
       215.0004        216.0004
   4855430.30048   3769544.19346  24165037.234    24165037.5314   24165045.1264
       174.0004        176.0004
   3774301.54648   2933067.05046  22900298.773    22900298.9894   22900308.2114
       174.0004        175.0004
  -4498489.93247  -3478220.26945  24011733.030    24011732.0634   24011734.3674
       154.0004        155.0004
      2362.93554      1401.359 3                                  17964355.212
        74.0004         74.000
  -4058857.08048  -3129859.09647  22062366.619    22062366.3234   22062370.7724
       189.0004        189.0004
 21  2  3  2 27  0.0000000  0 11G30G14G21G28G01G07G08G09G19G22G17
  -5501926.16149  -4268127.13747  21241184.376    21241184.1654   21241191.5354
       203.0004        203.0004
  -2522731.96548  -1957236.12546  22831154.677    22831155.8654   22831161.0294
       168.0004        169.0004
   2190975.76648   1707238.27746  22575665.719    22575665.4254   22575669.9144
       175.0004        176.0004
  -1843061.68947  -1424114.10845  23372648.069    23372647.3994   23372652.2294
       155.0004        158.0004
  -2238601.17449  -1730501.28347  20760631.011    20760631.6884   20760639.2924
       199.0004        200.0004
  -3051839.22849  -2357771.02248  20278010.184    20278010.5804   20278014.8874
       215.0004        216.0004
   4948225.55348   3841852.17846  24182693.315    24182694.2404   24182704.0304
       174.0004        174.0004
   3853696.05248   2994932.90246  22915408.685    22915409.2734   22915416.0654
       175.0004        177.0004
  -4577494.00447  -3539781.85245  23996698.076    23996697.8964   23996700.6134
       153.0004        156.0004
      2362.93544      1401.35944                                  17964355.2124
        74.0004        101.0004
  -4100095.02348  -3161992.53547  22054519.818    22054519.7384   22054523.3594
       190.0004        191.0004
 21  2  3  2 27 30.0000000  0 11G30G14G21G28G01G07G08G09G19G22G17
  -5570215.14749  -4321339.33247  21228189.338    21228189.4934   21228196.6644
       203.0004        204.0004
  -2552626.82648  -1980530.82946  22825467.390    22825467.6574   22825471.0744
       169.0004        171.0004
   2253957.37048   1756314.87046  22587650.414    22587649.3644   22587654.4464
       176.0004        175.0004
  -1863113.99547  -1439739.27045  23368831.914    23368832.0324   23368835.3224
       155.0004        158.0004
  -2244164.28449  -1734836.15647  20759572.090    20759573.0794   20759580.4034
       199.0004        200.0004
  -3074068.04449  -2375092.17448  20273780.100    20273780.3844   20273784.6684
       215.0004        216.0004
   5040931.07048   3914090.23646  24200337.129    24200336.3034   24200344.8514
       172.0004        172.0004
   3933139.20148   3056836.66946  22930525.822    22930525.9184   22930532.9424
       174.0004        174.0004
  -4656219.92247  -3601126.72045  23981715.991    23981715.8434   23981720.1804
       155.0004        158.0004
      2362.93544      1401.359 4                                  17964355.212
        74.0004        117.000
  -4140919.24548  -3193803.61047  22046749.682    22046750.6624   22046755.4644
       190.0004        191.0004
 21  2  3  2 28  0.0000000  0 10G30G14G21G28G01G07G08G09G19G17
  -5638183.87149  -4374301.96947  21215255.878    21215255.6534   21215262.4794
       204.0004        204.0004
  -2582594.81048  -2003882.49346  22819764.520    22819764.3274   22819769.8194
       170.0004        170.0004
   2317356.13548   1805716.51546  22599714.517    22599714.1814   22599719.7654
       176.0004        177.0004
  -1883272.86047  -1455447.45845  23364996.305    23364995.3854   23365000.5094
       155.0004        157.0004
  -2249130.98249  -1738706.29947  20758627.537    20758627.9974   20758635.5784
       199.0004        199.0004
  -3095780.71649  -2392011.14648  20269648.568    20269648.8044   20269652.9874
       215.0004        216.0004
   5133544.07648   3986256.19646  24217959.537    24217959.9764   24217969.0184
       172.0004        174.0004
   4012627.22248   3118775.40346  22945651.742    22945652.7024   22945658.6804
       173.0004        174.0004
  -4734667.29347  -3662254.48645  23966789.962    23966789.5494   23966792.2844
       156.0004        159.0004
  -4181331.55748  -3225293.71547  22039060.720    22039061.2184   22039064.6874
       191.0004        191.0004
 21  2  3  2 28 30.0000000  0 10G30G14G21G28G01G07G08G09G19G17
  -5705828.48349  -4427012.04647  21202383.599    21202382.9894   21202390.0664
       204.0004        204.0004
  -2612635.01548  -2027290.41946  22814047.684    22814047.2114   22814053.3004
       169.0004        168.0004
   2381171.26348   1855442.59446  22611858.163    22611858.0604   22611862.6604
       177.0004        177.0004
  -1903538.10347  -1471238.52245  23361139.526    23361138.5224   23361143.5664
       154.0004        157.0004
  -2253499.09949  -1742110.01247  20757796.371    20757796.8234   20757804.4974
       199.0004        199.0004
  -3116974.47849  -2408525.77148  20265615.040    20265615.5994   20265619.8974
       215.0004        216.0004
   5226064.10048   4058349.71046  24235566.506    24235566.3684   24235574.7794
       174.0004        175.0004
   4092158.41548   3180747.76846  22960786.263    22960786.8584   22960792.3404
       174.0004        176.0004
  -4812834.01747  -3723163.58745  23951914.780    23951914.0484   23951917.7954
       156.0004        158.0004
  -4221330.62248  -3256461.80547  22031448.763    22031449.7554   22031453.1604
       191.0004        192.0004
 21  2  3  2 29  0.0000000  0 11G30G14G21G28G01G07G08G09G19G22G17
  -5773147.61649  -4479468.51247  21189572.380    21189572.5184   21189579.3474
       203.0004        204.0004
  -2642749.01548  -2050755.87646  22808316.474    22808317.2674   22808321.7944
       168.0004        168.0004
   2445399.79948   1905490.80446  22624081.075    22624079.6874   22624084.9034
       177.0004        177.0004
  -1923911.73247  -1487114.05045  23357262.417    23357262.1964   23357266.6384
       155.0004        154.0004
  -2257268.98149  -1745047.56947  20757079.614    20757079.9534   20757086.6244
       200.0004        200.0004
  -3137648.74649  -2424635.59348  20261681.342    20261681.6264   20261685.3754
       215.0004        216.0004
   5318488.28748   4130368.53346  24253154.492    24253154.2174   24253161.9564
       173.0004        174.0004
   4171728.68948   3242750.57246  22975928.427    22975928.0534   22975934.4084
       175.0004        176.0004
  -4890720.00147  -3783853.93545  23937092.887    23937092.0384   23937096.6774
       156.0004        157.0004
      2362.93554      1401.35943                                  17964355.2124
        74.0004         70.0004
  -4260918.01348  -3287309.09947  22023915.605    22023915.7594   22023920.0194
       191.0004        190.0004
 21  2  3  2 29 30.0000000  0 11G30G14G21G28G01G07G08G09G19G22G17
  -5840137.87849  -4531668.71347  21176824.584    21176824.7654   21176831.8304
       204.0004        205.0004
  -2672936.44648  -2074278.50946  22802572.105    22802572.0954   22802577.7764
       167.0004        168.0004
   2510041.05548   1955860.63146  22636380.628    22636380.5574   22636386.5374
       176.0004        177.0004
  -1944393.84447  -1503074.13545  23353364.439    23353364.0094   23353368.4664
       154.0004        155.0004
  -2260438.97349  -1747517.67247  20756475.685    20756475.8744   20756483.8364
       200.0004        200.0004
  -3157801.08149  -2440338.71448  20257846.375    20257846.9074   20257850.7564
       215.0004        216.0004
   5410815.35748   4202311.69646  24270725.226    24270723.4464   24270731.8534
       173.0004        173.0004
   4251335.86748   3304782.14146  22991077.053    22991077.4764   22991084.0224
       175.0004        176.0004
  -4968323.62247  -3844324.25845  23922326.758    23922325.8594   23922329.1454
       157.0004        161.0004
      2362.93544      1401.359 5                                  17964355.212
        74.0004        134.000
  -4300093.04048  -3317835.08247  22016460.963    22016461.4434   22016465.2064
       190.0004        191.0004
 21  2  3  2 30  0.0000000  0 10G30G14G21G28G01G07G08G09G19G17
  -5906796.72249  -4583610.66147  21164139.731    21164139.8484   21164146.9874
       204.0004        205.0004
  -2703197.61848  -2097858.63046  22796814.896    22796815.0004   22796819.3024
       168.0004        170.0004
   2575093.10148   2006550.54846  22648759.879    22648759.5184   22648766.0304
       177.0004        178.0004
  -1964985.41147  -1519119.50845  23349447.011    23349446.3414   23349450.3114
       153.0004        157.0004
  -2263008.35549  -1749519.77647  20755986.328    20755987.0824   20755995.1344
       200.0004        200.0004
  -3177429.80149  -2455633.81548  20254110.918    20254111.3174   20254115.6614
       215.0004        216.0004
   5503043.78848   4274177.98346  24288272.300    24288273.4194   24288282.1724
       172.0004        173.0004
   4330977.02548   3366840.18646  23006230.966    23006231.7824   23006239.5834
       175.0004        175.0004
  -5045643.96847  -3904573.81145  23907611.765    23907611.5454   23907616.8304
       159.0004        161.0004
  -4338856.64148  -3348040.47347  22009084.193    22009084.6364   22009088.7614
       190.0004        191.0004
 21  2  3  2 30 30.0000000  0 10G30G14G21G28G01G07G08G09G19G17
  -5973120.95449  -4635291.87747  21151519.074    21151519.1224   21151525.7444
       205.0004        205.0004
  -2733532.19848  -2121495.96046  22791041.318    22791041.9974   22791046.2924
       169.0004        170.0004
   2640554.45948   2057559.39246  22661216.156    22661216.1524   22661223.2664
       177.0004        178.0004
  -1985686.34547  -1535250.08045  23345506.289    23345506.5544   23345510.8834
       154.0004        158.0004
  -2264975.71149  -1751052.76947  20755612.128    20755612.7004   20755620.3954
       200.0004        200.0004
  -3196532.77749  -2470519.25448  20250475.908    20250476.2814   20250480.6694
       215.0004        217.0004
   5595172.26448   4345966.39146  24305803.615    24305804.8824   24305813.4254
       172.0004        172.0004
   4410649.92548   3428922.96846  23021392.638    23021392.9074   23021401.5584
       175.0004        175.0004
  -5122679.31647  -3964601.35845  23892952.887    23892952.5804   23892956.9874
       159.0004        162.0004
  -4377208.34148  -3377924.90647  22001785.934    22001786.1884   22001791.4604
       191.0004        190.0004
 21  2  3  2 31  0.0000000  0 10G30G14G21G28G01G07G08G09G19G17
  -6039107.64049  -4686710.06847  21138962.361    21138962.1924   21138968.8884
       205.0004        204.0004
  -2763940.15448  -2145190.49546  22785256.019    22785255.7454   22785260.0894
       169.0004        169.0004
   2706423.62848   2108886.02346  22673751.830    22673750.4834   22673756.5714
       176.0004        176.0004
  -2006497.43547  -1551466.49545  23341545.881    23341545.8474   23341550.8004
       155.0004        157.0004
  -2266339.92649  -1752115.77647  20755352.378    20755353.2764   20755360.7384
       200.0004        200.0004
  -3215108.15949  -2484993.58548  20246941.403    20246941.6504   20246945.8324
       215.0004        217.0004
   5687199.55648   4417675.96046  24323316.924    24323316.8664   24323326.1224
       170.0004        170.0004
   4490351.95848   3491028.46946  23036560.204    23036559.9294   23036567.2114
       174.0004        174.0004
  -5199428.88647  -4024406.17946  23878349.620    23878348.4074   23878352.0364
       162.0004        163.0004
  -4415148.00548  -3407488.27547  21994566.058    21994566.5464   21994571.1774
       190.0004        188.0004
 21  2  3  2 31 30.0000000  0 10G30G14G21G28G01G07G08G09G19G17
  -6104755.61849  -4737864.33047  21126469.505    21126469.8244   21126476.5994
       205.0004        206.0004
  -2794423.27048  -2168943.57246  22779454.453    22779455.2284   22779458.3974
       168.0004        168.0004
   2772697.23148   2160527.81046  22686363.148    22686362.2074   22686368.5544
       176.0004        177.0004
  -2027420.77647  -1567770.39245  23337564.999    23337564.8434   23337570.0724
       155.0004        158.0004
  -2267101.71949  -1752709.37347  20755206.708    20755207.8834   20755215.7424
       200.0004        200.0004
  -3233155.19449  -2499056.21948  20243506.804    20243507.2704   20243511.5404
       215.0004        217.0004
   5779122.86148   4489304.48346  24340810.909    24340810.0964   24340817.7404
       168.0004        170.0004
   4570078.85048   3553153.32246  23051731.609    23051732.1584   23051738.8324
       173.0004        173.0004
  -5275892.78647  -4083988.39845  23863797.470    23863796.9164   23863801.2124
       161.0004        162.0004
  -4452677.68648  -3436732.17547  21987425.033    21987424.7884   21987430.0634
       189.0004        189.0004
 21  2  3  2 32  0.0000000  0 10G30G14G21G28G01G07G08G09G19G17
  -6170061.34249  -4788751.89347  21114042.492    21114042.3224   21114049.6474
       206.0004        207.0004
  -2824980.80648  -2192754.61246  22773639.357    22773639.5654   22773644.4524
       168.0004        169.0004
   2839374.74648   2212484.30946  22699049.905    22699050.2124   22699056.9294
       175.0004        176.0004
  -2048456.26347  -1584161.65445  23333562.268    23333561.8464   23333565.7354
       154.0004        155.0004
  -2267259.40349  -1752832.22847  20755177.819    20755178.1884   20755185.8444
       200.0004        200.0004
  -3250671.66049  -2512705.41548  20240174.035    20240174.1494   20240178.1024
       215.0004        217.0004
   5870940.48448   4560850.67746  24358281.187    24358281.5114   24358290.2924
       170.0004        171.0004
   4649828.72048   3615296.08146  23066906.854    23066907.0764   23066914.5524
       171.0004        171.0004
  -5352068.83147  -4143346.31246  23849301.342    23849301.1604   23849305.2884
       162.0004        164.0004
  -4489796.72248  -3465656.07147  21980360.866    21980361.4384   21980365.9694
       190.0004        190.0004
 21  2  3  2 32 30.0000000  0 10G30G14G21G28G01G07G08G09G19G17
  -6235021.50249  -4839370.20247  21101680.853    21101681.0284   21101687.8214
       206.0004        207.0004
  -2855612.27948  -2216623.29546  22767810.455    22767810.9704   22767815.2384
       168.0004        168.0004
   2906454.37848   2264754.15046  22711815.704    22711815.4294   22711821.7894
       175.0004        176.0004
  -2069604.03247  -1600640.43845  23329537.686    23329537.3454   23329541.7324
       153.0004        156.0004
  -2266811.57749  -1752483.26347  20755262.718    20755263.5584   20755270.9374
       200.0004        200.0004
  -3267655.21049  -2525939.36048  20236941.699    20236942.0964   20236946.3374
       215.0004        217.0004
   5962652.37948   4632314.44646  24375732.957    24375734.5694   24375741.9394
       169.0004        170.0004
   4729599.40148   3677455.06046  23082086.443    23082087.2344   23082093.7044
       171.0004        172.0004
  -5427955.54647  -4202478.81346  23834861.084    23834860.1204   23834865.0374
       163.0004        164.0004
  -4526504.51748  -3494259.53447  21973375.999    21973376.4754   21973379.8384
       190.0004        190.0004
 21  2  3  2 33  0.0000000  0 10G30G14G21G28G01G07G08G09G19G17
  -6299633.85149  -4889717.48347  21089385.931    21089385.6684   21089392.2854
       206.0004        206.0004
  -2886318.26548  -2240550.00246  22761965.714    22761966.0734   22761972.4794
       167.0004        167.0004
   2973934.43148   2317336.00446  22724657.288    22724656.8564   22724662.7174
       175.0004        176.0004
  -2090865.15247  -1617207.54145  23325493.295    23325492.7584   23325496.9094
       154.0004        158.0004
  -2265757.92149  -1751662.22147  20755464.141    20755464.2264   20755471.4614
       200.0004        201.0004
  -3284104.79849  -2538757.22148  20233811.211    20233811.7344   20233816.2504
       216.0004        217.0004
   6054256.30348   4703694.12146  24393165.859    24393166.1734   24393173.7744
       168.0004        169.0004
   4809387.77948   3739627.82846  23097270.323    23097270.7024   23097277.6154
       172.0004        174.0004
  -5503552.52247  -4261385.50846  23820476.161    23820475.0494   23820478.1434
       162.0004        163.0004
  -4562802.40948  -3522543.59547  21966468.291    21966468.6384   21966473.1314
       190.0004        189.0004
 21  2  3  2 33 30.0000000  0 10G30G14G21G28G01G07G08G09G19G17
  -6363896.84449  -4939792.53647  21077156.973    21077157.1534   21077163.8254
       207.0004        207.0004
  -2917100.00548  -2264535.77946  22756109.666    22756110.0754   22756115.2984
       168.0004        170.0004
   3041811.26948   2370227.05146  22737574.026    22737573.0414   22737578.4814
       175.0004        175.0004
  -2112241.44047  -1633864.33445  23321422.694    23321423.3274   23321428.8634
       153.0004        155.0004
  -2264098.81249  -1750369.39947  20755778.697    20755779.5414   20755786.5684
       200.0004        200.0004
  -3300019.58749  -2551158.35548  20230783.047    20230783.5734   20230787.5954
       216.0004        217.0004
   6145749.22748   4774987.25546  24410575.088    24410576.0714   24410584.5694
       169.0004        170.0004
   4889189.98348   3801811.35546  23112457.182    23112456.9944   23112463.5474
       173.0004        174.0004
  -5578859.50947  -4320066.27445  23806145.153    23806144.1144   23806147.8214
       161.0004        162.0004
  -4598691.71848  -3550509.27547  21959639.639    21959640.0714   21959643.8444
       190.0004        190.0004
 21  2  3  2 34  0.0000000  0 10G30G14G21G28G01G07G08G09G19G17
  -6427806.92149  -4989592.59547  21064995.566    21064995.5584   21065001.8534
       207.0004        207.0004
  -2947956.77648  -2288580.00646  22750239.129    22750238.5634   22750242.8404
       170.0004        171.0004
   3110084.70448   2423427.13846  22750565.817    22750564.8464   22750569.4874
       173.0004        174.0004
  -2133732.32547  -1650610.50945  23317334.757    23317334.7994   23317337.9924
       153.0004        156.0004
  -2261832.73149  -1748603.61647  20756210.374    20756210.8614   20756217.8974
       200.0004        200.0004
  -3315397.23149  -2563140.93548  20227856.942    20227856.9864   20227861.5014
       216.0004        217.0004
   6237130.69148   4846193.59646  24427965.966    24427965.5994   24427974.1524
       167.0004        168.0004
   4969004.13648   3864004.20746  23127643.877    23127644.5994   23127652.1674
       172.0004        172.0004
  -5653874.90247  -4378519.80946  23791868.647    23791869.3064   23791872.8764
       161.0004        164.0004
  -4634171.91748  -3578156.16547  21952887.678    21952887.6404   21952892.2454
       190.0004        190.0004
 21  2  3  2 34 30.0000000  0 10G30G14G21G28G01G07G08G09G19G17
  -6491361.79449  -5039115.87347  21052901.324    21052901.2254   21052907.3914
       207.0004        208.0004
  -2978889.02048  -2312683.03346  22744351.847    22744352.1004   22744356.6854
       170.0004        171.0004
   3178752.60548   2476934.58946  22763633.282    22763632.0104   22763637.1484
       173.0004        174.0004
  -2155339.05847  -1667446.90545  23313222.686    23313223.2214   23313226.7414
       154.0004        157.0004
  -2258959.33849  -1746364.59147  20756757.836    20756758.0394   20756764.9664
       200.0004        200.0004
  -3330236.80449  -2574704.24248  20225032.463    20225032.9994   20225037.6304
       216.0004        217.0004
   6328398.89448   4917311.66146  24445334.041    24445333.9434   24445342.0644
       168.0004        169.0004
   5048827.15248   3926203.98846  23142834.254    23142834.0914   23142841.1464
       171.0004        171.0004
  -5728598.04447  -4436745.62246  23777651.374    23777649.7774   23777653.4214
       162.0004        164.0004
  -4669243.47348  -3605484.63747  21946213.379    21946213.8234   21946218.4164
       189.0004        190.0004
 21  2  3  2 35  0.0000000  0 10G30G14G21G28G01G07G08G09G19G17
  -6554559.03749  -5088360.47247  21040875.041    21040875.4764   21040881.7094
       208.0004        208.0004
  -3009897.07848  -2336845.15246  22738450.711    22738450.8754   22738455.9444
       170.0004        170.0004
   3247812.44948   2530747.46846  22776774.709    22776773.4334   22776779.2284
       172.0004        173.0004
  -2177062.46447  -1684374.20545  23309089.649    23309089.0354   23309093.6504
       155.0004        158.0004
  -2255478.27649  -1743652.06147  20757419.442    20757420.3714   20757427.7684
       200.0004        200.0004
  -3344536.62449  -2585846.96048  20222311.978    20222312.2394   20222316.7034
       216.0004        217.0004
   6419552.03648   4988340.10246  24462680.694    24462679.6654   24462688.2074
       168.0004        170.0004
   5128656.12448   3988408.38146  23158025.080    23158025.7174   23158032.4394
       170.0004        170.0004
  -5803028.38947  -4494743.28046  23763486.388    23763485.5094   23763490.1934
       161.0004        163.0004
  -4703907.19248  -3632495.31447  21939617.382    21939617.8924   21939621.8094
       190.0004        191.0004
 21  2  3  2 35 30.0000000  0 10G30G14G21G28G01G07G08G09G19G17
  -6617395.23249  -5137323.74147  21028918.083    21028918.0214   21028924.1284
       208.0004        208.0004
  -3040980.36048  -2361065.89846  22732535.801    22732536.6574   22732540.1754
       169.0004        170.0004
   3317263.05848   2584864.84146  22789990.629    22789989.9414   22789994.5314
       172.0004        172.0004
  -2198902.53247  -1701392.44845  23304934.710    23304934.5004   23304937.0044
       157.0004        160.0004
  -2251388.11349  -1740464.91147  20758197.444    20758198.2374   20758205.7964
       200.0004        199.0004
  -3358294.25949  -2596567.19148  20219693.865    20219693.9384   20219698.6914
       216.0004        217.0004
   6510589.62648   5059278.46046  24480003.437    24480003.5994   24480011.9164
       169.0004        170.0004
   5208489.07648   4050615.86846  23173216.536    23173216.8594   23173223.9944
       168.0004        169.0004
  -5877163.90547  -4552511.19546  23749379.147    23749378.6264   23749382.2174
       161.0004        164.0004
  -4738162.73748  -3659187.94947  21933098.964    21933099.2724   21933103.2964
       191.0004        192.0004
 21  2  3  2 36  0.0000000  0 10G30G14G21G28G01G07G08G09G19G17
  -6679867.92649  -5186003.76547  21017029.583    21017029.7734   21017036.3144
       208.0004        208.0004
  -3072138.99648  -2385345.34346  22726606.664    22726606.9164   22726612.1274
       170.0004        171.0004
   3387102.17748   2639284.94346  22803280.759    22803279.4044   22803285.0304
       172.0004        172.0004
  -2220860.24647  -1718502.35545  23300753.709    23300753.9644   23300758.7744
       155.0004        156.0004
  -2246688.52449  -1736802.88747  20759091.903    20759092.9634   20759100.1134
       199.0004        200.0004
  -3371508.54549  -2606864.04348  20217178.621    20217179.5394   20217183.7074
       216.0004        217.0004
   6601509.70048   5130125.23746  24497303.265    24497304.3274   24497312.5314
       167.0004        168.0004
   5288323.09948   4112824.19346  23188409.973    23188410.1854   23188415.6954
       168.0004        170.0004
  -5951003.80447  -4610048.73046  23735328.670    23735327.4604   23735330.6294
       162.0004        165.0004
  -4772010.88648  -3685563.11547  21926657.506    21926657.9754   21926662.0344
       191.0004        191.0004
 21  2  3  2 36 30.0000000  0 10G30G14G21G28G01G07G08G09G19G17
  -6741974.57249  -5234398.54547  21005211.415    21005211.0514   21005217.8464
       208.0004        208.0004
  -3103373.17448  -2409683.65746  22720663.061    22720663.5244   22720668.2844
       169.0004        170.0004
   3457328.37748   2694006.65946  22816642.725    22816643.6564   22816649.0324
       171.0004        172.0004
  -2242935.91847  -1735704.14445  23296552.911    23296553.9354   23296557.6694
       154.0004        156.0004
  -2241379.06749  -1732665.64447  20760102.798    20760103.1694   20760110.6804
       200.0004        200.0004
  -3384178.09449  -2616736.42648  20214768.576    20214768.6004   20214772.5284
       216.0004        217.0004
   6692310.73948   5200879.30446  24514583.269    24514583.8654   24514591.6794
       167.0004        167.0004
   5368155.45448   4175031.21947  23203600.154    23203600.6244   23203607.8494
       183.0004        188.0004
  -6024547.32947  -4667355.35645  23721333.175    23721332.2854   23721335.3874
       162.0004        162.0004
  -4805452.16248  -3711621.22447  21920293.825    21920293.8734   21920298.6524
       190.0004        190.0004
 21  2  3  2 37  0.0000000  0 10G30G14G21G28G01G07G08G09G19G17
  -6803712.24349  -5282505.81947  20993462.836    20993463.1604   20993469.2424
       208.0004        208.0004
  -3134682.66848  -2434080.65146  22714705.255    22714704.9984   22714710.6084
       169.0004        169.0004
   3527939.90248   2749028.64646  22830081.448    22830080.3434   22830085.0904
       170.0004        171.0004
  -2265129.89747  -1752998.15745  23292330.829    23292330.5224   23292334.3964
       155.0004        158.0004
  -2235458.87549  -1728052.48847  20761229.146    20761229.6804   20761236.8424
       200.0004        200.0004
  -3396301.23849  -2626183.03248  20212461.162    20212461.4784   20212465.8204
       216.0004        217.0004
   6782991.65547   5271539.73746  24531839.252    24531839.9314   24531847.6054
       163.0004        164.0004
   5447983.74548   4237235.07247  23218790.404    23218790.8964   23218798.7314
       187.0004        188.0004
  -6097793.33447  -4724430.13146  23707395.339    23707394.7324   23707398.6604
       162.0004        163.0004
  -4838486.68548  -3737362.39747  21914007.094    21914007.5464   21914012.7674
       190.0004        190.0004
 21  2  3  2 37 30.0000000  0 10G30G14G21G28G01G07G08G09G19G17
  -6865078.79649  -5330323.91347  20981785.238    20981785.0514   20981791.6314
       208.0004        208.0004
  -3166068.04348  -2458536.75846  22708730.798    22708731.4504   22708737.8184
       167.0004        167.0004
   3598933.81948   2804348.59346  22843591.856    22843590.2484   22843594.6384
       169.0004        170.0004
  -2287443.36447  -1770385.24945  23288085.929    23288085.3014   23288087.9544
       155.0004        156.0004
  -2228928.02949  -1722963.50647  20762471.794    20762472.7974   20762480.0264
       200.0004        200.0004
  -3407876.79549  -2635202.94748  20210258.533    20210258.9684   20210262.8814
       216.0004        217.0004
   6873550.41147   5342104.98845  24549072.746    24549072.8364   24549079.9034
       162.0004        162.0004
   5527804.77349   4299433.30547  23233980.433    23233980.5554   23233987.7904
       196.0004        201.0004
  -6170741.26147  -4781272.64345  23693513.629    23693513.7174   23693516.4934
       160.0004        161.0004
  -4871115.45848  -3762787.41647  21907798.723    21907799.1404   21907802.7164
       190.0004        191.0004
 21  2  3  2 38  0.0000000  0 10G30G14G21G28G01G07G08G09G19G17
  -6926071.90549  -5377851.01647  20970178.177    20970178.2454   20970185.2434
       208.0004        208.0004
  -3197529.58148  -2483052.25446  22702745.743    22702746.2864   22702751.3754
       168.0004        170.0004
   3670308.76148   2859965.42646  22857172.477    22857171.8924   22857176.4044
       168.0004        169.0004
  -2309877.28347  -1787866.21345  23283815.154    23283814.7614   23283818.8384
       154.0004        157.0004
  -2221786.32449  -1717398.54147  20763830.456    20763831.6154   20763839.0524
       200.0004        200.0004
  -3418903.93849  -2643795.52948  20208160.234    20208160.6094   20208164.7344
       216.0004        218.0004
   6963985.35747   5412573.73345  24566281.461    24566281.2554   24566288.9014
       161.0004        162.0004
   5607615.61349   4361623.58147  23249168.504    23249168.8814   23249175.0154
       200.0004        201.0004
  -6243390.68947  -4837882.56046  23679688.773    23679688.1564   23679691.6844
       162.0004        165.0004
  -4903339.14848  -3787896.77447  21901666.649    21901667.0974   21901670.9624
       190.0004        190.0004
 21  2  3  2 38 30.0000000  0 10G30G14G21G28G01G07G08G09G19G17
  -6986688.96849  -5425085.09547  20958642.726    20958643.1684   20958649.9294
       208.0004        208.0004
  -3229067.31448  -2507627.10346  22696745.050    22696744.8984   22696749.4534
       171.0004        172.0004
   3742062.33448   2915877.30446  22870825.454    22870825.2774   22870831.3084
       167.0004        168.0004
  -2332431.91647  -1805441.22945  23279523.060    23279522.5524   23279528.0604
       154.0004        157.0004
  -2214033.32849  -1711357.22847  20765306.048    20765306.7774   20765314.5284
       199.0004        200.0004
  -3429380.91149  -2651959.41048  20206166.517    20206166.8824   20206171.0314
       216.0004        218.0004
   7054295.20547   5482945.04445  24583467.582    24583467.8804   24583476.4324
       160.0004        161.0004
   5687413.61649   4423803.82947  23264353.389    23264353.5504   23264360.4144
       200.0004        201.0004
  -6315740.48247  -4894259.00146  23665921.443    23665920.5714   23665924.1594
       164.0004        166.0004
  -4935158.51248  -3812691.08447  21895611.712    21895612.0024   21895616.6574
       190.0004        191.0004
 21  2  3  2 39  0.0000000  0 10G30G14G21G28G01G07G08G09G19G17
  -7046926.94149  -5472023.77047  20947180.292    20947180.3444   20947187.3714
       208.0004        209.0004
  -3260680.85348  -2532261.02146  22690728.835    22690728.6844   22690733.5454
       170.0004        170.0004
   3814192.96248   2972083.00546  22884552.602    22884552.3884   22884555.8054
       166.0004        167.0004
  -2355107.55647  -1823110.55845  23275208.594    23275208.3794   23275211.9514
       155.0004        157.0004
  -2205668.28349  -1704838.99447  20766898.331    20766898.5894   20766906.6504
       200.0004        200.0004
  -3439305.92849  -2659693.18948  20204277.798    20204278.2134   20204282.5574
       216.0004        217.0004
   7144478.68147   5553217.83045  24600630.295    24600629.4094   24600637.5994
       161.0004        162.0004
   5767196.52849   4485972.32047  23279535.792    23279536.0724   23279542.7994
       200.0004        200.0004
  -6387789.50747  -4950401.07746  23652209.741    23652209.5874   23652213.9354
       163.0004        164.0004
  -4966573.59448  -3837170.34047  21889633.665    21889634.1644   21889637.6194
       190.0004        189.0004
 21  2  3  2 39 30.0000000  0 10G30G14G21G28G01G07G08G09G19G17
  -7106783.64449  -5518665.35247  20935789.930    20935790.2524   20935796.5224
       208.0004        208.0004
  -3292370.60848  -2556954.33246  22684697.921    22684698.1444   22684702.5514
       168.0004        168.0004
   3886698.17548   3028580.57346  22898350.243    22898350.3894   22898353.5804
       166.0004        167.0004
  -2377905.37847  -1840875.09745  23270869.629    23270869.7874   23270874.4044
       156.0004        159.0004
  -2196691.19749  -1697843.84847  20768606.154    20768606.9744   20768614.2294
       199.0004        199.0004
  -3448678.33249  -2666996.36548  20202493.976    20202494.6934   20202499.0344
       216.0004        218.0004
   7234534.21247   5623390.97445  24617766.580    24617766.2204   24617774.5534
       160.0004        161.0004
   5846961.27949   4548126.67447  23294714.163    23294714.3914   23294721.2144
       200.0004        199.0004
  -6459537.50047  -5006308.59745  23638556.135    23638555.4514   23638560.5144
       162.0004        162.0004
  -4997585.06848  -3861335.11047  21883731.894    21883732.4804   21883736.7214
       190.0004        191.0004
 21  2  3  2 40  0.0000000  0 10G30G14G21G28G01G07G08G09G19G17
  -7166256.25649  -5565007.65147  20924473.855    20924473.2734   20924479.3384
       209.0004        209.0004
  -3324136.31148  -2581706.81346  22678652.982    22678652.8944   22678658.4164
       168.0004        169.0004
   3959576.60548   3085368.97746  22912218.523    22912217.6984   22912221.4454
       165.0004        166.0004
  -2400825.47647  -1858734.90545  23266509.287    23266508.6894   23266512.8004
       157.0004        160.0004
  -2187101.56149  -1690371.39447  20770431.042    20770431.4884   20770438.8754
       199.0004        199.0004
  -3457496.22249  -2673867.45448  20200816.074    20200816.4324   20200821.3164
       216.0004        218.0004
   7324460.45547   5693463.32246  24634877.690    24634878.4414   24634888.2694
       162.0004        165.0004
   5926705.48249   4610265.02147  23309887.984    23309889.0544   23309895.7744
       199.0004        199.0004
  -6530982.85747  -5061980.27245  23624961.288    23624960.6364   23624964.7334
       161.0004        162.0004
  -5028193.83448  -3885186.09447  21877907.631    21877907.6204   21877912.4824
       191.0004        192.0004
 21  2  3  2 40 30.0000000  0 10G30G14G21G28G01G07G08G09G19G17
  -7225341.50349  -5611048.10247  20913229.379    20913229.3344   20913235.8464
       208.0004        208.0004
  -3355977.28048  -2606517.93546  22672592.718    22672594.1134   22672598.6314
       169.0004        171.0004
   4032826.15647   3142446.55646  22926157.638    22926156.1364   22926159.6404
       164.0004        166.0004
  -2423867.52847  -1876689.73345  23262123.101    23262123.4704   23262128.1274
       157.0004        159.0004
  -2176898.30849  -1682420.80047  20772372.629    20772373.2504   20772380.7904
       199.0004        199.0004
  -3465757.93449  -2680305.14948  20199243.889    20199244.4064   20199248.9374
       216.0004        217.0004
   7414256.58747   5763434.30446  24651962.703    24651964.5744   24651974.7234
       162.0004        163.0004
   6006427.25549   4672385.87847  23325060.499    23325060.0634   23325066.7204
       199.0004        200.0004
  -6602124.38447  -5117415.22646  23611422.868    23611422.5454   23611427.5364
       161.0004        164.0004
  -5058399.59548  -3908723.04347  21872159.808    21872160.0654   21872163.9164
       191.0004        191.0004
 21  2  3  2 41  0.0000000  0 10G30G14G21G28G01G07G08G09G19G17
  -7284037.61649  -5656785.33647  20902060.033    20902060.1984   20902066.3604
       208.0004        209.0004
  -3387894.20148  -2631388.27646  22666520.901    22666521.5034   22666525.8264
       172.0004        174.0004
   4106445.03747   3199811.91346  22940166.710    22940165.9344   22940170.0704
       164.0004        165.0004
  -2447032.91247  -1894740.67645  23257715.597    23257715.4944   23257719.5324
       157.0004        160.0004
  -2166082.00749  -1673992.50547  20774431.028    20774431.5254   20774438.4564
       199.0004        199.0004
  -3473462.80949  -2686308.94848  20197777.426    20197778.1784   20197782.2034
       216.0004        217.0004
   7503920.96647   5833302.64046  24669027.280    24669028.3664   24669036.9644
       162.0004        165.0004
   6086123.10849   4734486.55647  23340224.760    23340225.2444   23340232.2574
       199.0004        199.0004
  -6672962.17147  -5172613.50146  23597943.181    23597942.3234   23597947.1334
       163.0004        165.0004
  -5088204.04148  -3931947.28047  21866488.596    21866488.9124   21866492.0474
       191.0004        191.0004
 21  2  3  2 41 30.0000000  0 10G30G14G21G28G01G07G08G09G19G17
  -7342342.44649  -5702217.67247  20890964.639    20890964.8904   20890971.4624
       209.0004        209.0004
  -3419887.51848  -2656318.12846  22660432.712    22660432.5964   22660438.0834
       174.0004        176.0004
   4180429.96248   3257462.50646  22954245.621    22954244.3484   22954249.6494
       165.0004        166.0004
  -2470322.62547  -1912888.50845  23253284.176    23253284.0894   23253288.2154
       158.0004        161.0004
  -2154652.90849  -1665086.69947  20776605.654    20776606.4524   20776613.7154
       199.0004        199.0004
  -3480609.95349  -2691878.17348  20196418.393    20196418.4914   20196422.8424
       216.0004        218.0004
   7593451.41948   5903066.62946  24686067.245    24686066.6274   24686073.5124
       165.0004        166.0004
   6165790.02949   4796564.69347  23355384.761    23355384.6254   23355392.1794
       199.0004        198.0004
  -6743495.61148  -5227574.59546  23584522.844    23584521.7384   23584525.3544
       165.0004        168.0004
  -5117608.19848  -3954859.59547  21860892.112    21860892.5134   21860896.6564
       190.0004        189.0004
 21  2  3  2 42  0.0000000  0 10G30G14G21G28G01G07G08G09G19G17
  -7400253.38549  -5747343.07447  20879944.675    20879944.8284   20879951.7784
       209.0004        209.0004
  -3451957.08548  -2681307.39346  22654329.062    22654330.2144   22654335.0534
       175.0004        175.0004
   4254779.08047   3315396.90046  22968394.787    22968393.7584   22968397.0954
       164.0004        165.0004
  -2493737.16547  -1931133.57245  23248828.750    23248828.1434   23248832.3694
       158.0004        160.0004
  -2142610.66549  -1655703.11247  20778896.466    20778897.5644   20778905.1534
       198.0004        199.0004
  -3487198.19849  -2697011.86848  20195164.174    20195164.2744   20195169.2014
       216.0004        218.0004
   7682846.74047   5972725.26946  24703079.384    24703078.7744   24703083.5254
       163.0004        164.0004
   6245425.54949   4858618.33547  23370537.923    23370539.0114   23370546.9084
       198.0004        199.0004
  -6813724.01548  -5282297.98546  23571157.852    23571157.1284   23571161.7194
       166.0004        167.0004
  -5146612.27248  -3977460.16047  21855373.228    21855373.2124   21855377.5084
       190.0004        190.0004
 21  2  3  2 42 30.0000000  0 10G30G14G21G28G01G07G08G09G19G17
  -7457768.03249  -5792159.68147  20868999.978    20868999.8234   20869006.9954
       209.0004        209.0004
  -3484103.01348  -2706356.16246  22648213.209    22648213.1374   22648217.7724
       175.0004        175.0004
   4329490.93348   3373613.92946  22982611.438    22982610.5574   22982614.3174
       165.0004        166.0004
  -2517277.08347  -1949476.35545  23244348.509    23244348.4334   23244352.5654
       159.0004        161.0004
  -2129955.27049  -1645841.76047  20781306.080    20781306.1254   20781313.9784
       199.0004        200.0004
  -3493226.32749  -2701709.10048  20194016.673    20194017.4034   20194021.8704
       216.0004        218.0004
   7772105.49547   6042277.55746  24720060.638    24720061.5814   24720069.8284
       162.0004        163.0004
   6325026.79349   4920645.26747  23385688.174    23385687.8954   23385694.4024
       200.0004        201.0004
  -6883646.62347  -5336783.13346  23557851.702    23557851.3844   23557855.0334
       164.0004        164.0004
  -5175217.07348  -3999749.60147  21849929.503    21849930.2434   21849934.9994
       190.0004        191.0004
 21  2  3  2 43  0.0000000  0 10G30G14G21G28G01G07G08G09G19G17
  -7514883.35949  -5836665.13647  20858130.817    20858131.0584   20858137.8974
       208.0004        208.0004
  -3516324.72148  -2731463.97446  22642080.401    22642081.3214   22642086.3114
       174.0004        173.0004
   4404563.52248   3432112.05346  22996896.492    22996895.4854   22996900.7574
       165.0004        167.0004
  -2540942.25147  -1967916.73945  23239845.903    23239844.9104   23239849.2534
       159.0004        161.0004
  -2116686.06149  -1635502.11147  20783830.813    20783831.3314   20783838.7674
       199.0004        199.0004
  -3498692.63549  -2705968.57248  20192977.151    20192977.2464   20192981.5244
       216.0004        217.0004
   7861227.12347   6111722.93545  24737018.592    24737019.7454   24737029.4714
       158.0004        159.0004
   6404591.75949   4982643.95347  23400827.380    23400827.9184   23400834.4584
       200.0004        199.0004
  -6953262.15147  -5391028.99245  23544605.062    23544604.4614   23544607.6174
       162.0004        162.0004
  -5203423.18448  -4021728.38747  21844562.508    21844562.6154   21844567.3314
       191.0004        192.0004
 21  2  3  2 43 30.0000000  0  9G30G14G21G28G01G07G09G19G17
  -7571595.00849  -5880856.02447  20847339.084    20847339.3514   20847346.2854
       208.0004        208.0004
  -3548620.24148  -2756629.30546  22635935.394    22635936.1234   22635939.6834
       174.0004        173.0004
   4479995.67348   3490890.36546  23011251.244    23011250.1174   23011255.0714
       166.0004        167.0004
  -2564731.41847  -1986453.74245  23235318.052    23235317.9744   23235322.6944
       158.0004        161.0004
  -2102801.14449  -1624682.67547  20786472.625    20786473.2544   20786480.6604
       199.0004        199.0004
  -3503594.54049  -2709788.23948  20192043.881    20192044.5464   20192048.7764
       216.0004        218.0004
   6484119.73649   5044613.80447  23415961.300    23415961.2854   23415968.3364
       198.0004        198.0004
  -7022568.40947  -5445033.82946  23531415.736    23531415.5964   23531418.8834
       162.0004        164.0004
  -5231229.34748  -4043395.50447  21839270.992    21839271.3114   21839275.4354
       192.0004        192.0004
 21  2  3  2 44  0.0000000  0  9G30G14G21G28G01G07G09G19G17
  -7627902.65149  -5924732.12047  20836624.819    20836624.4184   20836631.2734
       208.0004        209.0004
  -3580991.69848  -2781853.81946  22629774.991    22629775.4364   22629779.7174
       174.0004        174.0004
   4555784.82848   3549946.85346  23025673.935    23025673.7884   23025678.1374
       167.0004        169.0004
  -2588647.20047  -2005089.40745  23230767.561    23230767.1054   23230771.1754
       159.0004        161.0004
  -2088302.61349  -1613385.10847  20789231.623    20789231.9554   20789239.8774
       198.0004        199.0004
  -3507932.52049  -2713168.49548  20191218.440    20191219.0724   20191223.0274
       216.0004        217.0004
   6563605.86549   5106551.04847  23431086.317    23431086.8724   23431093.1284
       198.0004        197.0004
  -7091566.36447  -5498798.45746  23518286.366    23518285.8944   23518289.1774
       163.0004        166.0004
  -5258638.48448  -4064753.27447  21834055.332    21834055.5344   21834060.3444
       192.0004        192.0004
 21  2  3  2 44 30.0000000  0  9G30G14G21G28G01G07G09G19G17
  -7683804.14449  -5968291.71547  20825986.101    20825986.3724   20825993.5494
       208.0004        208.0004
  -3613439.36448  -2807137.70946  22623601.506    22623601.7634   22623606.5074
       174.0004        176.0004
   4631927.55748   3609278.85546  23040163.404    23040162.4554   23040167.1854
       167.0004        168.0004
  -2612690.25547  -2023824.23845  23226191.987    23226192.1604   23226196.3024
       159.0004        162.0004
  -2073190.78449  -1601609.64847  20792107.771    20792108.1664   20792115.3964
       198.0004        198.0004
  -3511706.03849  -2716108.90448  20190500.310    20190500.9564   20190505.0964
       216.0004        217.0004
   6643047.32349   5168453.48747  23446204.545    23446204.9224   23446211.2584
       198.0004        198.0004
  -7160255.68947  -5552322.60646  23505214.914    23505214.1604   23505216.9524
       163.0004        163.0004
  -5285651.75248  -4085802.56247  21828915.183    21828915.3934   21828919.2194
       191.0004        191.0004
 21  2  3  2 45  0.0000000  0  9G30G14G21G28G01G07G09G19G17
  -7739296.81049  -6011532.75847  20815426.790    20815427.0724   20815433.4264
       208.0004        209.0004
  -3645962.92848  -2832480.74446  22617411.381    22617412.3464   22617417.4684
       176.0004        176.0004
   4708422.04448   3668884.94546  23054719.852    23054718.5784   23054724.4054
       167.0004        167.0004
  -2636860.93847  -2042658.54045  23221592.081    23221591.9574   23221596.2874
       160.0004        162.0004
  -2057465.47249  -1589356.14147  20795099.607    20795100.4424   20795108.4734
       199.0004        199.0004
  -3514914.02849  -2718608.64148  20189889.913    20189890.2904   20189895.0274
       216.0004        218.0004
   6722441.64949   5230319.20647  23461313.222    23461313.3044   23461319.6134
       199.0004        199.0004
  -7228635.98547  -5605605.92846  23492202.697    23492202.0574   23492205.6254
       162.0004        164.0004
  -5312269.68748  -4106543.79047  21823849.404    21823849.7334   21823854.0414
       191.0004        191.0004
 21  2  3  2 45 30.0000000  0  9G30G14G21G28G01G07G09G19G17
  -7794377.80549  -6054453.01247  20804946.031    20804945.2794   20804952.1104
       209.0004        209.0004
  -3678561.87648  -2857882.50746  22611208.419    22611209.1164   22611214.1694
       176.0004        177.0004
   4785266.79848   3728763.96646  23069342.095    23069341.4824   23069347.7724
       166.0004        168.0004
  -2661159.46247  -2061592.43945  23216968.582    23216968.8314   23216972.0644
       160.0004        162.0004
  -2041126.30149  -1576624.31147  20798209.023    20798210.0734   20798217.3394
       199.0004        199.0004
  -3517555.03249  -2720666.57048  20189387.686    20189387.8364   20189392.2634
       216.0004        217.0004
   6801786.67949   5292146.49447  23476411.110    23476411.4124   23476418.9144
       199.0004        198.0004
  -7296705.76847  -5658647.29546  23479248.565    23479248.0644   23479252.2274
       162.0004        163.0004
  -5338492.53748  -4126977.17547  21818860.182    21818860.3034   21818864.2774
       191.0004        191.0004
 21  2  3  2 46  0.0000000  0  9G30G14G21G28G01G07G09G19G17
  -7849044.00949  -6097050.05647  20794542.201    20794542.4954   20794549.4354
       209.0004        209.0004
  -3711235.41448  -2883342.40246  22604989.655    22604990.4964   22604995.8144
       175.0004        174.0004
   4862459.97048   3788914.49746  23084032.895    23084031.7854   23084036.3774
       167.0004        168.0004
  -2685585.28647  -2080625.55245  23212320.870    23212320.7774   23212324.0814
       160.0004        161.0004
  -2024172.64949  -1563413.66347  20801434.940    20801435.7964   20801443.4794
       199.0004        199.0004
  -3519627.22349  -2722281.26748  20188992.876    20188993.4254   20188997.9624
       216.0004        217.0004
   6881080.59449   5353933.96147  23491500.338    23491500.7774   23491507.8164
       198.0004        196.0004
  -7364463.55548  -5711445.54846  23466356.278    23466355.4274   23466358.8994
       165.0004        168.0004
  -5364321.17048  -4147103.37647  21813944.406    21813944.8044   21813949.5584
       191.0004        192.0004
 21  2  3  2 46 30.0000000  0  9G30G14G21G28G01G07G09G19G17
  -7903294.70649  -6139323.32847  20784218.433    20784218.9634   20784225.8854
       208.0004        209.0004
  -3743985.19448  -2908861.70946  22598759.112    22598758.9474   22598762.9434
       174.0004        174.0004
   4939997.97248   3849333.72746  23098787.405    23098786.8314   23098791.3454
       166.0004        167.0004
  -2710140.79347  -2099759.71745  23207646.952    23207646.7184   23207652.0174
       159.0004        159.0004
  -2006606.40049  -1549725.66947  20804778.404    20804778.9564   20804786.2554
       199.0004        200.0004
  -3521131.33949  -2723453.31348  20188706.909    20188707.4254   20188711.7084
       216.0004        217.0004
   6960318.99048   5415678.18347  23506579.160    23506578.9024   23506586.0354
       194.0004        192.0004
  -7431910.73148  -5764001.78046  23453520.673    23453520.3004   23453523.3794
       166.0004        167.0004
  -5389757.69848  -4166924.03147  21809103.955    21809104.6804   21809108.6814
       192.0004        192.0004
 21  2  3  2 47  0.0000000  0  9G30G14G21G28G01G07G09G19G17
  -7957126.38049  -6181270.08447  20773974.461    20773974.9674   20773982.2134
       208.0004        209.0004
  -3776809.92948  -2934439.44546  22592513.272    22592513.6194   22592516.7394
       174.0004        175.0004
   5017879.04748   3910020.26746  23113606.682    23113606.0434   23113611.0624
       165.0004        165.0004
  -2734825.13247  -2118994.24745  23202950.415    23202950.3034   23202955.3414
       158.0004        160.0004
  -1988426.54849  -1535559.54347  20808237.699    20808238.2194   20808245.8224
       199.0004        199.0004
  -3522065.82749  -2724181.49548  20188528.824    20188529.2384   20188533.7204
       216.0004        217.0004
   7039500.52948   5477378.08247  23521646.480    23521646.8844   23521653.8794
       192.0004        191.0004
  -7499045.71148  -5816314.72946  23440745.499    23440744.9034   23440748.9874
       165.0004        166.0004
  -5414801.75448  -4186438.87647  21804337.694    21804338.8274   21804343.5234
       192.0004        193.0004
 21  2  3  2 47 30.0000000  0  9G30G14G21G28G01G07G09G19G17
  -8010536.44549  -6222888.31247  20763811.586    20763811.3934   20763818.8214
       209.0004        210.0004
  -3809709.33148  -2960075.33146  22586251.908    22586252.0834   22586256.3124
       175.0004        176.0004
   5096101.89848   3970973.14246  23128491.957    23128491.7154   23128496.1864
       165.0004        165.0004
  -2759638.70447  -2138329.49845  23198228.647    23198228.5884   23198231.9204
       158.0004        160.0004
  -1969633.11549  -1520915.29147  20811813.483    20811814.2664   20811821.6674
       199.0004        199.0004
  -3522428.80449  -2724464.35148  20188460.102    20188460.4074   20188464.8084
       216.0004        217.0004
   7118622.77148   5539031.77547  23536701.954    23536702.4094   23536710.4544
       192.0004        191.0004
  -7565867.47247  -5868383.61746  23428028.813    23428028.2704   23428032.3474
       164.0004        166.0004
  -5439454.08448  -4205648.47247  21799647.601    21799647.8994   21799652.2274
       193.0004        194.0004
 21  2  3  2 48  0.0000000  0  9G30G14G21G28G01G07G09G19G17
  -8063521.91449  -6264175.68947  20753728.248    20753728.7014   20753735.7294
       209.0004        210.0004
  -3842682.65948  -2985768.84246  22579976.013    22579977.2534   22579982.1314
       175.0004        174.0004
   5174665.03947   4032191.18146  23143442.493    23143441.9914   23143445.1444
       164.0004        165.0004
  -2784581.28747  -2157765.28445  23193482.902    23193481.9074   23193486.1224
       158.0004        160.0004
  -1950225.71649  -1505792.63947  20815506.599    20815507.3384   20815514.9784
       198.0004        199.0004
  -3522219.28649  -2724301.10148  20188500.393    20188500.7364   20188504.7004
       216.0004        217.0004
   7197683.78448   5600637.76347  23551747.922    23551748.3254   23551756.0454
       193.0004        194.0004
  -7632374.98148  -5920207.63746  23415373.089    23415372.7204   23415377.1274
       165.0004        167.0004
  -5463714.93048  -4224553.01447  21795030.102    21795030.7444   21795035.3034
       193.0004        193.0004
 21  2  3  2 48 30.0000000  0  9G30G14G21G28G01G07G09G19G17
  -8116081.05749  -6305130.86547  20743727.892    20743727.6274   20743734.0214
       210.0004        210.0004
  -3875730.36448  -3011520.29546  22573687.911    22573688.1794   22573693.3304
       175.0004        176.0004
   5253564.88747   4093671.60146  23158456.669    23158455.9304   23158459.7114
       164.0004        165.0004
  -2809653.75547  -2177302.26346  23188711.408    23188711.5504   23188715.3344
       160.0004        163.0004
  -1930205.17849  -1490192.21047  20819316.219    20819317.1884   20819325.0674
       198.0004        199.0004
  -3521437.06349  -2723691.58348  20188648.857    20188649.2484   20188653.3084
       216.0004        217.0004
   7276680.47648   5662193.60747  23566780.893    23566780.7604   23566787.9244
       194.0004        194.0004
  -7698567.88848  -5971786.49846  23402778.198    23402777.4554   23402780.6164
       166.0004        166.0004
  -5487585.98948  -4243153.82047  21790487.943    21790488.6044   21790492.3664
       193.0004        193.0004
 21  2  3  2 49  0.0000000  0  9G30G14G21G28G01G07G09G19G17
  -8168211.89349  -6345752.30347  20733807.509    20733807.0904   20733813.9944
       210.0004        211.0004
  -3908852.68848  -3037329.89746  22567385.453    22567386.3044   22567390.7054
       176.0004        177.0004
   5332799.91347   4155413.17545  23173534.767    23173533.3914   23173536.9084
       163.0004        162.0004
  -2834856.76147  -2196940.96045  23183915.322    23183915.1944   23183919.1334
       161.0004        162.0004
  -1909572.24249  -1474114.58047  20823242.597    20823243.1824   20823251.2564
       198.0004        199.0004
  -3520081.44749  -2722635.26548  20188906.150    20188907.0644   20188911.5064
       216.0004        217.0004
   7355609.79548   5723696.97647  23581800.945    23581800.9994   23581807.4044
       193.0004        194.0004
  -7764446.41447  -6023120.42146  23390239.618    23390239.8544   23390244.1194
       163.0004        165.0004
  -5511069.05248  -4261452.30447  21786019.181    21786020.0524   21786023.8384
       193.0004        193.0004
 21  2  3  2 49 30.0000000  0  9G30G14G21G28G01G07G09G19G17
  -8219911.87549  -6386038.00747  20723968.350    20723968.6604   20723975.9004
       210.0004        211.0004
  -3942049.24348  -3063197.34146  22561068.349    22561068.7104   22561074.1854
       177.0004        178.0004
   5412367.73047   4217414.06445  23188673.982    23188674.3394   23188677.5654
       161.0004        161.0004
  -2860190.81847  -2216681.76645  23179094.430    23179093.5274   23179098.7174
       160.0004        162.0004
  -1888326.95949  -1457559.81547  20827285.586    20827286.4984   20827293.8574
       198.0004        198.0004
  -3518151.34749  -2721131.29548  20189273.868    20189274.4814   20189278.9594
       216.0004        217.0004
   7434469.53148   5785146.13247  23596806.392    23596807.2774   23596813.9464
       193.0004        193.0004
  -7830010.13847  -6074209.01546  23377765.386    23377764.0274   23377767.7214
       164.0004        164.0004
  -5534164.39048  -4279448.67947  21781623.971    21781624.3884   21781629.0874
       193.0004        193.0004
 21  2  3  2 50  0.0000000  0  9G30G14G21G28G01G07G09G19G17
  -8271178.34349  -6425985.89447  20714212.888    20714212.9924   20714220.1084
       210.0004        211.0004
  -3975319.52948  -3089122.22446  22554737.031    22554737.4024   22554742.1174
       178.0004        179.0004
   5492266.19247   4279672.62046  23203880.035    23203880.1724   23203882.6994
       161.0004        164.0004
  -2885655.83747  -2236524.64445  23174247.873    23174247.6964   23174252.6474
       160.0004        162.0004
  -1866469.32849  -1440527.87547  20831444.920    20831445.8904   20831452.8394
       198.0004        197.0004
  -3515645.86049  -2719178.97448  20189750.826    20189751.1674   20189755.6904
       216.0004        217.0004
   7513257.47748   5846539.32147  23611799.329    23611799.7544   23611806.8514
       193.0004        192.0004
  -7895257.77047  -6125051.29246  23365347.945    23365347.3054   23365351.7884
       163.0004        165.0004
  -5556872.88648  -4297143.60547  21777302.547    21777303.5094   21777307.3134
       193.0004        192.0004
 21  2  3  2 50 30.0000000  0  9G30G14G21G28G01G07G09G19G17
  -8322009.18249  -6465594.33047  20704540.158    20704540.1354   20704547.1804
       210.0004        211.0004
  -4008663.55848  -3115104.58146  22548391.942    22548392.9934   22548397.0074
       178.0004        178.0004
   5572492.77647   4342186.85846  23219146.815    23219146.3564   23219148.9414
       162.0004        163.0004
  -2911252.28147  -2256469.92845  23169378.365    23169377.2824   23169381.3184
       160.0004        162.0004
  -1843999.96249  -1423019.26347  20835721.414    20835722.1574   20835728.9814
       198.0004        199.0004
  -3512564.60549  -2716778.00248  20190337.863    20190338.1614   20190341.6514
       216.0004        217.0004
   7591970.88148   5907874.45347  23626778.544    23626777.9794   23626785.3254
       191.0004        189.0004
  -7960189.00847  -6175647.03146  23352990.834    23352991.0234   23352995.6484
       163.0004        164.0004
  -5579195.75848  -4314538.02247  21773055.394    21773055.6644   21773059.1464
       193.0004        193.0004
 21  2  3  2 51  0.0000000  0  9G30G14G21G28G01G07G09G19G17
  -8372401.86449  -6504861.36447  20694951.147    20694951.3054   20694957.7394
       211.0004        212.0004
  -4042080.90148  -3141144.07046  22542032.195    22542032.9264   22542038.3004
       178.0004        177.0004
   5653045.12047   4404954.93046  23234475.082    23234474.3514   23234478.3464
       162.0004        163.0004
  -2936980.48447  -2276517.86945  23164481.525    23164480.8884   23164485.1014
       159.0004        159.0004
  -1820919.01749  -1405034.11247  20840113.345    20840113.8034   20840121.4374
       198.0004        199.0004
  -3508906.50849  -2713927.54548  20191033.197    20191033.5434   20191037.9784
       216.0004        217.0004
   7670607.47548   5969149.74547  23641741.636    23641741.8384   23641749.9034
       189.0004        188.0004
  -8024803.56247  -6225996.02146  23340697.497    23340696.5144   23340699.9634
       163.0004        166.0004
  -5601133.52648  -4331632.38147  21768880.335    21768880.7284   21768884.7424
       193.0004        194.0004
 21  2  3  2 51 30.0000000  0 10G30G14G21G28G01G07G09G19G22G17
  -8422354.82849  -6543785.76447  20685445.678    20685445.4264   20685452.2944
       212.0004        212.0004
  -4075572.05748  -3167241.06846  22535660.836    22535660.8224   22535664.6294
       178.0004        179.0004
   5733920.85247   4467974.97146  23249864.597    23249864.6594   23249869.9134
       161.0004        163.0004
  -2962841.42047  -2296669.25045  23159561.002    23159560.6794   23159564.3034
       159.0004        162.0004
  -1797227.71049  -1386573.34047  20844621.725    20844621.9804   20844629.2184
       198.0004        199.0004
  -3504671.63149  -2710627.64148  20191839.044    20191839.4954   20191843.6424
       216.0004        217.0004
   7749164.09048   6030362.68247  23656691.258    23656691.8404   23656698.6584
       189.0004        190.0004
  -8089101.12447  -6276097.99246  23328460.160    23328460.1374   23328464.8764
       164.0004        164.0004
  -2763243.55047  -2144343.03145  24790338.666    24790338.3944   24790342.1604
       138.0004        141.0004
  -5622688.45048  -4348428.43047  21764778.682    21764779.1024   21764783.9824
       194.0004        195.0004
 21  2  3  2 52  0.0000000  0 10G30G14G21G28G01G07G09G19G22G17
  -8471866.62949  -6582366.37747  20676023.270    20676023.5074   20676030.6204
       212.0004        212.0004
  -4109137.65848  -3193396.10046  22529273.218    22529273.4224   22529277.4224
       178.0004        178.0004
   5815116.65047   4531244.43846  23265316.655    23265315.0354   23265319.7354
       161.0004        163.0004
  -2988836.18047  -2316924.91445  23154613.876    23154614.2604   23154617.4434
       160.0004        161.0004
  -1772927.27849  -1367637.92347  20849246.030    20849246.2104   20849252.9734
       198.0004        197.0004
  -3499860.58149  -2706878.77748  20192754.941    20192755.2874   20192759.3674
       216.0004        217.0004
   7827637.41748   6091510.68947  23671624.452    23671624.3864   23671630.9414
       190.0004        191.0004
  -8153082.47947  -6325953.59546  23316285.270    23316284.8304   23316288.9684
       162.0004        163.0004
  -2785862.14647  -2161967.90245  24786035.177    24786035.2384   24786037.6204
       135.0004        139.0004
  -5643862.14449  -4364927.41147  21760749.120    21760750.0724   21760753.9254
       195.0004        195.0004
 21  2  3  2 52 30.0000000  0 10G30G14G21G28G01G07G09G19G22G17
  -8520932.97449  -6620599.89248  20666686.490    20666686.6474   20666693.3604
       212.0004        213.0004
  -4142775.48548  -3219607.36146  22522870.025    22522871.1934   22522876.9134
       178.0004        178.0004
   5896632.20747   4594763.06246  23280827.047    23280827.8314   23280832.4904
       162.0004        165.0004
  -3014963.17547  -2337283.62445  23149642.687    23149643.0014   23149646.6084
       160.0004        162.0004
  -1748016.20949  -1348226.68247  20853986.455    20853986.8484   20853994.3034
       198.0004        198.0004
  -3494469.81449  -2702678.17848  20193780.343    20193780.9934   20193785.2534
       216.0004        217.0004
   7906026.90048   6152593.40347  23686541.470    23686541.4074   23686548.5944
       190.0004        191.0004
  -8216745.12247  -6375560.85146  23304171.709    23304171.0824   23304173.3614
       162.0004        163.0004
  -2808388.76446  -2179521.10045  24781747.161    24781746.4234   24781750.9444
       132.0004        137.0004
  -5664653.38049  -4381128.35947  21756793.707    21756793.3614   21756797.9374
       195.0004        195.0004
 21  2  3  2 53  0.0000000  0 10G30G14G21G28G01G07G09G19G22G17
  -8569551.24149  -6658484.25947  20657434.320    20657434.7264   20657441.3534
       212.0004        212.0004
  -4176484.84548  -3245874.39046  22516457.532    22516457.6474   22516461.4444
       178.0004        178.0004
   5978465.57747   4658529.31446  23296400.687    23296400.6934   23296406.3714
       162.0004        164.0004
  -3041222.18147  -2357745.19245  23144645.102    23144645.3114   23144648.8244
       160.0004        161.0004
  -1722494.64649  -1328339.74647  20858842.154    20858843.3204   20858850.9644
       198.0004        198.0004
  -3488498.50749  -2698025.21248  20194917.102    20194917.5694   20194921.4144
       216.0004        217.0004
   7984330.56148   6213609.24047  23701443.158    23701442.9244   23701449.0634
       190.0004        191.0004
  -8280088.11447  -6424918.99346  23292117.219    23292117.3674   23292120.3604
       161.0004        163.0004
  -2830820.62046  -2197000.48945  24777479.101    24777480.3194   24777482.8354
       133.0004        140.0004
  -5685063.17249  -4397032.07547  21752908.683    21752909.2544   21752914.1174
       195.0004        196.0004
 21  2  3  2 53 30.0000000  0 10G30G14G21G28G01G07G09G19G22G17
  -8617719.66649  -6696018.10047  20648268.764    20648268.6594   20648274.9044
       212.0004        212.0004
  -4210265.98248  -3272197.36346  22510028.169    22510028.7374   22510033.3424
       178.0004        178.0004
   6060614.32247   4722541.32345  23312030.503    23312031.3344   23312038.0664
       161.0004        162.0004
  -3067614.17147  -2378310.37945  23139622.289    23139622.9364   23139626.1144
       160.0004        162.0004
  -1696363.60849  -1307977.89347  20863815.093    20863815.8154   20863822.8184
       198.0004        197.0004
  -3481947.12349  -2692920.23448  20196163.473    20196163.9544   20196168.1684
       216.0004        217.0004
   8062545.43848   6274555.91347  23716326.007    23716326.4754   23716332.7944
       192.0004        192.0004
  -8343111.65447  -6474028.23246  23280124.082    23280123.9464   23280127.5864
       161.0004        163.0004
  -2853155.78447  -2214404.49645  24773228.396    24773229.0934   24773230.9754
       136.0004        142.0004
  -5705093.27549  -4412639.94347  21749098.449    21749098.2234   21749102.3384
       196.0004        196.0004
 21  2  3  2 54  0.0000000  0 10G30G14G21G28G01G07G09G19G22G17
  -8665435.37249  -6733199.16447  20639188.478    20639188.3874   20639195.2044
       212.0004        212.0004
  -4244117.94848  -3298575.50746  22503586.953    22503587.6484   22503591.4954
       178.0004        179.0004
   6143076.83447   4786797.81646  23327724.489    23327724.0004   23327730.2724
       161.0004        163.0004
  -3094138.66047  -2398978.79145  23134574.928    23134574.3464   23134580.0724
       160.0004        162.0004
  -1669623.05549  -1287141.08347  20868904.393    20868904.6154   20868911.6834
       197.0004        197.0004
  -3474814.38149  -2687362.26148  20197521.381    20197521.8024   20197525.1564
       216.0004        217.0004
   8140669.73848   6335431.98047  23731191.051    23731191.4824   23731199.8464
       191.0004        190.0004
  -8405814.48647  -6522887.58046  23268192.785    23268191.9784   23268195.8754
       163.0004        165.0004
  -2875391.69347  -2231731.17445  24768996.465    24768997.3294   24768999.5254
       138.0004        143.0004
  -5724744.20649  -4427952.33347  21745358.301    21745358.7844   21745363.3324
       196.0004        195.0004
 21  2  3  2 54 30.0000000  0 10G30G14G21G28G01G07G09G19G22G17
  -8712696.76549  -6770026.22548  20630194.921    20630195.1294   20630201.5474
       212.0004        213.0004
  -4278041.12448  -3325009.15446  22497131.158    22497131.5644   22497137.4054
       178.0004        178.0004
   6225849.35147   4851295.88745  23343476.627    23343475.9044   23343480.5374
       161.0004        161.0004
  -3120796.45147  -2419751.07545  23129502.444    23129502.3864   23129507.5654
       160.0004        161.0004
  -1642274.24249  -1265830.30447  20874108.184    20874108.6164   20874116.2294
       197.0004        197.0004
  -3467100.11249  -2681351.14648  20198989.141    20198989.5924   20198993.5354
       216.0004        217.0004
   8218700.39848   6396235.06847  23746039.385    23746040.4844   23746049.0224
       190.0004        191.0004
  -8468196.87547  -6571497.22046  23256320.896    23256320.9764   23256324.6674
       163.0004        165.0004
  -2897526.27147  -2248978.90745  24764786.033    24764786.3544   24764787.7084
       136.0004        141.0004
  -5744017.61649  -4442970.57147  21741690.446    21741691.2304   21741695.4674
       195.0004        196.0004
 21  2  3  2 55  0.0000000  0 10G30G14G21G28G01G07G09G19G22G17
  -8759502.30649  -6806498.08248  20621288.328    20621288.4224   20621294.6824
       212.0004        213.0004
  -4312035.86548  -3351498.54246  22490662.310    22490663.2104   22490667.3384
       177.0004        177.0004
   6308929.54047   4916033.70045  23359286.194    23359285.2534   23359290.3484
       160.0004        162.0004
  -3147588.57047  -2440628.05445  23124404.598    23124404.6594   23124408.5414
       160.0004        162.0004
  -1614318.39049  -1244046.52147  20879427.844    20879428.8094   20879436.2104
       197.0004        197.0004
  -3458804.59849  -2674887.11648  20200567.654    20200567.9084   20200572.1904
       216.0004        217.0004
   8296634.36948   6456962.82647  23760871.731    23760872.1804   23760878.7074
       191.0004        192.0004
  -8530259.55647  -6619857.72546  23244511.825    23244510.8074   23244513.6034
       162.0004        163.0004
  -2919557.97947  -2266146.46345  24760594.057    24760593.0984   24760596.2154
       135.0004        139.0004
  -5762915.10049  -4457695.87147  21738094.593    21738095.2864   21738099.3014
       196.0004        196.0004
 21  2  3  2 55 30.0000000  0 10G30G14G21G28G01G07G09G19G22G17
  -8805849.92249  -6842613.11648  20612468.203    20612468.5364   20612475.2004
       212.0004        213.0004
  -4346101.96048  -3378043.56346  22484179.751    22484180.0094   22484183.9174
       177.0004        176.0004
   6392314.85647   4981009.27845  23375153.188    23375152.7804   23375157.9384
       159.0004        161.0004
  -3174515.30647  -2461609.94046  23119280.634    23119281.0154   23119284.6674
       161.0004        163.0004
  -1585756.33849  -1221790.36847  20884863.564    20884863.9474   20884870.9374
       197.0004        198.0004
  -3449927.25349  -2667969.70848  20202257.003    20202257.3004   20202261.2624
       216.0004        217.0004
   8374469.07048   6517613.26547  23775683.046    23775683.4294   23775690.1914
       191.0004        192.0004
  -8592001.96347  -6667968.68446  23232761.411    23232761.0904   23232764.7014
       163.0004        165.0004
  -2941484.63146  -2283232.15745  24756422.017    24756418.9244   24756424.7794
       134.0004        140.0004
  -5781437.92149  -4472129.23547  21734570.193    21734570.7854   21734574.5284
       196.0004        196.0004
 21  2  3  2 56  0.0000000  0 10G30G14G21G28G01G07G09G19G22G17
  -8851736.76649  -6878369.09148  20603736.568    20603736.6164   20603743.5464
       213.0004        213.0004
  -4380238.42448  -3404643.39046  22477682.875    22477683.3624   22477688.7794
       176.0004        177.0004
   6476003.24847   5046221.01445  23391078.453    23391079.0744   23391081.7944
       158.0004        158.0004
  -3201576.20747  -2482696.36245  23114131.494    23114131.5474   23114134.4224
       161.0004        162.0004
  -1556588.09549  -1199061.85547  20890413.814    20890414.5334   20890421.5834
       197.0004        197.0004
  -3440467.54249  -2660598.50448  20204057.078    20204057.5474   20204061.5034
       215.0004        217.0004
   8452202.86548   6578185.06847  23790474.953    23790475.0644   23790482.8074
       191.0004        191.0004
  -8653423.05548  -6715829.27546  23221074.445    23221073.6734   23221077.5584
       165.0004        167.0004
  -2963303.30547  -2300233.71145  24752270.950    24752267.7194   24752272.6404
       136.0004        142.0004
  -5799587.07249  -4486271.41847  21731116.322    21731116.6654   21731120.7014
       196.0004        196.0004
 21  2  3  2 56 30.0000000  0 10G30G14G21G28G01G07G09G19G22G17
  -8897160.91249  -6913764.53148  20595092.569    20595092.8124   20595099.6284
       213.0004        214.0004
  -4414445.11148  -3431297.95146  22471174.861    22471174.5034   22471179.1824
       178.0004        177.0004
   6559992.71547   5111667.35945  23407061.082    23407060.5714   23407064.7634
       157.0004        159.0004
  -3228771.61947  -2503887.60045  23108953.802    23108954.2084   23108957.8264
       158.0004        158.0004
  -1526814.64049  -1175861.75647  20896079.293    20896080.0044   20896086.9894
       197.0004        196.0004
  -3430424.94649  -2652773.10648  20205968.527    20205968.7454   20205972.5634
       216.0004        217.0004
   8529833.08348   6638676.15247  23805247.427    23805247.8274   23805255.0214
       191.0004        191.0004
  -8714522.78248  -6763439.42146  23209447.451    23209446.3024   23209450.3684
       165.0004        166.0004
  -2985011.89147  -2317149.50745  24748140.144    24748137.9674   24748140.8624
       140.0004        146.0004
  -5817363.29849  -4500123.00947  21727733.330    21727733.8314   21727738.0494
       196.0004        196.0004
 21  2  3  2 57  0.0000000  0 10G30G14G21G28G01G07G09G19G22G17
  -8942119.58449  -6948797.26348  20586537.262    20586537.2364   20586544.1934
       213.0004        213.0004
  -4448721.13648  -3458006.53046  22464650.164    22464651.4204   22464656.6494
       177.0004        177.0004
   6644281.54847   5177346.96545  23423099.842    23423100.1554   23423103.1564
       154.0004        156.0004
  -3256101.58947  -2525183.66545  23103755.028    23103754.7054   23103759.5274
       158.0004        161.0004
  -1496436.08449  -1152190.14147  20901859.942    20901860.4364   20901868.1034
       196.0004        197.0004
  -3419798.26749  -2644492.58048  20207989.612    20207990.3504   20207994.6724
       215.0004        216.0004
   8607358.00548   6699085.18047  23820000.339    23820000.9054   23820007.0734
       192.0004        192.0004
  -8775300.13248  -6810798.39346  23197881.612    23197881.9654   23197884.4854
       165.0004        167.0004
  -3006607.57947  -2333977.32345  24744027.851    24744027.9264   24744031.8214
       141.0004        145.0004
  -5834767.67149  -4513684.85147  21724420.554    21724421.1324   21724425.8604
       195.0004        195.0004
 21  2  3  2 57 30.0000000  0 10G30G14G21G28G01G07G09G19G22G17
  -8986610.81449  -6983465.75048  20578070.745    20578070.6234   20578077.7924
       213.0004        214.0004
  -4483066.22548  -3484768.94046  22458116.658    22458117.2324   22458121.2164
       178.0004        179.0004
   6728866.67747   5243257.46345  23439196.627    23439196.8084   23439201.1274
       154.0004        156.0004
  -3283566.13547  -2546584.59145  23098528.546    23098528.6254   23098532.9284
       160.0004        162.0004
  -1465453.37749  -1128047.76747  20907756.144    20907756.3514   20907764.4724
       197.0004        197.0004
  -3408587.38049  -2635756.82748  20210123.346    20210123.8224   20210128.0084
       215.0004        216.0004
   8684775.09748   6759410.17447  23834732.620    23834732.9384   23834738.7554
       192.0004        193.0004
  -8835755.07347  -6857906.11646  23186377.131    23186376.2144   23186380.7784
       164.0004        165.0004
  -3028088.24847  -2350715.50245  24739939.407    24739939.5974   24739945.4534
       139.0004        143.0004
  -5851801.36149  -4526957.84947  21721180.010    21721180.3684   21721184.5084
       195.0004        195.0004
 21  2  3  2 58  0.0000000  0 10G30G14G21G28G01G07G09G19G22G17
  -9030632.23849  -7017768.16448  20569693.409    20569693.7844   20569700.9114
       213.0004        213.0004
  -4517479.81548  -3511584.70546  22451567.822    22451568.0744   22451572.5824
       177.0004        178.0004
   6813746.18847   5309397.36045  23455350.153    23455349.0194   23455352.3094
       155.0004        159.0004
  -3311165.27547  -2568090.40445  23093275.813    23093277.0784   23093281.2764
       160.0004        161.0004
  -1433867.08849  -1103435.06547  20913766.355    20913767.2884   20913774.9264
       197.0004        197.0004
  -3396791.82049  -2626565.48948  20212368.209    20212368.4534   20212372.7824
       215.0004        216.0004
   8762082.20448   6819649.48347  23849442.075    23849443.0454   23849450.7784
       193.0004        194.0004
  -8895886.97247  -6904762.13246  23174935.021    23174933.6954   23174937.1854
       164.0004        165.0004
  -3049451.62247  -2367362.26645  24735873.278    24735874.6844   24735878.9724
       138.0004        143.0004
  -5868465.97249  -4539943.23247  21718008.292    21718008.6374   21718013.0534
       195.0004        194.0004
 21  2  3  2 58 30.0000000  0 10G30G14G21G28G01G07G09G19G22G17
  -9074181.79949  -7051702.88148  20561406.457    20561406.5594   20561413.5184
       213.0004        213.0004
  -4551961.47948  -3538453.54646  22445006.050    22445006.3694   22445010.4664
       177.0004        176.0004
   6898917.37147   5375764.50945  23471556.877    23471556.1934   23471559.7634
       156.0004        158.0004
  -3338899.02447  -2589701.12446  23087998.534    23087998.5054   23088002.9134
       160.0004        163.0004
  -1401678.04949  -1078352.67947  20919891.607    20919892.2594   20919899.9494
       197.0004        197.0004
  -3384411.59249  -2616918.56048  20214724.441    20214724.7334   20214729.1064
       215.0004        217.0004
   8839277.02648   6879801.29247  23864131.995    23864132.7164   23864140.2284
       193.0004        192.0004
  -8955695.63948  -6951366.27146  23163553.724    23163553.1544   23163555.9374
       165.0004        167.0004
  -3070695.01847  -2383915.56545  24731833.515    24731831.4894   24731836.7124
       141.0004        146.0004
  -5884762.39149  -4552641.73147  21714907.958    21714908.0994   21714912.4834
       195.0004        195.0004
 21  2  3  2 59  0.0000000  0 10G30G14G21G28G01G07G09G19G22G17
  -9117258.21849  -7085268.93148  20553209.463    20553209.7324   20553216.6404
       214.0004        214.0004
  -4586511.75148  -3565375.82546  22438430.495    22438430.5614   22438436.0084
       175.0004        175.0004
   6984378.11847   5442357.29345  23487817.971    23487818.1974   23487823.8414
       156.0004        159.0004
  -3366768.43447  -2611417.55146  23082697.100    23082696.8804   23082700.5634
       162.0004        164.0004
  -1368888.01949  -1052802.00347  20926131.300    20926132.2644   20926140.2514
       196.0004        197.0004
  -3371446.84149  -2606816.16148  20217190.990    20217191.3934   20217195.9684
       215.0004        216.0004
   8916356.37348   6939863.10947  23878799.336    23878799.8854   23878807.5144
       191.0004        189.0004
  -9015181.69148  -6997719.04446  23152234.238    23152233.5054   23152237.0574
       168.0004        170.0004
  -3091816.93847  -2400374.19245  24727815.481    24727814.1904   24727817.9184
       145.0004        149.0004
  -5900692.37148  -4565054.69447  21711876.827    21711877.1164   21711880.6344
       194.0004        195.0004
 21  2  3  2 59 30.0000000  0 10G30G14G21G28G01G07G09G19G22G17
  -9159859.10449  -7118464.42348  20545102.845    20545102.7124   20545109.8784
       214.0004        214.0004
  -4621129.83748  -3592350.94646  22431843.309    22431844.3324   22431849.1064
       175.0004        176.0004
   7070125.89247   5509173.75745  23504137.186    23504136.4024   23504142.5274
       158.0004        160.0004
  -3394773.62647  -2633239.75145  23077364.608    23077365.5094   23077370.9224
       160.0004        161.0004
  -1335497.51049  -1026783.42247  20932485.486    20932486.4004   20932493.9644
       196.0004        197.0004
  -3357896.99949  -2596257.85048  20219769.007    20219769.8194   20219774.1624
       215.0004        216.0004
   8993318.22948   6999833.40647  23893445.177    23893445.9484   23893452.9024
       190.0004        190.0004
  -9074344.35348  -7043819.79846  23140975.603    23140975.0634   23140978.1394
       169.0004        170.0004
  -3112815.09347  -2416736.37745  24723818.335    24723817.9414   24723819.9424
       144.0004        148.0004
  -5916257.11548  -4577183.06347  21708914.437    21708914.8244   21708919.1474
       194.0004        194.0004
 21  2  3  3  0  0.0000000  0 10G30G14G21G28G01G07G09G19G22G17
  -9201982.16949  -7151287.59248  20537087.379    20537087.2334   20537094.0144
       214.0004        214.0004
  -4655815.06648  -3619378.41446  22425243.630    22425243.8484   22425248.1644
       176.0004        176.0004
   7156158.35447   5576212.02645  23520507.695    23520508.0104   23520514.1524
       159.0004        161.0004
  -3422914.20347  -2655167.48245  23072012.436    23072012.1124   23072015.5124
       159.0004        160.0004
  -1301507.26149  -1000297.50847  20938953.581    20938954.8394   20938962.1954
       196.0004        196.0004
  -3343761.61349  -2585243.27348  20222459.382    20222459.7094   20222464.3624
       215.0004        216.0004
   9070160.50448   7059710.51747  23908069.354    23908068.9954   23908076.5334
       191.0004        192.0004
  -9133183.35248  -7089668.35946  23129778.288    23129777.7494   23129782.0634
       171.0004        172.0004
  -3133686.70747  -2432999.94545  24719847.101    24719844.8054   24719849.8514
       143.0004        146.0004
  -5931457.79148  -4589027.74247  21706021.577    21706022.0954   21706026.4834
       194.0004        195.0004
 21  2  3  3  0 30.0000000  0 10G30G14G21G28G01G07G09G19G22G17
  -9243625.36249  -7183736.83948  20529162.484    20529162.9874   20529169.5674
       214.0004        214.0004
  -4690567.02548  -3646457.85946  22418630.052    22418631.2024   22418635.2124
       175.0004        175.0004
   7242473.33147   5643470.45245  23536933.099    23536931.8544   23536938.0094
       159.0004        160.0004
  -3451190.22647  -2677200.75045  23066629.878    23066629.6424   23066636.3654
       158.0004        161.0004
  -1266918.20749   -973344.98947  20945536.187    20945536.6124   20945544.4224
       196.0004        196.0004
  -3329040.70749  -2573772.44448  20225260.531    20225260.8274   20225265.7214
       215.0004        216.0004
   9146881.01748   7119492.71247  23922667.924    23922668.2914   23922675.2434
       190.0004        190.0004
  -9191698.78648  -7135264.81946  23118644.321    23118643.3994   23118646.8804
       171.0004        172.0004
  -3154429.55247  -2449163.19145  24715898.593    24715897.6324   24715903.2054
       141.0004        145.0004
  -5946295.67349  -4600589.72147  21703198.889    21703198.7524   21703203.0094
       195.0004        196.0004
 21  2  3  3  1  0.0000000  0 10G30G14G21G28G01G07G09G19G22G17
  -9284786.59449  -7215810.53548  20521330.379    20521330.5734   20521336.7194
       214.0004        215.0004
  -4725385.24948  -3673588.94346  22412003.968    22412004.1534   22412008.5424
       175.0004        175.0004
   7329068.20447   5710946.95345  23553411.865    23553411.0464   23553416.6974
       159.0004        160.0004
  -3479601.88047  -2699339.69445  23061224.117    23061223.8204   23061227.6374
       159.0004        161.0004
  -1231731.10649   -945926.46847  20952231.525    20952232.2914   20952240.1754
       195.0004        195.0004
  -3313734.19449  -2561845.30248  20228173.717    20228174.2524   20228178.1684
       215.0004        216.0004
   9223477.41248   7179178.20147  23937244.645    23937245.0734   23937250.7444
       190.0004        190.0004
  -9249890.36348  -7180608.89146  23107570.448    23107569.7754   23107573.3744
       171.0004        173.0004
  -3175041.91947  -2465224.76045  24711976.204    24711975.6184   24711978.9254
       140.0004        144.0004
  -5960772.24149  -4611870.15547  21700443.503    21700444.0664   21700448.6624
       197.0004        197.0004
 21  2  3  3  1 30.0000000  0 10G30G14G21G28G01G07G09G19G22G17
  -9325462.90849  -7247506.36948  20513589.986    20513589.7934   20513596.3744
       215.0004        215.0004
  -4760268.23048  -3700770.47346  22405366.886    22405366.9614   22405371.0924
       175.0004        176.0004
   7415941.54747   5778640.47545  23569943.643    23569943.5514   23569947.0814
       158.0004        160.0004
  -3508148.29447  -2721583.67145  23055792.451    23055792.3714   23055795.5984
       159.0004        162.0004
  -1195946.29449   -918042.20147  20959041.497    20959042.0324   20959049.8174
       195.0004        195.0004
  -3297840.41149  -2549460.53748  20231197.663    20231198.3134   20231202.8854
       215.0004        216.0004
   9299948.44948   7238766.02247  23951797.053    23951796.8194   23951802.7654
       188.0004        188.0004
  -9307756.16648  -7225699.11546  23096558.693    23096557.8684   23096561.3444
       171.0004        172.0004
  -3195519.70547  -2481181.46545  24708080.268    24708078.7464   24708082.4664
       141.0004        145.0004
  -5974887.69549  -4622869.19947  21697757.142    21697757.5364   21697762.6084
       197.0004        197.0004
 21  2  3  3  2  0.0000000  0 11G30G14G21G28G01G07G06G09G19G22G17
  -9365654.12149  -7278824.19648  20505941.337    20505941.6524   20505948.1854
       215.0004        215.0004
  -4795217.32548  -3728003.54046  22398717.379    22398716.1714   22398720.2814
       176.0004        177.0004
   7503089.71947   5846548.13345  23586526.476    23586525.7514   23586531.0224
       157.0004        158.0004
  -3536831.17347  -2743933.96345  23050333.971    23050333.1244   23050337.6834
       160.0004        162.0004
  -1159566.47149   -889694.27247  20965964.880    20965964.9064   20965972.8724
       196.0004        196.0004
  -3281361.31049  -2536619.67548  20234333.272    20234334.0034   20234338.6324
       214.0004        215.0004
  -1170670.02654   -878885.64045  24345685.857
        74.0004        144.0004
   9376290.02148   7298252.99146  23966322.330    23966322.9884   23966330.2114
       188.0004        187.0004
  -9365298.07448  -7270536.96846  23085609.728    23085609.0344   23085611.6014
       170.0004        170.0004
  -3215862.45247  -2497032.92245  24704208.090    24704207.2754   24704211.6404
       140.0004        144.0004
  -5988644.86649  -4633589.06847  21695139.397    21695139.9614   21695144.5154
       196.0004        196.0004
 21  2  3  3  2 30.0000000  0 11G30G14G21G28G01G07G06G09G19G22G17
  -9405357.18449  -7309761.65748  20498386.261    20498386.2194   20498393.0124
       214.0004        214.0004
  -4830231.06548  -3755286.96546  22392051.774    22392052.6634   22392057.8804
       176.0004        176.0004
   7590510.79947   5914668.46345  23603162.346    23603162.2134   23603167.8954
       156.0004        159.0004
  -3565649.98447  -2766390.17245  23044850.180    23044849.4554   23044852.8554
       159.0004        159.0004
  -1122591.63349   -860882.70547  20973000.281    20973000.6784   20973008.7044
       196.0004        196.0004
  -3264295.59049  -2523321.72648  20237581.641    20237581.9844   20237586.0244
       214.0004        215.0004
  -1279265.10746   -963505.06845  24325020.659                    24325029.8594
       133.0004        148.0004
   9452500.95348   7357638.14846  23980824.846    23980825.3264   23980833.3784
       187.0004        187.0004
  -9422515.15848  -7315121.70946  23074720.649    23074719.8434   23074723.9484
       169.0004        170.0004
  -3236066.87447  -2512776.63245  24700363.501    24700363.2104   24700368.6664
       140.0004        144.0004
  -6002043.76249  -4644029.76447  21692589.864    21692590.2524   21692594.9224
       196.0004        197.0004
 21  2  3  3  3  0.0000000  0 11G30G14G21G28G01G07G06G09G19G22G17
  -9444570.08349  -7340317.16148  20490923.768    20490924.2384   20490930.8974
       214.0004        215.0004
  -4865308.83348  -3782620.27146  22385377.189    22385377.5774   22385383.2334
       177.0004        177.0004
   7678202.56547   5982999.70245  23619850.456    23619848.9764   23619853.5654
       156.0004        158.0004
  -3594604.58047  -2788952.19845  23039340.401    23039339.7064   23039343.7454
       159.0004        161.0004
  -1085022.82149   -831608.30047  20980149.414    20980149.8904   20980157.7294
       195.0004        195.0004
  -3246643.46349  -2509566.81948  20240939.867    20240940.5624   20240944.9494
       214.0004        215.0004
  -1387847.56947  -1048114.70345  24304358.343    24304358.2114   24304366.4554
       143.0004        149.0004
   9528579.07148   7416919.77146  23995302.041    23995302.7474   23995308.5304
       185.0004        185.0004
  -9479407.27848  -7359453.23046  23063894.967    23063893.6284   23063898.4134
       171.0004        173.0004
  -3256131.15747  -2528411.12545  24696545.207    24696545.3314   24696550.3664
       141.0004        146.0004
  -6015086.66049  -4654193.04647  21690107.910    21690108.2244   21690112.2024
       196.0004        196.0004
 21  2  3  3  3 30.0000000  0 11G30G14G21G28G01G07G06G09G19G22G17
  -9483291.25149  -7370489.50648  20483556.015    20483556.2604   20483562.6404
       215.0004        215.0004
  -4900450.55048  -3810003.42046  22378691.097    22378691.8414   22378695.0874
       176.0004        176.0004
   7766162.23347   6051539.71145  23636588.500    23636587.7604   23636590.7414
       156.0004        157.0004
  -3623695.00847  -2811620.05745  23033803.552    23033803.9444   23033808.3094
       158.0004        161.0004
  -1046861.56649   -801872.25247  20987411.194    20987412.1034   20987418.9234
       195.0004        195.0004
  -3228405.30749  -2495355.24948  20244411.135    20244411.9044   20244415.8324
       214.0004        215.0004
  -1496415.10647  -1132712.71645  24283699.143    24283698.9214   24283707.1384
       144.0004        148.0004
   9604521.70148   7476095.82646  24009754.914    24009755.3314   24009761.0854
       185.0004        185.0004
  -9535974.59148  -7403531.63246  23053130.784    23053129.2954   23053133.1704
       171.0004        171.0004
  -3276053.18747  -2543934.78745  24692754.653    24692753.5304   24692758.4554
       139.0004        143.0004
  -6027775.24949  -4664080.25347  21687693.311    21687693.3594   21687697.8234
       195.0004        195.0004
 21  2  3  3  4  0.0000000  0 11G30G14G21G28G01G07G06G09G19G22G17
  -9521518.91049  -7400277.29748  20476281.344    20476281.3814   20476288.0504
       215.0004        215.0004
  -4935655.77048  -3837436.06146  22371991.582    22371991.1054   22371996.9424
       177.0004        177.0004
   7854387.45447   6120286.63045  23653376.397    23653375.3174   23653379.7604
       155.0004        157.0004
  -3652921.84147  -2834394.20945  23028241.807    23028241.7644   23028247.2744
       158.0004        161.0004
  -1008109.11849   -771675.53647  20994785.279    20994786.4834   20994793.5164
       195.0004        195.0004
  -3209581.07849  -2480687.02648  20247992.725    20247993.3504   20247998.1554
       214.0004        215.0004
  -1604965.19847  -1217297.15545  24263042.966    24263043.4914   24263050.9264
       146.0004        149.0004
   9680326.56448   7535164.54146  24024180.326    24024179.9874   24024186.3354
       184.0004        183.0004
  -9592217.01648  -7447356.89346  23042427.786    23042427.0604   23042430.4304
       170.0004        171.0004
  -3295830.82947  -2559345.90945  24688990.653    24688989.1664   24688993.2364
       138.0004        143.0004
  -6040110.55349  -4673692.17147  21685345.395    21685346.1134   21685350.4284
       195.0004        195.0004
 21  2  3  3  4 30.0000000  0 11G30G14G21G28G01G07G06G09G19G22G17
  -9559250.71749  -7429678.70448  20469100.838    20469101.3224   20469107.9994
       215.0004        215.0004
  -4970923.57048  -3864917.45846  22365279.680    22365280.0374   22365284.9004
       177.0004        177.0004
   7942876.24747   6189238.94345  23670215.296    23670214.8874   23670218.5924
       153.0004        155.0004
  -3682284.39547  -2857274.12445  23022654.950    23022654.6044   23022659.0594
       160.0004        162.0004
   -968766.24048   -741018.73747  21002272.356    21002273.0184   21002280.3754
       194.0004        195.0004
  -3190170.68349  -2465562.04048  20251686.825    20251687.3964   20251691.6424
       214.0004        215.0004
  -1713494.75747  -1301865.59745  24242389.929    24242390.2874   24242398.4544
       147.0004        151.0004
   9755991.84948   7594124.48846  24038577.161    24038577.7624   24038584.9954
       182.0004        182.0004
  -9648134.19848  -7490928.71046  23031786.232    23031786.2164   23031789.8664
       171.0004        172.0004
  -3315461.39247  -2574642.41845  24685255.724    24685255.3844   24685258.8844
       139.0004        143.0004
  -6052093.97249  -4683029.88847  21683065.581    21683065.6514   21683070.0984
       195.0004        196.0004
 21  2  3  3  5  0.0000000  0 11G30G14G21G28G01G07G06G09G19G22G17
  -9596483.81749  -7458691.51648  20462016.025    20462015.8734   20462022.8254
       215.0004        215.0004
  -5006252.44848  -3892446.45446  22358556.449    22358557.6164   22358562.4224
       176.0004        176.0004
   8031626.56747   6258395.04245  23687105.636    23687103.3314   23687107.4514
       153.0004        156.0004
  -3711781.89947  -2880259.20345  23017041.598    23017041.0934   23017045.8304
       160.0004        161.0004
   -928833.12948   -709902.03147  21009870.672    21009871.5474   21009879.5074
       194.0004        194.0004
  -3170172.65849  -2449979.17548  20255492.642    20255492.7914   20255496.7984
       214.0004        215.0004
  -1822000.13047  -1386415.18845  24221741.544    24221742.2904   24221750.5504
       148.0004        151.0004
   9831516.31648   7652974.72846  24052947.647    24052948.7814   24052956.7004
       181.0004        181.0004
  -9703724.85448  -7534246.11646  23021208.868    23021207.8474   23021211.9454
       172.0004        174.0004
  -3334941.71247  -2589821.87745  24681547.565    24681547.5204   24681551.2804
       137.0004        141.0004
  -6063725.53549  -4692093.43747  21680852.145    21680852.7544   21680856.3484
       195.0004        195.0004
 21  2  3  3  5 30.0000000  0 11G30G14G21G28G01G07G06G09G19G22G17
  -9633216.85049  -7487314.65648  20455025.859    20455026.0184   20455033.0054
       215.0004        216.0004
  -5041642.35948  -3920023.00146  22351822.243    22351822.6584   22351826.7014
       175.0004        174.0004
   8120636.15647   6327753.16645  23704041.993    23704041.9764   23704044.3514
       154.0004        156.0004
  -3741414.76247  -2903349.72945  23011403.231    23011402.6644   23011406.8464
       160.0004        162.0004
   -888311.55248   -678326.77547  21017582.046    21017583.1544   21017590.1604
       194.0004        194.0004
  -3149587.72949  -2433938.96548  20259409.019    20259409.6084   20259413.8194
       213.0004        214.0004
  -1930479.23547  -1470944.30045  24201098.225    24201099.6614   24201107.7244
       149.0004        152.0004
   9906897.29648   7711713.15046  24067293.776    24067294.5644   24067301.5314
       182.0004        183.0004
  -9758989.47648  -7577309.43546  23010691.572    23010690.7234   23010694.9164
       172.0004        173.0004
  -3354270.03247  -2604882.91545  24677869.484    24677870.9434   24677873.0234
       137.0004        141.0004
  -6075007.81949  -4700884.80847  21678705.634    21678705.6884   21678709.1124
       195.0004        195.0004
 21  2  3  3  6  0.0000000  0 11G30G14G21G28G01G07G06G09G19G22G17
  -9669448.45549  -7515547.08748  20448130.899    20448131.2334   20448138.0444
       215.0004        215.0004
  -5077093.21748  -3947647.04546  22345077.602    22345077.9454   22345081.6204
       176.0004        177.0004
   8209901.91347   6397310.89745  23721028.814    23721028.1224   23721032.7364
       153.0004        155.0004
  -3771183.47847  -2926546.11845  23005737.544    23005736.6984   23005743.0324
       160.0004        162.0004
   -847203.26148   -646294.32747  21025405.146    21025405.2574   21025412.6994
       194.0004        194.0004
  -3128416.70749  -2417442.07448  20263438.717    20263439.1044   20263442.9144
       214.0004        215.0004
  -2038929.83147  -1555451.17645  24180460.674    24180461.4614   24180470.2164
       148.0004        151.0004
   9982132.09148   7770337.63946  24081611.818    24081611.3384   24081618.4824
       182.0004        183.0004
  -9813928.80848  -7620119.30546  23000236.859    23000236.7804   23000240.1124
       172.0004        172.0004
  -3373444.38247  -2619823.94445  24674224.155    24674222.8264   24674222.8284
       137.0004        142.0004
  -6085942.57149  -4709405.38847  21676624.150    21676624.6934   21676628.6684
       195.0004        196.0004
 21  2  3  3  6 30.0000000  0 11G30G14G21G28G01G07G06G09G19G22G17
  -9705176.92749  -7543387.45448  20441332.452    20441332.3034   20441339.3414
       215.0004        216.0004
  -5112604.57748  -3975318.21746  22338318.606    22338319.1294   22338323.2034
       177.0004        176.0004
   8299421.34447   6467066.30345  23738062.849    23738063.2334   23738068.2354
       154.0004        156.0004
  -3801088.21247  -2949848.52546  23000047.920    23000047.8364   23000051.1774
       161.0004        163.0004
   -805509.61248   -613805.76647  21033339.667    21033339.9574   21033346.5824
       194.0004        194.0004
  -3106659.95149  -2400488.76048  20267578.704    20267578.9384   20267583.2674
       214.0004        214.0004
  -2147349.40047  -1639933.89745  24159830.350    24159830.8334   24159837.9474
       149.0004        153.0004
  10057218.37448   7828846.43146  24095898.352    24095899.4724   24095907.4144
       182.0004        182.0004
  -9868542.50248  -7662675.42746  22989845.403    22989844.6364   22989847.6784
       172.0004        174.0004
  -3392462.71947  -2634643.43645  24670604.051    24670602.4314   24670607.2244
       138.0004        143.0004
  -6096530.94449  -4717656.05047  21674609.318    21674609.7874   21674614.0474
       195.0004        195.0004
 21  2  3  3  7  0.0000000  0 11G30G14G21G28G01G07G06G09G19G22G17
  -9740400.11249  -7570834.09448  20434629.972    20434629.6374   20434636.5444
       215.0004        216.0004
  -5148175.53648  -4003035.83646  22331549.739    22331550.2254   22331554.7224
       177.0004        177.0004
   8389191.99347   6537017.43645  23755147.259    23755146.4394   23755150.9754
       154.0004        157.0004
  -3831128.67847  -2973256.66145  22994330.808    22994330.3124   22994335.3444
       161.0004        162.0004
   -763231.66348   -580861.89947  21041384.645    21041385.0574   21041392.3544
       193.0004        193.0004
  -3084317.20349  -2383078.83648  20271830.136    20271830.6124   20271835.0734
       213.0004        214.0004
  -2255734.84247  -1724390.04945  24139205.199    24139205.5864   24139212.9604
       149.0004        152.0004
  10132154.39348   7887238.12846  24110160.505    24110159.9994   24110166.3604
       181.0004        180.0004
  -9922830.46448  -7704977.71146  22979514.066    22979513.3744   22979517.1604
       173.0004        175.0004
  -3411322.51547  -2649339.40645  24667013.814    24667014.0934   24667017.4154
       137.0004        143.0004
  -6106774.24148  -4725637.83747  21672660.520    21672660.8104   21672664.7334
       194.0004        195.0004
 21  2  3  3  7 30.0000000  0 11G30G14G21G28G01G07G06G09G19G22G17
  -9775116.44049  -7597885.78248  20428023.360    20428023.5374   20428030.2064
       216.0004        216.0004
  -5183805.69348  -4030799.59346  22324769.879    22324770.0784   22324774.6214
       177.0004        178.0004
   8479211.50347   6607162.53345  23772277.658    23772276.6504   23772280.8444
       155.0004        157.0004
  -3861305.14147  -2996770.80146  22988588.803    22988588.9254   22988592.8404
       161.0004        163.0004
   -720370.88548   -547463.88447  21049540.558    21049541.1284   21049548.5594
       193.0004        193.0004
  -3061388.74449  -2365212.50648  20276193.132    20276193.5574   20276198.0844
       213.0004        214.0004
  -2364083.77047  -1808817.74045  24118586.041    24118586.2764   24118595.2554
       148.0004        150.0004
  10206937.76448   7945510.88646  24124389.126    24124389.4744   24124396.8524
       179.0004        179.0004
  -9976792.97048  -7747026.41946  22969245.610    22969244.5924   22969247.5484
       174.0004        175.0004
  -3430022.01247  -2663910.44545  24663452.859    24663454.1564   24663459.0724
       136.0004        140.0004
  -6116674.75749  -4733352.52147  21670776.597    21670776.7954   21670780.8124
       195.0004        196.0004
 21  2  3  3  8  0.0000000  0 11G30G14G21G28G01G07G06G09G19G22G17
  -9809323.12649  -7624540.34848  20421514.052    20421514.0824   20421521.0854
       216.0004        216.0004
  -5219493.47048  -4058608.23746  22317978.479    22317979.3524   22317983.2834
       177.0004        177.0004
   8569478.26847   6677500.27745  23789454.654    23789453.0854   23789460.2614
       154.0004        157.0004
  -3891616.26847  -3020389.86046  22982820.309    22982819.6614   22982824.4464
       161.0004        163.0004
   -676927.69348   -513612.04047  21057806.978    21057807.7334   21057814.9644
       193.0004        193.0004
  -3037873.83349  -2346889.21248  20280668.797    20280669.0054   20280672.6804
       213.0004        214.0004
  -2472392.44047  -1893214.07345  24097975.809    24097976.1634   24097984.0104
       149.0004        153.0004
  10281567.35548   8003663.80346  24138591.616    24138592.0574   24138598.3944
       180.0004        182.0004
 -10030428.65048  -7788820.44146  22959039.063    22959038.6074   22959042.3024
       173.0004        173.0004
  -3448557.86247  -2678353.94645  24659921.888    24659925.1684   24659931.1414
       135.0004        140.0004
  -6126232.64449  -4740800.22247  21668957.012    21668957.7894   21668961.8594
       195.0004        195.0004
 21  2  3  3  8 30.0000000  0 11G30G14G21G28G01G07G06G09G19G22G17
  -9843018.71149  -7650796.65048  20415101.585    20415101.9494   20415109.0304
       216.0004        216.0004
  -5255238.48348  -4086461.49946  22311176.859    22311177.1784   22311181.6094
       177.0004        178.0004
   8659990.06647   6748028.92545  23806677.161    23806677.4664   23806683.4704
       155.0004        156.0004
  -3922062.17847  -3044113.94546  22977026.509    22977026.6424   22977030.4324
       161.0004        163.0004
   -632903.71948   -479307.64047  21066184.467    21066185.6984   21066192.6204
       192.0004        193.0004
  -3013772.97249  -2328109.32048  20285254.311    20285254.8034   20285259.2054
       214.0004        214.0004
  -2580658.45947  -1977577.17245  24077373.244    24077374.2514   24077381.8234
       151.0004        154.0004
  10356040.73748   8061694.98346  24152763.643    24152764.2494   24152770.6034
       181.0004        183.0004
 -10083737.86948  -7830360.06546  22948893.838    22948893.6294   22948897.6404
       173.0004        174.0004
  -3466928.06647  -2692668.36945  24656430.757    24656431.3954   24656434.4164
       137.0004        143.0004
  -6135449.30949  -4747982.01747  21667203.215    21667203.4714   21667208.4224
       195.0004        196.0004
 21  2  3  3  9  0.0000000  0 11G30G14G21G28G01G07G06G09G19G22G17
  -9876201.79149  -7676653.60348  20408788.079    20408787.9344   20408794.6854
       216.0004        217.0004
  -5291040.45048  -4114359.14246  22304363.616    22304364.6664   22304369.0054
       178.0004        178.0004
   8750743.53347   6818745.91445  23823945.456    23823945.8994   23823952.8594
       153.0004        155.0004
  -3952643.40847  -3067943.47246  22971207.226    22971207.5164   22971211.8534
       162.0004        166.0004
   -588300.79348   -444552.10747  21074671.731    21074673.0864   21074680.5904
       193.0004        193.0004
  -2989086.91849  -2308873.43748  20289951.428    20289951.8494   20289956.7894
       213.0004        214.0004
  -2688879.46247  -2061905.19945  24056778.499    24056779.8944   24056787.2434
       150.0004        152.0004
  10430355.42948   8119602.52146  24166904.281    24166904.6584   24166912.4464
       181.0004        181.0004
 -10136721.46948  -7871645.97446  22938810.818    22938810.4284   22938814.0714
       172.0004        171.0004
  -3485130.75447  -2706852.31945  24652969.544    24652968.1864   24652970.5684
       138.0004        144.0004
  -6144327.06449  -4754899.74347  21665514.256    21665514.2894   21665519.3084
       196.0004        197.0004
 21  2  3  3  9 30.0000000  0 12G03G30G14G21G28G01G07G06G09G19G22G17
   -346030.96154   -259342.20643  24492670.929
        74.0004         74.0004
  -9908870.59849  -7702109.82348  20402570.805    20402571.0174   20402577.4734
       216.0004        217.0004
  -5326898.71648  -4142300.63746  22297540.544    22297541.0284   22297544.5814
       178.0004        178.0004
   8841736.63547   6889649.64845  23841262.883    23841262.0164   23841268.1224
       152.0004        154.0004
  -3983360.05447  -3091878.49946  22965362.301    22965361.5464   22965367.6754
       163.0004        165.0004
   -543120.22948   -409346.45947  21083269.488    21083270.2864   21083278.4234
       192.0004        193.0004
  -2963815.83249  -2289181.69048  20294760.792    20294761.1934   20294765.4104
       213.0004        213.0004
  -2797052.74047  -2146196.01345  24036194.167    24036194.7944   24036203.4094
       149.0004        152.0004
  10504509.41248   8177384.83346  24181015.299    24181015.5504   24181022.4304
       179.0004        179.0004
 -10189379.09648  -7912677.89546  22928791.781    22928791.5354   22928794.9134
       172.0004        174.0004
  -3503163.26647  -2720903.63245  24649539.333    24649537.0784   24649539.4734
       138.0004        144.0004
  -6152867.38549  -4761554.52847  21663888.732    21663889.1624   21663894.0544
       197.0004        197.0004
 21  2  3  3 10  0.0000000  0 12G03G30G14G21G28G01G07G06G09G19G22G17
   -374385.20544   -281436.606 5                                  24487281.465
        74.0004        158.000
  -9941024.35749  -7727164.70048  20396452.495    20396452.5724   20396459.0304
       216.0004        217.0004
  -5362813.48648  -4170286.17646  22290706.061    22290705.6514   22290710.3714
       179.0004        179.0004
   8932965.85047   6960737.33945  23858623.391    23858622.3924   23858629.2274
       151.0004        152.0004
  -4014212.40947  -3115919.30046  22959491.118    22959491.0604   22959494.7054
       163.0004        165.0004
   -497364.45548   -373692.59947  21091976.830    21091977.1904   21091985.1364
       192.0004        192.0004
  -2937961.36649  -2269035.35848  20299680.472    20299680.6254   20299685.3824
       213.0004        213.0004
  -2905176.44447  -2230448.20645  24015619.130    24015619.9134   24015627.9174
       151.0004        154.0004
  10578499.71548   8235039.61746  24195096.663    24195096.1084   24195101.9654
       179.0004        179.0004
 -10241711.86748  -7953456.66446  22918832.765    22918831.4584   22918835.6324
       172.0004        173.0004
  -3521024.68147  -2734821.63045  24646140.125    24646138.2504   24646140.0894
       140.0004        144.0004
  -6161072.58849  -4767948.17747  21662327.757    21662327.6124   21662331.7414
       196.0004        195.0004
 21  2  3  3 10 30.0000000  0 12G03G30G14G21G28G01G07G06G09G19G22G17
   -415290.81945   -313311.118 6                                  24479495.790
       102.0004        165.000
  -9972660.83249  -7751816.50148  20390432.613    20390432.4084   20390438.9244
       217.0004        217.0004
  -5398783.60448  -4198314.82646  22283860.981    22283861.2304   22283865.8444
       179.0004        179.0004
   9024429.04447   7032007.35445  23876027.850    23876026.7174   23876031.2304
       150.0004        152.0004
  -4045199.83847  -3140065.33146  22953594.187    22953594.3084   22953598.5684
       164.0004        166.0004
   -451034.42848   -337591.28447  21100793.393    21100794.1474   21100801.3774
       192.0004        192.0004
  -2911522.73349  -2248433.83248  20304711.992    20304712.6964   20304716.3714
       213.0004        213.0004
  -3013247.33647  -2314659.24145  23995054.168    23995054.7584   23995062.4644
       152.0004        155.0004
  10652324.75048   8292565.58846  24209144.784    24209145.2094   24209151.7254
       181.0004        183.0004
 -10293719.19948  -7993981.84546  22908935.727    22908936.0334   22908938.6874
       172.0004        173.0004
  -3538712.27847  -2748604.17145  24642771.421    24642770.6194   24642774.8374
       141.0004        145.0004
  -6168943.52449  -4774081.36147  21660829.446    21660829.7984   21660833.6904
       195.0004        195.0004
 21  2  3  3 11  0.0000000  0 11G30G14G21G28G01G07G06G09G19G22G17
 -10003777.44349  -7776063.22048  20384510.702    20384511.0114   20384517.4104
       217.0004        217.0004
  -5434807.41548  -4226385.33546  22277005.584    22277006.1774   22277010.8944
       179.0004        179.0004
   9116125.03447   7103458.76545  23893477.718    23893476.8994   23893481.5694
       150.0004        153.0004
  -4076321.57148  -3164316.01646  22947671.961    22947672.1804   22947676.5584
       165.0004        166.0004
   -404130.71648   -301042.93547  21109718.355    21109719.1484   21109726.8704
       192.0004        192.0004
  -2884499.56949  -2227376.83948  20309854.823    20309854.5444   20309858.6934
       213.0004        213.0004
  -3121261.77147  -2398826.31945  23974499.504    23974500.0844   23974508.8874
       153.0004        156.0004
  10725983.44748   8349961.94746  24223162.240    24223162.3104   24223169.2604
       183.0004        184.0004
 -10345400.14648  -8034252.71746  22899101.209    22899100.7704   22899105.0764
       172.0004        173.0004
  -3556222.68247  -2762248.63545  24639437.599    24639438.9804   24639442.9494
       141.0004        146.0004
  -6176481.43349  -4779955.05547  21659395.371    21659395.7074   21659400.1204
       196.0004        197.0004
 21  2  3  3 11 30.0000000  0 11G30G14G21G28G01G07G06G09G19G22G17
 -10034373.07049  -7799903.97048  20378688.472    20378688.6424   20378695.4354
       217.0004        217.0004
  -5470884.75448  -4254497.54946  22270140.482    22270140.8224   22270145.8834
       180.0004        181.0004
   9208050.64947   7175089.12145  23910969.986    23910970.3474   23910973.6214
       149.0004        152.0004
  -4107577.85947  -3188671.56546  22941724.168    22941723.6874   22941728.5764
       164.0004        165.0004
   -356655.39748   -264049.17247  21118752.670    21118753.3514   21118761.1534
       192.0004        192.0004
  -2856893.07749  -2205865.27348  20315106.837    20315108.2674   20315111.9684
       213.0004        213.0004
  -3229217.53847  -2482947.66145  23953956.416    23953957.3654   23953965.4894
       154.0004        157.0004
  10799473.12448   8407226.63146  24237145.378    24237146.0444   24237152.8944
       182.0004        182.0004
 -10396755.46348  -8074269.83746  22889330.265    22889329.1064   22889332.0854
       173.0004        176.0004
  -3573554.35547  -2775753.82945  24636139.657    24636140.6234   24636143.6024
       140.0004        144.0004
  -6183688.10749  -4785570.64447  21658024.415    21658024.4704   21658028.2084
       197.0004        197.0004
 21  2  3  3 12  0.0000000  0 12G03G30G14G21G28G01G07G06G09G19G22G17
   -197415.03454   -142428.044 3                                  24455613.793
        74.0004         74.000
 -10064446.21249  -7823337.58548  20372965.549    20372965.5684   20372972.8124
       216.0004        217.0004
  -5507015.01448  -4282650.98446  22263265.424    22263265.8274   22263270.1454
       180.0004        180.0004
   9300203.37547   7246896.43945  23928505.170    23928506.3994   23928509.7524
       148.0004        150.0004
  -4138968.57948  -3213131.86846  22935751.287    22935750.8234   22935755.0064
       165.0004        167.0004
   -308610.08048   -226611.26647  21127895.590    21127896.6654   21127903.8334
       192.0004        192.0004
  -2828703.37149  -2183899.29048  20320474.046    20320472.7924   20320476.3994
       213.0004        213.0004
  -3337112.00447  -2567021.24745  23933424.580    23933425.7324   23933433.7064
       154.0004        156.0004
  10872791.75148   8464358.01046  24251099.048    24251099.2534   24251105.8934
       183.0004        184.0004
 -10447785.34548  -8114033.36246  22879617.943    22879617.5504   22879621.2864
       174.0004        175.0004
  -3590705.59747  -2789118.43745  24632876.753    24632877.2704   24632880.3554
       139.0004        144.0004
  -6190565.39549  -4790929.54847  21656715.633    21656716.0304   21656719.7334
       196.0004        197.0004
 21  2  3  3 12 30.0000000  0 12G03G30G14G21G28G01G07G06G09G19G22G17
   -221871.76644   -161485.695 6                                  24450962.628
        74.0004        168.000
 -10093995.05749  -7846362.65948  20367343.027    20367343.1684   20367349.6164
       216.0004        217.0004
  -5543197.30048  -4310844.96746  22256380.457    22256380.2824   22256385.3064
       180.0004        180.0004
   9392580.79747   7318878.84145  23946083.936    23946084.1994   23946089.1514
       146.0004        150.0004
  -4170493.61448  -3237696.81546  22929752.122    22929751.8354   22929757.1984
       167.0004        168.0004
   -259996.24149   -188730.35847  21137147.229    21137147.6664   21137154.9234
       206.0004        209.0004
  -2799931.35449  -2161479.50148  20325945.432    20325947.6654   20325951.6634
       213.0004        213.0004
  -3444942.30547  -2651044.82645  23912905.550    23912906.2614   23912913.6564
       153.0004        156.0004
  10945937.43148   8521354.62046  24265017.707    24265017.9044   24265024.9624
       182.0004        182.0004
 -10498489.77348  -8153543.28946  22869969.107    22869968.6904   22869972.4354
       173.0004        173.0004
  -3607673.60847  -2802340.26845  24629649.459    24629649.3664   24629653.2644
       140.0004        145.0004
  -6197114.73249  -4796032.91547  21655468.887    21655469.6044   21655473.6284
       197.0004        197.0004
 21  2  3  3 13  0.0000000  0 12G03G30G14G21G28G01G07G06G09G19G22G17
   -221871.76647   -161485.695 6                                  24450962.628
       149.0004        168.000
 -10123018.30549  -7868978.19048  20361820.363    20361820.2214   20361826.7834
       217.0004        217.0004
  -5579431.12748  -4339079.12546  22249484.811    22249484.9734   22249489.7164
       180.0004        180.0004
   9485179.90847   7391033.98245  23963706.657    23963705.4594   23963709.4744
       147.0004        151.0004
  -4202152.90548  -3262366.37346  22923727.505    22923727.0164   22923731.6394
       167.0004        168.0004
   -210815.73449   -150407.88247  21146504.937    21146505.9004   21146513.9924
       210.0004        209.0004
  -2770577.38449  -2138606.30948  20331533.669    20331533.2294   20331537.6104
       213.0004        213.0004
  -3552705.87647  -2735016.39345  23892397.749    23892398.8514   23892406.8154
       153.0004        154.0004
  11018907.84248   8578214.65346  24278901.103    24278902.1094   24278910.1734
       181.0004        181.0004
 -10548869.19248  -8192799.98646  22860382.465    22860381.8644   22860385.8024
       173.0004        175.0004
  -3624456.43047  -2815417.79945  24626457.955    24626457.2604   24626458.4354
       141.0004        146.0004
  -6203337.76949  -4800882.03447  21654284.593    21654285.0784   21654289.4644
       197.0004        197.0004
 21  2  3  3 13 30.0000000  0 11G30G14G21G28G01G07G06G09G19G22G17
 -10151513.93949  -7891182.57948  20356397.236    20356397.3314   20356404.4174
       217.0004        217.0004
  -5615715.33548  -4367352.53846  22242579.905    22242579.9224   22242585.1234
       180.0004        179.0004
   9577999.24547   7463360.73345  23981369.388    23981368.8494   23981372.7564
       148.0004        151.0004
  -4233945.96648  -3287140.18346  22917677.436    22917677.4534   22917680.3184
       166.0004        166.0004
   -161069.77549   -111644.79248  21155971.443    21155972.1184   21155979.9784
       219.0004        224.0004
  -2740641.65349  -2115279.76748  20337229.466    20337230.0374   20337234.3654
       212.0004        213.0004
  -3660399.58347  -2818933.54645  23871905.625    23871905.4334   23871913.2204
       150.0004        152.0004
  11091701.47948   8634936.95646  24292754.558    24292755.5984   24292762.1914
       182.0004        183.0004
 -10598923.20748  -8231803.09546  22850857.579    22850856.4994   22850860.3344
       173.0004        174.0004
  -3641051.42047  -2828348.95845  24623297.236    24623297.0294   24623302.8624
       139.0004        144.0004
  -6209235.62049  -4805477.75247  21653162.089    21653162.3894   21653167.2354
       196.0004        196.0004
 21  2  3  3 14  0.0000000  0 11G30G14G21G28G01G07G06G09G19G22G17
 -10179480.46549  -7912974.67748  20351075.817    20351075.7434   20351082.5914
       217.0004        217.0004
  -5652049.18048  -4395664.62346  22235664.992    22235666.4824   22235671.2914
       179.0004        180.0004
   9671036.42947   7535857.22745  23999074.345    23999073.5334   23999076.8854
       148.0004        151.0004
  -4265872.54147  -3312018.02646  22911601.262    22911601.5434   22911605.3774
       164.0004        165.0004
   -110760.01749    -72442.38448  21165544.997    21165546.0914   21165553.4524
       223.0004        224.0004
  -2710125.06649  -2091500.61248  20343037.274    20343037.1964   20343041.2434
       212.0004        213.0004
  -3768020.71847  -2902794.13045  23851424.559    23851425.2114   23851433.4004
       149.0004        152.0004
  11164316.36648   8691519.94746  24306574.128    24306573.8204   24306580.2934
       183.0004        184.0004
 -10648651.93848  -8270552.77046  22841394.924    22841394.2974   22841397.1254
       174.0004        175.0004
  -3657456.79547  -2841132.34245  24620176.045    24620175.8594   24620178.5294
       139.0004        144.0004
  -6214810.41249  -4809821.74547  21652101.387    21652101.5994   21652106.1644
       195.0004        196.0004
 21  2  3  3 14 30.0000000  0 11G30G14G21G28G01G07G06G09G19G22G17
 -10206917.07549  -7934353.85948  20345854.174    20345854.3714   20345861.0444
       216.0004        216.0004
  -5688432.58048  -4424015.33246  22228742.482    22228743.0884   22228747.6464
       181.0004        181.0004
   9764287.83947   7608520.66445  24016817.641    24016817.7184   24016824.4124
       149.0004        152.0004
  -4297932.90448  -3337000.13346  22905501.283    22905500.9194   22905504.9084
       165.0004        167.0004
    -59888.89349    -32802.53548  21175225.827    21175226.4214   21175233.8274
       224.0004        224.0004
  -2679028.44849  -2067269.48247  20348953.531    20348954.2524   20348959.1754
       212.0004        212.0004
  -3875567.24247  -2986596.58845  23830959.149    23830959.8434   23830968.2014
       149.0004        153.0004
  11236749.69548   8747961.51346  24320356.796    24320356.2844   24320363.4764
       183.0004        183.0004
 -10698056.36548  -8309049.71946  22831993.779    22831992.7494   22831996.4094
       174.0004        176.0004
  -3673670.54947  -2853766.42745  24617089.894    24617089.3754   24617093.3984
       139.0004        144.0004
  -6220064.32349  -4813915.69147  21651101.455    21651101.8284   21651105.8494
       195.0004        194.0004
 21  2  3  3 15  0.0000000  0 11G30G14G21G28G01G07G06G09G19G22G17
 -10233821.08549  -7955318.02848  20340735.087    20340735.0044   20340741.5624
       216.0004        217.0004
  -5724863.62248  -4452403.15646  22221809.098    22221809.8264   22221814.6194
       181.0004        181.0004
   9857752.18247   7681350.00245  24034603.689    24034603.0304   24034608.4094
       146.0004        148.0004
  -4330125.92048  -3362085.59446  22899375.699    22899374.7974   22899380.0404
       166.0004        168.0004
     -8456.90749      7274.34448  21185012.754    21185013.5224   21185021.0644
       224.0004        224.0004
  -2647351.38249  -2042586.05148  20354982.165    20354982.4984   20354987.0904
       212.0004        213.0004
  -3983035.19147  -3070337.81245  23810509.473    23810510.0144   23810518.0254
       152.0004        155.0004
  11309000.69648   8804260.98546  24334105.838    24334106.1084   24334112.4814
       183.0004        184.0004
 -10747135.66448  -8347293.31546  22822654.204    22822654.4074   22822657.0364
       175.0004        177.0004
  -3689689.73147  -2866248.90945  24614042.490    24614040.5274   24614045.2704
       138.0004        143.0004
  -6224997.61548  -4817759.80647  21650163.005    21650163.0994   21650167.2954
       194.0004        194.0004
 21  2  3  3 15 30.0000000  0 11G30G14G21G28G01G07G06G09G19G22G17
 -10260191.40149  -7975866.32948  20335716.857    20335716.5824   20335723.6204
       216.0004        217.0004
  -5761341.87248  -4480827.76146  22214868.959    22214869.4244   22214873.4734
       181.0004        182.0004
   9951427.04147   7754343.40045  24052429.812    24052429.5544   24052435.7484
       148.0004        152.0004
  -4362451.52548  -3387274.38046  22893222.918    22893223.2094   22893228.3764
       166.0004        168.0004
     43533.85549     47786.62648  21194906.320    21194907.2974   21194914.4644
       224.0004        224.0004
  -2615094.96049  -2017451.18047  20361120.368    20361120.4984   20361125.0664
       212.0004        212.0004
  -4090422.19647  -3154015.99845  23790074.447    23790075.2254   23790081.3914
       152.0004        154.0004
  11381067.13448   8860416.62946  24347821.372    24347821.0844   24347827.0464
       185.0004        186.0004
 -10795890.67448  -8385284.21346  22813376.179    22813375.1954   22813378.5254
       175.0004        175.0004
  -3705512.57047  -2878578.41245  24611030.641    24611029.6884   24611033.6384
       137.0004        142.0004
  -6229612.54548  -4821355.83247  21649284.345    21649284.9044   21649289.0484
       194.0004        195.0004
 21  2  3  3 16  0.0000000  0 11G30G14G21G28G01G07G06G09G19G22G17
 -10286027.09649  -7995998.04348  20330800.096    20330800.3704   20330807.2524
       216.0004        217.0004
  -5797867.04748  -4509288.93446  22207918.114    22207918.7814   22207923.9544
       182.0004        181.0004
  10045309.34147   7827498.39445  24070295.825    24070294.6954   24070298.7174
       147.0004        149.0004
  -4394910.09748  -3412566.77046  22887047.615    22887046.6564   22887051.5234
       168.0004        170.0004
     96081.02849     88732.48448  21204906.341    21204906.8924   21204913.4884
       224.0004        223.0004
  -2582259.91849  -1991865.43147  20367368.441    20367369.0024   20367373.3984
       211.0004        212.0004
  -4197726.00847  -3237629.31745  23769654.838    23769655.5854   23769663.1944
       151.0004        154.0004
  11452946.47248   8916426.46246  24361499.164    24361499.0444   24361505.2854
       186.0004        186.0004
 -10844321.62748  -8423022.60446  22804159.599    22804158.6984   22804163.9764
       174.0004        174.0004
  -3721137.20047  -2890753.42445  24608058.257    24608057.4284   24608061.6974
       140.0004        145.0004
  -6233911.25949  -4824705.48947  21648467.421    21648467.3694   21648471.1094
       196.0004        196.0004
 21  2  3  3 16 30.0000000  0 11G30G14G21G28G01G07G06G09G19G22G17
 -10311326.24449  -8015711.67548  20325986.196    20325986.3464   20325993.0084
       216.0004        217.0004
  -5834437.85748  -4537785.67346  22200958.727    22200958.8064   22200962.6464
       180.0004        179.0004
  10139396.83347   7900813.33245  24088200.147    24088199.6324   24088203.2444
       147.0004        151.0004
  -4427500.86348  -3437962.17946  22880846.045    22880845.6514   22880848.8624
       169.0004        170.0004
    149183.38849    130110.95448  21215009.748    21215010.9364   21215018.7064
       223.0004        222.0004
  -2548846.87249  -1965829.29747  20373727.418    20373727.6274   20373731.4904
       212.0004        212.0004
  -4304943.42647  -3321175.31245  23749252.458    23749253.1574   23749260.8474
       153.0004        156.0004
  11524637.29248   8972289.42646  24375138.569    24375139.7064   24375148.7064
       184.0004        184.0004
 -10892428.26048  -8460508.28846  22795005.665    22795005.1074   22795009.1494
       173.0004        174.0004
  -3736561.14847  -2902772.07545  24605124.046    24605122.8764   24605126.3004
       141.0004        145.0004
  -6237895.04249  -4827809.72747  21647708.129    21647708.9584   21647713.4724
       196.0004        197.0004
 21  2  3  3 17  0.0000000  0 11G30G14G21G28G01G07G06G09G19G22G17
 -10336087.39449  -8035006.08148  20321274.488    20321274.0944   20321280.9904
       216.0004        217.0004
  -5871053.39448  -4566317.27046  22193990.671    22193991.2944   22193994.7624
       180.0004        180.0004
  10233687.18147   7974286.32145  24106142.331    24106142.9364   24106145.8734
       146.0004        149.0004
  -4460223.25048  -3463460.15446  22874618.634    22874618.0404   22874621.8464
       169.0004        171.0004
    202839.15549    171920.64348  21225221.071    21225222.1114   21225229.0364
       223.0004        223.0004
  -2514856.45849  -1939343.26647  20380194.606    20380195.0074   20380199.9774
       211.0004        211.0004
  -4412071.57147  -3404651.75845  23728866.597    23728867.6164   23728874.6804
       153.0004        156.0004
  11596137.65748   9028003.97346  24388744.824    24388746.0014   24388753.9034
       182.0004        182.0004
 -10940211.02748  -8497741.59946  22785912.597    22785912.2014   22785915.2814
       173.0004        175.0004
  -3751782.16447  -2914632.60945  24602226.109    24602225.4314   24602229.4504
       140.0004        144.0004
  -6241565.45649  -4830669.78947  21647010.283    21647010.4624   21647014.8944
       197.0004        197.0004
 21  2  3  3 17 30.0000000  0 11G30G14G21G28G01G07G06G09G19G22G17
 -10360309.04349  -8053880.09748  20316664.889    20316665.0574   20316671.7064
       216.0004        217.0004
  -5907712.76248  -4594883.01246  22187014.733    22187015.4104   22187020.1694
       181.0004        181.0004
  10328178.18147   8047915.65145  24124123.669    24124123.4414   24124128.6354
       146.0004        149.0004
  -4493077.44048  -3489060.82046  22868365.610    22868365.2154   22868370.6204
       169.0004        169.0004
    257046.59749    214160.21448  21235536.946    21235537.3784   21235544.4544
       223.0004        223.0004
  -2480289.56249  -1912408.03747  20386773.613    20386773.9954   20386777.6914
       211.0004        211.0004
  -4519107.60847  -3488056.46745  23708498.402    23708499.2924   23708505.5454
       155.0004        158.0004
  11667445.76448   9083568.69346  24402315.318    24402315.5604   24402323.3254
       181.0004        181.0004
 -10987670.08948  -8534722.67946  22776882.346    22776881.9484   22776884.9154
       175.0004        177.0004
  -3766798.11247  -2926333.34745  24599369.218    24599368.0534   24599372.7064
       138.0004        143.0004
  -6244924.22049  -4833287.00347  21646370.955    21646371.1504   21646375.7134
       197.0004        197.0004
 21  2  3  3 18  0.0000000  0 12G03G30G14G21G28G01G07G06G09G19G22G17
  -1306898.71054  -1004621.906 3                                  24365168.976
        74.0004         74.000
 -10383990.02649  -8072332.82248  20312159.058    20312158.9884   20312165.1744
       216.0004        217.0004
  -5944415.23648  -4623482.34346  22180030.303    22180031.0244   22180035.7894
       182.0004        182.0004
  10422866.78047   8121698.95545  24142141.878    24142142.0614   24142146.3634
       146.0004        150.0004
  -4526062.98148  -3514763.83646  22862090.609    22862090.0454   22862093.3274
       168.0004        170.0004
    311803.70949    256828.09748  21245956.160    21245957.2114   21245964.3554
       223.0004        222.0004
  -2445146.81949  -1885024.09347  20393459.591    20393460.2694   20393465.1764
       211.0004        212.0004
  -4626048.93247  -3571387.37145  23688147.608    23688148.5554   23688156.0534
       154.0004        156.0004
  11738559.58148   9138982.03946  24415849.316    24415849.5144   24415856.2874
       181.0004        181.0004
 -11034805.64748  -8571451.68246  22767911.616    22767910.9874   22767915.5064
       177.0004        178.0004
  -3781607.21347  -2937872.92445  24596549.521    24596550.3354   24596554.6754
       138.0004        143.0004
  -6247972.95349  -4835662.62847  21645790.636    21645791.4534   21645795.5864
       197.0004        197.0004
 21  2  3  3 18 30.0000000  0 12G03G30G14G21G28G01G07G06G09G19G22G17
  -1347193.81844  -1036021.038 6                                  24357463.517
        74.0004        164.000
 -10407128.68849  -8090362.94248  20307755.393    20307755.6194   20307762.4004
       216.0004        217.0004
  -5981159.67548  -4652114.37746  22173039.152    22173039.3614   22173043.0794
       182.0004        182.0004
  10517750.89247   8195634.63745  24160197.427    24160196.6594   24160202.3944
       146.0004        151.0004
  -4559179.12848  -3540568.61246  22855787.708    22855786.9534   22855791.6454
       168.0004        169.0004
    367108.90349    299923.06348  21256480.273    21256481.2464   21256488.3484
       222.0004        222.0004
  -2409428.80249  -1857191.87447  20400257.322    20400257.5694   20400262.1534
       211.0004        211.0004
  -4732892.45747  -3654642.05145  23667816.419    23667817.1824   23667824.2494
       155.0004        158.0004
  11809477.51948   9194242.75846  24429343.027    24429344.0214   24429350.9704
       179.0004        179.0004
 -11081617.65948  -8607928.57846  22759004.067    22759003.2634   22759007.1584
       178.0004        179.0004
  -3796206.54847  -2949249.01045  24593772.933    24593771.4964   24593776.3534
       139.0004        144.0004
  -6250713.60649  -4837798.19747  21645269.780    21645269.4544   21645274.0554
       197.0004        197.0004
 21  2  3  3 19  0.0000000  0 12G03G30G14G21G28G01G07G06G09G19G22G17
  -1390109.31644  -1069461.63046  24349290.135
        74.0004        173.0004
 -10429723.92249  -8107969.63348  20303456.223    20303456.2164   20303462.7164
       217.0004        218.0004
  -6017945.46548  -4680778.63646  22166038.690    22166038.6244   22166043.2314
       182.0004        182.0004
  10612828.11147   8269720.72545  24178290.345    24178289.7734   24178296.4594
       147.0004        150.0004
  -4592426.05248  -3566475.30546  22849460.996    22849460.5354   22849465.0894
       169.0004        170.0004
    422960.08249    343443.46448  21267108.331    21267109.3554   21267116.4384
       222.0004        222.0004
  -2373136.62349  -1828912.27147  20407163.624    20407163.8814   20407168.3374
       210.0004        211.0004
  -4839635.64547  -3737818.52745  23647504.288    23647504.1424   23647511.9704
       157.0004        160.0004
  11880197.49648   9249349.19746  24442800.428    24442801.6644   24442808.5294
       177.0004        177.0004
 -11128107.34348  -8644154.30346  22750157.558    22750156.9654   22750160.4714
       178.0004        177.0004
  -3810594.40947  -2960460.31645  24591032.842    24591034.3144   24591039.4314
       139.0004        144.0004
  -6253147.96749  -4839695.09247  21644806.226    21644806.6374   21644810.6064
       197.0004        197.0004
 21  2  3  3 19 30.0000000  0 12G03G30G14G21G28G01G07G06G09G19G22G17
  -1429700.41747  -1100311.83946  24341754.118    24341756.1274   24341762.1304
       164.0004        173.0004
 -10451774.03449  -8125151.53348  20299259.390    20299259.7004   20299266.7114
       217.0004        217.0004
  -6054771.26848  -4709474.05746  22159030.746    22159031.1524   22159035.2214
       183.0004        182.0004
  10708096.28047   8343955.67245  24196419.383    24196418.9374   24196423.3814
       147.0004        149.0004
  -4625802.85548  -3592483.20146  22843109.567    22843109.3894   22843112.8204
       168.0004        169.0004
    479355.67849    387388.09848  21277841.026    21277841.4874   21277848.5484
       223.0004        223.0004
  -2336270.81949  -1800185.67147  20414179.192    20414179.6264   20414183.5314
       211.0004        211.0004
  -4946275.27847  -3820914.31945  23627210.419    23627210.9984   23627218.5764
       156.0004        158.0004
  11950718.03248   9304300.23746  24456219.945    24456220.3234   24456228.4034
       177.0004        177.0004
 -11174274.07648  -8680128.34846  22741371.180    22741371.6944   22741374.5804
       175.0004        175.0004
  -3824768.78447  -2971505.24945  24588337.176    24588336.1464   24588339.7494
       138.0004        142.0004
  -6255277.28649  -4841354.27847  21644401.071    21644401.3944   21644405.2344
       197.0004        197.0004
 21  2  3  3 20  0.0000000  0 12G03G30G14G21G28G01G07G06G09G19G22G17
  -1469266.19748  -1131142.33846  24334224.861    24334226.8284   24334234.2514
       172.0004        174.0004
 -10473277.43249  -8141907.43648  20295167.647    20295167.7024   20295175.0124
       217.0004        217.0004
  -6091635.87148  -4738199.73746  22152015.053    22152015.9994   22152020.6564
       182.0004        182.0004
  10803553.15047   8418337.63145  24214584.792    24214584.0154   24214589.3884
       148.0004        151.0004
  -4659308.86548  -3618591.78346  22836733.433    22836733.1784   22836737.3974
       168.0004        169.0004
    536294.14549    431755.72948  21288676.674    21288676.7094   21288683.6794
       223.0004        223.0004
  -2298831.94649  -1771012.54547  20421303.177    20421303.7894   20421307.8374
       211.0004        211.0004
  -5052808.27947  -3903927.05745  23606937.108    23606938.3824   23606945.9574
       155.0004        157.0004
  12021037.58748   9359094.66746  24469602.007    24469601.6654   24469609.5564
       177.0004        178.0004
 -11220118.03648  -8715850.91746  22732647.997    22732646.8564   22732650.7634
       175.0004        177.0004
  -3838726.53247  -2982381.40445  24585681.390    24585680.5144   24585683.9104
       138.0004        143.0004
  -6257103.12049  -4842777.00247  21644053.190    21644053.6314   21644058.1894
       196.0004        195.0004
 21  2  3  3 20 30.0000000  0 12G03G30G14G21G28G01G07G06G09G19G22G17
  -1508804.23948  -1161951.20146  24326701.703    24326703.1474   24326710.9184
       172.0004        173.0004
 -10494232.98849  -8158236.44448  20291180.411    20291180.1904   20291187.3694
       217.0004        217.0004
  -6128538.49448  -4766955.02546  22144992.640    22144993.7364   22144999.0514
       183.0004        183.0004
  10899196.01847   8492864.51345  24232783.805    24232783.7214   24232789.3284
       148.0004        151.0004
  -4692943.88748  -3644800.88846  22830333.868    22830332.8684   22830336.8974
       168.0004        169.0004
    593773.38649    476544.75448  21299613.368    21299614.4874   21299621.5454
       223.0004        223.0004
  -2260820.77849  -1741393.44547  20428535.753    20428536.5264   20428541.3894
       210.0004        211.0004
  -5159231.98447  -3986854.59145  23586685.915    23586686.7034   23586695.0774
       155.0004        158.0004
  12091154.11248   9413730.89746  24482944.054    24482944.9984   24482951.4714
       176.0004        177.0004
 -11265639.43248  -8751322.13546  22723986.301    22723985.3004   22723988.6354
       178.0004        180.0004
  -3852465.79647  -2993087.33145  24583066.741    24583065.4694   24583070.9304
       138.0004        142.0004
  -6258627.12749  -4843964.52947  21643763.083    21643763.4854   21643767.9364
       195.0004        195.0004
 21  2  3  3 21  0.0000000  0 12G03G30G14G21G28G01G07G06G09G19G22G17
  -1548312.52148  -1192736.85346  24319184.447    24319184.7394   24319193.2154
       172.0004        173.0004
 -10514640.04149  -8174138.04148  20287296.735    20287296.8074   20287303.8534
       217.0004        217.0004
  -6165478.81048  -4795739.67546  22137964.660    22137964.3014   22137969.5974
       183.0004        184.0004
  10995021.82247   8567533.94945  24251018.835    24251018.8344   24251024.2544
       147.0004        149.0004
  -4726708.23148  -3671110.74946  22823907.547    22823908.0104   22823912.1274
       169.0004        171.0004
    651790.79349    521753.13148  21310654.761    21310655.1624   21310662.2444
       223.0004        224.0004
  -2222238.96549  -1711329.69147  20435878.404    20435878.5234   20435883.5554
       210.0004        211.0004
  -5265544.14847  -4069695.22045  23566456.365    23566456.9164   23566464.2994
       157.0004        160.0004
  12161065.37048   9468207.20946  24496249.925    24496249.4974   24496255.2674
       175.0004        175.0004
 -11310839.68448  -8786543.08946  22715384.947    22715383.4334   22715387.5064
       179.0004        179.0004
  -3865985.45047  -3003622.12945  24580494.877    24580494.1534   24580498.6714
       138.0004        143.0004
  -6259852.06649  -4844919.02147  21643530.857    21643531.0064   21643534.9114
       196.0004        197.0004
 21  2  3  3 21 30.0000000  0 12G03G30G14G21G28G01G07G06G09G19G22G17
  -1587788.87748  -1223497.66046  24311671.888    24311673.2584   24311679.4254
       170.0004        170.0004
 -10534497.82649  -8189611.63948  20283517.745    20283517.9184   20283524.8704
       216.0004        217.0004
  -6202456.26948  -4824553.26346  22130926.870    22130927.2254   22130932.4414
       184.0004        183.0004
  11091027.95647   8642343.92845  24269288.938    24269288.1604   24269293.9724
       145.0004        148.0004
  -4760601.63648  -3697521.18046  22817457.938    22817457.9964   22817461.6804
       169.0004        169.0004
    710343.94149    567378.96348  21321796.896    21321797.2864   21321804.5884
       223.0004        223.0004
  -2183087.88349  -1680822.35847  20443328.902    20443329.3634   20443333.5114
       210.0004        211.0004
  -5371742.47247  -4152447.11245  23546247.259    23546247.9194   23546255.7424
       159.0004        162.0004
  12230768.99448   9522521.72246  24509515.131    24509514.0404   24509520.0324
       174.0004        174.0004
 -11355719.20148  -8821514.12146  22706843.766    22706843.4954   22706847.2164
       177.0004        177.0004
  -3879283.63847  -3013984.33645  24577965.758    24577963.4764   24577966.2284
       139.0004        144.0004
  -6260779.76649  -4845641.89347  21643354.078    21643354.4344   21643358.2004
       197.0004        197.0004
