     2.11           OBSERVATION DATA    G (GPS)             RINEX VERSION / TYPE
teqc  2018Jun8                          20210202 03:10:39UTCPGM / RUN BY / DATE
Linux2.6.32-573.12.1.el6.x86_64|x86_64|gcc|Win64-MinGW64|=+ COMMENT
BIT 2 OF LLI FLAGS DATA COLLECTED UNDER A/S CONDITION       COMMENT
-Unknown-                                                   MARKER NAME
CRNO                                                        MARKER NUMBER
-Unknown-           -Unknown-                               OBSERVER / AGENCY
-Unknown-           ASHTECH             -Unknown-           REC # / TYPE / VERS
-Unknown-           -Unknown-                               ANT # / TYPE
   408079.1196 -6158372.1719  1605162.9386                  APPROX POSITION XYZ
        0.0000        0.0000        0.0000                  ANTENNA: DELTA H/E/N
     1     1                                                WAVELENGTH FACT L1/2
     7    L1    L2    C1    P1    P2    S1    S2            # / TYPES OF OBSERV
    30.0000                                                 INTERVAL
Forced Modulo Decimation to 30 seconds                      COMMENT
 SNR is mapped to RINEX snr flag value [1-9]                COMMENT
  L1: 1 -> 1;  90 -> 5; 210 -> 9                            COMMENT
  L2: 1 -> 1; 150 -> 5; 250 -> 9                            COMMENT
pseudorange smoothing corrections not applied               COMMENT
  2021     1    31     0     0   30.0000000     GPS         TIME OF FIRST OBS
                                                            END OF HEADER
 21  1 31  0  0 30.0000000  0  8G07G01G08G27G21G04G09G03
  -8479792.29548  -6374350.37546  23327911.921    23327912.1774   23327916.7974
       172.0004        174.0004
  -5902850.59447  -4588870.46445  23591496.386    23591496.4244   23591503.1354
       154.0004        157.0004
 -23400989.80249 -18203775.05247  20314487.393    20314487.7684   20314494.9604
       212.0004        212.0004
 -12853159.77649 -10001647.46647  22407706.540    22407707.3904   22407713.8804
       209.0004        208.0004
  -9889484.89748  -7689926.92546  22393236.394    22393236.0904   22393241.2784
       165.0004        165.0004
 -19693688.11349 -15318927.50447  20673652.059    20673652.6164   20673657.7954
       204.0004        203.0004
 -17823981.70449 -13862968.69147  20841886.276    20841886.5714   20841893.3184
       212.0004        212.0004
   2087707.16148   1650339.68546  24601247.269    24601246.9094   24601255.8554
       170.0004        171.0004
 21  1 31  0  1  0.0000000  0  8G07G01G08G27G21G04G09G03
  -8552628.44248  -6431105.78746  23314050.058    23314051.5384   23314056.5874
       172.0004        173.0004
  -5977844.48647  -4647307.22145  23577223.291    23577224.0024   23577232.1114
       155.0004        157.0004
 -23367897.00249 -18177988.44747  20320785.010    20320785.1564   20320792.2574
       212.0004        212.0004
 -12761376.18149  -9930127.79247  22425172.329    22425173.1804   22425179.8064
       208.0004        208.0004
  -9934566.45648  -7725055.39746  22384658.624    22384657.1934   22384662.6944
       165.0004        166.0004
 -19642593.47549 -15279113.51447  20683374.491    20683375.0894   20683380.6384
       204.0004        203.0004
 -17843693.34749 -13878328.41448  20838135.636    20838136.0064   20838142.5414
       212.0004        213.0004
   2137009.01248   1688756.65746  24610627.298    24610628.1774   24610637.5034
       171.0004        173.0004
 21  1 31  0  1 30.0000000  0  8G07G01G08G27G21G04G09G03
  -8625556.37048  -6487932.71046  23300172.592    23300173.4094   23300177.3994
       171.0004        172.0004
  -6052956.95447  -4705836.34345  23562930.394    23562931.4284   23562938.8534
       155.0004        158.0004
 -23334245.49049 -18151766.47747  20327188.012    20327188.3424   20327195.8934
       211.0004        212.0004
 -12669278.36149  -9858363.26247  22442699.279    22442698.8674   22442704.9944
       208.0004        207.0004
  -9979449.27947  -7760028.98446  22376116.605    22376116.2504   22376121.4784
       164.0004        166.0004
 -19591002.63349 -15238912.86147  20693191.859    20693192.5714   20693198.0934
       204.0004        202.0004
 -17862840.42549 -13893248.21848  20834492.183    20834492.3964   20834498.3954
       212.0004        213.0004
   2186063.50448   1726980.87846  24619962.777    24619963.4664   24619972.5584
       172.0004        173.0004
 21  1 31  0  2  0.0000000  0  8G07G01G08G27G21G04G09G03
  -8698575.35548  -6544830.63446  23286278.296    23286278.8064   23286282.2964
       170.0004        171.0004
  -6128185.68247  -4764456.09345  23548613.405    23548614.0384   23548622.4784
       153.0004        154.0004
 -23300037.08149 -18125110.56047  20333697.318    20333698.1724   20333706.2024
       211.0004        211.0004
 -12576869.58249  -9786356.41947  22460283.915    22460283.9804   22460290.0644
       208.0004        208.0004
 -10024130.70048  -7794845.61946  22367614.208    22367613.9014   22367618.9374
       165.0004        167.0004
 -19538917.73349 -15198327.22647  20703103.335    20703103.7544   20703109.4504
       203.0004        201.0004
 -17881422.57149 -13907727.81748  20830955.342    20830955.8484   20830962.7834
       212.0004        213.0004
   2234868.86648   1765010.94846  24629249.877    24629250.5724   24629260.4934
       172.0004        173.0004
 21  1 31  0  2 30.0000000  0  8G07G01G08G27G21G04G09G03
  -8771683.61948  -6601798.08846  23272366.588    23272366.4194   23272370.9114
       171.0004        173.0004
  -6203527.91547  -4823164.26945  23534276.727    23534277.2454   23534285.3744
       151.0004        154.0004
 -23265273.65149 -18098022.16647  20340313.084    20340313.6224   20340319.8734
       211.0004        212.0004
 -12484152.64449  -9714109.45147  22477927.850    22477927.4444   22477933.9604
       208.0004        207.0004
 -10068607.74248  -7829503.00446  22359150.402    22359150.3524   22359155.2174
       165.0004        167.0004
 -19486340.53049 -15157357.97547  20713108.455    20713108.9574   20713114.9824
       203.0004        202.0004
 -17899439.16949 -13921766.72848  20827526.939    20827527.3954   20827534.3194
       212.0004        213.0004
   2283423.77348   1802845.87146  24638489.162    24638489.6444   24638499.5184
       171.0004        170.0004
 21  1 31  0  3  0.0000000  0  8G07G01G08G27G21G04G09G03
  -8844880.24348  -6658834.41846  23258438.362    23258438.6794   23258441.7834
       173.0004        174.0004
  -6278981.84647  -4881959.49145  23519918.085    23519918.5794   23519927.3984
       152.0004        156.0004
 -23229957.15049 -18070502.80347  20347033.697    20347033.8084   20347041.2054
       211.0004        211.0004
 -12391131.25949  -9641625.26447  22495628.974    22495628.7994   22495636.4524
       207.0004        208.0004
 -10112878.56048  -7863999.71946  22350724.282    22350724.9334   22350730.8184
       165.0004        165.0004
 -19433273.70949 -15116007.21447  20723206.855    20723207.3574   20723213.2834
       203.0004        202.0004
 -17916890.43249 -13935365.12348  20824206.414    20824206.6954   20824213.6114
       213.0004        213.0004
   2331726.04848   1840483.92446  24647680.210    24647681.2424   24647690.5404
       167.0004        167.0004
 21  1 31  0  3 30.0000000  0  8G07G01G08G27G21G04G09G03
  -8918162.41148  -6715937.37246  23244491.351    23244492.0944   23244496.5474
       170.0004        169.0004
  -6354543.49547  -4940838.63645  23505540.397    23505540.0384   23505548.8324
       155.0004        158.0004
 -23194088.17549 -18042552.94447  20353859.209    20353859.3424   20353867.2184
       211.0004        211.0004
 -12297807.07149  -9568905.11647  22513387.769    22513387.6794   22513394.9634
       208.0004        208.0004
 -10156939.07948  -7898332.59546  22342341.287    22342341.1584   22342346.3064
       165.0004        166.0004
 -19379717.83749 -15074275.36747  20733397.666    20733398.2084   20733404.6304
       203.0004        202.0004
 -17933774.52249 -13948521.55548  20820993.290    20820993.8324   20821000.6684
       213.0004        214.0004
   2379775.66348   1877925.12046  24656824.842    24656825.5994   24656835.7434
       168.0004        170.0004
 21  1 31  0  4  0.0000000  0  8G07G01G08G27G21G04G09G03
  -8991529.69548  -6773106.68046  23230531.176    23230532.2144   23230535.5874
       169.0004        171.0004
  -6430211.38547  -4999800.59845  23491139.770    23491140.9894   23491149.2724
       155.0004        157.0004
 -23157670.06849 -18014175.18347  20360789.394    20360789.6784   20360796.6854
       211.0004        211.0004
 -12204184.19249  -9495952.22847  22531202.276    22531203.1994   22531210.7484
       207.0004        206.0004
 -10200787.79747  -7932500.42346  22333996.604    22333996.6404   22334001.0334
       164.0004        165.0004
 -19325676.00849 -15032164.85647  20743682.354    20743682.5514   20743688.4664
       203.0004        202.0004
 -17950092.14949 -13961236.58448  20817887.756    20817888.4594   20817895.5404
       213.0004        213.0004
   2427569.94048   1915167.34346  24665919.601    24665920.7724   24665930.3474
       170.0004        172.0004
 21  1 31  0  4 30.0000000  0  8G07G01G08G27G21G04G09G03
  -9064979.95848  -6830340.64546  23216554.180    23216554.6624   23216557.8104
       170.0004        171.0004
  -6505982.16247  -5058842.71245  23476721.464    23476721.5534   23476730.2954
       154.0004        155.0004
 -23120703.36949 -17985369.95247  20367823.800    20367824.1224   20367831.2204
       211.0004        211.0004
 -12110264.81049  -9422768.30247  22549075.659    22549075.4184   22549082.5474
       206.0004        205.0004
 -10244420.67147  -7966500.02046  22325692.957    22325692.8104   22325698.6584
       164.0004        166.0004
 -19271149.46949 -14989676.65147  20754058.222    20754058.5744   20754064.6984
       203.0004        203.0004
 -17965842.12449 -13973509.29348  20814891.234    20814891.5514   20814897.9704
       213.0004        213.0004
   2475108.28648   1952210.12546  24674966.731    24674966.9194   24674976.3234
       170.0004        172.0004
 21  1 31  0  5  0.0000000  0  8G07G01G08G27G21G04G09G03
  -9138512.37048  -6887638.64546  23202560.112    23202561.2514   23202564.9254
       169.0004        170.0004
  -6581853.90147  -5117963.50245  23462281.927    23462283.6324   23462292.7954
       152.0004        155.0004
 -23083190.47649 -17956139.12847  20374961.663    20374962.4144   20374969.9734
       211.0004        211.0004
 -12016052.69949  -9349356.29647  22567002.668    22567003.5834   22567010.7684
       205.0004        205.0004
 -10287836.11148  -8000330.20746  22317432.908    22317432.8944   22317436.4514
       166.0004        168.0004
 -19216140.93549 -14946812.88047  20764525.778    20764526.3124   20764532.5554
       203.0004        202.0004
 -17981024.75449 -13985339.92848  20812002.425    20812002.6184   20812008.7774
       213.0004        214.0004
   2522388.54648   1989051.82946  24683962.785    24683963.1034   24683973.6854
       169.0004        170.0004
 21  1 31  0  5 30.0000000  0  8G07G01G08G27G21G04G09G03
  -9212124.98448  -6944999.09346  23188552.826    23188553.9104   23188558.4874
       171.0004        174.0004
  -6657823.40447  -5177160.48045  23447826.745    23447827.2184   23447836.4074
       154.0004        158.0004
 -23045133.05949 -17926483.98847  20382204.096    20382204.5684   20382212.1764
       210.0004        211.0004
 -11921550.38449  -9275718.12747  22584985.521    22584986.4474   22584993.8564
       204.0004        204.0004
 -10331031.01748  -8033988.55146  22309213.726    22309212.0204   22309217.3684
       166.0004        166.0004
 -19160651.94049 -14903574.70947  20775085.074    20775085.5774   20775091.6264
       203.0004        201.0004
 -17995639.23249 -13996727.83248  20809221.453    20809221.8894   20809228.0644
       214.0004        214.0004
   2569409.84648   2025691.76746  24692911.014    24692911.1714   24692921.0444
       168.0004        169.0004
 21  1 31  0  6  0.0000000  0  8G07G01G08G27G21G04G09G03
  -9285816.56248  -7002421.09046  23174529.395    23174530.1144   23174534.7144
       171.0004        171.0004
  -6733888.50147  -5236431.93645  23433352.007    23433351.9224   23433361.5564
       154.0004        156.0004
 -23006532.97849 -17896406.00847  20389549.250    20389549.7074   20389557.7744
       210.0004        211.0004
 -11826761.22449  -9201856.45147  22603022.281    22603023.2824   22603032.1044
       203.0004        203.0004
 -10374002.70348  -8067472.93846  22301034.298    22301034.5404   22301040.7754
       165.0004        165.0004
 -19104684.97849 -14859964.10647  20785735.105    20785735.5464   20785741.8664
       202.0004        201.0004
 -18009685.59449 -14007673.05848  20806548.268    20806548.6914   20806555.1134
       214.0004        214.0004
   2616170.31248   2062128.45646  24701809.563    24701810.5034   24701820.9654
       171.0004        173.0004
 21  1 31  0  6 30.0000000  0  8G07G01G08G27G21G04G09G03
  -9359585.80848  -7059903.60346  23160492.394    23160492.3644   23160496.0014
       171.0004        172.0004
  -6810047.04447  -5295776.20645  23418857.188    23418860.4684   23418868.9644
       153.0004        156.0004
 -22967392.71549 -17865907.08747  20396997.945    20396998.2444   20397005.5724
       210.0004        211.0004
 -11731688.71349  -9127773.98247  22621114.807    22621115.8704   22621122.9954
       203.0004        203.0004
 -10416748.96947  -8100781.65746  22292900.298    22292900.2354   22292906.3034
       164.0004        165.0004
 -19048242.60049 -14815983.03547  20796476.200    20796476.6464   20796482.1374
       202.0004        201.0004
 -18023164.05549 -14018175.74648  20803983.496    20803983.6074   20803990.2004
       213.0004        214.0004
   2662668.13148   2098360.45746  24710657.811    24710658.5604   24710669.1574
       169.0004        170.0004
 21  1 31  0  7  0.0000000  0  8G07G01G08G27G21G04G09G03
  -9433430.38948  -7117444.83346  23146440.460    23146440.8354   23146445.3224
       172.0004        173.0004
  -6886295.36547  -5355190.44745  23404350.268    23404350.2064   23404359.1214
       154.0004        157.0004
 -22927712.98749 -17834987.81047  20404548.570    20404548.8464   20404556.2634
       210.0004        211.0004
 -11636334.91349  -9053472.32747  22639262.303    22639261.3084   22639268.6334
       203.0004        203.0004
 -10459266.32048  -8133912.03846  22284811.123    22284810.1994   22284815.9114
       165.0004        167.0004
 -18991325.90149 -14771632.37047  20807307.344    20807307.3244   20807313.4934
       203.0004        201.0004
 -18036073.32149 -14028234.91748  20801526.896    20801527.2824   20801533.6174
       214.0004        214.0004
   2708902.97248   2134387.56946  24719454.503    24719455.1454   24719466.2324
       167.0004        167.0004
 21  1 31  0  7 30.0000000  0  8G07G01G08G27G21G04G09G03
  -9507350.80548  -7175045.11746  23132372.695    23132373.8674   23132378.5244
       171.0004        172.0004
  -6962632.33847  -5414673.77745  23389823.881    23389823.5134   23389833.0824
       154.0004        156.0004
 -22887497.44749 -17803651.01947  20412201.172    20412201.4104   20412209.1644
       210.0004        210.0004
 -11540704.42049  -8978955.07747  22657458.178    22657458.7474   22657466.5314
       203.0004        203.0004
 -10501553.32447  -8166862.91746  22276759.913    22276760.0084   22276767.6524
       163.0004        163.0004
 -18933938.56049 -14726914.96347  20818226.905    20818227.7544   20818234.0324
       203.0004        201.0004
 -18048414.77849 -14037851.64248  20799178.066    20799178.6724   20799185.4734
       214.0004        215.0004
   2754871.76148   2170207.37246  24728204.679    24728204.8054   24728214.2324
       169.0004        172.0004
 21  1 31  0  8  0.0000000  0  8G07G01G08G27G21G04G09G03
  -9581343.46548  -7232701.71746  23118293.534    23118292.7824   23118297.6564
       171.0004        173.0004
  -7039053.54247  -5474222.71145  23375281.308    23375281.5414   23375291.2414
       152.0004        155.0004
 -22846746.62049 -17771897.12447  20419956.384    20419956.7264   20419963.7794
       210.0004        211.0004
 -11444798.49849  -8904223.20247  22675710.396    22675709.3454   22675716.6554
       203.0004        202.0004
 -10543605.99647  -8199631.17146  22268757.306    22268759.0824   22268765.8594
       162.0004        164.0004
 -18876081.03449 -14681831.18647  20829237.376    20829237.9144   20829243.7384
       203.0004        202.0004
 -18060186.50549 -14047024.42548  20796937.408    20796938.1544   20796945.3124
       214.0004        214.0004
   2800574.93148   2205820.16246  24736902.515    24736902.9724   24736911.1564
       172.0004        174.0004
 21  1 31  0  8 30.0000000  0  8G07G01G08G27G21G04G09G03
  -9655407.70348  -7290414.11046  23104199.106    23104199.6714   23104203.4944
       173.0004        175.0004
  -7115557.92547  -5533836.48245  23360722.607    23360722.5924   23360732.2624
       152.0004        155.0004
 -22805463.60749 -17739728.53847  20427811.332    20427812.0994   20427819.9684
       210.0004        211.0004
 -11348621.71249  -8829280.27647  22694010.405    22694011.4484   22694018.7874
       202.0004        201.0004
 -10585422.74548  -8232215.66146  22260806.127    22260804.9644   22260807.4454
       166.0004        170.0004
 -18817757.00649 -14636383.89747  20840336.299    20840336.4814   20840342.1604
       203.0004        201.0004
 -18071389.81949 -14055754.28948  20794806.214    20794806.3044   20794813.2044
       213.0004        214.0004
   2846009.60148   2241223.72146  24745546.584    24745547.3644   24745556.2404
       170.0004        169.0004
 21  1 31  0  9  0.0000000  0  8G07G01G08G27G21G04G09G03
  -9729542.01348  -7348181.08646  23090090.554    23090091.4794   23090096.4274
       173.0004        174.0004
  -7192141.94147  -5593512.28945  23346148.964    23346150.4944   23346159.0814
       152.0004        156.0004
 -22763649.91749 -17707146.43847  20435768.845    20435769.1894   20435776.5824
       210.0004        211.0004
 -11252176.35849  -8754128.04147  22712363.378    22712364.9964   22712371.1814
       202.0004        202.0004
 -10627000.43748  -8264613.87846  22252893.526    22252892.7114   22252895.3684
       170.0004        171.0004
 -18758967.86649 -14590574.19947  20851523.182    20851523.4074   20851529.6864
       202.0004        201.0004
 -18082023.78449 -14064040.50448  20792782.707    20792783.1254   20792789.8464
       213.0004        214.0004
   2891175.22148   2276417.65346  24754140.238    24754140.7784   24754151.6734
       165.0004        165.0004
 21  1 31  0  9 30.0000000  0  8G07G01G08G27G21G04G09G03
  -9803743.50748  -7406000.44046  23075971.125    23075972.0144   23075976.1134
       173.0004        175.0004
  -7268801.99747  -5653247.36545  23331561.493    23331562.1364   23331570.2514
       152.0004        154.0004
 -22721306.54549 -17674151.59047  20443826.085    20443826.7934   20443833.9664
       210.0004        210.0004
 -11155464.56749  -8678768.19747  22730768.628    22730768.7674   22730775.4314
       203.0004        203.0004
 -10668335.21548  -8296822.77046  22245025.265    22245025.1844   22245030.7524
       168.0004        167.0004
 -18699714.96749 -14544403.11247  20862798.239    20862798.8284   20862804.9874
       202.0004        201.0004
 -18092087.43249 -14071882.29748  20790867.859    20790867.9694   20790874.8554
       214.0004        214.0004
   2936071.29048   2311401.54046  24762685.726    24762685.3944   24762695.5994
       167.0004        170.0004
 21  1 31  0 10  0.0000000  0  8G07G01G08G27G21G04G09G03
  -9878012.33148  -7463872.20546  23061838.003    23061838.4874   23061843.5794
       175.0004        177.0004
  -7345537.16047  -5713040.97145  23316960.240    23316959.5714   23316967.8114
       152.0004        155.0004
 -22678436.83149 -17640746.62447  20451984.564    20451984.7104   20451991.9274
       210.0004        210.0004
 -11058491.00649  -8603204.39747  22749221.528    22749221.9494   22749228.6374
       202.0004        202.0004
 -10709426.05047  -8328841.53046  22237203.181    22237203.0544   22237210.9604
       164.0004        163.0004
 -18640002.14349 -14497873.65047  20874161.549    20874162.0424   20874167.8084
       202.0004        200.0004
 -18101582.33849 -14079280.93748  20789060.321    20789061.0554   20789067.8514
       214.0004        214.0004
   2980694.80748   2346173.04946  24771174.787    24771176.1484   24771187.7224
       169.0004        171.0004
 21  1 31  0 10 30.0000000  0  8G07G01G08G27G21G04G09G03
  -9952344.87848  -7521793.65846  23047694.776    23047694.9524   23047698.5254
       177.0004        180.0004
  -7422342.60747  -5772889.33845  23302344.629    23302344.5544   23302352.5484
       153.0004        155.0004
 -22635041.29249 -17606931.89447  20460242.041    20460242.3754   20460250.0444
       210.0004        210.0004
 -10961256.76449  -8527437.46047  22767724.005    22767724.3434   22767731.5754
       201.0004        200.0004
 -10750268.44147  -8360666.73046  22229432.583    22229433.1524   22229438.4484
       163.0004        165.0004
 -18579829.70449 -14450986.03647  20885611.606    20885612.4624   20885618.0884
       202.0004        200.0004
 -18110506.44749 -14086234.78548  20787362.511    20787362.7184   20787369.6124
       214.0004        214.0004
   3025046.48748   2380732.76446  24779616.175    24779616.7714   24779627.1834
       169.0004        170.0004
 21  1 31  0 11  0.0000000  0  8G07G01G08G27G21G04G09G03
 -10026741.99048  -7579765.41746  23033536.730    23033537.0444   23033541.8254
       178.0004        178.0004
  -7499218.14547  -5832792.32445  23287714.922    23287714.7074   23287723.7324
       154.0004        157.0004
 -22591124.43049 -17572710.96147  20468599.155    20468599.5934   20468606.9504
       210.0004        210.0004
 -10863767.36049  -8451471.69747  22786276.465    22786276.2084   22786282.4944
       200.0004        200.0004
 -10790862.43448  -8392298.38446  22221708.780    22221708.6314   22221713.9954
       165.0004        168.0004
 -18519202.39649 -14403743.97547  20897148.650    20897149.3324   20897155.0974
       202.0004        200.0004
 -18118862.23249 -14092745.79348  20785771.755    20785772.3724   20785779.4424
       213.0004        214.0004
   3069122.53848   2415077.66846  24788004.137    24788004.6084   24788013.8634
       169.0004        170.0004
 21  1 31  0 11 30.0000000  0  7G07G01G08G27G21G04G09
 -10101195.86948  -7637781.42746  23019369.252    23019369.2204   23019372.7234
       177.0004        179.0004
  -7576154.80947  -5892742.96745  23273074.190    23273074.7154   23273083.0394
       154.0004        156.0004
 -22546682.03949 -17538080.52147  20477056.395    20477056.7664   20477064.2064
       209.0004        210.0004
 -10766019.62349  -8375304.64147  22804877.057    22804877.0994   22804884.2804
       201.0004        202.0004
 -10831199.07648  -8423729.50946  22214034.457    22214033.7124   22214038.6124
       168.0004        171.0004
 -18458116.21049 -14356144.35847  20908773.344    20908773.9904   20908779.5624
       202.0004        200.0004
 -18126643.44349 -14098809.08448  20784291.769    20784292.2954   20784298.7644
       214.0004        214.0004
 21  1 31  0 12  0.0000000  0  7G07G01G08G27G21G04G09
 -10175709.09748  -7695843.68346  23005188.662    23005188.6354   23005193.9484
       178.0004        179.0004
  -7653154.39447  -5952742.61945  23258419.696    23258420.6364   23258429.2814
       153.0004        155.0004
 -22501720.92249 -17503045.87347  20485612.131    20485612.4944   20485619.9024
       209.0004        210.0004
 -10668021.03649  -8298942.11247  22823525.097    22823525.7794   22823531.8224
       201.0004        201.0004
 -10871280.12748  -8454961.48346  22206407.232    22206406.0334   22206410.7504
       171.0004        172.0004
 -18396578.01649 -14308192.52747  20920483.025    20920483.8644   20920489.7704
       201.0004        200.0004
 -18133854.60249 -14104428.16948  20782919.644    20782919.8704   20782926.3334
       214.0004        214.0004
 21  1 31  0 12 30.0000000  0  7G07G01G08G27G21G04G09
 -10250282.85648  -7753953.08546  22990998.679    22990999.0604   22991002.8984
       180.0004        181.0004
  -7730216.32347  -6012790.86145  23243757.084    23243757.6284   23243766.2254
       154.0004        157.0004
 -22456244.79549 -17467609.91647  20494266.556    20494266.5444   20494273.6684
       210.0004        210.0004
 -10569776.88749  -8222388.22347  22842220.756    22842221.4364   22842227.4034
       201.0004        201.0004
 -10911105.17748  -8485993.96546  22198827.845    22198827.0614   22198832.2724
       170.0004        171.0004
 -18334592.29249 -14259891.96447  20932279.034    20932279.6284   20932284.8164
       201.0004        199.0004
 -18140497.98349 -14109604.83348  20781654.986    20781655.6134   20781662.3814
       214.0004        214.0004
 21  1 31  0 13  0.0000000  0  7G07G01G08G27G21G04G09
 -10324914.08648  -7812107.27546  22976795.207    22976796.6104   22976800.4384
       179.0004        179.0004
  -7807336.63147  -6072884.59745  23229082.195    23229083.0164   23229091.1794
       156.0004        158.0004
 -22410255.24449 -17431773.89647  20503017.526    20503017.9984   20503025.6324
       209.0004        210.0004
 -10471289.04649  -8145644.46047  22860963.226    22860962.6314   22860969.7384
       202.0004        202.0004
 -10950670.39148  -8516823.97746  22191298.687    22191298.5164   22191304.1174
       170.0004        170.0004
 -18272160.23149 -14211243.60847  20944159.513    20944160.1284   20944165.8094
       201.0004        200.0004
 -18146572.51249 -14114338.23248  20780498.742    20780499.6704   20780506.6624
       214.0004        215.0004
 21  1 31  0 13 30.0000000  0  7G07G01G08G27G21G04G09
 -10399601.20148  -7870305.03046  22962583.462    22962583.8994   22962588.6654
       179.0004        180.0004
  -7884512.97047  -6133021.99345  23214394.700    23214395.4024   23214404.5634
       157.0004        159.0004
 -22363754.67249 -17395539.69047  20511866.330    20511866.7154   20511874.0554
       209.0004        209.0004
 -10372560.88649  -8068713.43647  22879749.738    22879750.3364   22879757.0964
       202.0004        203.0004
 -10989973.79148  -8547449.99246  22183818.871    22183819.1204   22183824.8444
       169.0004        168.0004
 -18209284.49249 -14162249.54047  20956124.172    20956124.9614   20956131.0424
       201.0004        200.0004
 -18152078.60049 -14118628.69748  20779451.931    20779452.1004   20779458.5574
       214.0004        215.0004
 21  1 31  0 14  0.0000000  0  7G07G01G08G27G21G04G09
 -10474340.91948  -7928543.75446  22948360.895    22948361.0184   22948367.1384
       180.0004        181.0004
  -7961740.97847  -6193199.66145  23199699.765    23199700.0634   23199709.3104
       158.0004        161.0004
 -22316743.33649 -17358907.47547  20520811.774    20520812.7094   20520819.9934
       209.0004        209.0004
 -10273593.95449  -7991596.34547  22898582.245    22898582.3714   22898589.0254
       201.0004        200.0004
 -11029010.98748  -8577868.56046  22176390.027    22176388.8294   22176395.4844
       168.0004        169.0004
 -18145965.96549 -14112910.43147  20968173.612    20968173.7984   20968179.5504
       201.0004        199.0004
 -18157014.89549 -14122475.17148  20778512.381    20778512.7044   20778519.2594
       214.0004        214.0004
 21  1 31  0 14 30.0000000  0  7G07G01G08G27G21G04G09
 -10549132.81148  -7986823.14746  22934129.408    22934129.4074   22934133.5514
       180.0004        182.0004
  -8039018.79747  -6253416.15045  23184994.288    23184994.5154   23185002.7174
       158.0004        160.0004
 -22269224.90749 -17321880.12747  20529855.179    20529855.5694   20529862.5774
       209.0004        210.0004
 -10174392.22049  -7914296.29947  22917458.716    22917459.7224   22917466.6184
       201.0004        200.0004
 -11067779.82648  -8608078.02946  22169012.162    22169011.7234   22169017.9124
       167.0004        169.0004
 -18082207.92049 -14063228.85047  20980306.893    20980307.1894   20980312.8794
       201.0004        200.0004
 -18161382.49949 -14125878.50148  20777681.215    20777681.3524   20777688.2274
       214.0004        214.0004
 21  1 31  0 15  0.0000000  0  7G07G01G08G27G21G04G09
 -10623974.60248  -8045141.39246  22919887.151    22919887.4354   22919891.1894
       181.0004        181.0004
  -8116343.48347  -6313669.15345  23170280.865    23170280.7884   23170288.9754
       159.0004        162.0004
 -22221201.07249 -17284458.94447  20538993.192    20538993.7434   20539001.1894
       209.0004        209.0004
 -10074958.49449  -7836815.47047  22936380.713    22936381.2704   22936388.3544
       199.0004        199.0004
 -11106278.57148  -8638077.02446  22161686.904    22161686.7744   22161692.7504
       167.0004        168.0004
 -18018012.56849 -14013206.50947  20992522.158    20992522.6094   20992528.2224
       201.0004        199.0004
 -18165181.39449 -14128838.67848  20776958.300    20776958.9714   20776965.3434
       214.0004        215.0004
 21  1 31  0 15 30.0000000  0  7G07G01G08G27G21G04G09
 -10698864.22548  -8103496.94846  22905635.670    22905635.6744   22905640.4204
       180.0004        181.0004
  -8193711.60147  -6373955.99146  23155556.890    23155557.9164   23155565.5824
       161.0004        164.0004
 -22172673.82049 -17246645.50247  20548227.553    20548228.0314   20548235.6814
       209.0004        209.0004
  -9975295.28549  -7759155.83247  22955345.203    22955346.4034   22955353.1964
       199.0004        199.0004
 -11144503.56848  -8667862.72146  22154412.656    22154412.2634   22154418.2084
       168.0004        169.0004
 -17953381.73749 -13962844.84247  21004821.028    21004821.5074   21004827.8094
       200.0004        199.0004
 -18168411.24949 -14131355.46648  20776343.347    20776344.2094   20776350.9754
       215.0004        216.0004
 21  1 31  0 16  0.0000000  0  7G07G01G08G27G21G04G09
 -10773800.78348  -8161889.05346  22891376.009    22891376.8504   22891380.2624
       181.0004        183.0004
  -8271121.30747  -6434275.24146  23140827.044    23140827.5674   23140836.1004
       162.0004        164.0004
 -22123646.42449 -17208442.32647  20557557.924    20557558.0904   20557565.4664
       209.0004        209.0004
  -9875406.49349  -7681320.41247  22974355.376    22974354.8414   22974361.4834
       199.0004        199.0004
 -11182452.89448  -8697433.60446  22147192.536    22147191.2894   22147196.8144
       170.0004        172.0004
 -17888318.81949 -13912146.45847  21017201.939    21017202.6244   21017208.7944
       200.0004        198.0004
 -18171073.20649 -14133429.71748  20775837.515    20775837.5944   20775844.4814
       215.0004        216.0004
 21  1 31  0 16 30.0000000  0  7G07G01G08G27G21G04G09
 -10848782.33248  -8220316.23246  22877107.037    22877107.5964   22877111.4314
       181.0004        180.0004
  -8348569.30947  -6494624.30746  23126089.073    23126089.3594   23126097.3864
       163.0004        164.0004
 -22074120.66849 -17169850.81647  20566982.424    20566982.7394   20566989.5534
       209.0004        209.0004
  -9775294.80549  -7603311.31247  22993405.517    22993405.7704   22993412.6384
       200.0004        200.0004
 -11220123.61048  -8726787.39446  22140023.260    22140023.1504   22140028.6934
       171.0004        173.0004
 -17822825.79549 -13861112.93947  21029664.980    21029665.4734   21029671.3544
       199.0004        198.0004
 -18173167.13749 -14135061.35448  20775438.431    20775438.9404   20775445.8434
       215.0004        215.0004
 21  1 31  0 17  0.0000000  0  7G07G01G08G27G21G04G09
 -10923806.18948  -8278776.37446  22862830.342    22862831.2684   22862835.9334
       179.0004        180.0004
  -8426051.95947  -6555000.38645  23111343.679    23111344.6954   23111353.7534
       161.0004        162.0004
 -22024097.94849 -17130872.08047  20576501.664    20576501.7384   20576508.5664
       209.0004        210.0004
  -9674962.38149  -7525130.20347  23012498.081    23012498.4934   23012505.4324
       199.0004        198.0004
 -11257512.36348  -8755921.48946  22132909.621    22132908.9234   22132912.7554
       172.0004        174.0004
 -17756904.30749 -13809745.56847  21042209.359    21042210.0274   21042215.4584
       199.0004        197.0004
 -18174692.52549 -14136249.98048  20775147.943    20775148.4494   20775155.4154
       214.0004        214.0004
 21  1 31  0 17 30.0000000  0  7G07G01G08G27G21G04G09
 -10998870.46548  -8337267.99146  22848547.752    22848547.2274   22848551.8774
       179.0004        180.0004
  -8503566.58347  -6615401.38345  23096593.211    23096593.8914   23096601.4714
       160.0004        161.0004
 -21973580.46849 -17091507.79347  20586114.193    20586114.7324   20586121.6784
       209.0004        209.0004
  -9574412.40649  -7446779.57147  23031631.850    23031632.5944   23031639.1944
       197.0004        196.0004
 -11294617.29648  -8784834.38946  22125847.353    22125847.1504   22125852.7794
       173.0004        173.0004
 -17690557.01249 -13758046.37547  21054835.021    21054835.2844   21054840.9534
       199.0004        198.0004
 -18175649.87049 -14136995.95748  20774965.844    20774966.4004   20774973.1564
       214.0004        214.0004
 21  1 31  0 18  0.0000000  0  7G07G01G08G27G21G04G09
 -11073974.41648  -8395790.54946  22834255.710    22834255.9654   22834259.8464
       181.0004        181.0004
  -8581111.04247  -6675825.65945  23081836.629    23081837.3984   23081845.1344
       160.0004        161.0004
 -21922571.82849 -17051760.80947  20595820.573    20595821.0614   20595828.2464
       209.0004        208.0004
  -9473648.64349  -7368262.35047  23050808.125    23050808.0094   23050814.0244
       197.0004        197.0004
 -11331436.25148  -8813524.47546  22118840.848    22118840.6274   22118845.3034
       173.0004        172.0004
 -17623787.12149 -13706017.90847  21067541.084    21067541.3234   21067546.5594
       198.0004        197.0004
 -18176040.23449 -14137300.15248  20774892.387    20774892.6074   20774899.1764
       215.0004        216.0004
 21  1 31  0 18 30.0000000  0  7G07G01G08G27G21G04G09
 -11149116.94348  -8454343.16046  22819955.551    22819956.6014   22819959.6134
       180.0004        181.0004
  -8658683.08447  -6736271.42546  23067076.828    23067077.3294   23067084.0844
       162.0004        164.0004
 -21871074.40949 -17011632.94547  20605620.038    20605620.3204   20605627.9174
       208.0004        208.0004
  -9372674.74949  -7289581.39247  23070022.425    23070021.9984   23070028.7804
       196.0004        196.0004
 -11367966.81748  -8841989.83346  22111888.997    22111888.3674   22111894.4074
       172.0004        174.0004
 -17556597.71349 -13653662.52947  21080326.317    21080327.0664   21080332.5244
       198.0004        197.0004
 -18175864.61249 -14137163.30548  20774925.555    20774925.6804   20774932.2554
       215.0004        216.0004
 21  1 31  0 19  0.0000000  0  7G07G01G08G27G21G04G09
 -11224294.99048  -8512923.45946  22805650.960    22805650.5364   22805653.2204
       180.0004        181.0004
  -8736278.89147  -6796735.68746  23052310.584    23052310.8054   23052319.1544
       163.0004        165.0004
 -21819089.86749 -16971125.51447  20615511.695    20615512.4834   20615520.3634
       207.0004        208.0004
  -9271492.76749  -7210738.30047  23089274.813    23089275.4924   23089283.4554
       196.0004        195.0004
 -11404206.01248  -8870228.17646  22104993.819    22104993.3324   22104999.0564
       172.0004        172.0004
 -17488990.38349 -13600981.50047  21093191.999    21093192.4974   21093198.2204
       199.0004        198.0004
 -18175122.48049 -14136585.02948  20775066.413    20775066.9584   20775073.6824
       215.0004        216.0004
 21  1 31  0 19 30.0000000  0  7G07G01G08G27G21G04G09
 -11299507.60548  -8571530.69346  22791337.513    22791337.4914   22791341.1694
       180.0004        179.0004
  -8813896.21547  -6857216.70646  23037540.098    23037539.7814   23037548.0964
       163.0004        164.0004
 -21766621.58949 -16930241.13747  20625497.455    20625497.6504   20625504.8924
       208.0004        209.0004
  -9170106.40849  -7131735.95647  23108568.697    23108568.8784   23108576.5544
       195.0004        196.0004
 -11440152.22048  -8898238.18746  22098152.944    22098153.1494   22098157.4714
       171.0004        171.0004
 -17420968.33249 -13547977.30247  21106136.156    21106136.4474   21106142.7724
       199.0004        197.0004
 -18173814.93349 -14135566.16748  20775315.711    20775316.0424   20775322.5334
       215.0004        216.0004
 21  1 31  0 20  0.0000000  0  7G07G01G08G27G21G04G09
 -11374750.06248  -8630161.15746  22777017.331    22777019.1824   22777023.5574
       178.0004        178.0004
  -8891529.34847  -6917710.03245  23022766.727    23022767.5344   23022775.5794
       161.0004        162.0004
 -21713668.73449 -16888979.16447  20635574.068    20635574.3514   20635581.5784
       208.0004        209.0004
  -9068515.85448  -7052574.48847  23127898.255    23127900.4114   23127908.0304
       193.0004        193.0004
 -11475799.75248  -8926015.46246  22091369.481    22091369.0924   22091374.2204
       170.0004        171.0004
 -17352531.26649 -13494649.72647  21119158.699    21119159.1194   21119166.0894
       198.0004        197.0004
 -18171939.61049 -14134104.88448  20775672.344    20775672.5614   20775679.5064
       215.0004        216.0004
 21  1 31  0 20 30.0000000  0  7G07G01G08G27G21G04G09
 -11450021.15348  -8688813.95146  22762696.236    22762696.1584   22762700.5404
       179.0004        180.0004
  -8969175.94347  -6978213.86546  23007990.492    23007991.4594   23007999.0484
       162.0004        163.0004
 -21660234.59949 -16847342.17647  20645742.393    20645742.7524   20645749.2404
       209.0004        209.0004
  -8966724.67848  -6973256.69447  23147269.758    23147270.4124   23147278.3494
       192.0004        191.0004
 -11511146.37148  -8953558.26546  22084643.348    22084642.2184   22084648.6574
       172.0004        173.0004
 -17283682.28049 -13441001.18247  21132260.299    21132260.7804   21132266.7804
       198.0004        196.0004
 -18169497.55549 -14132201.99348  20776136.803    20776137.2754   20776144.3554
       215.0004        216.0004
 21  1 31  0 21  0.0000000  0  7G07G01G08G27G21G04G09
 -11525320.52148  -8747488.77646  22748367.185    22748367.4444   22748371.7904
       179.0004        180.0004
  -9046834.80347  -7038727.23646  22993212.406    22993213.5604   22993221.7834
       162.0004        164.0004
 -21606322.90949 -16805333.05147  20656001.399    20656001.6094   20656008.1284
       208.0004        208.0004
  -8864737.60748  -6893786.24547  23166677.574    23166678.1524   23166686.5204
       192.0004        192.0004
 -11546191.68748  -8980866.27346  22077974.140    22077973.2614   22077979.8584
       171.0004        172.0004
 -17214425.66849 -13387035.00347  21145439.463    21145439.8304   21145446.2404
       198.0004        196.0004
 -18166491.02149 -14129859.24348  20776708.812    20776709.4904   20776716.2914
       215.0004        216.0004
 21  1 31  0 21 30.0000000  0  7G07G01G08G27G21G04G09
 -11600646.73748  -8806184.49746  22734032.505    22734032.4794   22734036.5594
       179.0004        179.0004
  -9124503.19147  -7099248.02546  22978433.302    22978434.5554   22978442.2164
       162.0004        164.0004
 -21551936.47549 -16762953.99547  20666350.154    20666350.4984   20666357.5614
       207.0004        207.0004
  -8762557.82248  -6814165.62547  23186121.971    23186122.7314   23186130.0814
       191.0004        191.0004
 -11580933.25448  -9007937.60146  22071363.310    22071363.0574   22071368.4404
       171.0004        172.0004
 -17144764.18949 -13332753.33047  21158696.059    21158696.9314   21158702.7314
       198.0004        197.0004
 -18162920.72449 -14127077.19348  20777388.804    20777389.0484   20777395.4224
       215.0004        215.0004
 21  1 31  0 22  0.0000000  0  7G07G01G08G27G21G04G09
 -11675998.53648  -8864900.19446  22719693.079    22719693.5554   22719696.7864
       178.0004        179.0004
  -9202178.71747  -7159774.38546  22963651.839    22963652.3944   22963661.6734
       162.0004        163.0004
 -21497078.44149 -16720207.49947  20676788.693    20676789.1424   20676797.1204
       206.0004        207.0004
  -8660188.83248  -6734397.60647  23205602.400    23205602.7124   23205611.0214
       191.0004        190.0004
 -11615369.16748  -9034770.77346  22064810.577    22064809.6564   22064814.8924
       171.0004        173.0004
 -17074701.00149 -13278158.66147  21172028.667    21172028.8324   21172034.7074
       198.0004        196.0004
 -18158787.77249 -14123856.72948  20778174.909    20778175.3464   20778182.2704
       215.0004        215.0004
 21  1 31  0 22 30.0000000  0  7G07G01G08G27G21G04G09
 -11751373.04748  -8923633.56646  22705350.122    22705350.4614   22705354.6744
       179.0004        181.0004
  -9279857.55247  -7220303.30946  22948871.124    22948870.2364   22948878.9444
       161.0004        163.0004
 -21441750.40049 -16677094.73147  20687317.652    20687318.2204   20687325.7104
       207.0004        207.0004
  -8557632.79148  -6654483.80847  23225119.315    23225119.6214   23225127.0464
       190.0004        191.0004
 -11649496.39648  -9061363.38146  22058315.490    22058315.7344   22058320.4024
       172.0004        174.0004
 -17004237.79949 -13223252.27047  21185437.392    21185437.8754   21185443.8984
       198.0004        196.0004
 -18154091.87349 -14120197.57948  20779068.521    20779069.1734   20779075.8874
       215.0004        215.0004
 21  1 31  0 23  0.0000000  0  7G07G01G08G27G21G04G09
 -11826768.31348  -8982383.12146  22691001.961    22691002.5834   22691007.6234
       180.0004        181.0004
  -9357537.09947  -7280832.79645  22934087.299    22934088.2664   22934097.0714
       160.0004        162.0004
 -21385955.10149 -16633617.86947  20697935.786    20697935.8624   20697942.9944
       207.0004        207.0004
  -8454892.98448  -6574426.81247  23244669.617    23244670.0154   23244677.3724
       190.0004        190.0004
 -11683312.30548  -9087713.40846  22051880.541    22051880.3954   22051886.5494
       172.0004        173.0004
 -16933377.54649 -13168036.52147  21198921.475    21198921.9144   21198928.0484
       198.0004        196.0004
 -18148833.95449 -14116100.50448  20780069.504    20780069.6774   20780076.1584
       215.0004        215.0004
 21  1 31  0 23 30.0000000  0  7G07G01G08G27G21G04G09
 -11902181.20448  -9041146.40946  22676651.795    22676652.2354   22676655.6614
       180.0004        180.0004
  -9435212.83847  -7341359.34546  22919306.148    22919307.6114   22919315.6424
       161.0004        163.0004
 -21329693.31349 -16589777.49747  20708641.867    20708642.2724   20708649.1484
       207.0004        208.0004
  -8351970.86948  -6494227.77747  23264254.376    23264254.7154   23264262.8634
       190.0004        189.0004
 -11716812.75748  -9113817.64646  22045507.551    22045506.5134   22045510.2804
       174.0004        175.0004
 -16862121.27949 -13112512.18847  21212481.236    21212481.5604   21212487.6054
       197.0004        196.0004
 -18143013.12449 -14111564.80648  20781177.396    20781177.7214   20781183.9314
       215.0004        216.0004
 21  1 31  0 24  0.0000000  0  7G07G01G08G27G21G04G09
 -11977610.20148  -9099922.23646  22662298.016    22662298.8864   22662303.0054
       179.0004        180.0004
  -9512882.09147  -7401880.81646  22904527.866    22904527.9504   22904535.5264
       162.0004        164.0004
 -21272968.10849 -16545576.03247  20719436.929    20719436.8574   20719443.7354
       207.0004        207.0004
  -8248869.81548  -6413889.28647  23283873.527    23283874.0514   23283881.4234
       189.0004        189.0004
 -11749995.96148  -9139674.67146  22039192.190    22039191.2174   22039196.5904
       174.0004        174.0004
 -16790471.98649 -13056681.58247  21226115.406    21226115.8904   21226122.3154
       197.0004        196.0004
 -18136630.43049 -14106591.28348  20782391.150    20782391.5094   20782398.8584
       215.0004        215.0004
 21  1 31  0 24 30.0000000  0  7G07G01G08G27G21G04G09
 -12053054.41048  -9158709.93046  22647941.346    22647942.5824   22647946.2744
       180.0004        181.0004
  -9590543.03547  -7462395.81446  22889749.259    22889749.3394   22889757.3264
       162.0004        163.0004
 -21215783.21349 -16501016.36247  20730318.178    20730318.4184   20730325.3514
       206.0004        206.0004
  -8145593.83248  -6333414.50847  23303525.651    23303526.6634   23303535.0134
       190.0004        190.0004
 -11782860.89048  -9165283.69046  22032937.670    22032937.3084   22032943.0124
       174.0004        175.0004
 -16718433.39249 -13000547.62647  21239824.010    21239824.5894   21239830.4274
       197.0004        196.0004
 -18129687.58849 -14101181.28448  20783712.280    20783712.7834   20783719.6074
       215.0004        215.0004
 21  1 31  0 25  0.0000000  0  7G07G01G08G27G21G04G09
 -12128511.54248  -9217507.68346  22633582.034    22633582.3304   22633588.5854
       181.0004        183.0004
  -9668192.25847  -7522901.68345  22874972.744    22874973.1724   22874980.4824
       161.0004        162.0004
 -21158140.21149 -16456099.72747  20741287.053    20741287.4344   20741294.6524
       206.0004        206.0004
  -8042145.49248  -6252805.43847  23323212.935    23323212.9174   23323219.9814
       190.0004        191.0004
 -11815404.84148  -9190642.60346  22026745.445    22026745.1734   22026749.6254
       175.0004        175.0004
 -16646007.80249 -12944112.10347  21253606.342    21253606.8434   21253612.2104
       196.0004        194.0004
 -18122185.01249 -14095335.12548  20785139.899    20785140.5374   20785147.3934
       215.0004        215.0004
 21  1 31  0 25 30.0000000  0  7G07G01G08G27G21G04G09
 -12203980.05648  -9276314.31046  22619221.403    22619222.3814   22619225.1214
       182.0004        182.0004
  -9745827.26147  -7583396.46646  22860198.518    22860199.0504   22860207.7414
       161.0004        163.0004
 -21100042.85349 -16410829.06647  20752342.261    20752342.5334   20752350.0164
       205.0004        205.0004
  -7938528.37348  -6172064.83147  23342930.009    23342930.3014   23342937.4754
       189.0004        189.0004
 -11847625.70548  -9215749.76346  22020613.210    22020612.9074   22020617.9154
       174.0004        175.0004
 -16573198.44049 -12887377.54247  21267461.047    21267461.9424   21267467.6674
       196.0004        195.0004
 -18114123.96849 -14089053.80548  20786674.699    20786674.8894   20786681.2464
       215.0004        216.0004
 21  1 31  0 26  0.0000000  0  7G07G01G08G27G21G04G09
 -12279457.50948  -9335127.91846  22604859.230    22604859.8224   22604862.5684
       183.0004        184.0004
  -9823444.84947  -7643877.66046  22845429.728    22845429.5914   22845436.8884
       162.0004        164.0004
 -21041493.07549 -16365205.86747  20763484.813    20763484.7444   20763491.5794
       205.0004        205.0004
  -7834745.11848  -6091194.76047  23362680.101    23362679.9334   23362687.9054
       190.0004        191.0004
 -11879520.36048  -9240602.74246  22014544.414    22014543.4144   22014549.2014
       175.0004        175.0004
 -16500007.66349 -12830345.79047  21281388.982    21281389.7674   21281395.3854
       196.0004        194.0004
 -18105504.97749 -14082337.70548  20788314.380    20788314.9364   20788321.3194
       215.0004        215.0004
 21  1 31  0 26 30.0000000  0  7G07G01G08G27G21G04G09
 -12354942.68348  -9393947.54146  22590494.727    22590495.1204   22590499.1614
       183.0004        184.0004
  -9901042.43347  -7704343.26446  22830663.317    22830663.2374   22830671.5974
       163.0004        164.0004
 -20982494.10649 -16319232.63747  20774711.675    20774712.1504   20774718.8884
       205.0004        206.0004
  -7730799.12148  -6010197.89447  23382460.976    23382461.2744   23382467.1834
       192.0004        193.0004
 -11911087.10548  -9265200.19446  22008537.837    22008537.3414   22008541.6004
       175.0004        175.0004
 -16426438.69849 -12773019.33247  21295389.133    21295389.9974   21295395.0564
       196.0004        195.0004
 -18096329.26749 -14075187.80448  20790060.426    20790060.7744   20790067.6034
       215.0004        215.0004
 21  1 31  0 27  0.0000000  0  7G07G01G08G27G21G04G09
 -12430433.47748  -9452771.51746  22576129.072    22576129.5264   22576134.1264
       185.0004        186.0004
  -9978616.93447  -7764790.91546  22815901.019    22815901.0764   22815908.9184
       163.0004        164.0004
 -20923048.81349 -16272911.61147  20786023.766    20786024.1694   20786031.2044
       206.0004        206.0004
  -7626693.26848  -5929076.46247  23402272.166    23402271.8764   23402278.6404
       192.0004        192.0004
 -11942323.39448  -9289540.15446  22002593.569    22002593.2454   22002597.6544
       174.0004        175.0004
 -16352494.09149 -12715400.17547  21309460.428    21309460.9424   21309466.5884
       196.0004        195.0004
 -18086597.60549 -14067604.69048  20791912.163    20791912.4614   20791919.7564
       214.0004        214.0004
 21  1 31  0 27 30.0000000  0  7G07G01G08G27G21G04G09
 -12505926.54348  -9511597.27046  22561763.808    22561763.4024   22561768.2304
       185.0004        186.0004
 -10056163.97447  -7825217.15446  22801144.225    22801143.3584   22801152.6234
       163.0004        166.0004
 -20863157.81549 -16226243.30047  20797420.149    20797420.4824   20797427.7564
       206.0004        206.0004
  -7522429.18148  -5847831.72247  23422111.818    23422111.9444   23422119.1554
       192.0004        192.0004
 -11973225.86148  -9313619.98746  21996712.513    21996711.9284   21996716.9884
       174.0004        174.0004
 -16278175.25949 -12657489.41647  21323601.769    21323602.7714   21323608.5244
       196.0004        195.0004
 -18076309.48049 -14059587.97748  20793869.675    20793870.0764   20793877.0224
       214.0004        214.0004
 21  1 31  0 28  0.0000000  0  7G07G01G08G27G21G04G09
 -12581420.93748  -9570424.07646  22547397.157    22547397.4504   22547401.6014
       185.0004        186.0004
 -10133681.63447  -7885620.51646  22786392.161    22786393.2774   22786401.6644
       164.0004        165.0004
 -20802825.13949 -16179230.83747  20808900.885    20808901.0994   20808909.1604
       205.0004        204.0004
  -7418010.92648  -5766466.86047  23441982.587    23441982.4664   23441989.1314
       192.0004        192.0004
 -12003792.94948  -9337438.50546  21990896.873    21990896.1684   21990900.2584
       174.0004        174.0004
 -16203486.05949 -12599290.05947  21337815.527    21337816.2464   21337821.2144
       196.0004        194.0004
 -18065466.94449 -14051139.26148  20795933.474    20795933.7104   20795940.5684
       214.0004        214.0004
 21  1 31  0 28 30.0000000  0  7G07G01G08G27G21G04G09
 -12656913.56848  -9629249.49446  22533031.373    22533031.2794   22533035.1644
       185.0004        184.0004
 -10211165.63748  -7945997.65146  22771648.529    22771649.1904   22771657.1094
       166.0004        168.0004
 -20742052.01349 -16131875.15747  20820466.169    20820466.2104   20820473.8474
       205.0004        205.0004
  -7313440.21348  -5684983.17547  23461880.237    23461880.6634   23461888.3294
       191.0004        191.0004
 -12034021.25848  -9360993.03246  21985142.526    21985142.4694   21985148.6464
       173.0004        174.0004
 -16128427.98849 -12540803.25447  21352098.265    21352098.9034   21352105.2544
       195.0004        194.0004
 -18054069.67249 -14042258.27448  20798102.087    20798102.5004   20798109.1744
       214.0004        214.0004
 21  1 31  0 29  0.0000000  0  7G07G01G08G27G21G04G09
 -12732402.60148  -9688072.12346  22518666.760    22518666.7274   22518670.8474
       186.0004        187.0004
 -10288613.55048  -8006346.65746  22756910.688    22756911.3914   22756919.4344
       168.0004        170.0004
 -20680841.62149 -16084178.75347  20832113.328    20832113.8734   20832121.3094
       204.0004        204.0004
  -7208720.60548  -5603383.48547  23481808.413    23481808.4424   23481815.3104
       190.0004        189.0004
 -12063909.17948  -9384282.31346  21979454.736    21979454.6594   21979461.1294
       173.0004        173.0004
 -16053004.37549 -12482031.63047  21366451.490    21366452.0634   21366457.3654
       195.0004        194.0004
 -18042119.19449 -14032946.22048  20800376.136    20800376.5534   20800383.6044
       214.0004        215.0004
 21  1 31  0 29 30.0000000  0  7G07G01G08G27G21G04G09
 -12807886.33948  -9746890.60746  22504302.339    22504302.5634   22504305.9494
       186.0004        186.0004
 -10366022.34248  -8066665.19446  22742180.967    22742180.3254   22742188.0624
       168.0004        169.0004
 -20619196.41849 -16036143.51747  20843844.323    20843844.8914   20843851.7594
       204.0004        204.0004
  -7103855.10448  -5521670.09047  23501763.267    23501763.7744   23501770.7234
       191.0004        191.0004
 -12093454.26448  -9407304.46946  21973832.822    21973832.7934   21973838.6064
       173.0004        173.0004
 -15977218.08449 -12422977.36947  21380872.316    21380872.9364   21380879.1564
       195.0004        193.0004
 -18029616.56649 -14023203.90748  20802755.297    20802755.8364   20802762.5404
       214.0004        215.0004
 21  1 31  0 30  0.0000000  0  7G07G01G08G27G21G04G09
 -12883362.23548  -9805702.98946  22489939.843    22489940.4104   22489943.4854
       186.0004        186.0004
 -10443388.57448  -8126950.55646  22727458.688    22727458.7464   22727466.6044
       168.0004        170.0004
 -20557119.72249 -15987772.05347  20855658.095    20855658.3394   20855664.9184
       204.0004        205.0004
  -6998846.11448  -5439844.91047  23521747.128    23521746.5164   23521752.3184
       189.0004        188.0004
 -12122653.75848  -9430057.30046  21968276.896    21968275.8824   21968281.3094
       173.0004        173.0004
 -15901071.44248 -12363642.32947  21395362.533    21395363.5644   21395369.2534
       194.0004        193.0004
 -18016562.28749 -14013031.74448  20805239.619    20805240.2424   20805246.8204
       215.0004        215.0004
 21  1 31  0 30 30.0000000  0  7G07G01G08G27G21G04G09
 -12958828.91248  -9864508.18246  22475578.742    22475579.1864   22475583.5864
       186.0004        187.0004
 -10520709.50348  -8187200.63746  22712744.473    22712744.6394   22712752.4334
       169.0004        169.0004
 -20494613.82349 -15939066.16047  20867552.609    20867552.7284   20867559.8984
       205.0004        205.0004
  -6893696.98048  -5357910.53947  23541756.557    23541755.4364   23541762.2114
       188.0004        189.0004
 -12151506.16248  -9452539.69346  21962786.713    21962786.1344   21962792.3924
       172.0004        173.0004
 -15824567.57648 -12304028.94247  21409921.546    21409921.9394   21409928.0014
       194.0004        193.0004
 -18002957.78349 -14002430.84148  20807828.677    20807828.9444   20807835.6334
       215.0004        215.0004
 21  1 31  0 31  0.0000000  0  7G07G01G08G27G21G04G09
 -13034283.12448  -9923303.65146  22461220.270    22461221.0094   22461224.6764
       187.0004        187.0004
 -10597981.49348  -8247412.55446  22698039.624    22698039.8844   22698048.5624
       168.0004        170.0004
 -20431681.06849 -15890027.63547  20879527.812    20879527.8054   20879535.1874
       204.0004        204.0004
  -6788410.09448  -5275868.81847  23561792.179    23561791.5244   23561797.8184
       190.0004        189.0004
 -12180007.72748  -9474748.66246  21957363.950    21957362.0204   21957368.3794
       173.0004        174.0004
 -15747708.67948 -12244138.88147  21424546.824    21424547.4464   21424553.5344
       194.0004        192.0004
 -17988803.50949 -13991401.52248  20810522.111    20810522.3474   20810529.0534
       214.0004        215.0004
 21  1 31  0 31 30.0000000  0  7G07G01G08G27G21G04G09
 -13109723.85048  -9982088.66047  22446864.251    22446864.9764   22446868.6054
       188.0004        188.0004
 -10675202.28448  -8307584.58746  22683344.047    22683345.2274   22683353.4304
       169.0004        170.0004
 -20368325.20249 -15840659.45147  20891583.634    20891584.2284   20891591.3464
       203.0004        204.0004
  -6682989.14348  -5193722.63547  23581852.600    23581852.4634   23581859.0824
       190.0004        192.0004
 -12208157.70448  -9496683.71546  21952005.495    21952005.4974   21952011.6334
       173.0004        175.0004
 -15670498.42148 -12183975.06947  21439239.399    21439240.6244   21439246.4264
       194.0004        192.0004
 -17974101.36149 -13979945.32748  20813320.325    20813320.1964   20813326.8744
       215.0004        215.0004
 21  1 31  0 32  0.0000000  0  7G07G01G08G27G21G04G09
 -13185148.38948 -10040861.01547  22432511.316    22432512.0914   22432516.2014
       188.0004        188.0004
 -10752368.05048  -8367713.76546  22668660.277    22668661.3004   22668667.9334
       169.0004        171.0004
 -20304547.64449 -15790962.64447  20903719.608    20903720.1934   20903728.0734
       203.0004        203.0004
  -6577436.31648  -5111473.68846  23601936.976    23601937.8534   23601944.7244
       189.0004        187.0004
 -12235952.92148  -9518342.31746  21946716.658    21946715.9534   21946721.8224
       174.0004        175.0004
 -15592938.85848 -12123539.04647  21453998.732    21453999.0624   21454004.8484
       193.0004        192.0004
 -17958851.69549 -13968062.47448  20816221.266    20816221.8584   20816228.5884
       214.0004        215.0004
 21  1 31  0 32 30.0000000  0  7G07G01G08G27G21G04G09
 -13260554.79048 -10099619.23147  22418163.014    22418162.7134   22418166.6254
       188.0004        188.0004
 -10829476.02848  -8427797.90146  22653986.411    22653988.0534   22653995.2374
       169.0004        170.0004
 -20240351.70049 -15740939.82847  20915936.251    20915936.6514   20915943.8024
       203.0004        203.0004
  -6471754.82048  -5029124.46846  23622047.228    23622048.3734   23622056.3184
       187.0004        187.0004
 -12263391.62448  -9539723.11746  21941495.329    21941494.9804   21941500.7464
       175.0004        177.0004
 -15515033.16848 -12062833.32847  21468823.397    21468824.4514   21468829.9954
       193.0004        192.0004
 -17943055.96949 -13955754.12348  20819227.675    20819227.8794   20819234.3674
       214.0004        214.0004
 21  1 31  0 33  0.0000000  0  7G07G01G08G27G21G04G09
 -13335940.76948 -10158361.53646  22403816.107    22403817.1464   22403822.0404
       188.0004        187.0004
 -10906522.88548  -8487834.39446  22639324.260    22639326.1224   22639334.3524
       170.0004        171.0004
 -20175739.89949 -15690592.94847  20928231.069    20928231.4344   20928239.0954
       203.0004        202.0004
  -6365947.30748  -4946677.07346  23642183.989    23642183.9824   23642189.8784
       185.0004        185.0004
 -12290471.25948  -9560824.11546  21936342.858    21936342.0034   21936348.3414
       176.0004        177.0004
 -15436783.91548 -12001859.88347  21483713.976    21483714.1254   21483720.4874
       193.0004        192.0004
 -17926715.07949 -13943020.97148  20822336.803    20822337.3954   20822343.9934
       214.0004        215.0004
 21  1 31  0 33 30.0000000  0  7G07G01G08G27G21G04G09
 -13411304.90648 -10217086.83146  22389474.959    22389475.9564   22389479.5354
       186.0004        186.0004
 -10983506.16348  -8547821.34846  22624676.743    22624677.1664   22624686.0384
       171.0004        172.0004
 -20110715.61349 -15639924.67347  20940604.278    20940604.9334   20940612.5344
       202.0004        201.0004
  -6260017.36148  -4864134.26546  23662342.709    23662341.8084   23662347.6814
       184.0004        184.0004
 -12317190.19248  -9581644.05246  21931258.574    21931257.7204   21931263.6624
       177.0004        177.0004
 -15358194.62648 -11940621.49647  21498669.163    21498669.4404   21498675.7374
       193.0004        192.0004
 -17909830.92349 -13929864.48948  20825550.138    20825550.2454   20825557.1554
       214.0004        214.0004
 21  1 31  0 34  0.0000000  0  7G07G01G08G27G21G04G09
 -13486646.54248 -10275794.59946  22375137.654    22375138.0694   22375141.9584
       186.0004        187.0004
 -11060424.23448  -8607757.49546  22610040.508    22610040.0954   22610048.3044
       171.0004        172.0004
 -20045283.23249 -15588938.39747  20953055.574    20953056.4234   20953064.4284
       201.0004        202.0004
  -6153969.31248  -4781499.44546  23682523.148    23682522.3924   23682527.4714
       185.0004        186.0004
 -12343547.94348  -9602182.53346  21926242.629    21926241.6994   21926247.0744
       176.0004        177.0004
 -15279269.61348 -11879121.49947  21513687.860    21513688.3814   21513694.8414
       193.0004        191.0004
 -17892406.10749 -13916286.70448  20828865.699    20828866.4634   20828872.8104
       214.0004        215.0004
 21  1 31  0 34 30.0000000  0  7G07G01G08G27G21G04G09
 -13561962.06648 -10334482.02646  22360806.610    22360807.1094   22360810.3014
       187.0004        187.0004
 -11137272.51748  -8667639.27446  22595415.968    22595415.9934   22595425.0034
       171.0004        172.0004
 -19979443.70049 -15537634.86747  20965584.719    20965585.2204   20965593.1494
       201.0004        201.0004
  -6047804.57448  -4698773.67946  23702724.542    23702725.0694   23702731.4594
       186.0004        187.0004
 -12369540.69248  -9622436.61746  21921295.368    21921295.6964   21921300.5054
       177.0004        177.0004
 -15200010.22648 -11817360.94247  21528770.918    21528770.8574   21528777.2144
       192.0004        191.0004
 -17874440.38649 -13902287.45648  20832285.328    20832285.3124   20832291.6544
       214.0004        215.0004
 21  1 31  0 35  0.0000000  0  7G07G01G08G27G21G04G09
 -13637249.17048 -10393147.31546  22346479.407    22346479.7164   22346483.3954
       187.0004        187.0004
 -11214047.68348  -8727464.05846  22580805.196    22580805.9274   22580815.0074
       170.0004        170.0004
 -19913199.67049 -15486016.13747  20978190.313    20978190.9364   20978198.5674
       201.0004        201.0004
  -5941525.85648  -4615959.09746  23722951.012    23722949.8564   23722955.0814
       186.0004        186.0004
 -12395165.60648  -9642404.06546  21916419.257    21916419.1624   21916424.1144
       177.0004        177.0004
 -15120419.15948 -11755341.94047  21543916.034    21543916.8624   21543922.5684
       192.0004        191.0004
 -17855934.83949 -13887867.56448  20835805.517    20835806.1414   20835812.9254
       214.0004        214.0004
 21  1 31  0 35 30.0000000  0  8G07G01G30G08G27G21G04G09
 -13712505.22548 -10451788.37646  22332158.603    22332159.0734   22332163.1434
       187.0004        187.0004
 -11290746.31848  -8787229.20746  22566209.686    22566210.6394   22566218.8284
       170.0004        170.0004
   -535783.43757   -405410.41145  24268592.174    24268590.0295   24268597.6824
       148.0004        156.0004
 -19846554.06649 -15434084.47747  20990873.538    20990873.6634   20990881.1694
       201.0004        201.0004
  -5835135.71648  -4533057.69746  23743195.545    23743194.5134   23743200.4184
       187.0004        187.0004
 -12420420.75048  -9662083.36246  21911613.163    21911613.1234   21911619.0174
       177.0004        179.0004
 -15040498.97848 -11693066.47447  21559124.729    21559125.3924   21559130.6834
       193.0004        192.0004
 -17836890.43449 -13873027.75848  20839429.342    20839430.1714   20839437.2844
       213.0004        214.0004
 21  1 31  0 36  0.0000000  0  8G07G01G30G08G27G21G04G09
 -13787726.66048 -10510402.45047  22317843.978    22317844.6104   22317849.6894
       187.0004        188.0004
 -11367363.67848  -8846931.05246  22551630.995    22551630.8524   22551639.3004
       169.0004        170.0004
   -619947.71547   -470992.96245  24252573.588    24252574.2974   24252581.1444
       152.0004        156.0004
 -19779507.88449 -15381840.70247  21003631.107    21003631.7154   21003639.6364
       200.0004        201.0004
  -5728635.39848  -4450070.45546  23763460.180    23763460.0724   23763467.1214
       186.0004        185.0004
 -12445302.51548  -9681471.73746  21906879.050    21906879.4694   21906884.3974
       178.0004        179.0004
 -14960251.01248 -11630535.61347  21574395.290    21574395.8664   21574401.8924
       193.0004        192.0004
 -17817306.91949 -13857767.89148  20843156.447    20843157.3504   20843164.1954
       214.0004        215.0004
 21  1 31  0 36 30.0000000  0  8G07G01G30G08G27G21G04G09
 -13862912.66348 -10568988.95247  22303537.315    22303538.4844   22303541.5134
       188.0004        189.0004
 -11443898.16148  -8906568.32246  22537066.834    22537068.0564   22537075.5014
       169.0004        170.0004
   -704217.78047   -536657.95945  24236538.924    24236538.1164   24236544.5284
       151.0004        153.0004
 -19712065.22949 -15329287.99247  21016464.876    21016465.7884   21016473.4804
       200.0004        200.0004
  -5622029.26948  -4367000.76046  23783744.710    23783745.6994   23783753.1404
       184.0004        184.0004
 -12469810.12748  -9700568.57546  21902215.234    21902214.7794   21902220.1694
       179.0004        179.0004
 -14879679.61248 -11567752.73047  21589727.848    21589728.3874   21589733.9634
       193.0004        190.0004
 -17797187.10449 -13842090.13448  20846986.278    20846986.4014   20846992.4854
       215.0004        215.0004
 21  1 31  0 37  0.0000000  0  8G07G01G30G08G27G21G04G09
 -13938060.31248 -10627545.55846  22289237.336    22289237.7834   22289241.0374
       187.0004        187.0004
 -11520345.83548  -8966137.93346  22522518.876    22522519.3324   22522527.9124
       170.0004        171.0004
   -788591.61047   -602403.78645  24220481.246    24220481.8794   24220489.0424
       151.0004        154.0004
 -19644228.30649 -15276428.03947  21029374.781    21029374.6424   21029382.1164
       200.0004        200.0004
  -5515319.43848  -4283850.26946  23804050.581    23804051.6444   23804059.0924
       183.0004        182.0004
 -12493940.67048  -9719371.58246  21897623.624    21897623.0784   21897627.5124
       179.0004        179.0004
 -14798786.96848 -11504719.50647  21605120.193    21605121.2894   21605127.5614
       192.0004        190.0004
 -17776531.57849 -13825994.91748  20850915.662    20850916.3154   20850923.3264
       214.0004        215.0004
 21  1 31  0 37 30.0000000  0  8G07G01G30G08G27G21G04G09
 -14013167.80948 -10686070.87246  22274944.256    22274944.6774   22274949.3264
       187.0004        187.0004
 -11596703.90248  -9025637.70946  22507989.096    22507988.7094   22507997.6634
       170.0004        171.0004
   -873068.19447   -668229.67945  24204406.373    24204406.2314   24204413.9724
       152.0004        156.0004
 -19576000.17549 -15223263.26547  21042357.834    21042357.9114   21042365.4924
       200.0004        200.0004
  -5408509.06948  -4200621.39246  23824376.278    23824377.7874   23824384.0004
       181.0004        180.0004
 -12517692.49048  -9737879.49846  21893104.293    21893103.4784   21893108.4564
       179.0004        179.0004
 -14717576.27448 -11441438.45947  21620574.309    21620575.0854   21620581.0414
       191.0004        190.0004
 -17755342.07049 -13809483.61948  20854948.188    20854948.5814   20854955.3214
       214.0004        214.0004
 21  1 31  0 38  0.0000000  0  8G07G01G30G08G27G21G04G09
 -14088232.42948 -10744562.78547  22260660.737    22260660.8694   22260664.8844
       187.0004        188.0004
 -11672968.74248  -9085064.83446  22493476.228    22493475.9224   22493485.1254
       170.0004        171.0004
   -957645.71347   -734134.24145  24188311.526    24188312.6994   24188320.1394
       155.0004        158.0004
 -19507383.21349 -15169795.49947  21055414.916    21055415.3454   21055423.1394
       200.0004        200.0004
  -5301600.47948  -4117316.05246  23844720.948    23844721.9074   23844728.0654
       180.0004        181.0004
 -12541063.01548  -9756090.30046  21888656.047    21888655.9534   21888661.3704
       179.0004        179.0004
 -14636049.95048 -11377911.45647  21636089.446    21636089.4214   21636095.2284
       191.0004        190.0004
 -17733619.49449 -13792556.94448  20859081.764    20859082.5334   20859088.9904
       214.0004        214.0004
 21  1 31  0 38 30.0000000  0  8G07G01G30G08G27G21G04G09
 -14163252.93748 -10803020.32946  22246384.764    22246384.5994   22246388.8354
       187.0004        187.0004
 -11749138.32148  -9144417.76046  22478981.073    22478981.8674   22478990.4454
       170.0004        172.0004
  -1042323.97747   -800117.30545  24172197.899    24172198.7144   24172206.0344
       157.0004        159.0004
 -19438381.68449 -15116028.06947  21068545.375    21068545.9344   21068553.4264
       200.0004        200.0004
  -5194597.70148  -4033937.20446  23865083.085    23865083.4054   23865090.5714
       180.0004        180.0004
 -12564051.23348  -9774003.20246  21884282.672    21884281.2274   21884286.7344
       179.0004        179.0004
 -14554212.07548 -11314141.69847  21651661.978    21651662.4594   21651668.2024
       191.0004        190.0004
 -17711366.36349 -13775216.84948  20863316.558    20863316.9704   20863323.4904
       214.0004        214.0004
 21  1 31  0 39  0.0000000  0  8G07G01G30G08G27G21G04G09
 -14238226.93548 -10861441.59946  22232116.480    22232117.0204   22232121.4274
       187.0004        187.0004
 -11825209.55348  -9203694.02046  22464505.759    22464506.3284   22464514.4614
       171.0004        172.0004
  -1127101.92447   -866178.03445  24156066.253    24156066.0704   24156073.7284
       157.0004        159.0004
 -19368998.10949 -15061962.93047  21081748.320    21081748.6874   21081757.1184
       199.0004        199.0004
  -5087503.71548  -3950487.38446  23885462.554    23885463.4444   23885469.5634
       182.0004        184.0004
 -12586655.37248  -9791616.81546  21879980.733    21879980.0334   21879986.0514
       179.0004        178.0004
 -14472065.73748 -11250131.56347  21667294.075    21667294.3394   21667300.9234
       192.0004        191.0004
 -17688584.34049 -13757464.62548  20867651.956    20867652.4654   20867659.1234
       214.0004        215.0004
 21  1 31  0 39 30.0000000  0  8G07G01G30G08G27G21G04G09
 -14313152.48548 -10919825.14047  22217859.347    22217859.7444   22217863.4584
       188.0004        189.0004
 -11901178.68248  -9262890.74346  22450047.923    22450049.1994   22450057.1354
       170.0004        171.0004
  -1211977.42747   -932314.77845  24139914.481    24139914.7594   24139921.8364
       157.0004        160.0004
 -19299235.01949 -15007602.09447  21095023.902    21095024.3354   21095032.6114
       198.0004        199.0004
  -4980320.57948  -3866968.07246  23905858.715    23905858.5914   23905867.0864
       182.0004        181.0004
 -12608872.71448  -9808929.03446  21875753.111    21875752.8984   21875757.3674
       179.0004        179.0004
 -14389613.18248 -11185882.84347  21682984.426    21682984.6114   21682990.9334
       192.0004        191.0004
 -17665274.21649 -13739300.89848  20872087.632    20872087.8224   20872094.5804
       214.0004        214.0004
 21  1 31  0 40  0.0000000  0  8G07G01G30G08G27G21G04G09
 -14388027.20748 -10978169.06247  22203610.106    22203610.9754   22203615.8354
       189.0004        189.0004
 -11977042.94248  -9322005.74046  22435612.061    22435612.8724   22435620.9964
       169.0004        171.0004
  -1296949.60947   -998526.87545  24123744.742    24123744.7964   24123752.3624
       157.0004        159.0004
 -19229095.85949 -14952948.18347  21108371.246    21108371.7234   21108379.4814
       198.0004        198.0004
  -4873051.62648  -3783381.88646  23926270.548    23926270.7364   23926278.3454
       179.0004        179.0004
 -12630701.58448  -9825938.52946  21871599.815    21871598.3954   21871603.6294
       179.0004        180.0004
 -14306857.77748 -11121398.11247  21698731.650    21698732.6914   21698737.8814
       191.0004        190.0004
 -17641437.92549 -13720727.16448  20876623.532    20876623.9694   20876630.9894
       214.0004        214.0004
 21  1 31  0 40 30.0000000  0  8G07G01G30G08G27G21G04G09
 -14462847.05248 -11036470.24747  22189373.198    22189374.0174   22189377.9284
       190.0004        190.0004
 -12052797.62148  -9381035.35246  22421196.832    22421197.7564   22421205.3514
       171.0004        173.0004
  -1382015.53947  -1064812.01145  24107556.909    24107557.3124   24107564.2294
       157.0004        159.0004
 -19158581.82049 -14898002.18247  21121789.708    21121789.7634   21121797.9244
       198.0004        199.0004
  -4765698.03148  -3699729.78146  23946699.470    23946699.8194   23946707.1564
       178.0004        178.0004
 -12652138.49648  -9842642.60546  21867519.435    21867518.4794   21867524.2574
       179.0004        180.0004
 -14223800.93548 -11056678.50747  21714537.348    21714537.5934   21714543.9014
       191.0004        190.0004
 -17617075.43249 -13701743.40848  20881259.400    20881259.7454   20881266.7074
       214.0004        214.0004
 21  1 31  0 41  0.0000000  0  8G07G01G30G08G27G21G04G09
 -14537612.03148 -11094728.66947  22175146.231    22175146.9844   22175150.3074
       190.0004        190.0004
 -12128441.33348  -9439978.50046  22406801.722    22406802.1854   22406810.4194
       172.0004        173.0004
  -1467175.62847  -1131170.50745  24091352.648    24091352.9494   24091358.4674
       157.0004        159.0004
 -19087697.27349 -14842767.47347  21135278.518    21135278.8754   21135286.7614
       198.0004        198.0004
  -4658264.49948  -3616015.33646  23967146.144    23967144.7094   23967152.0184
       179.0004        180.0004
 -12673183.07848  -9859040.96446  21863514.123    21863513.7314   21863520.0434
       178.0004        177.0004
 -14140447.37548 -10991727.70047  21730398.875    21730399.7714   21730405.3154
       191.0004        190.0004
 -17592190.07149 -13682352.23148  20885994.958    20885995.5664   20886002.0884
       213.0004        214.0004
 21  1 31  0 41 30.0000000  0  8G07G01G30G08G27G21G04G09
 -14612319.39548 -11152942.19847  22160929.999    22160930.5504   22160933.7884
       189.0004        189.0004
 -12203970.61748  -9498832.48346  22392429.362    22392430.3894   22392438.2684
       171.0004        171.0004
  -1552428.22947  -1197601.10345  24075129.149    24075129.3374   24075135.4634
       157.0004        159.0004
 -19016445.48249 -14787246.59847  21148838.207    21148837.6204   21148845.4844
       198.0004        198.0004
  -4550753.39248  -3532240.48746  23987602.932    23987602.8084   23987609.7004
       176.0004        176.0004
 -12693833.11948  -9875131.88546  21859584.225    21859584.5544   21859589.0684
       178.0004        178.0004
 -14056799.81748 -10926547.79147  21746316.996    21746317.5144   21746322.7234
       191.0004        189.0004
 -17566783.17949 -13662554.65548  20890830.223    20890830.1364   20890836.9854
       213.0004        214.0004
 21  1 31  0 42  0.0000000  0  8G07G01G30G08G27G21G04G09
 -14686965.69148 -11211108.13347  22146724.913    22146724.8914   22146729.4244
       189.0004        190.0004
 -12279381.26648  -9557594.02346  22378078.924    22378079.4234   22378088.0244
       171.0004        173.0004
  -1637770.94647  -1264101.88145  24058889.070    24058888.4024   24058895.5194
       157.0004        160.0004
 -18944827.80749 -14731440.62847  21162465.910    21162465.7244   21162474.4384
       197.0004        197.0004
  -4443166.57048  -3448406.62246  24008076.494    24008075.7784   24008081.9394
       175.0004        175.0004
 -12714085.65348  -9890913.05746  21855730.979    21855731.1154   21855736.0694
       178.0004        179.0004
 -13972860.20548 -10861140.30747  21762290.259    21762290.3914   21762295.8254
       190.0004        188.0004
 -17540855.29249 -13642351.11648  20895764.086    20895764.3734   20895771.2774
       214.0004        214.0004
 21  1 31  0 42 30.0000000  0  8G07G01G30G08G27G21G04G09
 -14761549.06348 -11269225.03347  22132532.180    22132532.6514   22132537.1664
       191.0004        192.0004
 -12354670.42548  -9616260.90546  22363751.930    22363752.6064   22363760.5224
       173.0004        174.0004
  -1723202.72747  -1330672.06945  24042629.960    24042631.0534   24042638.6834
       158.0004        161.0004
 -18872847.59449 -14675352.15847  21176162.394    21176163.1894   21176171.2064
       197.0004        198.0004
  -4335507.14448  -3364516.18746  24028562.697    24028562.6154   24028570.2104
       173.0004        174.0004
 -12733939.60648  -9906383.63846  21851952.831    21851952.3674   21851958.2154
       178.0004        179.0004
 -13888631.88848 -10795507.86147  21778317.325    21778318.4204   21778324.2764
       190.0004        189.0004
 -17514408.42449 -13621743.17048  20900796.017    20900796.7234   20900803.6374
       213.0004        213.0004
 21  1 31  0 43  0.0000000  0  8G07G01G30G08G27G21G04G09
 -14836066.59048 -11327290.63447  22118352.000    22118352.5434   22118356.3514
       192.0004        192.0004
 -12429834.07648  -9674829.98046  22349449.964    22349450.6374   22349457.8104
       173.0004        175.0004
  -1808721.27547  -1397309.89445  24026356.803    24026357.7984   24026365.6314
       160.0004        162.0004
 -18800506.85049 -14618982.73947  21189929.153    21189929.7144   21189937.5794
       198.0004        198.0004
  -4227777.07148  -3280570.70146  24049062.806    24049062.8434   24049069.4444
       173.0004        173.0004
 -12753391.86448  -9921541.21546  21848251.671    21848250.7604   21848256.7854
       178.0004        179.0004
 -13804116.98048 -10729652.09246  21794399.986    21794400.3234   21794406.2794
       189.0004        187.0004
 -17487443.37849 -13600731.45148  20905928.023    20905928.2454   20905935.0744
       213.0004        213.0004
 21  1 31  0 43 30.0000000  0  8G07G01G30G08G27G21G04G09
 -14910517.23948 -11385304.11647  22104185.116    22104185.0254   22104188.8084
       192.0004        191.0004
 -12504870.68248  -9733300.05246  22335171.441    22335171.0934   22335178.6224
       174.0004        175.0004
  -1894326.88947  -1464015.54145  24010068.043    24010068.3674   24010075.0914
       160.0004        162.0004
 -18727810.38149 -14562336.14147  21203763.143    21203763.4644   21203770.7584
       197.0004        197.0004
  -4119980.74648  -3196573.58046  24069575.153    24069575.5364   24069582.9784
       173.0004        174.0004
 -12772442.33148  -9936385.71746  21844627.060    21844626.3654   21844630.9874
       180.0004        180.0004
 -13719320.15848 -10663576.64847  21810536.575    21810537.0774   21810543.2334
       188.0004        188.0004
 -17459963.50949 -13579318.57248  20911156.233    20911157.0354   20911164.1064
       212.0004        213.0004
 21  1 31  0 44  0.0000000  0  8G07G01G30G08G27G21G04G09
 -14984898.16348 -11443263.28847  22090030.928    22090031.1414   22090035.3984
       191.0004        191.0004
 -12579776.22148  -9791667.99846  22320916.382    22320917.0654   22320925.7154
       175.0004        176.0004
  -1980017.31747  -1530787.28745  23993761.607    23993761.4924   23993768.0954
       157.0004        158.0004
 -18654760.34949 -14505414.04347  21217663.977    21217663.9054   21217671.7754
       196.0004        196.0004
  -4012120.10948  -3112526.34246  24090100.447    24090101.6064   24090107.4504
       174.0004        175.0004
 -12791088.08548  -9950914.85546  21841078.035    21841078.2914   21841083.4704
       180.0004        181.0004
 -13634243.53648 -10597283.19847  21826726.358    21826726.9864   21826732.3814
       189.0004        188.0004
 -17431969.62949 -13557505.17248  20916484.079    20916484.4444   20916490.9334
       212.0004        213.0004
 21  1 31  0 44 30.0000000  0  8G07G01G30G08G27G21G04G09
 -15059206.99048 -11501166.26847  22075889.885    22075890.5204   22075894.3744
       191.0004        192.0004
 -12654547.59748  -9849931.39946  22306687.134    22306687.6264   22306695.8614
       175.0004        176.0004
  -2065791.18447  -1597624.06445  23977440.128    23977439.5874   23977444.9624
       155.0004        156.0004
 -18581359.32749 -14448218.44947  21231630.896    21231631.1864   21231639.9054
       196.0004        197.0004
  -3904197.99048  -3028431.18346  24110637.403    24110638.5644   24110646.1134
       175.0004        176.0004
 -12809327.08748  -9965127.04046  21837607.020    21837607.4104   21837613.1094
       180.0004        180.0004
 -13548890.30148 -10530774.19746  21842968.309    21842969.0504   21842974.7124
       188.0004        186.0004
 -17403463.60949 -13535292.70248  20921908.663    20921908.8804   20921915.8644
       212.0004        213.0004
 21  1 31  0 45  0.0000000  0  8G07G01G30G08G27G21G04G09
 -15133441.63848 -11559011.43547  22061763.273    22061763.8364   22061768.2894
       192.0004        192.0004
 -12729181.91548  -9908088.00746  22292484.560    22292485.3734   22292494.1324
       175.0004        175.0004
  -2151647.31647  -1664524.93945  23961102.193    23961102.2674   23961108.5024
       156.0004        159.0004
 -18507611.20049 -14390752.37247  21245665.899    21245665.8934   21245673.5504
       196.0004        197.0004
  -3796217.50448  -2944290.54546  24131186.543    24131186.6674   24131192.5664
       174.0004        175.0004
 -12827158.61048  -9979021.69846  21834214.107    21834214.7134   21834219.1744
       180.0004        181.0004
 -13463263.68348 -10464052.17446  21859261.952    21859262.9284   21859269.0294
       187.0004        186.0004
 -17374447.48549 -13512682.73248  20927430.671    20927430.4764   20927437.3814
       212.0004        213.0004
 21  1 31  0 45 30.0000000  0  8G07G01G30G08G27G21G04G09
 -15207598.65348 -11616796.11147  22047652.089    22047652.4894   22047656.5824
       193.0004        193.0004
 -12803674.73348  -9966134.33746  22278310.105    22278310.2444   22278318.9974
       174.0004        175.0004
  -2237582.99647  -1731487.77145  23944747.232    23944748.1884   23944755.1974
       157.0004        159.0004
 -18433516.77349 -14333016.43347  21259764.779    21259765.2064   21259773.0534
       196.0004        196.0004
  -3688180.01648  -2860105.49646  24151745.716    24151746.0204   24151752.4524
       176.0004        177.0004
 -12844579.43348  -9992596.33346  21830899.135    21830898.0784   21830903.3984
       180.0004        179.0004
 -13377365.45548 -10397118.49446  21875608.808    21875608.7074   21875614.6384
       187.0004        186.0004
 -17344921.74549 -13489675.65247  20933048.568    20933048.5034   20933055.8604
       212.0004        212.0004
 21  1 31  0 46  0.0000000  0  8G07G01G30G08G27G21G04G09
 -15281676.47348 -11674519.10047  22033556.106    22033555.9034   22033559.4484
       193.0004        192.0004
 -12878023.33848 -10024068.31646  22264161.536    22264161.6024   22264170.7554
       174.0004        175.0004
  -2323597.36147  -1798511.91945  23928379.898    23928379.3034   23928387.2734
       155.0004        158.0004
 -18359080.46249 -14275014.11347  21273929.418    21273930.0754   21273937.4624
       196.0004        196.0004
  -3580088.89448  -2775878.66846  24172314.853    24172314.7824   24172320.8424
       176.0004        176.0004
 -12861588.17148 -10005849.89846  21827661.201    21827661.6814   21827666.5904
       179.0004        180.0004
 -13291199.16548 -10329975.94946  21892005.111    21892006.1364   21892011.7064
       186.0004        185.0004
 -17314888.71349 -13466273.30747  20938763.454    20938764.1774   20938770.5634
       212.0004        212.0004
 21  1 31  0 46 30.0000000  0  8G07G01G30G08G27G21G04G09
 -15355672.16848 -11732178.06847  22019472.968    22019474.3564   22019478.9384
       192.0004        192.0004
 -12952224.24548 -10081887.19246  22250040.936    22250041.5624   22250050.3664
       175.0004        176.0004
  -2409688.56647  -1865595.93745  23911996.563    23911997.1144   23912004.8204
       156.0004        158.0004
 -18284304.51349 -14216747.13347  21288158.166    21288159.1634   21288167.0444
       195.0004        195.0004
  -3471946.47448  -2691611.87846  24192893.066    24192893.6444   24192900.3074
       176.0004        177.0004
 -12878182.30448 -10018780.37846  21824504.183    21824504.0944   21824508.9614
       180.0004        181.0004
 -13204767.54548 -10262626.63146  21908452.761    21908453.4594   21908459.3634
       186.0004        186.0004
 -17284349.92149 -13442476.84948  20944576.025    20944575.7324   20944582.3644
       212.0004        213.0004
 21  1 31  0 47  0.0000000  0  8G07G01G30G08G27G21G04G09
 -15429583.23248 -11789771.10547  22005409.750    22005410.2614   22005413.6744
       192.0004        193.0004
 -13026274.54148 -10139588.73746  22235950.111    22235950.8864   22235958.7724
       175.0004        177.0004
  -2495855.44747  -1932738.95945  23895600.766    23895601.3894   23895607.5314
       158.0004        161.0004
 -18209192.12249 -14158218.01447  21302452.733    21302452.9464   21302460.2974
       195.0004        196.0004
  -3363755.87448  -2607307.54446  24213480.778    24213481.6614   24213487.2744
       176.0004        177.0004
 -12894360.92548 -10031387.08846  21821426.645    21821425.9974   21821430.2214
       181.0004        182.0004
 -13118073.98448 -10195073.21846  21924949.545    21924950.5664   21924956.7664
       186.0004        185.0004
 -17253307.57049 -13418288.01447  20950481.608    20950482.2314   20950489.3204
       212.0004        212.0004
 21  1 31  0 47 30.0000000  0  8G07G01G30G08G27G21G04G09
 -15503408.09048 -11847296.96547  21991361.066    21991361.6714   21991365.6144
       194.0004        195.0004
 -13100170.92048 -10197170.32246  22221888.765    22221889.0784   22221897.2114
       176.0004        177.0004
  -2582096.35647  -1999939.64945  23879190.192    23879189.7624   23879196.6944
       158.0004        159.0004
 -18133746.27949 -14099429.04047  21316810.011    21316810.3084   21316817.1634
       195.0004        195.0004
  -3255519.64448  -2522967.62446  24234077.614    24234078.5954   24234084.3244
       178.0004        178.0004
 -12910121.62048 -10043668.12746  21818425.372    21818426.0474   21818431.5704
       181.0004        181.0004
 -13031121.28748 -10127317.88246  21941496.895    21941497.2994   21941502.9944
       186.0004        186.0004
 -17221763.31949 -13393708.07147  20956485.509    20956485.8014   20956491.7794
       212.0004        212.0004
 21  1 31  0 48  0.0000000  0  8G07G01G30G08G27G21G04G09
 -15577143.72548 -11904753.29647  21977329.927    21977330.2194   21977333.8484
       193.0004        193.0004
 -13173910.00148 -10254629.32546  22207856.331    22207856.3364   22207865.3474
       176.0004        176.0004
  -2668409.68447  -2067196.76745  23862764.194    23862764.7214   23862771.5684
       156.0004        157.0004
 -18057969.89249 -14040382.49147  21331229.871    21331229.6214   21331237.2484
       195.0004        196.0004
  -3147240.33648  -2438594.12546  24254682.643    24254683.3664   24254689.4734
       179.0004        180.0004
 -12925462.99048 -10055622.43046  21815506.629    21815506.6524   21815512.0514
       181.0004        181.0004
 -12943912.41848 -10059362.91446  21958091.598    21958092.1874   21958098.8174
       186.0004        185.0004
 -17189718.94149 -13368738.42847  20962582.030    20962582.7764   20962589.8894
       211.0004        211.0004
 21  1 31  0 48 30.0000000  0  8G07G01G30G08G27G21G04G09
 -15650788.00748 -11962138.44947  21963315.386    21963316.2294   21963319.8004
       193.0004        193.0004
 -13247488.91448 -10311963.52246  22193853.991    22193854.4194   22193863.2734
       176.0004        177.0004
  -2754794.20347  -2134509.36345  23846324.520    23846325.6224   23846333.2524
       154.0004        155.0004
 -17981866.10849 -13981080.84147  21345711.179    21345711.9994   21345719.7934
       196.0004        196.0004
  -3038920.99948  -2354189.48546  24275295.842    24275295.8134   24275302.9784
       181.0004        183.0004
 -12940383.38748 -10067248.70046  21812667.687    21812667.3294   21812673.1604
       181.0004        181.0004
 -12856450.75848  -9991210.99246  21974734.771    21974735.6924   21974741.5164
       186.0004        184.0004
 -17157176.68249 -13343380.83747  20968775.208    20968775.7724   20968782.8414
       211.0004        212.0004
 21  1 31  0 49  0.0000000  0  8G07G01G30G08G27G21G04G09
 -15724337.15548 -12019449.47847  21949319.791    21949320.3794   21949324.0854
       193.0004        193.0004
 -13320902.76248 -10369169.12646  22179883.379    22179884.1904   22179892.8884
       176.0004        178.0004
  -2841246.72447  -2201874.95945  23829874.252    23829874.3984   23829881.6194
       152.0004        155.0004
 -17905436.23649 -13921525.10147  21360255.551    21360256.0334   21360263.1934
       195.0004        195.0004
  -2930562.56848  -2269754.36946  24295915.732    24295915.2194   24295922.2114
       178.0004        177.0004
 -12954880.03748 -10078544.78546  21809909.963    21809909.5684   21809914.1244
       181.0004        182.0004
 -12768737.68348  -9922863.15146  21991427.001    21991427.2174   21991433.1184
       185.0004        185.0004
 -17124136.77149 -13317635.46047  20975062.828    20975062.9224   20975069.5674
       212.0004        212.0004
 21  1 31  0 49 30.0000000  0  8G07G01G30G08G27G21G04G09
 -15797790.07748 -12076685.52547  21935341.746    21935342.3234   21935346.6504
       193.0004        194.0004
 -13394149.93648 -10426244.85046  22165946.463    22165946.1764   22165953.5084
       177.0004        178.0004
  -2927767.33447  -2269293.58945  23813408.206    23813409.2084   23813418.4534
       153.0004        156.0004
 -17828684.97349 -13861718.93147  21374860.925    21374861.1674   21374868.2894
       195.0004        195.0004
  -2822169.41548  -2185292.16146  24316543.152    24316542.5524   24316547.9944
       176.0004        175.0004
 -12968952.01348 -10089509.96146  21807231.020    21807231.0364   21807236.3124
       181.0004        180.0004
 -12680777.80348  -9854323.00046  22008164.201    22008165.0314   22008171.8614
       185.0004        185.0004
 -17090602.76849 -13291505.08347  20981443.954    20981444.3714   20981451.4054
       212.0004        212.0004
 21  1 31  0 50  0.0000000  0  8G07G01G30G08G27G21G04G09
 -15871143.97048 -12133844.40347  21921384.326    21921384.1334   21921387.4724
       194.0004        195.0004
 -13467226.73348 -10483187.80146  22152038.520    22152040.0924   22152049.1644
       177.0004        178.0004
  -3014353.93747  -2336763.64745  23796934.255    23796934.1144   23796941.2834
       155.0004        158.0004
 -17751614.87849 -13801664.30947  21389526.865    21389527.2644   21389535.0214
       195.0004        195.0004
  -2713743.64248  -2100804.55446  24337175.378    24337174.9054   24337181.7184
       174.0004        173.0004
 -12982597.51548 -10100142.82046  21804635.093    21804634.0634   21804639.4244
       181.0004        182.0004
 -12592573.69448  -9785592.54746  22024949.846    22024950.2704   22024956.1614
       186.0004        185.0004
 -17056576.16649 -13264990.85147  20987919.090    20987919.4104   20987925.9884
       211.0004        211.0004
 21  1 31  0 50 30.0000000  0  8G07G01G30G08G27G21G04G09
 -15944396.97949 -12190924.67947  21907444.269    21907444.3234   21907448.3434
       195.0004        195.0004
 -13540130.29148 -10539995.75646  22138165.958    22138166.7744   22138175.6674
       177.0004        177.0004
  -3101005.35347  -2404284.21745  23780445.375    23780444.7664   23780451.0244
       158.0004        160.0004
 -17674228.89349 -13741363.53447  21404253.054    21404253.0814   21404260.9044
       195.0004        195.0004
  -2605288.27548  -2016293.87046  24357813.942    24357813.9284   24357818.3834
       171.0004        171.0004
 -12995815.66448 -10110442.66446  21802119.408    21802118.6474   21802124.5104
       181.0004        181.0004
 -12504128.76848  -9716674.43746  22041780.085    22041780.5054   22041786.6304
       184.0004        183.0004
 -17022059.32049 -13238094.60547  20994487.887    20994488.0524   20994494.3774
       211.0004        212.0004
 21  1 31  0 51  0.0000000  0  9G07G01G30G08G27G21G04G09G17
 -16017546.77748 -12247924.50447  21893523.104    21893523.4664   21893528.7534
       194.0004        195.0004
 -13612857.65548 -10596666.42646  22124326.588    22124327.1844   22124336.8724
       178.0004        179.0004
  -3187720.20047  -2471854.23645  23763943.648    23763943.2794   23763950.4484
       160.0004        162.0004
 -17596530.62548 -13680819.42447  21419038.105    21419038.5574   21419046.5754
       194.0004        194.0004
  -2496806.29248  -1931762.41946  24378457.064    24378456.9754   24378462.7844
       173.0004        174.0004
 -13008604.88248 -10120408.27746  21799685.788    21799685.5564   21799690.5984
       181.0004        181.0004
 -12415446.39348  -9647571.28246  22058656.205    22058656.7454   22058662.5584
       184.0004        184.0004
 -16987054.48449 -13210818.12147  21001148.800    21001148.9364   21001155.5744
       211.0004        211.0004
  -1031715.80454   -763437.35945  24193554.725
        74.0004        147.0004
 21  1 31  0 51 30.0000000  0  9G07G01G30G08G27G21G04G09G17
 -16090589.70048 -12304841.06447  21879623.858    21879624.5324   21879628.3534
       194.0004        194.0004
 -13685404.39748 -10653196.34546  22110521.429    22110522.8224   22110530.3584
       178.0004        179.0004
  -3274495.83947  -2539471.57445  23747430.263    23747429.4784   23747438.0274
       160.0004        162.0004
 -17518521.64548 -13620033.20947  21433883.060    21433883.1194   21433890.7034
       194.0004        194.0004
  -2388299.07148  -1847211.38646  24399103.296    24399104.3284   24399111.8344
       173.0004        174.0004
 -13020962.26748 -10130037.40446  21797335.767    21797334.0624   21797339.3164
       181.0004        182.0004
 -12326528.40948  -9578284.55046  22075575.538    22075576.4854   22075582.4694
       184.0004        184.0004
 -16951562.56649 -13183162.09347  21007901.286    21007902.3754   21007909.4044
       210.0004        210.0004
  -1128247.79946   -838657.04145  24175184.335                    24175189.4374
       132.0004        147.0004
 21  1 31  0 52  0.0000000  0  9G07G01G30G08G27G21G04G09G17
 -16163525.01049 -12361673.77447  21865744.685    21865745.3904   21865750.1684
       195.0004        195.0004
 -13757768.76948 -10709584.16946  22096751.822    22096752.0214   22096759.7804
       178.0004        179.0004
  -3361332.03847  -2607136.09345  23730904.420    23730904.7514   23730913.1724
       158.0004        160.0004
 -17440206.90848 -13559008.74347  21448785.796    21448786.2334   21448794.2044
       194.0004        194.0004
  -2279770.86548  -1762643.97846  24419755.197    24419756.9284   24419763.1554
       172.0004        172.0004
 -13032888.01648 -10139330.20446  21795065.601    21795064.8974   21795069.9244
       182.0004        183.0004
 -12237379.33748  -9508817.75846  22092540.354    22092541.2934   22092547.7684
       184.0004        184.0004
 -16915586.99149 -13155129.18847  21014748.598    21014748.8954   21014755.7034
       210.0004        211.0004
  -1224554.41447   -913701.04745  24156859.449    24156859.6984   24156864.6714
       143.0004        149.0004
 21  1 31  0 52 30.0000000  0  9G07G01G30G08G27G21G04G09G17
 -16236349.18649 -12418419.86947  21851887.154    21851887.6544   21851892.0334
       195.0004        196.0004
 -13829946.65148 -10765826.65246  22083016.753    22083017.0254   22083025.9244
       179.0004        179.0004
  -3448226.38647  -2674845.95445  23714370.232    23714370.1224   23714376.7734
       157.0004        159.0004
 -17361588.18548 -13497747.40347  21463746.637    21463747.1924   21463754.4154
       194.0004        194.0004
  -2171223.26348  -1678061.41546  24440412.270    24440413.1774   24440419.4214
       170.0004        170.0004
 -13044379.69548 -10148284.74746  21792878.314    21792878.0364   21792883.4344
       182.0004        183.0004
 -12148001.39248  -9439172.60546  22109548.131    22109549.1744   22109555.7364
       184.0004        184.0004
 -16879129.01849 -13126720.37647  21021686.288    21021686.3464   21021693.3904
       211.0004        211.0004
  -1320632.41547   -988566.92145  24138575.144    24138575.1604   24138582.4584
       146.0004        151.0004
 21  1 31  0 53  0.0000000  0  9G07G01G30G08G27G21G04G09G17
 -16309059.46649 -12475077.24147  21838051.292    21838051.8904   21838055.4344
       196.0004        196.0004
 -13901934.56048 -10821921.12346  22069317.940    22069318.0554   22069327.2834
       179.0004        180.0004
  -3535176.93847  -2742599.63145  23697824.671    23697824.0204   23697831.1544
       156.0004        158.0004
 -17282668.35948 -13436251.43647  21478764.488    21478765.0374   21478772.6154
       194.0004        194.0004
  -2062658.62248  -1593465.66446  24461071.848    24461072.2614   24461078.5494
       169.0004        170.0004
 -13055435.14548 -10156899.37546  21790774.517    21790773.4844   21790779.9134
       182.0004        182.0004
 -12058397.33748  -9369351.29246  22126599.568    22126600.1224   22126607.0714
       184.0004        184.0004
 -16842190.44549 -13097937.08747  21028715.590    21028715.9804   21028722.2484
       210.0004        210.0004
  -1416479.72047  -1063253.02745  24120335.877    24120335.8934   24120342.4794
       147.0004        151.0004
 21  1 31  0 53 30.0000000  0  9G07G01G30G08G27G21G04G09G17
 -16381653.12449 -12531643.72147  21824236.809    21824237.2754   21824241.6104
       196.0004        195.0004
 -13973728.74848 -10877864.64246  22055655.239    22055656.3334   22055664.9684
       179.0004        180.0004
  -3622181.61347  -2810395.46345  23681268.538    23681268.1364   23681274.7494
       157.0004        159.0004
 -17203449.97248 -13374522.81247  21493839.058    21493839.7024   21493847.3794
       193.0004        193.0004
  -1954079.11048  -1508858.23546  24481733.923    24481734.6004   24481740.1814
       171.0004        172.0004
 -13066052.57448 -10165172.68446  21788753.554    21788753.5544   21788759.7124
       182.0004        182.0004
 -11968569.74848  -9299355.78046  22143694.415    22143694.4334   22143700.9514
       185.0004        185.0004
 -16804772.87249 -13068780.53947  21035835.637    21035836.3794   21035843.2674
       210.0004        211.0004
  -1512093.47347  -1137757.11745  24102142.282    24102142.3514   24102147.4254
       149.0004        152.0004
 21  1 31  0 54  0.0000000  0  9G07G01G30G08G27G21G04G09G17
 -16454126.77449 -12588116.67947  21810445.942    21810446.1764   21810450.4624
       196.0004        196.0004
 -14045325.22448 -10933654.10946  22042031.845    22042032.2584   22042039.0474
       179.0004        179.0004
  -3709237.90947  -2878231.54645  23664701.209    23664701.7154   23664708.7364
       158.0004        160.0004
 -17123934.93348 -13312563.04247  21508970.077    21508970.6224   21508977.5964
       192.0004        192.0004
  -1845486.46548  -1424240.64446  24502397.150    24502398.1284   24502405.3744
       170.0004        171.0004
 -13076229.50148 -10173102.76846  21786817.482    21786817.0274   21786821.3714
       182.0004        181.0004
 -11878520.91048  -9229187.85546  22160829.224    22160829.2754   22160836.3504
       184.0004        183.0004
 -16766877.62549 -13039251.78447  21043046.739    21043047.1674   21043054.0884
       211.0004        211.0004
  -1607470.28647  -1212076.59945  24083992.414    24083991.8034   24083997.1614
       150.0004        153.0004
 21  1 31  0 54 30.0000000  0 10G07G14G01G30G08G27G21G04G09G17
 -16526478.44849 -12644494.60447  21796677.655    21796677.8134   21796682.1004
       196.0004        196.0004
   -626778.98156   -481869.98445  23614028.735    23614029.8015   23614037.1294
       129.0004        141.0004
 -14116721.35048 -10989287.44746  22028444.181    22028445.5754   22028452.9474
       178.0004        179.0004
  -3796344.76347  -2946107.02046  23648125.762    23648125.8734   23648132.2614
       160.0004        163.0004
 -17044127.23548 -13250375.22647  21524157.557    21524157.9654   21524164.9004
       192.0004        192.0004
  -1736883.83448  -1339615.26746  24523063.917    24523064.6644   24523070.8564
       169.0004        170.0004
 -13085965.14848 -10180688.96246  21784964.854    21784964.2914   21784968.1784
       181.0004        180.0004
 -11788254.43248  -9158850.34346  22178006.198    22178007.5124   22178012.7094
       183.0004        182.0004
 -16728507.47449 -13009352.96447  21050348.428    21050348.7714   21050355.2134
       210.0004        210.0004
  -1702609.29047  -1286210.80445  24065887.432    24065888.0674   24065892.2324
       150.0004        153.0004
 21  1 31  0 55  0.0000000  0 10G07G14G01G30G08G27G21G04G09G17
 -16598704.76749 -12700774.85147  21782932.809    21782933.7494   21782937.5514
       196.0004        197.0004
   -654120.68546   -503175.22345  23608827.313    23608828.0264   23608833.5034
       134.0004        141.0004
 -14187912.89748 -11044761.38346  22014897.167    22014897.7054   22014906.8324
       178.0004        180.0004
  -3883499.67047  -3014019.91245  23631539.784    23631540.3034   23631547.3334
       160.0004        162.0004
 -16964028.42648 -13187960.56647  21539399.763    21539400.4434   21539407.5844
       192.0004        193.0004
  -1628273.04948  -1254983.45946  24543731.378    24543731.9354   24543739.9624
       170.0004        171.0004
 -13095257.32748 -10187929.61946  21783196.390    21783195.8234   21783199.5234
       181.0004        180.0004
 -11697772.53348  -9088344.97646  22195225.215    22195225.3484   22195230.8584
       183.0004        182.0004
 -16689663.66349 -12979085.06047  21057740.553    21057740.5164   21057747.3404
       210.0004        210.0004
  -1797507.54747  -1360157.39245  24047829.612    24047829.9684   24047833.9694
       150.0004        152.0004
 21  1 31  0 55 30.0000000  0 10G07G14G01G30G08G27G21G04G09G17
 -16670804.65049 -12756956.58247  21769213.100    21769213.2974   21769217.4884
       196.0004        196.0004
   -681399.74747   -524431.62245  23603636.441    23603637.0234   23603642.1524
       138.0004        143.0004
 -14258898.29948 -11100074.69146  22001389.096    22001389.8564   22001398.8864
       179.0004        180.0004
  -3970702.51147  -3081970.14845  23614946.013    23614945.5364   23614953.4274
       159.0004        161.0004
 -16883643.45748 -13125322.93647  21554696.986    21554697.7144   21554704.1624
       193.0004        193.0004
  -1519658.01648  -1170348.43146  24564398.437    24564400.5064   24564408.8364
       167.0004        168.0004
 -13104105.91048 -10194824.63046  21781512.901    21781512.7944   21781516.5864
       181.0004        181.0004
 -11607079.85348  -9017675.35446  22212482.183    22212482.8034   22212489.5374
       182.0004        181.0004
 -16650349.96449 -12948451.02647  21065221.460    21065221.6984   21065228.4814
       210.0004        210.0004
  -1892164.23747  -1433915.78345  24029817.221    24029817.5064   24029821.0504
       148.0004        151.0004
 21  1 31  0 56  0.0000000  0  9G07G14G01G30G08G21G04G09G17
 -16742774.31649 -12813036.83447  21755517.736    21755517.8134   21755521.8124
       196.0004        196.0004
   -708615.89347   -545639.01745  23598455.514    23598457.4234   23598462.4064
       139.0004        143.0004
 -14329672.67848 -11155223.53446  21987922.309    21987922.6124   21987930.2544
       180.0004        181.0004
  -4057949.96847  -3149955.15046  23598343.542    23598343.6914   23598351.0854
       160.0004        163.0004
 -16802974.01248 -13062463.60847  21570047.639    21570048.1024   21570054.7664
       193.0004        193.0004
 -13112508.11648 -10201371.77746  21779913.667    21779913.3684   21779917.0224
       181.0004        182.0004
 -11516177.85548  -8946842.64346  22229780.475    22229780.7654   22229787.3294
       181.0004        181.0004
 -16610566.99249 -12917451.30947  21072791.672    21072792.2104   21072798.8594
       210.0004        210.0004
  -1986575.95547  -1507483.28745  24011850.478    24011850.2074   24011855.2584
       150.0004        154.0004
 21  1 31  0 56 30.0000000  0  9G07G14G01G30G08G21G04G09G17
 -16814612.30049 -12869014.48147  21741846.921    21741847.7114   21741851.6954
       196.0004        196.0004
   -735771.53247   -566799.19845  23593286.764    23593288.4604   23593291.1554
       138.0004        142.0004
 -14400233.79848 -11210206.21646  21974495.028    21974494.9564   21974502.4244
       180.0004        181.0004
  -4145241.34947  -3217974.39946  23581733.574    23581733.4844   23581740.5464
       163.0004        165.0004
 -16722023.76048 -12999385.48747  21585451.770    21585451.9314   21585459.0424
       191.0004        191.0004
 -13120463.35448 -10207570.66246  21778399.249    21778399.3994   21778404.3414
       182.0004        183.0004
 -11425070.67848  -8875850.05446  22247117.418    22247118.1724   22247124.2464
       181.0004        180.0004
 -16570318.00249 -12886088.46747  21080451.078    21080451.5424   21080458.2584
       210.0004        210.0004
  -2080741.38647  -1580858.85245  23993931.080    23993931.6224   23993936.4654
       152.0004        156.0004
 21  1 31  0 57  0.0000000  0  9G07G14G01G30G08G21G04G09G17
 -16886315.50549 -12924887.11547  21728202.704    21728202.8694   21728207.0164
       197.0004        197.0004
   -762867.56247   -587912.94145  23588133.531    23588133.2184   23588134.0204
       139.0004        143.0004
 -14470578.08648 -11265019.92846  21961108.097    21961107.9914   21961116.8464
       179.0004        180.0004
  -4232574.59147  -3286026.26946  23565113.957    23565114.0454   23565120.9934
       162.0004        164.0004
 -16640795.51448 -12936090.74947  21600909.332    21600910.0364   21600915.8764
       190.0004        191.0004
 -13127970.26248 -10213420.19246  21776970.472    21776970.7074   21776975.8144
       183.0004        183.0004
 -11333760.95448  -8804699.63746  22264493.505    22264493.9514   22264500.0674
       180.0004        179.0004
 -16529604.81549 -12854363.91647  21088198.567    21088198.7894   21088205.7994
       210.0004        210.0004
  -2174657.78347  -1654040.40345  23976059.009    23976059.0204   23976065.0714
       153.0004        156.0004
 21  1 31  0 57 30.0000000  0  9G07G14G01G30G08G21G04G09G17
 -16957881.62149 -12980652.91447  21714584.034    21714584.6964   21714588.9564
       197.0004        198.0004
   -789905.49447   -608981.41845  23582987.386    23582988.0574   23582992.7004
       141.0004        145.0004
 -14540702.46448 -11319662.27046  21947763.603    21947764.4904   21947773.3614
       179.0004        180.0004
  -4319948.09347  -3354109.51346  23548487.887    23548487.8454   23548494.7684
       164.0004        166.0004
 -16559292.28648 -12872581.72347  21616419.501    21616419.2794   21616425.7264
       191.0004        191.0004
 -13135027.34648 -10218919.20146  21775628.329    21775627.9054   21775633.7214
       183.0004        184.0004
 -11242251.92048  -8733393.91446  22281906.941    22281907.4754   22281913.8044
       179.0004        178.0004
 -16488429.85049 -12822279.53147  21096033.355    21096033.9824   21096040.7034
       209.0004        209.0004
  -2268323.91147  -1727026.92345  23958234.437    23958234.6164   23958241.7594
       154.0004        157.0004
 21  1 31  0 58  0.0000000  0  9G07G14G01G30G08G21G04G09G17
 -17029308.58349 -13036310.27347  21700992.035    21700992.4764   21700996.6354
       197.0004        197.0004
   -816886.97147   -630005.88745  23577853.728    23577853.5624   23577859.2204
       142.0004        147.0004
 -14610603.93048 -11374130.95246  21934463.036    21934463.2724   21934471.7814
       180.0004        181.0004
  -4407360.42547  -3422223.01346  23531852.377    23531852.5534   23531860.5364
       164.0004        166.0004
 -16477517.40448 -12808861.03547  21631980.073    21631980.2284   21631987.0534
       191.0004        192.0004
 -13141633.41748 -10224066.76646  21774372.217    21774370.7754   21774376.7094
       183.0004        184.0004
 -11150546.92048  -8661935.47546  22299357.330    22299358.1034   22299364.3234
       178.0004        177.0004
 -16446795.67049 -12789837.31947  21103956.731    21103956.8914   21103963.8204
       210.0004        210.0004
  -2361737.60847  -1799816.75345  23940459.147    23940459.3554   23940465.2684
       156.0004        158.0004
 21  1 31  0 58 30.0000000  0  9G07G14G01G30G08G21G04G09G17
 -17100592.46249 -13091856.16547  21687427.323    21687427.8884   21687431.3174
       197.0004        197.0004
   -843812.23347   -650986.59745  23572728.019    23572729.4054   23572739.1314
       147.0004        152.0004
 -14680278.22848 -11428422.59446  21921203.720    21921204.1154   21921211.5564
       180.0004        181.0004
  -4494808.83347  -3490364.59646  23515212.091    23515210.8684   23515219.3584
       164.0004        165.0004
 -16395473.10648 -12744930.41147  21647592.263    21647592.7664   21647599.7284
       191.0004        191.0004
 -13147786.39748 -10228861.28846  21773200.210    21773199.9544   21773206.2684
       184.0004        184.0004
 -11058647.95048  -8590325.90246  22316845.944    22316846.6654   22316851.9974
       177.0004        178.0004
 -16404703.50349 -12757038.24447  21111967.051    21111967.3014   21111973.6884
       210.0004        211.0004
  -2454895.99347  -1872407.65445  23922731.138    23922731.4924   23922737.8324
       155.0004        158.0004
 21  1 31  0 59  0.0000000  0  9G07G14G01G30G08G21G04G09G17
 -17171730.85149 -13147288.68147  21673889.499    21673890.1654   21673894.5764
       197.0004        197.0004
   -870682.85947   -671924.74645  23567614.761    23567615.4954   23567624.5764
       152.0004        156.0004
 -14749722.33048 -11482534.87446  21907989.099    21907989.5914   21907997.5914
       181.0004        182.0004
  -4582291.66648  -3558533.01946  23498565.723    23498564.6224   23498571.7014
       165.0004        167.0004
 -16313162.02948 -12680791.92047  21663254.893    21663255.7584   21663263.1814
       190.0004        190.0004
 -13153484.97548 -10233301.73646  21772115.784    21772115.3334   21772121.2224
       183.0004        183.0004
 -10966558.30748  -8518567.75746  22334370.843    22334370.8844   22334376.6404
       179.0004        179.0004
 -16362155.85949 -12723884.24447  21120062.728    21120063.1364   21120070.2174
       210.0004        210.0004
  -2547797.00847  -1944798.01445  23905053.528    23905053.9864   23905059.0144
       157.0004        160.0004
 21  1 31  0 59 30.0000000  0  9G07G14G01G30G08G21G04G09G17
 -17242722.80449 -13202607.07547  21660380.611    21660381.1484   21660384.7964
       197.0004        198.0004
   -897501.30947   -692822.24145  23562513.894    23562514.6464   23562520.7224
       155.0004        158.0004
 -14818934.12948 -11536466.11546  21894818.923    21894819.3754   21894828.0164
       182.0004        183.0004
  -4669808.39348  -3626727.86246  23481911.110    23481910.8084   23481917.1504
       165.0004        166.0004
 -16230588.54348 -12616448.95047  21678968.921    21678969.2594   21678975.7974
       190.0004        190.0004
 -13158729.31648 -10237388.22846  21771117.295    21771117.2284   21771122.2944
       183.0004        183.0004
 -10874282.25648  -8446664.34146  22351929.691    22351930.3334   22351935.8804
       178.0004        177.0004
 -16319156.26349 -12690378.06647  21128245.754    21128246.0964   21128252.9904
       210.0004        210.0004
  -2640440.20147  -2016987.50145  23887423.523    23887423.7334   23887429.3094
       157.0004        159.0004
 21  1 31  1  0  0.0000000  0  9G07G14G01G30G08G21G04G09G17
 -17313564.14449 -13257808.10247  21646900.031    21646899.9904   21646904.3094
       197.0004        198.0004
   -924267.75547   -713679.20545  23557419.362    23557420.5144   23557424.5684
       154.0004        155.0004
 -14887909.24048 -11590212.92746  21881692.512    21881693.1104   21881701.4464
       182.0004        183.0004
  -4757356.04848  -3694946.79646  23465251.701    23465251.1264   23465258.1334
       165.0004        168.0004
 -16147754.50648 -12551902.94747  21694732.793    21694733.0564   21694738.9334
       191.0004        192.0004
 -13163516.78448 -10241118.70846  21770207.537    21770206.2394   21770211.1934
       183.0004        183.0004
 -10781821.66548  -8374617.11046  22369523.568    22369523.9344   22369530.4384
       177.0004        176.0004
 -16275705.84949 -12656520.59347  21136514.685    21136514.6224   21136520.8764
       210.0004        210.0004
  -2732821.92647  -2088973.24345  23869844.726    23869845.0914   23869849.6474
       157.0004        159.0004
 21  1 31  1  0 30.0000000  0  9G07G14G01G30G08G21G04G09G17
 -17384253.30849 -13312890.56247  21633447.692    21633448.0754   21633452.6644
       197.0004        198.0004
   -950983.99647   -734497.02745  23552336.689    23552335.3684   23552339.8324
       152.0004        154.0004
 -14956644.89748 -11643773.16046  21868612.580    21868613.3324   21868621.9154
       181.0004        182.0004
  -4844933.28248  -3763188.79646  23448585.686    23448585.6424   23448591.8574
       165.0004        166.0004
 -16064663.81149 -12487156.95847  21710543.596    21710543.9554   21710550.9544
       208.0004        209.0004
 -13167846.56648 -10244492.54146  21769384.363    21769382.4444   21769386.8784
       183.0004        184.0004
 -10689180.12048  -8302428.89646  22387152.322    22387153.7824   22387159.7014
       176.0004        176.0004
 -16231807.47349 -12622314.07147  21144866.860    21144867.2834   21144874.8514
       209.0004        209.0004
  -2824940.99647  -2160754.33345  23852314.693    23852315.2554   23852319.6514
       158.0004        160.0004
 21  1 31  1  1  0.0000000  0  9G07G14G01G30G08G21G04G09G17
 -17454787.19949 -13367852.03547  21620024.840    21620026.4934   21620030.4994
       198.0004        197.0004
   -977651.03847   -755276.50145  23547260.349    23547261.3064   23547265.5894
       153.0004        156.0004
 -15025137.51348 -11697144.01346  21855578.979    21855579.6714   21855587.8124
       182.0004        182.0004
  -4932537.98647  -3831452.19946  23431914.042    23431914.9124   23431921.1714
       163.0004        164.0004
 -15981318.58349 -12422212.63447  21726403.344    21726403.7404   21726410.5524
       210.0004        208.0004
 -13171717.28348 -10247508.68546  21768646.663    21768646.0304   21768650.8594
       183.0004        184.0004
 -10596360.25748  -8230101.75146  22404816.191    22404816.7594   22404822.8404
       176.0004        177.0004
 -16187463.16149 -12587760.06647  21153305.544    21153306.0834   21153313.0504
       209.0004        209.0004
  -2916794.82847  -2232328.77245  23834835.811    23834835.3754   23834840.5744
       158.0004        159.0004
 21  1 31  1  1 30.0000000  0  9G07G14G01G30G08G21G04G09G17
 -17525162.94249 -13422690.28647  21606633.811    21606634.4024   21606637.9174
       197.0004        197.0004
  -1004270.20747   -776018.69845  23542194.751    23542195.7454   23542201.2084
       157.0004        160.0004
 -15093383.94348 -11750323.05746  21842592.006    21842592.2704   21842600.7034
       182.0004        183.0004
  -5020168.37547  -3899735.60546  23415238.659    23415238.9384   23415246.5844
       163.0004        165.0004
 -15897722.28249 -12357072.66148  21742311.443    21742311.8284   21742318.4974
       218.0004        221.0004
 -13175127.70748 -10250166.15046  21767997.781    21767996.4224   21768002.1104
       183.0004        184.0004
 -10503365.23748  -8157638.13046  22422512.639    22422513.2894   22422519.7704
       177.0004        178.0004
 -16142675.34049 -12552860.48047  21161829.167    21161829.3814   21161835.9704
       209.0004        210.0004
  -3008381.63647  -2303695.08745  23817405.138    23817405.6444   23817411.6864
       154.0004        155.0004
 21  1 31  1  2  0.0000000  0  9G07G14G01G30G08G21G04G09G17
 -17595377.02949 -13477402.56647  21593273.322    21593273.1584   21593277.1974
       198.0004        198.0004
  -1030841.82447   -796723.83145  23537139.111    23537139.9084   23537144.0584
       158.0004        160.0004
 -15161379.94548 -11803306.92446  21829653.021    21829653.3934   21829661.9994
       182.0004        183.0004
  -5107821.60047  -3968036.79346  23398559.024    23398559.3214   23398566.9394
       164.0004        167.0004
 -15813876.69049 -12291738.44148  21758266.897    21758267.0814   21758273.8474
       221.0004        221.0004
 -13178075.59148 -10252463.17846  21767435.704    21767435.6574   21767441.1294
       184.0004        185.0004
 -10410197.13448  -8085039.59646  22440242.194    22440242.7894   22440249.5094
       178.0004        178.0004
 -16097445.40449 -12517616.37347  21170435.453    21170435.7374   21170443.3524
       209.0004        210.0004
  -3099698.43047  -2374851.00145  23800027.564    23800029.0144   23800034.8924
       150.0004        152.0004
 21  1 31  1  2 30.0000000  0  9G07G14G01G30G08G21G04G09G17
 -17665427.04249 -13531986.98547  21579942.841    21579943.0724   21579947.2164
       199.0004        199.0004
  -1057367.10147   -817392.86845  23532091.781    23532091.9044   23532096.8814
       156.0004        158.0004
 -15229122.07148 -11856092.99046  21816761.519    21816763.1524   21816770.9734
       182.0004        183.0004
  -5195495.73148  -4036354.28746  23381875.908    23381875.8654   23381882.9074
       165.0004        166.0004
 -15729784.63349 -12226212.17348  21774269.311    21774269.8644   21774276.4034
       222.0004        222.0004
 -13180559.57248 -10254398.72746  21766963.805    21766963.2954   21766969.3834
       185.0004        186.0004
 -10316858.85548  -8012308.46846  22458003.944    22458004.7814   22458010.2404
       178.0004        176.0004
 -16051775.66649 -12482029.56447  21179126.770    21179127.0334   21179133.1314
       209.0004        209.0004
  -3190742.88147  -2445794.70045  23782705.402    23782705.3064   23782709.2004
       152.0004        156.0004
 21  1 31  1  3  0.0000000  0  9G07G14G01G30G08G21G04G09G17
 -17735312.22449 -13586442.96747  21566643.891    21566644.1314   21566648.4514
       198.0004        198.0004
  -1083849.28547   -838028.32245  23527051.470    23527052.2254   23527057.3674
       157.0004        160.0004
 -15296609.11248 -11908680.27946  21803919.926    21803919.7674   21803928.2184
       183.0004        184.0004
  -5283190.83247  -4104688.16046  23365187.652    23365188.1784   23365195.0064
       164.0004        163.0004
 -15645450.74249 -12160497.45148  21790317.970    21790318.1314   21790324.4794
       223.0004        222.0004
 -13182580.68948 -10255973.61747  21766579.613    21766579.3874   21766584.9944
       187.0004        188.0004
 -10223355.41948  -7939448.65046  22475797.311    22475797.8254   22475802.6494
       177.0004        176.0004
 -16005670.46749 -12446103.43847  21187900.195    21187900.2634   21187907.2574
       209.0004        209.0004
  -3281515.14347  -2516526.29145  23765431.911    23765431.5904   23765435.9444
       155.0004        157.0004
 21  1 31  1  3 30.0000000  0  9G07G14G01G30G08G21G04G09G17
 -17805028.58149 -13640767.40647  21553377.685    21553378.4154   21553381.8024
       198.0004        199.0004
  -1110288.18447   -858630.05546  23522022.001    23522022.3154   23522026.7634
       161.0004        164.0004
 -15363836.37448 -11961065.14046  21791125.637    21791127.0484   21791135.9924
       184.0004        184.0004
  -5370903.64847  -4173035.79146  23348496.493    23348497.5264   23348503.4134
       163.0004        164.0004
 -15560877.31549 -12094596.08048  21806411.393    21806411.3564   21806418.2404
       222.0004        220.0004
 -13184136.28148 -10257185.74547  21766284.038    21766282.6744   21766290.0644
       188.0004        188.0004
 -10129688.41548  -7866461.38446  22493622.172    22493622.3244   22493626.9994
       176.0004        176.0004
 -15959130.84349 -12409838.78847  21196755.587    21196756.2904   21196763.5494
       209.0004        209.0004
  -3372012.03347  -2587043.30745  23748209.113    23748209.9084   23748215.6734
       155.0004        158.0004
 21  1 31  1  4  0.0000000  0  9G07G14G01G30G08G21G04G09G17
 -17874573.99649 -13694958.65047  21540142.823    21540143.3484   21540147.7204
       198.0004        198.0004
  -1136686.01247   -879199.77746  23516997.647    23516998.1524   23517002.9564
       164.0004        166.0004
 -15430801.49548 -12013245.74746  21778383.481    21778383.6144   21778392.8834
       184.0004        185.0004
  -5458633.11048  -4241396.39546  23331802.943    23331803.3664   23331809.7054
       165.0004        167.0004
 -15476067.66549 -12028510.65648  21822548.890    21822549.7674   21822557.1024
       221.0004        220.0004
 -13185226.25448 -10258035.07847  21766075.111    21766074.8294   21766081.8984
       187.0004        188.0004
 -10035861.76648  -7793349.73646  22511476.601    22511476.5004   22511482.0634
       176.0004        176.0004
 -15912160.10649 -12373238.23247  21205694.738    21205695.1084   21205701.3154
       209.0004        209.0004
  -3462232.25547  -2657344.75045  23731042.214    23731042.5544   23731048.1124
       157.0004        160.0004
 21  1 31  1  4 30.0000000  0  9G07G14G01G30G08G21G04G09G17
 -17943944.70549 -13749013.74247  21526941.787    21526942.7204   21526946.6684
       198.0004        199.0004
  -1163042.46647   -899737.24546  23511982.107    23511982.9164   23511987.4464
       164.0004        165.0004
 -15497499.65148 -12065218.33146  21765690.935    21765692.1144   21765699.7764
       184.0004        184.0004
  -5546375.79448  -4309767.29546  23315105.273    23315104.5114   23315111.9754
       165.0004        166.0004
 -15391023.32749 -11962242.35648  21838732.551    21838733.2324   21838740.2744
       220.0004        220.0004
 -13185847.82448 -10258519.38646  21765957.688    21765957.4984   21765964.7364
       188.0004        187.0004
  -9941876.94348  -7720114.81046  22529359.623    22529361.2664   22529367.1894
       177.0004        177.0004
 -15864759.15649 -12336302.43447  21214714.280    21214714.8084   21214721.5174
       209.0004        209.0004
  -3552172.18747  -2727427.80445  23713927.202    23713927.4894   23713931.4914
       157.0004        158.0004
 21  1 31  1  5  0.0000000  0  9G07G14G01G30G08G21G04G09G17
 -18013138.78549 -13802931.20747  21513775.475    21513776.3424   21513780.1974
       199.0004        200.0004
  -1189359.89147   -920244.31446  23506973.934    23506974.6284   23506979.9864
       164.0004        165.0004
 -15563928.70248 -12116981.22246  21753050.123    21753051.0604   21753058.9514
       183.0004        184.0004
  -5634130.77148  -4378147.78346  23298406.490    23298406.7654   23298413.7834
       165.0004        167.0004
 -15305748.39149 -11895794.36748  21854960.232    21854960.5954   21854967.5384
       220.0004        219.0004
 -13186000.96048 -10258638.70347  21765927.869    21765927.9554   21765935.2204
       188.0004        189.0004
  -9847738.02348  -7646759.80946  22547274.694    22547275.4764   22547281.1094
       177.0004        176.0004
 -15816931.54749 -12299034.16747  21223815.259    21223815.6704   21223823.0794
       208.0004        208.0004
  -3641830.98047  -2797291.76245  23696864.837    23696865.7854   23696870.1044
       155.0004        157.0004
 21  1 31  1  5 30.0000000  0  9G07G14G01G30G08G21G04G09G17
 -18082152.71149 -13856708.28347  21500642.839    21500642.9244   21500646.7254
       199.0004        199.0004
  -1215638.62347   -940721.23346  23501974.212    23501973.7884   23501979.1874
       163.0004        163.0004
 -15630084.33248 -12168531.05646  21740462.025    21740462.3594   21740469.8344
       185.0004        186.0004
  -5721895.23748  -4446535.65446  23281705.209    23281704.8494   23281711.9284
       165.0004        164.0004
 -15220244.56049 -11829168.00548  21871231.895    21871231.6734   21871238.4714
       220.0004        219.0004
 -13185683.68848 -10258391.45146  21765988.725    21765988.2084   21765995.0674
       187.0004        187.0004
  -9753447.04348  -7573286.31446  22565217.019    22565217.7354   22565223.8064
       176.0004        176.0004
 -15768678.76749 -12261434.60147  21232998.270    21232998.4944   21233005.5304
       208.0004        209.0004
  -3731205.91247  -2866934.50945  23679856.874    23679857.5214   23679863.0844
       154.0004        156.0004
 21  1 31  1  6  0.0000000  0  9G07G14G01G30G08G21G04G09G17
 -18150984.09449 -13910343.12047  21487543.803    21487544.9294   21487549.1214
       199.0004        199.0004
  -1241880.16847   -961169.15146  23496979.908    23496980.9584   23496985.7884
       162.0004        164.0004
 -15695963.63548 -12219865.56746  21727924.217    21727925.3984   21727933.7864
       185.0004        185.0004
  -5809667.39848  -4514929.51746  23265002.213    23265002.4344   23265009.6794
       165.0004        167.0004
 -15134515.30849 -11762365.99248  21887545.619    21887546.0934   21887552.1624
       220.0004        219.0004
 -13184895.28748 -10257777.10346  21766138.843    21766138.1734   21766144.9114
       187.0004        186.0004
  -9659007.33148  -7499696.92946  22583188.889    22583189.8584   22583195.4264
       176.0004        176.0004
 -15720003.59049 -12223505.89247  21242260.585    21242260.9634   21242267.6124
       208.0004        208.0004
  -3820295.14647  -2936354.68045  23662903.791    23662902.7274   23662909.1834
       154.0004        157.0004
 21  1 31  1  6 30.0000000  0  9G07G14G01G30G08G21G04G09G17
 -18219630.57549 -13963833.86347  21474482.051    21474481.8524   21474485.5214
       199.0004        200.0004
  -1268086.05947   -981589.29546  23491993.621    23491993.5544   23491999.6874
       163.0004        165.0004
 -15761563.63148 -12270982.43246  21715440.956    21715441.9654   21715450.1724
       184.0004        185.0004
  -5897445.61848  -4583328.13046  23248298.245    23248298.7494   23248306.4874
       167.0004        170.0004
 -15048564.11149 -11695391.04448  21903901.628    21903901.8054   21903907.6084
       220.0004        219.0004
 -13183634.97648 -10256795.03146  21766378.464    21766378.5154   21766383.6394
       186.0004        185.0004
  -9564422.13948  -7425994.18646  22601187.193    22601188.0634   22601193.6874
       176.0004        176.0004
 -15670908.78749 -12185250.21047  21251603.312    21251603.2104   21251610.3864
       207.0004        207.0004
  -3909097.06647  -3005550.89545  23646005.768    23646006.0104   23646010.9584
       154.0004        157.0004
 21  1 31  1  7  0.0000000  0  9G07G14G01G30G08G21G04G09G17
 -18288088.79049 -14017177.93847  21461453.832    21461454.3994   21461458.4254
       199.0004        199.0004
  -1294256.73047  -1001981.99946  23487012.036    23487013.3064   23487017.9644
       163.0004        163.0004
 -15826880.21648 -12321878.47246  21703013.055    21703013.4824   21703021.9524
       185.0004        186.0004
  -5985227.09248  -4651729.24146  23231593.049    23231593.9614   23231601.8904
       168.0004        169.0004
 -14962392.62549 -11628244.42748  21920298.740    21920299.2224   21920305.4964
       219.0004        219.0004
 -13181900.78748 -10255443.71646  21766708.373    21766707.9834   21766713.1054
       185.0004        185.0004
  -9469693.66148  -7352179.79146  22619214.037    22619214.5454   22619220.4784
       176.0004        176.0004
 -15621396.03149 -12146668.84647  21261025.203    21261025.4674   21261032.0414
       207.0004        208.0004
  -3997609.23447  -3074521.39445  23629163.536    23629163.2454   23629167.0414
       155.0004        156.0004
 21  1 31  1  7 30.0000000  0  9G07G14G01G30G08G21G04G09G17
 -18356357.11849 -14070374.03047  21448462.537    21448463.0694   21448467.6354
       199.0004        200.0004
  -1320394.73247  -1022349.25146  23482038.967    23482039.2474   23482044.2094
       164.0004        165.0004
 -15891911.48348 -12372552.17846  21690638.272    21690638.7214   21690646.2824
       186.0004        187.0004
  -6073011.19348  -4720132.43646  23214889.259    23214889.5844   23214896.4104
       167.0004        168.0004
 -14876005.27949 -11560929.62948  21936738.238    21936738.4064   21936744.6574
       219.0004        218.0004
 -13179693.25548 -10253723.56246  21767128.490    21767128.1754   21767133.3774
       184.0004        184.0004
  -9374826.15348  -7278257.08146  22637266.362    22637266.5374   22637273.6034
       175.0004        175.0004
 -15571469.15349 -12107764.79747  21270525.820    21270526.1644   21270532.6734
       207.0004        207.0004
  -4085830.76747  -3143265.41245  23612373.749    23612373.4434   23612379.6734
       154.0004        155.0004
 21  1 31  1  8  0.0000000  0  9G07G14G01G30G08G21G04G09G17
 -18424432.85149 -14123420.05847  21435508.271    21435508.7914   21435513.1384
       199.0004        200.0004
  -1346501.14747  -1042691.87646  23477071.274    23477072.3924   23477076.2824
       164.0004        166.0004
 -15956654.00048 -12423000.87746  21678316.417    21678317.4744   21678326.0084
       186.0004        185.0004
  -6160795.70448  -4788535.94846  23198185.507    23198185.3424   23198192.5914
       168.0004        171.0004
 -14789404.86449 -11493448.77848  21953217.736    21953217.9014   21953224.6114
       219.0004        218.0004
 -13177011.02148 -10251633.49746  21767638.695    21767638.7124   21767643.7104
       183.0004        183.0004
  -9279822.49248  -7204228.26746  22655345.377    22655345.8244   22655351.9784
       175.0004        174.0004
 -15521130.57449 -12068539.93547  21280104.489    21280104.8704   21280112.2204
       207.0004        207.0004
  -4173759.63447  -3211781.35345  23595643.383    23595644.2284   23595647.1864
       156.0004        160.0004
 21  1 31  1  8 30.0000000  0  9G07G14G01G30G08G21G04G09G17
 -18492313.20149 -14176313.82847  21422591.573    21422591.7764   21422596.0934
       200.0004        200.0004
  -1372577.03247  -1063010.70746  23472108.836    23472109.4134   23472114.4584
       164.0004        165.0004
 -16021104.40048 -12473221.95146  21666052.294    21666053.1114   21666061.4354
       185.0004        186.0004
  -6248578.47348  -4856938.08046  23181480.984    23181481.1384   23181487.5904
       170.0004        172.0004
 -14702593.94449 -11425803.89648  21969736.457    21969737.0944   21969743.9114
       218.0004        217.0004
 -13173853.25348 -10249172.89746  21768239.783    21768239.6564   21768243.6074
       183.0004        182.0004
  -9184685.50948  -7130095.57146  22673448.578    22673449.3864   22673455.4134
       174.0004        174.0004
 -15470382.64849 -12028996.09047  21289761.678    21289762.3514   21289768.9894
       207.0004        207.0004
  -4261393.79247  -3280067.66645  23578966.468    23578966.9794   23578971.2214
       159.0004        162.0004
 21  1 31  1  9  0.0000000  0  9G07G14G01G30G08G21G04G09G17
 -18559995.49049 -14229053.27347  21409711.718    21409712.3764   21409716.4434
       200.0004        200.0004
  -1398623.79547  -1083306.86446  23467152.183    23467153.1084   23467158.6534
       164.0004        165.0004
 -16085259.56048 -12523212.97046  21653844.498    21653845.0874   21653853.1664
       186.0004        187.0004
  -6336357.58248  -4925337.40846  23164777.262    23164777.0984   23164783.3544
       170.0004        172.0004
 -14615575.70449 -11357997.48748  21986296.319    21986295.9984   21986303.6224
       217.0004        217.0004
 -13170218.96648 -10246340.98046  21768931.851    21768931.5034   21768935.1604
       182.0004        181.0004
  -9089418.32948  -7055861.41246  22691578.515    22691578.5174   22691584.8714
       174.0004        173.0004
 -15419228.08649 -11989135.40547  21299496.275    21299496.4304   21299503.8574
       207.0004        207.0004
  -4348731.51047  -3348122.99245  23562346.850    23562347.5954   23562352.0874
       159.0004        160.0004
 21  1 31  1  9 30.0000000  0  9G07G14G01G30G08G21G04G09G17
 -18627476.07649 -14281635.53947  21396870.481    21396871.1744   21396875.4484
       200.0004        200.0004
  -1424641.83547  -1103580.64246  23462201.142    23462201.7954   23462206.0794
       163.0004        163.0004
 -16149115.43148 -12572970.76746  21641692.025    21641693.2554   21641701.7104
       187.0004        187.0004
  -6424130.20948  -4993731.64746  23148074.061    23148074.6304   23148081.1164
       172.0004        173.0004
 -14528352.07849 -11290031.03348  22002894.530    22002894.5114   22002901.4544
       218.0004        217.0004
 -13166106.77648 -10243136.67346  21769714.076    21769713.4314   21769716.9264
       181.0004        181.0004
  -8994023.15048  -6981527.48646  22709730.985    22709731.2594   22709737.4914
       172.0004        171.0004
 -15367668.67749 -11948959.23447  21309307.063    21309307.5954   21309314.6544
       206.0004        206.0004
  -4435770.01147  -3415945.13945  23545783.050    23545782.8014   23545788.6834
       158.0004        159.0004
 21  1 31  1 10  0.0000000  0  9G07G14G01G30G08G21G04G09G17
 -18694752.93449 -14334059.06847  21384068.244    21384068.8624   21384072.9494
       200.0004        201.0004
  -1450633.06747  -1123833.54445  23457254.868    23457255.7374   23457260.9594
       161.0004        162.0004
 -16212669.47748 -12622493.39046  21629597.628    21629598.4174   21629607.5404
       185.0004        186.0004
  -6511895.02448  -5062119.81546  23131372.780    23131373.2144   23131380.2814
       172.0004        172.0004
 -14440926.78849 -11221907.43448  22019531.242    22019531.1044   22019537.8854
       218.0004        218.0004
 -13161516.23848 -10239559.63046  21770588.343    21770587.4174   21770591.8164
       182.0004        183.0004
  -8898503.56948  -6907096.66946  22727908.293    22727908.2994   22727914.9714
       171.0004        172.0004
 -15315707.69049 -11908470.17147  21319195.033    21319195.3474   21319203.1254
       205.0004        206.0004
  -4522508.26347  -3483533.33545  23529276.121    23529276.5644   23529283.1934
       156.0004        157.0004
 21  1 31  1 10 30.0000000  0  9G07G14G01G30G08G21G04G09G17
 -18761822.62449 -14386321.15847  21371305.293    21371305.5434   21371309.8074
       200.0004        200.0004
  -1476597.76747  -1144065.73346  23452313.963    23452314.7074   23452319.8984
       161.0004        164.0004
 -16275917.52448 -12671777.58346  21617563.381    21617563.9554   21617571.8684
       186.0004        187.0004
  -6599648.98248  -5130499.51046  23114673.806    23114674.3664   23114680.7994
       171.0004        172.0004
 -14353301.93149 -11153628.32748  22036205.172    22036205.5954   22036212.1304
       218.0004        217.0004
 -13156445.38648 -10235608.31646  21771552.685    21771552.1694   21771555.8184
       182.0004        182.0004
  -8802861.64148  -6832570.51446  22746107.682    22746108.5954   22746114.8994
       170.0004        170.0004
 -15263346.78049 -11867669.47047  21329159.007    21329159.4944   21329166.7934
       206.0004        206.0004
  -4608943.27547  -3550885.24145  23512828.645    23512829.5024   23512835.7554
       156.0004        158.0004
 21  1 31  1 11  0.0000000  0  9G07G14G01G30G08G21G04G09G17
 -18828682.76149 -14438419.95947  21358582.662    21358582.9244   21358587.0104
       201.0004        201.0004
  -1502537.70147  -1164278.64246  23447377.190    23447378.3804   23447383.5274
       162.0004        163.0004
 -16338856.88548 -12720821.20946  21605586.867    21605587.0594   21605595.2324
       187.0004        187.0004
  -6687390.54648  -5198869.53446  23097977.535    23097977.5314   23097984.8544
       171.0004        171.0004
 -14265480.61349 -11085196.13248  22052916.349    22052916.9634   22052923.9544
       217.0004        216.0004
 -13150894.14348 -10231282.67046  21772608.131    21772607.8894   21772612.4204
       181.0004        181.0004
  -8707100.87048  -6757951.72646  22764330.374    22764330.7754   22764337.0224
       170.0004        170.0004
 -15210589.03949 -11826559.53847  21339198.891    21339199.2734   21339205.7144
       205.0004        206.0004
  -4695073.69447  -3617999.78545  23496439.645    23496439.8094   23496443.8644
       156.0004        158.0004
 21  1 31  1 11 30.0000000  0  9G07G14G01G30G08G21G04G09G17
 -18895329.89649 -14490352.80947  21345900.404    21345900.6304   21345904.6674
       201.0004        201.0004
  -1528453.35047  -1184472.66045  23442446.753    23442447.6074   23442452.2354
       161.0004        162.0004
 -16401483.64148 -12769621.26647  21593668.899    21593669.7864   21593677.8404
       187.0004        188.0004
  -6775116.98948  -5267227.82246  23081283.497    23081283.1024   23081290.2434
       169.0004        169.0004
 -14177465.48949 -11016612.92348  22069665.005    22069665.2134   22069672.5324
       216.0004        214.0004
 -13144861.07348 -10226581.57346  21773757.183    21773756.4564   21773759.9014
       181.0004        181.0004
  -8611223.53548  -6683242.11646  22782575.439    22782576.8604   22782581.3824
       170.0004        170.0004
 -15157436.48349 -11785141.97447  21349313.821    21349313.7834   21349321.0284
       206.0004        206.0004
  -4780897.42547  -3684875.36745  23480107.861    23480107.6334   23480111.7824
       153.0004        155.0004
 21  1 31  1 12  0.0000000  0  9G07G14G01G30G08G21G04G09G17
 -18961761.61649 -14542117.78947  21333258.389    21333259.0034   21333262.9804
       202.0004        202.0004
  -1554346.11547  -1204648.82045  23437518.910    23437519.2724   23437524.9344
       160.0004        161.0004
 -16463794.79048 -12818175.39147  21581812.608    21581813.3394   21581820.1774
       188.0004        189.0004
  -6862826.36948  -5335572.79546  23064592.546    23064593.0204   23064599.9424
       169.0004        172.0004
 -14089259.32249 -10947880.85148  22086450.542    22086450.8714   22086458.0304
       216.0004        216.0004
 -13138345.40848 -10221504.42646  21774997.034    21774996.3204   21775001.0004
       182.0004        182.0004
  -8515232.82548  -6608444.15746  22800841.818    22800841.9434   22800848.1554
       169.0004        169.0004
 -15103891.87749 -11743418.90447  21359503.264    21359503.5884   21359509.8814
       206.0004        206.0004
  -4866412.40047  -3751510.36645  23463832.859    23463833.1844   23463838.1214
       154.0004        156.0004
 21  1 31  1 12 30.0000000  0  9G07G14G01G30G08G21G04G09G17
 -19027976.13949 -14593713.52447  21320657.808    21320658.7074   21320662.4364
       202.0004        201.0004
  -1580218.16547  -1224808.80345  23432595.878    23432595.9504   23432601.0764
       158.0004        160.0004
 -16525787.99148 -12866481.76447  21570014.695    21570015.2054   21570023.0244
       188.0004        188.0004
  -6950517.51048  -5403903.53446  23047906.496    23047905.9714   23047913.9304
       172.0004        173.0004
 -14000865.81249 -10879002.79448  22103271.225    22103272.0154   22103278.5974
       216.0004        216.0004
 -13131347.27448 -10216051.32346  21776327.756    21776327.5664   21776332.9414
       182.0004        183.0004
  -8419132.55248  -6533560.86446  22819128.167    22819129.0924   22819135.1754
       168.0004        168.0004
 -15049958.78349 -11701393.11547  21369765.799    21369766.5594   21369773.3954
       206.0004        206.0004
  -4951618.18147  -3817904.43245  23447620.546    23447620.7834   23447624.4344
       157.0004        161.0004
 21  1 31  1 13  0.0000000  0  9G07G14G01G30G08G21G04G09G17
 -19093969.88049 -14645137.22247  21308100.471    21308100.6614   21308104.0914
       201.0004        202.0004
  -1606069.84547  -1244952.93545  23427676.988    23427677.5234   23427681.6184
       159.0004        162.0004
 -16587459.35048 -12914537.34446  21558277.788    21558278.8434   21558287.4094
       187.0004        187.0004
  -7038187.56848  -5472217.83946  23031222.943    23031222.9024   23031229.2304
       172.0004        173.0004
 -13912287.26749 -10809980.54548  22120126.808    22120127.6084   22120134.5004
       216.0004        216.0004
 -13123865.26048 -10210221.17046  21777752.172    21777751.9844   21777756.7354
       183.0004        183.0004
  -8322924.95648  -6458593.92746  22837437.125    22837437.0364   22837443.3244
       168.0004        169.0004
 -14995639.14349 -11659066.11747  21380102.374    21380102.7324   21380109.5854
       205.0004        205.0004
  -5036512.04047  -3884055.44446  23431465.825    23431465.5304   23431470.3614
       160.0004        163.0004
 21  1 31  1 13 30.0000000  0  9G07G14G01G30G08G21G04G09G17
 -19159741.64949 -14696387.95847  21295583.605    21295584.1134   21295588.6294
       202.0004        202.0004
  -1631903.94147  -1265083.37145  23422759.033    23422760.2484   23422764.9824
       159.0004        161.0004
 -16648807.16348 -12962340.83146  21546604.781    21546605.3014   21546613.1234
       187.0004        187.0004
  -7125835.87448  -5540515.25446  23014545.206    23014544.5214   23014551.3804
       173.0004        174.0004
 -13823527.95449 -10740817.46548  22137018.355    22137017.9864   22137024.8944
       216.0004        214.0004
 -13115900.26948 -10204014.68446  21779268.295    21779267.7954   21779271.9294
       184.0004        184.0004
  -8226614.46648  -6383546.80346  22855764.068    22855764.2454   22855770.1784
       168.0004        168.0004
 -14940937.10049 -11616441.16647  21390511.503    21390512.5034   21390519.5344
       204.0004        205.0004
  -5121093.51447  -3949963.04146  23415369.521    23415370.9204   23415375.5274
       161.0004        163.0004
 21  1 31  1 14  0.0000000  0  9G07G14G01G30G08G21G04G09G17
 -19225287.28549 -14747462.46547  21283110.666    21283111.3724   21283115.2614
       202.0004        202.0004
  -1657720.44347  -1285200.10645  23417846.732    23417847.9644   23417853.2404
       159.0004        162.0004
 -16709827.05748 -13009888.77146  21534993.596    21534993.3794   21535001.5514
       187.0004        187.0004
  -7213459.15348  -5608793.12346  22997871.071    22997870.9944   22997876.5784
       173.0004        174.0004
 -13734589.51749 -10671514.78748  22153941.624    22153941.8614   22153949.0544
       214.0004        213.0004
 -13107450.08648 -10197430.09946  21780875.072    21780875.6854   21780880.5334
       184.0004        184.0004
  -8130202.84148  -6308420.84946  22874110.321    22874111.2024   22874117.8264
       167.0004        168.0004
 -14885854.15249 -11573519.37647  21400994.753    21400994.5324   21401001.4934
       205.0004        205.0004
  -5205360.11247  -4015625.26046  23399334.597    23399335.2184   23399339.9534
       162.0004        165.0004
 21  1 31  1 14 30.0000000  0  9G07G14G01G30G08G21G04G09G17
 -19290603.52649 -14798358.24347  21270681.290    21270681.9974   21270685.9654
       201.0004        201.0004
  -1683519.91647  -1305303.57145  23412938.039    23412938.6694   23412943.6394
       159.0004        161.0004
 -16770515.21148 -13057178.23446  21523444.944    21523445.0574   21523453.0794
       187.0004        187.0004
  -7301054.63948  -5677049.35646  22981201.328    22981201.3084   22981207.3204
       172.0004        172.0004
 -13645474.45449 -10602074.49348  22170899.904    22170900.0904   22170907.0544
       213.0004        213.0004
 -13098513.93048 -10190466.84446  21782576.217    21782575.9694   21782581.1774
       184.0004        185.0004
  -8033692.49648  -6233217.98546  22892477.305    22892477.0924   22892482.5594
       169.0004        170.0004
 -14830392.39449 -11530302.42547  21411548.243    21411548.5684   21411555.4644
       205.0004        205.0004
  -5289308.94147  -4081039.88346  23383359.497    23383360.3254   23383364.9354
       162.0004        164.0004
 21  1 31  1 15  0.0000000  0  9G07G14G01G30G08G21G04G09G17
 -19355688.99349 -14849074.20047  21258296.449    21258296.9474   21258300.8534
       201.0004        202.0004
  -1709304.66047  -1325395.54945  23408030.573    23408031.9864   23408036.8004
       160.0004        162.0004
 -16830869.57248 -13104207.58746  21511958.734    21511959.0694   21511968.4144
       187.0004        187.0004
  -7388621.29748  -5745283.10646  22964538.504    22964538.2464   22964545.4774
       173.0004        175.0004
 -13556186.79249 -10532499.69848  22187890.118    22187890.6434   22187898.1634
       213.0004        213.0004
 -13089091.61448 -10183124.76746  21784369.607    21784369.0234   21784374.1804
       184.0004        185.0004
  -7937087.39648  -6157941.29646  22910859.644    22910860.1334   22910865.3514
       169.0004        169.0004
 -14774555.65049 -11486793.28347  21422173.210    21422173.7124   21422180.4954
       204.0004        204.0004
  -5372939.69247  -4146206.61946  23367445.337    23367445.0604   23367451.3464
       164.0004        166.0004
 21  1 31  1 15 30.0000000  0  9G07G14G01G30G08G21G04G09G17
 -19420539.05149 -14899606.71447  21245956.171    21245956.5154   21245960.5474
       202.0004        203.0004
  -1735074.21947  -1345475.71645  23403128.618    23403128.2804   23403133.0584
       160.0004        162.0004
 -16890885.38748 -13150973.12247  21500537.980    21500538.7734   21500548.4474
       187.0004        189.0004
  -7476155.35648  -5813491.44446  22947879.744    22947879.9384   22947887.5164
       172.0004        171.0004
 -13466727.40449 -10462791.07948  22204913.780    22204914.4934   22204921.7274
       213.0004        213.0004
 -13079181.31648 -10175402.43346  21786254.476    21786254.1824   21786260.1724
       184.0004        185.0004
  -7840388.78248  -6082591.71746  22929258.695    22929260.6494   22929266.9014
       168.0004        167.0004
 -14718345.00749 -11442992.78047  21432869.436    21432870.0434   21432877.1754
       204.0004        204.0004
  -5456248.86347  -4211122.76746  23351590.624    23351591.2864   23351598.1234
       164.0004        166.0004
 21  1 31  1 16  0.0000000  0  9G07G14G01G30G08G21G04G09G17
 -19485151.94749 -14949954.43747  21233660.410    21233660.9454   21233664.8994
       202.0004        202.0004
  -1760830.77047  -1365545.74345  23398226.104    23398226.6444   23398231.5884
       158.0004        158.0004
 -16950560.42748 -13197473.15547  21489184.214    21489184.6244   21489191.8934
       190.0004        193.0004
  -7563655.64348  -5881673.49046  22931229.071    22931229.3374   22931236.3854
       169.0004        171.0004
 -13377100.28749 -10392951.77948  22221971.170    22221970.5844   22221977.1814
       213.0004        213.0004
 -13068783.62648 -10167300.32646  21788233.822    21788233.3964   21788238.7424
       185.0004        185.0004
  -7743600.68448  -6007172.45246  22947679.804    22947678.8584   22947684.8524
       168.0004        169.0004
 -14661764.21649 -11398903.85947  21443636.636    21443637.4794   21443644.0694
       204.0004        204.0004
  -5539235.94648  -4275787.95946  23335800.646    23335801.3054   23335805.9524
       165.0004        169.0004
 21  1 31  1 16 30.0000000  0  9G07G14G01G30G08G21G04G09G17
 -19549525.26049 -15000115.46547  21221411.665    21221411.4724   21221414.8214
       203.0004        203.0004
  -1786575.71347  -1385606.71045  23393327.414    23393327.2684   23393333.0534
       156.0004        157.0004
 -17009891.74748 -13243705.36847  21477894.640    21477894.5264   21477901.1694
       193.0004        193.0004
  -7651120.17948  -5949827.66146  22914584.091    22914583.9454   22914592.4194
       169.0004        169.0004
 -13287308.38049 -10322984.06347  22239056.870    22239056.9674   22239064.1384
       213.0004        212.0004
 -13057897.88748 -10158817.91546  21790304.591    21790304.6564   21790310.6824
       185.0004        186.0004
  -7646726.21048  -5931685.84446  22966113.441    22966113.9144   22966120.1224
       168.0004        169.0004
 -14604816.15449 -11354528.75947  21454474.297    21454474.4434   21454481.2074
       204.0004        204.0004
  -5621899.20248  -4340200.83546  23320070.695    23320070.0314   23320076.4794
       168.0004        171.0004
 21  1 31  1 17  0.0000000  0 10G07G14G28G01G30G08G21G04G09G17
 -19613655.58949 -15050087.15847  21209207.445    21209207.7674   21209211.5044
       203.0004        203.0004
  -1812309.48347  -1405658.99445  23388430.101    23388430.4864   23388435.6734
       154.0004        155.0004
  22699975.36054  17699688.348 3                                  24938696.341
        74.0004         74.000
 -17068875.53948 -13289666.76047  21466668.139    21466669.4754   21466676.7154
       192.0004        191.0004
  -7738546.04248  -6017951.71946  22897947.912    22897948.2574   22897956.1044
       169.0004        170.0004
 -13197353.81949 -10252889.61847  22256173.562    22256174.2394   22256181.8654
       212.0004        211.0004
 -13046522.74648 -10149954.17546  21792469.442    21792469.0224   21792474.9824
       186.0004        186.0004
  -7549767.59248  -5856133.67046  22984564.471    22984564.6204   22984569.8384
       168.0004        168.0004
 -14547502.91549 -11309869.09347  21465380.278    21465380.6014   21465387.6184
       203.0004        204.0004
  -5704236.27648  -4404359.54646  23304400.861    23304401.8754   23304408.0074
       167.0004        168.0004
 21  1 31  1 17 30.0000000  0  9G07G14G01G30G08G21G04G09G17
 -19677540.13149 -15099867.32347  21197049.290    21197050.0444   21197054.4974
       203.0004        203.0004
  -1838033.44047  -1425703.65145  23383534.991    23383535.6164   23383541.5974
       154.0004        157.0004
 -17127508.91148 -13335355.07646  21455509.706    21455510.4134   21455519.1464
       189.0004        187.0004
  -7825931.28548  -6086044.10546  22881317.856    22881318.7164   22881328.3954
       170.0004        172.0004
 -13107239.68949 -10182670.81347  22273322.617    22273322.6454   22273329.8784
       212.0004        212.0004
 -13034657.91848 -10140708.82846  21794728.331    21794727.3004   21794732.4544
       186.0004        187.0004
  -7452727.91048  -5780518.33646  23003030.307    23003030.7564   23003035.8434
       168.0004        168.0004
 -14489827.46949 -11264927.19247  21476354.534    21476354.9064   21476362.5704
       202.0004        202.0004
  -5786245.89848  -4468263.07846  23288796.448    23288796.3634   23288801.3664
       166.0004        166.0004
 21  1 31  1 18  0.0000000  0 10G07G14G28G01G30G08G21G04G09G17
 -19741177.54149 -15149454.90147  21184940.636    21184940.8404   21184944.7944
       203.0004        203.0004
  -1863749.94347  -1445742.47245  23378642.121    23378642.2234   23378646.4144
       155.0004        157.0004
   -464378.14254   -353762.520 3                                  23700759.329
        74.0004         74.000
 -17185789.82448 -13380768.72646  21444418.552    21444419.2664   21444429.1194
       187.0004        187.0004
  -7913274.81548  -6154103.97546  22864699.140    22864699.4104   22864706.2054
       171.0004        173.0004
 -13016970.18149 -10112330.94447  22290500.981    22290500.9824   22290507.6274
       212.0004        212.0004
 -13022304.09248 -10131082.44446  21797078.509    21797078.7274   21797083.4614
       186.0004        186.0004
  -7355611.28748  -5704843.02046  23021509.979    23021510.4844   23021517.6444
       168.0004        169.0004
 -14431793.68249 -11219706.05247  21487398.010    21487398.8274   21487406.1904
       202.0004        202.0004
  -5867927.43948  -4531910.96446  23273253.056    23273253.4304   23273257.5144
       165.0004        168.0004
 21  1 31  1 18 30.0000000  0 10G07G14G28G01G30G08G21G04G09G17
 -19804564.72349 -15198847.53147  21172879.023    21172878.9834   21172882.6984
       203.0004        204.0004
  -1889459.95347  -1465776.25445  23373749.232    23373748.4354   23373753.3524
       154.0004        155.0004
   -482940.14646   -368226.71645  23697226.820                    23697228.8694
       109.0004        137.0004
 -17243715.02548 -13425905.23647  21433397.258    21433398.0774   21433405.7914
       188.0004        188.0004
  -8000574.28048  -6222129.51946  22848086.960    22848086.9364   22848094.0304
       171.0004        173.0004
 -12926547.79949 -10041871.96347  22307706.572    22307707.3034   22307714.6024
       211.0004        210.0004
 -13009461.01648 -10121074.85046  21799521.794    21799521.8974   21799527.4514
       186.0004        185.0004
  -7258420.40448  -5629109.88646  23040004.775    23040005.6824   23040012.3044
       168.0004        168.0004
 -14373404.24049 -11174207.80147  21498509.869    21498510.4554   21498516.8114
       202.0004        202.0004
  -5949279.06848  -4595301.81146  23257772.348    23257772.5614   23257775.5714
       166.0004        166.0004
 21  1 31  1 19  0.0000000  0 10G07G14G28G01G30G08G21G04G09G17
 -19867696.89849 -15248041.44247  21160864.310    21160864.7304   21160868.9944
       203.0004        203.0004
  -1915162.61447  -1485804.28245  23368856.665    23368857.7204   23368863.1314
       153.0004        156.0004
   -497963.62746   -379933.26345  23694366.131    23694365.5924   23694372.6024
       131.0004        140.0004
 -17301279.36948 -13470760.56047  21422443.758    21422444.4734   21422451.5954
       190.0004        192.0004
  -8087825.44448  -6290117.45746  22831483.760    22831484.2314   22831489.8714
       172.0004        172.0004
 -12835973.07849  -9971294.27447  22324942.098    22324942.4604   22324950.4564
       210.0004        209.0004
 -12996125.61848 -10110683.62646  21802059.669    21802059.7734   21802064.9994
       185.0004        185.0004
  -7161156.20848  -5553319.61446  23058513.908    23058514.1494   23058520.9944
       167.0004        168.0004
 -14314659.90949 -11128433.00847  21509688.962    21509688.5904   21509695.8284
       202.0004        202.0004
  -6030297.25747  -4658432.81046  23242354.297    23242353.6744   23242358.3444
       164.0004        164.0004
 21  1 31  1 19 30.0000000  0 10G07G14G28G01G30G08G21G04G09G17
 -19930573.08749 -15297035.88447  21148899.303    21148899.9174   21148904.3134
       203.0004        203.0004
  -1940861.00647  -1505828.98345  23363966.756    23363967.9754   23363973.1654
       155.0004        158.0004
   -512966.01346   -391623.45945  23691510.349    23691512.0124   23691517.5224
       134.0004        141.0004
 -17358481.64148 -13515333.75547  21411558.936    21411559.4254   21411566.3924
       192.0004        193.0004
  -8175027.98548  -6358067.49046  22814889.061    22814889.5394   22814896.0684
       172.0004        174.0004
 -12745251.02749  -9900601.77447  22342205.351    22342206.4974   22342213.9424
       209.0004        208.0004
 -12982299.46948 -10099909.98246  21804690.931    21804690.3804   21804695.2424
       185.0004        185.0004
  -7063823.50148  -5477475.93946  23077035.405    23077036.4624   23077042.4604
       167.0004        168.0004
 -14255565.37249 -11082385.32247  21520933.715    21520934.3264   21520941.1334
       202.0004        202.0004
  -6110981.99547  -4721303.98745  23226999.585    23227000.3104   23227002.9794
       161.0004        161.0004
 21  1 31  1 20  0.0000000  0 10G07G14G28G01G30G08G21G04G09G17
 -19993190.80149 -15345828.91847  21136984.239    21136984.6214   21136988.0414
       203.0004        204.0004
  -1966556.54847  -1525851.47045  23359078.986    23359078.5854   23359083.7084
       157.0004        161.0004
   -527949.62847   -403298.98745  23688660.951    23688659.8934   23688663.9054
       136.0004        142.0004
 -17415319.19248 -13559622.74247  21400743.539    21400743.7434   21400750.5194
       193.0004        194.0004
  -8262179.97648  -6425978.13546  22798306.047    22798304.9614   22798312.0644
       176.0004        179.0004
 -12654384.60349  -9829796.77447  22359497.581    22359498.2224   22359505.2324
       209.0004        209.0004
 -12967982.68148 -10088754.03646  21807414.903    21807415.1504   21807419.7284
       185.0004        185.0004
  -6966425.51948  -5401581.41946  23095571.255    23095570.6824   23095575.4184
       167.0004        167.0004
 -14196123.79649 -11036067.21347  21532244.918    21532245.3714   21532252.2184
       202.0004        202.0004
  -6191332.49747  -4783914.71045  23211709.155    23211709.8484   23211712.9364
       158.0004        159.0004
 21  1 31  1 20 30.0000000  0 10G07G14G28G01G30G08G21G04G09G17
 -20055548.29649 -15394419.17947  21125117.051    21125118.1614   21125122.3764
       204.0004        203.0004
  -1992250.92447  -1545873.03545  23354188.202    23354188.6674   23354193.5164
       159.0004        160.0004
   -542916.33647   -414961.34745  23685812.101    23685812.9074   23685815.7984
       137.0004        141.0004
 -17471789.38048 -13603625.49547  21389997.572    21389997.6784   21390004.7124
       193.0004        193.0004
  -8349279.78348  -6493848.09346  22781730.574    22781730.4754   22781736.8864
       177.0004        178.0004
 -12563377.11449  -9758881.85847  22376816.681    22376816.4454   22376823.8394
       209.0004        209.0004
 -12953175.32848 -10077215.82746  21810233.586    21810232.9594   21810238.4884
       185.0004        186.0004
  -6868965.66448  -5325638.66746  23114114.943    23114116.6064   23114122.8364
       165.0004        165.0004
 -14136338.50949 -10989481.27447  21543622.242    21543622.7334   21543629.0154
       202.0004        202.0004
  -6271347.39847  -4846263.96245  23196482.343    23196483.0344   23196486.5264
       156.0004        157.0004
 21  1 31  1 21  0.0000000  0 10G07G14G28G01G30G08G21G04G09G17
 -20117641.19049 -15442803.22947  21113301.874    21113302.4284   21113306.1654
       204.0004        204.0004
  -2017943.99047  -1565893.58845  23349299.395    23349299.9124   23349304.2844
       159.0004        161.0004
   -557866.53947   -426610.84345  23682966.620    23682965.9284   23682971.6614
       138.0004        144.0004
 -17527887.85148 -13647338.57347  21379321.418    21379321.6664   21379329.7454
       192.0004        191.0004
  -8436323.66948  -6561674.50846  22765166.406    22765166.1924   22765173.1674
       178.0004        178.0004
 -12472230.28649  -9687858.35647  22394160.806    22394161.1704   22394168.5104
       209.0004        208.0004
 -12937875.66348 -10065294.00846  21813144.219    21813144.5464   21813149.3684
       185.0004        185.0004
  -6771445.48147  -5249648.93846  23132675.104    23132674.7764   23132679.3354
       164.0004        165.0004
 -14076211.03949 -10942628.70347  21555063.602    21555064.4754   21555071.8024
       202.0004        204.0004
  -6351024.12147  -4908349.68645  23181320.933    23181321.0674   23181325.2654
       158.0004        161.0004
 21  1 31  1 21 30.0000000  0 10G07G14G28G01G30G08G21G04G09G17
 -20179464.47849 -15490977.21747  21101537.200    21101537.4134   21101541.3694
       204.0004        204.0004
  -2043634.59647  -1585912.22345  23344410.916    23344411.0734   23344415.6404
       159.0004        161.0004
   -572799.50347   -438246.89045  23680126.272    23680126.1924   23680131.2164
       138.0004        144.0004
 -17583609.28348 -13690757.86347  21368718.467    21368718.6264   21368726.4104
       191.0004        191.0004
  -8523307.23248  -6629453.88846  22748613.734    22748614.8034   22748620.5794
       177.0004        179.0004
 -12380944.55249  -9616726.62647  22411530.475    22411531.7054   22411539.2694
       207.0004        206.0004
 -12922081.13348 -10052986.57546  21816149.708    21816149.7614   21816155.7414
       185.0004        185.0004
  -6673865.62947  -5173612.69846  23151243.542    23151243.3164   23151249.0564
       164.0004        166.0004
 -14015741.97649 -10895509.95747  21566571.508    21566571.6664   21566577.9714
       203.0004        203.0004
  -6430358.48647  -4970168.62746  23166224.931    23166225.1744   23166229.1604
       161.0004        165.0004
 21  1 31  1 22  0.0000000  0 10G07G14G28G01G30G08G21G04G09G17
 -20241016.00949 -15538939.46647  21089824.238    21089824.8144   21089828.7414
       204.0004        204.0004
  -2069324.49347  -1605930.32045  23339521.970    23339522.3934   23339526.3424
       158.0004        159.0004
   -587717.11747   -449870.98145  23677287.825    23677287.4864   23677293.3604
       140.0004        144.0004
 -17638951.26648 -13733881.47247  21358186.396    21358186.8504   21358195.5344
       190.0004        190.0004
  -8610228.76148  -6697184.96246  22732074.075    22732074.0564   22732079.8144
       179.0004        181.0004
 -12289523.15449  -9545489.20347  22428928.611    22428929.0674   22428936.1574
       207.0004        207.0004
 -12905792.03048 -10040293.76146  21819249.668    21819249.5284   21819254.6384
       185.0004        185.0004
  -6576229.57347  -5097532.67246  23169821.491    23169822.5974   23169828.6384
       163.0004        165.0004
 -13954934.75049 -10848127.70047  21578142.407    21578142.9474   21578149.4194
       203.0004        204.0004
  -6509349.68048  -5031720.16846  23151193.264    23151194.1074   23151198.4034
       165.0004        168.0004
 21  1 31  1 22 30.0000000  0 10G07G14G28G01G30G08G21G04G09G17
 -20302294.13949 -15586688.65847  21078162.962    21078163.5844   21078167.8454
       203.0004        203.0004
  -2095015.83547  -1625949.52545  23334632.914    23334633.7584   23334637.5134
       159.0004        162.0004
   -602622.15747   -461485.30245  23674450.779    23674450.6544   23674456.1214
       141.0004        146.0004
 -17693911.78348 -13776707.84247  21347727.611    21347728.2564   21347736.9224
       190.0004        190.0004
  -8697087.03348  -6764866.72246  22715545.350    22715545.9424   22715551.5104
       181.0004        182.0004
 -12197970.17549  -9474149.22447  22446350.819    22446350.7544   22446358.5044
       207.0004        207.0004
 -12889009.15248 -10027216.19546  21822443.554    21822443.2894   21822448.4974
       184.0004        184.0004
  -6478541.28447  -5021411.95346  23188411.861    23188411.2764   23188418.5454
       163.0004        164.0004
 -13893793.33349 -10800485.04947  21589777.960    21589777.7384   21589784.7024
       204.0004        204.0004
  -6587996.90348  -5093003.68146  23136226.483    23136227.1334   23136233.9964
       167.0004        169.0004
 21  1 31  1 23  0.0000000  0 10G07G14G28G01G30G08G21G04G09G17
 -20363296.11749 -15634222.69247  21066555.459    21066556.0514   21066559.2534
       203.0004        204.0004
  -2120709.85947  -1645970.82645  23329744.076    23329744.0974   23329748.3144
       160.0004        162.0004
   -617516.40247   -473091.19145  23671616.323    23671616.0744   23671620.2144
       142.0004        146.0004
 -17748487.95248 -13819234.70747  21337340.897    21337342.1044   21337351.0664
       189.0004        189.0004
  -8783879.89648  -6832497.52646  22699028.562    22699028.3674   22699035.1304
       180.0004        178.0004
 -12106287.90749  -9402708.50347  22463795.900    22463796.9694   22463805.5654
       207.0004        208.0004
 -12871732.51748 -10013753.87746  21825730.643    21825730.8854   21825736.0714
       184.0004        185.0004
  -6380803.68047  -4945252.81246  23207010.107    23207010.5334   23207016.9004
       162.0004        164.0004
 -13832320.66049 -10752584.26347  21601474.294    21601475.0494   21601482.4994
       204.0004        204.0004
  -6666299.32648  -5154018.51046  23121326.328    23121326.8104   23121333.8084
       169.0004        171.0004
 21  1 31  1 23 30.0000000  0 10G07G14G28G01G30G08G21G04G09G17
 -20424018.44149 -15681538.78947  21055000.582    21055001.0014   21055004.4734
       204.0004        204.0004
  -2146407.09247  -1665994.65245  23324853.032    23324853.1174   23324858.7184
       160.0004        162.0004
   -632400.75547   -484689.37445  23668785.631    23668784.1744   23668788.3834
       144.0004        149.0004
 -17802676.15548 -13861459.25747  21327029.671    21327030.6404   21327039.2784
       189.0004        190.0004
  -8870604.46548  -6900075.12446  22682525.741    22682525.6974   22682531.8334
       178.0004        179.0004
 -12014478.78049  -9331168.93747  22481268.463    22481268.2034   22481275.6754
       207.0004        207.0004
 -12853961.16548  -9999906.06446  21829113.184    21829112.1734   21829117.8394
       185.0004        185.0004
  -6283019.06747  -4869057.02346  23225617.292    23225618.1824   23225624.2534
       161.0004        163.0004
 -13770519.02649 -10704427.14747  21613235.684    21613236.2074   21613242.6614
       203.0004        203.0004
  -6744254.90248  -5214763.06346  23106492.267    23106492.3374   23106498.7324
       169.0004        170.0004
 21  1 31  1 24  0.0000000  0 10G07G14G28G01G30G08G21G04G09G17
 -20484458.77749 -15728635.14247  21043498.230    21043499.1314   21043502.9544
       204.0004        204.0004
  -2172108.69347  -1686021.86045  23319963.351    23319964.2414   23319967.8324
       160.0004        161.0004
   -647276.72647   -496281.01545  23665953.660    23665953.2094   23665957.8164
       146.0004        151.0004
 -17856473.42648 -13903379.19447  21316793.595    21316794.1184   21316801.8384
       190.0004        192.0004
  -8957258.42348  -6967597.68546  22666035.533    22666035.9374   22666041.8874
       177.0004        179.0004
 -11922545.82049  -9259532.87547  22498762.577    22498762.7854   22498769.4884
       206.0004        206.0004
 -12835694.41848  -9985672.22946  21832589.092    21832588.7694   21832594.0374
       184.0004        185.0004
  -6185190.30247  -4792826.81446  23244234.501    23244235.0224   23244240.8304
       161.0004        163.0004
 -13708391.31449 -10656015.93347  21625058.041    21625058.3864   21625064.9354
       203.0004        203.0004
  -6821861.60448  -5275235.75546  23091724.627    23091725.5184   23091730.2224
       170.0004        172.0004
 21  1 31  1 24 30.0000000  0 10G07G14G28G01G30G08G21G04G09G17
 -20544616.47749 -15775511.29347  21032051.666    21032051.9454   21032055.4054
       204.0004        204.0004
  -2197818.31047  -1706055.31045  23315070.345    23315070.9434   23315074.3574
       158.0004        158.0004
   -662148.40247   -507869.32145  23663123.322    23663123.1434   23663128.5364
       149.0004        152.0004
 -17909879.30648 -13944994.16347  21306630.115    21306630.8474   21306638.5054
       191.0004        192.0004
  -9043842.02648  -7035065.44146  22649559.230    22649559.5664   22649565.9594
       180.0004        182.0004
 -11830494.39749  -9187804.50947  22516278.919    22516279.3094   22516286.2954
       206.0004        205.0004
 -12816934.83148  -9971054.36646  21836159.155    21836158.6574   21836163.5114
       184.0004        184.0004
  -6087322.84247  -4716566.43946  23262858.053    23262858.7024   23262865.2584
       162.0004        163.0004
 -13645943.01349 -10607354.92247  21636941.121    21636941.1544   21636948.5464
       202.0004        201.0004
  -6899121.08948  -5335437.88546  23077021.904    23077021.9414   23077027.9194
       170.0004        171.0004
 21  1 31  1 25  0.0000000  0 10G07G14G28G01G30G08G21G04G09G17
 -20604486.01649 -15822162.88147  21020658.260    21020658.6034   21020662.6244
       204.0004        204.0004
  -2223533.85547  -1726093.37545  23310177.556    23310177.4014   23310182.4974
       158.0004        159.0004
   -677014.16147   -519452.99645  23660293.841    23660294.1524   23660299.2664
       148.0004        151.0004
 -17962887.64448 -13986299.35347  21296543.007    21296543.6814   21296551.6074
       192.0004        192.0004
  -9130349.77248  -7102474.06546  22633098.181    22633098.4384   22633104.7364
       182.0004        184.0004
 -11738324.11449  -9115983.51447  22533816.899    22533818.1034   22533825.6754
       204.0004        204.0004
 -12797679.39648  -9956050.12846  21839822.097    21839822.2364   21839827.5254
       184.0004        184.0004
  -5989416.32447  -4640275.64246  23281488.456    23281489.7894   23281496.1424
       161.0004        163.0004
 -13583173.86049 -10558443.89947  21648885.334    21648885.8094   21648893.5054
       201.0004        201.0004
  -6976028.17048  -5395365.45946  23062387.229    23062388.1514   23062392.9254
       170.0004        170.0004
 21  1 31  1 25 30.0000000  0 10G07G14G28G01G30G08G21G04G09G17
 -20664064.77949 -15868587.89547  21009320.519    21009321.3404   21009325.1514
       204.0004        205.0004
  -2249256.97147  -1746137.37045  23305282.247    23305282.1544   23305287.0184
       158.0004        159.0004
   -691876.02647   -531033.67545  23657466.786    23657466.1564   23657470.8534
       149.0004        153.0004
 -18015496.05348 -14027292.90447  21286531.714    21286532.3294   21286541.3134
       193.0004        194.0004
  -9216779.89148  -7169822.20746  22616651.041    22616650.6704   22616656.7494
       182.0004        181.0004
 -11646037.99849  -9044072.27247  22551379.993    22551379.8274   22551387.6084
       204.0004        204.0004
 -12777928.83448  -9940660.08446  21843581.487    21843581.0854   21843585.7624
       184.0004        184.0004
  -5891474.13147  -4563957.07446  23300125.664    23300127.0084   23300133.4154
       161.0004        163.0004
 -13520087.27549 -10509285.52447  21660891.211    21660891.5934   21660898.1864
       200.0004        201.0004
  -7052582.27948  -5455017.97246  23047818.855    23047818.8504   23047824.2524
       168.0004        168.0004
 21  1 31  1 26  0.0000000  0 10G07G14G28G01G30G08G21G04G09G17
 -20723350.22449 -15914784.35347  20998039.295    20998039.9624   20998043.5854
       204.0004        205.0004
  -2274988.59647  -1766187.99845  23300385.147    23300385.2734   23300389.9604
       158.0004        158.0004
   -706735.36647   -542612.37545  23654638.612    23654638.6894   23654643.0004
       151.0004        154.0004
 -18067701.41648 -14067972.39147  21276599.047    21276599.3734   21276606.7624
       194.0004        194.0004
  -9303129.95048  -7237107.95846  22600219.051    22600219.1034   22600226.0074
       181.0004        181.0004
 -11553638.74649  -8972072.85347  22568962.907    22568962.7354   22568970.4894
       204.0004        204.0004
 -12757682.19348  -9924883.47346  21847434.263    21847434.0674   21847439.5544
       184.0004        184.0004
  -5793499.03847  -4487612.84446  23318770.282    23318771.1294   23318776.6894
       162.0004        163.0004
 -13456686.06949 -10459881.98247  21672955.324    21672955.5894   21672963.5774
       200.0004        199.0004
  -7128781.94648  -5514394.30146  23033317.811    23033318.4504   23033323.2084
       167.0004        169.0004
 21  1 31  1 26 30.0000000  0 10G07G14G28G01G30G08G21G04G09G17
 -20782340.11249 -15960750.51047  20986813.371    20986814.0554   20986817.8934
       204.0004        204.0004
  -2300730.48747  -1786246.58345  23295486.923    23295487.5914   23295491.3694
       157.0004        158.0004
   -721594.88947   -554191.19645  23651810.991    23651810.5144   23651814.8004
       150.0004        153.0004
 -18119501.46448 -14108336.04447  21266741.566    21266741.8514   21266748.7404
       194.0004        194.0004
  -9389398.17548  -7304329.94746  22583802.796    22583802.0884   22583808.6444
       181.0004        180.0004
 -11461129.51049  -8899987.73047  22586565.592    22586566.4274   22586574.5834
       204.0004        204.0004
 -12736940.00348  -9908720.71046  21851381.498    21851380.9484   21851386.1554
       185.0004        184.0004
  -5695494.44147  -4411245.63946  23337420.258    23337420.3964   23337426.8624
       162.0004        163.0004
 -13392973.78349 -10410236.03747  21685078.753    21685079.5764   21685086.9574
       199.0004        200.0004
  -7204626.31148  -5573493.76646  23018886.212    23018886.1854   23018890.9454
       169.0004        171.0004
 21  1 31  1 27  0.0000000  0 10G07G14G28G01G30G08G21G04G09G17
 -20841032.32649 -16006484.70647  20975644.913    20975645.6564   20975649.5044
       204.0004        205.0004
  -2326484.12747  -1806314.37145  23290586.750    23290587.0304   23290590.6654
       159.0004        162.0004
   -736455.97047   -565771.24945  23648983.114    23648982.8934   23648988.0424
       152.0004        155.0004
 -18170893.68448 -14148381.92747  21256961.958    21256962.0314   21256969.7554
       194.0004        195.0004
  -9475582.65748  -7371486.68746  22567402.438    22567402.6184   22567408.9624
       180.0004        180.0004
 -11368513.64349  -8827819.53947  22604189.377    22604190.1974   22604199.0534
       203.0004        203.0004
 -12715702.83148  -9892172.25846  21855422.220    21855422.6064   21855427.9764
       184.0004        185.0004
  -5597463.62147  -4334858.01346  23356074.328    23356075.1374   23356081.1784
       161.0004        163.0004
 -13328953.76449 -10360350.32847  21697262.849    21697263.1494   21697269.1884
       199.0004        200.0004
  -7280114.38548  -5632315.59746  23004520.816    23004520.5724   23004525.5654
       168.0004        170.0004
 21  1 31  1 27 30.0000000  0 10G07G14G28G01G30G08G21G04G09G17
 -20899422.43849 -16051983.50247  20964533.969    20964534.2114   20964537.8304
       204.0004        204.0004
  -2352249.27247  -1826391.09945  23285682.411    23285682.8524   23285687.7254
       159.0004        160.0004
   -751318.69947   -577352.60445  23646155.523    23646154.9174   23646159.2544
       152.0004        155.0004
 -18221873.80948 -14188106.69547  21247260.203    21247260.5434   21247268.1674
       194.0004        194.0004
  -9561679.70848  -7438575.29946  22551017.608    22551017.8524   22551024.8944
       178.0004        178.0004
 -11275792.17949  -8755569.07647  22621834.801    22621834.9724   22621843.4204
       202.0004        202.0004
 -12693969.44448  -9875237.14446  21859559.129    21859558.0504   21859563.2614
       185.0004        185.0004
  -5499408.05747  -4258451.08945  23374734.265    23374734.4724   23374740.5014
       161.0004        162.0004
 -13264627.66249 -10310226.09147  21709503.445    21709503.7094   21709510.6634
       199.0004        200.0004
  -7355243.61548  -5690857.81546  22990223.869    22990225.1934   22990227.6194
       168.0004        170.0004
 21  1 31  1 28  0.0000000  0 10G07G14G28G01G30G08G21G04G09G17
 -20957509.08149 -16097245.83047  20953480.383    20953480.6994   20953484.2484
       204.0004        204.0004
  -2378028.15747  -1846478.53445  23280777.189    23280777.3394   23280782.0904
       160.0004        161.0004
   -766185.82247   -588937.35045  23643326.091    23643326.1834   23643329.8914
       150.0004        153.0004
 -18272440.14848 -14227509.02147  21237637.053    21237637.4444   21237646.0914
       194.0004        194.0004
  -9647688.06448  -7505594.79146  22534651.284    22534651.0744   22534659.4034
       178.0004        179.0004
 -11182969.33349  -8683239.59647  22639498.217    22639498.4704   22639506.9254
       202.0004        202.0004
 -12671740.90248  -9857916.19946  21863788.309    21863787.9164   21863793.4724
       184.0004        184.0004
  -5401331.74947  -4182028.01545  23393398.805    23393398.7894   23393403.8114
       160.0004        161.0004
 -13199999.54849 -10259866.52647  21721801.344    21721801.7714   21721808.7714
       199.0004        200.0004
  -7430013.92248  -5749120.38146  22975997.244    22975997.2664   22976000.3064
       169.0004        171.0004
 21  1 31  1 28 30.0000000  0 10G07G14G28G01G30G08G21G04G09G17
 -21015289.06549 -16142269.18247  20942484.836    20942485.2854   20942489.3314
       204.0004        205.0004
  -2403821.42347  -1866577.17346  23275869.002    23275869.4734   23275874.7184
       161.0004        163.0004
   -781058.77147   -600526.63045  23640496.316    23640495.1184   23640500.0594
       152.0004        154.0004
 -18322589.37648 -14266586.31447  21228094.934    21228095.0194   21228103.2824
       193.0004        194.0004
  -9733605.12148  -7572543.12846  22518302.314    22518302.5364   22518307.7814
       178.0004        178.0004
 -11090047.13249  -8610832.68247  22657180.105    22657181.1514   22657189.2304
       202.0004        202.0004
 -12649016.71548  -9840209.01546  21868111.902    21868112.5334   21868117.7194
       184.0004        185.0004
  -5303237.07047  -4105590.60445  23412066.097    23412065.6064   23412070.7944
       160.0004        161.0004
 -13135071.99149 -10209273.62647  21734156.958    21734157.1604   21734164.4624
       199.0004        200.0004
  -7504423.25648  -5807101.64546  22961836.883    22961836.9774   22961840.6944
       170.0004        172.0004
 21  1 31  1 29  0.0000000  0 10G07G14G28G01G30G08G21G04G09G17
 -21072759.86749 -16187051.60147  20931548.028    20931548.8934   20931552.8664
       204.0004        205.0004
  -2429630.49647  -1886688.09146  23270957.653    23270957.9854   23270963.3264
       162.0004        164.0004
   -795939.19947   -612121.75145  23637663.642    23637663.4514   23637668.0474
       151.0004        152.0004
 -18372319.00848 -14305336.66047  21218631.245    21218631.7784   21218639.4874
       193.0004        193.0004
  -9819428.71148  -7639418.65346  22501970.340    22501970.6334   22501977.6894
       178.0004        180.0004
 -10997028.66249  -8538350.75947  22674882.728    22674882.0104   22674889.7304
       201.0004        202.0004
 -12625797.38048  -9822116.02146  21872530.903    21872530.6324   21872536.0104
       184.0004        184.0004
  -5205127.17747  -4029141.34145  23430734.428    23430735.0284   23430740.2514
       158.0004        160.0004
 -13069848.30249 -10158449.97247  21746568.170    21746568.5074   21746575.9954
       199.0004        199.0004
  -7578470.85948  -5864801.05446  22947745.740    22947746.5224   22947750.2484
       172.0004        173.0004
 21  1 31  1 29 30.0000000  0 10G07G14G28G01G30G08G21G04G09G17
 -21129918.48949 -16231590.79547  20920671.982    20920672.2254   20920676.6464
       205.0004        206.0004
  -2455456.02747  -1906811.86445  23266042.781    23266043.1204   23266048.1424
       161.0004        161.0004
   -810828.03247   -623723.44345  23634829.928    23634830.6344   23634834.4934
       150.0004        152.0004
 -18421625.75348 -14343757.48147  21209247.428    21209248.0694   21209257.0234
       192.0004        192.0004
  -9905156.09748  -7706219.21546  22485656.248    22485656.6904   22485663.7494
       179.0004        180.0004
 -10903916.58749  -8465795.92047  22692600.114    22692600.4534   22692609.0734
       201.0004        201.0004
 -12602082.28148  -9803636.70946  21877044.109    21877043.5454   21877048.3284
       184.0004        184.0004
  -5107004.44747  -3952682.08345  23449406.324    23449406.5604   23449413.4584
       157.0004        159.0004
 -13004331.02949 -10107397.54047  21759035.874    21759036.1434   21759043.4044
       200.0004        200.0004
  -7652154.87948  -5922217.14446  22933724.000    22933723.9804   22933728.3984
       171.0004        170.0004
 21  1 31  1 30  0.0000000  0 10G07G14G28G01G30G08G21G04G09G17
 -21186761.30549 -16275883.90847  20909855.070    20909855.6554   20909859.3894
       205.0004        205.0004
  -2481298.05047  -1926948.51945  23261125.742    23261125.8714   23261129.9644
       159.0004        160.0004
   -825726.00647   -635332.23945  23631995.563    23631995.2884   23631999.5284
       149.0004        152.0004
 -18470505.79248 -14381845.80947  21199946.107    21199947.0634   21199954.9144
       192.0004        193.0004
  -9990783.89548  -7772942.17146  22469361.997    22469362.0884   22469370.1874
       180.0004        179.0004
 -10810712.25149  -8393169.18747  22710335.427    22710336.0994   22710345.2394
       200.0004        199.0004
 -12577870.58748  -9784770.44546  21881651.545    21881650.6044   21881655.8174
       184.0004        185.0004
  -5008870.70747  -3876214.26245  23468081.068    23468081.3704   23468085.9904
       157.0004        158.0004
 -12938522.17549 -10056117.92847  21771558.575    21771558.9124   21771565.9774
       199.0004        198.0004
  -7725473.10448  -5979348.19246  22919772.945    22919772.8264   22919776.3934
       171.0004        173.0004
 21  1 31  1 30 30.0000000  0 10G07G14G28G01G30G08G21G04G09G17
 -21243286.29649 -16319929.36847  20899098.957    20899099.1974   20899103.1424
       205.0004        206.0004
  -2507158.38647  -1947099.44545  23256204.693    23256205.0344   23256209.4044
       160.0004        162.0004
   -840635.42347   -646949.95145  23629158.410    23629158.9114   23629162.1654
       149.0004        153.0004
 -18518957.06448 -14419600.02547  21190727.040    21190727.2234   21190735.1514
       193.0004        194.0004
 -10076310.44948  -7839586.22046  22453086.660    22453086.5834   22453094.4434
       179.0004        180.0004
 -10717418.97049  -8320473.13447  22728089.438    22728089.6504   22728098.7234
       200.0004        201.0004
 -12553163.06848  -9765517.81846  21886353.193    21886353.0274   21886358.0424
       184.0004        184.0004
  -4910729.51247  -3799740.61645  23486756.672    23486756.9124   23486762.1554
       155.0004        156.0004
 -12872425.51349 -10004614.03747  21784136.697    21784136.7754   21784144.1634
       198.0004        198.0004
  -7798425.31648  -6036194.04246  22905889.308    22905889.4854   22905894.8514
       172.0004        173.0004
 21  1 31  1 31  0.0000000  0 10G07G14G28G01G30G08G21G04G09G17
 -21299489.94849 -16363724.43847  20888403.325    20888403.9154   20888408.0874
       205.0004        206.0004
  -2533037.39447  -1967264.90646  23251280.285    23251281.1624   23251285.5144
       162.0004        165.0004
   -855556.91147   -658577.10245  23626318.851    23626319.4604   23626321.9074
       150.0004        153.0004
 -18566976.12648 -14457017.46247  21181588.764    21181588.9204   21181597.5084
       193.0004        195.0004
 -10161732.73348  -7906149.02446  22436831.805    22436831.8784   22436839.1234
       179.0004        180.0004
 -10624039.03249  -8247709.55547  22745858.106    22745858.7114   22745868.0294
       200.0004        200.0004
 -12527959.28248  -9745878.48146  21891149.259    21891148.4174   21891153.5024
       184.0004        184.0004
  -4812583.00647  -3723262.83245  23505433.665    23505433.1384   23505437.8414
       154.0004        155.0004
 -12806043.33249  -9952887.66747  21796769.236    21796769.4864   21796776.0594
       198.0004        198.0004
  -7871008.84948  -6092752.60746  22892077.033    22892077.7104   22892082.8574
       174.0004        177.0004
 21  1 31  1 31 30.0000000  0 10G07G14G28G01G30G08G21G04G09G17
 -21355370.47149 -16407267.71047  20877770.017    20877770.2934   20877774.4894
       205.0004        206.0004
  -2558936.95547  -1987446.35546  23246351.079    23246351.9004   23246356.8094
       163.0004        165.0004
   -870492.88947   -670215.51545  23623477.418    23623477.0724   23623480.2774
       150.0004        152.0004
 -18614560.90249 -14494096.49047  21172534.234    21172534.6094   21172542.7784
       195.0004        195.0004
 -10247048.99548  -7972629.24246  22420596.374    22420596.7824   22420603.6814
       180.0004        180.0004
 -10530575.95549  -8174881.17747  22763643.059    22763644.0834   22763652.7104
       199.0004        199.0004
 -12502260.28948  -9725853.28546  21896038.376    21896038.5194   21896043.4704
       184.0004        184.0004
  -4714434.63947  -3646783.62045  23524110.547    23524111.0734   23524116.5814
       154.0004        157.0004
 -12739379.39249  -9900941.73547  21809454.905    21809455.0064   21809461.6414
       197.0004        197.0004
  -7943224.06948  -6149024.18446  22878336.561    22878336.0814   22878340.2474
       175.0004        175.0004
 21  1 31  1 32  0.0000000  0 10G07G14G28G01G30G08G21G04G09G17
 -21410924.78549 -16450556.78247  20867197.959    20867198.5224   20867202.5494
       205.0004        206.0004
  -2584858.05347  -2007644.57146  23241418.979    23241420.1154   23241424.0694
       164.0004        165.0004
   -885444.66547   -681866.20845  23620631.705    23620630.8794   23620636.3704
       150.0004        154.0004
 -18661708.63049 -14530834.95747  21163561.704    21163562.1974   21163570.9214
       195.0004        195.0004
 -10332256.93248  -8039025.01446  22404381.552    22404381.7624   22404389.5064
       181.0004        182.0004
 -10437031.92949  -8101989.73347  22781445.377    22781445.2614   22781454.2964
       198.0004        197.0004
 -12476066.19348  -9705442.28146  21901024.069    21901023.4924   21901028.3694
       184.0004        184.0004
  -4616287.26847  -3570305.14345  23542787.567    23542788.4304   23542792.1914
       155.0004        157.0004
 -12672436.67849  -9848778.57047  21822193.423    21822193.5924   21822200.9654
       197.0004        198.0004
  -8015069.16148  -6205007.31046  22864663.467    22864663.5514   22864668.8304
       173.0004        173.0004
 21  1 31  1 32 30.0000000  0 10G07G14G28G01G30G08G21G04G09G17
 -21466149.59049 -16493589.12947  20856689.312    20856689.3974   20856693.8484
       206.0004        206.0004
  -2610800.77748  -2027859.70446  23236483.159    23236483.3124   23236488.6304
       165.0004        167.0004
   -900412.91447   -693529.82345  23617782.230    23617782.5944   23617787.8554
       151.0004        155.0004
 -18708415.62849 -14567230.03547  21154674.056    21154674.6564   21154682.8174
       196.0004        196.0004
 -10417353.12048  -8105333.77146  22388189.559    22388190.1674   22388195.5844
       182.0004        182.0004
 -10343409.11149  -8029036.92747  22799260.404    22799260.9284   22799270.3514
       196.0004        196.0004
 -12449376.03248  -9684644.76346  21906102.660    21906102.4514   21906107.5344
       184.0004        185.0004
  -4518142.71947  -3493828.93545  23561464.253    23561463.9684   23561469.4424
       155.0004        157.0004
 -12605217.32349  -9796399.89147  21834984.763    21834985.3684   21834991.8674
       197.0004        198.0004
  -8086542.53048  -6260700.85146  22851061.790    22851063.2334   22851069.1164
       173.0004        175.0004
 21  1 31  1 33  0.0000000  0 10G07G14G28G01G30G08G21G04G09G17
 -21521043.44349 -16536363.54547  20846242.984    20846243.4414   20846247.7874
       205.0004        206.0004
  -2636767.42448  -2048093.43946  23231541.502    23231542.5994   23231547.3144
       167.0004        168.0004
   -915400.32247   -705208.29245  23614931.529    23614931.3704   23614935.7714
       152.0004        156.0004
 -18754680.46249 -14603280.53047  21145869.995    21145870.5954   21145878.4454
       196.0004        196.0004
 -10502336.46348  -8171554.54146  22372018.241    22372017.9634   22372023.8474
       182.0004        183.0004
 -10249710.63049  -7956025.13747  22817090.762    22817091.1324   22817099.9004
       195.0004        195.0004
 -12422191.47848  -9663461.97646  21911275.347    21911274.8384   21911280.7964
       184.0004        184.0004
  -4420004.98347  -3417357.96945  23580138.526    23580139.0414   23580144.8884
       154.0004        156.0004
 -12537725.57149  -9743808.89947  21847828.587    21847828.8894   21847835.7064
       198.0004        197.0004
  -8157644.04148  -6316104.57846  22837532.308    22837532.6244   22837538.0954
       175.0004        177.0004
 21  1 31  1 33 30.0000000  0 10G07G14G28G01G30G08G21G04G09G17
 -21575602.66049 -16578877.24747  20835861.384    20835861.5634   20835865.3554
       206.0004        206.0004
  -2662757.97448  -2068345.83446  23226595.401    23226596.2914   23226600.5374
       166.0004        168.0004
   -930407.41147   -716902.11345  23612075.569    23612075.0864   23612079.8094
       153.0004        156.0004
 -18800499.30849 -14638983.52947  21137151.133    21137151.5174   21137159.0074
       196.0004        197.0004
 -10587203.43948  -8237684.66446  22355868.047    22355868.2014   22355874.3114
       183.0004        185.0004
 -10155939.03949  -7882956.37947  22834936.772    22834936.8284   22834943.6174
       197.0004        198.0004
 -12394511.84148  -9641893.44246  21916543.054    21916542.4854   21916548.3304
       183.0004        184.0004
  -4321875.80747  -3340893.70645  23598811.756    23598812.0734   23598818.9984
       154.0004        156.0004
 -12469963.38149  -9691007.21047  21860723.625    21860723.6804   21860730.3784
       197.0004        197.0004
  -8228371.35548  -6371216.73946  22824074.186    22824073.7404   22824078.9774
       175.0004        176.0004
 21  1 31  1 34  0.0000000  0 10G07G14G28G01G30G08G21G04G09G17
 -21629824.86949 -16621128.31647  20825542.608    20825543.0854   20825547.7064
       206.0004        206.0004
  -2688773.89648  -2088617.98046  23221645.275    23221645.8714   23221649.8274
       167.0004        168.0004
   -945436.22047   -728612.85745  23609216.307    23609215.7654   23609220.0694
       154.0004        157.0004
 -18845869.97249 -14674337.27447  21128517.207    21128517.7574   21128526.0104
       197.0004        197.0004
 -10671952.08148  -8303722.56246  22339740.403    22339740.3694   22339746.9464
       184.0004        186.0004
 -10062096.84049  -7809832.58347  22852794.024    22852793.6224   22852801.5364
       197.0004        197.0004
 -12366337.66548  -9619939.52546  21921905.086    21921903.8944   21921909.9104
       184.0004        184.0004
  -4223758.41247  -3264438.62145  23617483.698    23617482.3444   23617489.8564
       154.0004        156.0004
 -12401934.31849  -9637997.53847  21873668.177    21873668.9174   21873675.4254
       196.0004        196.0004
  -8298723.91548  -6426036.86046  22810686.248    22810686.0704   22810691.1534
       174.0004        174.0004
 21  1 31  1 34 30.0000000  0 10G07G14G28G01G30G08G21G04G09G17
 -21683707.81349 -16663115.02647  20815288.961    20815289.8734   20815293.8954
       206.0004        207.0004
  -2714816.67148  -2108911.04546  23216688.972    23216689.4854   23216692.8944
       166.0004        165.0004
   -960488.37347   -740341.80145  23606351.240    23606350.7494   23606355.9234
       154.0004        156.0004
 -18890790.18749 -14709340.03147  21119969.455    21119969.8734   21119977.7294
       197.0004        198.0004
 -10756580.41148  -8369666.73346  22323636.815    22323636.8354   22323642.2904
       185.0004        186.0004
  -9968187.18249  -7736656.24147  22870663.896    22870663.3724   22870672.1394
       196.0004        195.0004
 -12337669.81348  -9597600.93346  21927359.606    21927359.4254   21927364.0054
       183.0004        183.0004
  -4125655.94847  -3187995.17345  23636150.079    23636150.8044   23636158.0034
       153.0004        155.0004
 -12333641.80649  -9584782.60147  21886663.262    21886663.4334   21886671.5584
       195.0004        194.0004
  -8368701.34548  -6480564.72546  22797369.760    22797369.5724   22797375.1094
       173.0004        174.0004
 21  1 31  1 35  0.0000000  0 10G07G14G28G01G30G08G21G04G09G17
 -21737247.64749 -16704834.38247  20805101.514    20805101.5084   20805105.7054
       207.0004        207.0004
  -2740885.70147  -2129224.58645  23211727.677    23211728.2094   23211732.8514
       162.0004        162.0004
   -975564.13547   -752089.12945  23603482.292    23603482.5754   23603487.3354
       155.0004        157.0004
 -18935255.71249 -14743988.49447  21111506.581    21111507.8304   21111516.6964
       197.0004        198.0004
 -10841084.42148  -8435514.02346  22307555.711    22307555.4724   22307562.2874
       186.0004        186.0004
  -9874211.26648  -7663428.26747  22888546.850    22888546.9824   22888555.0614
       194.0004        194.0004
 -12308507.22248  -9574876.85246  21932909.296    21932909.0774   21932913.8154
       183.0004        184.0004
  -4027569.64847  -3111564.32345  23654814.996    23654815.6604   23654822.6904
       153.0004        155.0004
 -12265087.35148  -9531363.56247  21899708.577    21899708.8154   21899717.4744
       193.0004        193.0004
  -8438300.53848  -6534797.83446  22784125.958    22784126.3564   22784130.7894
       173.0004        175.0004
 21  1 31  1 35 30.0000000  0 10G07G14G28G01G30G08G21G04G09G17
 -21790441.82849 -16746284.38047  20794978.354    20794979.0784   20794982.9524
       207.0004        207.0004
  -2766982.53147  -2149559.73446  23206761.663    23206762.6654   23206768.0644
       162.0004        165.0004
   -990665.23847   -763856.18845  23600610.072    23600609.3524   23600612.4064
       154.0004        158.0004
 -18979264.40549 -14778280.95747  21103133.365    21103134.0574   21103141.7274
       198.0004        198.0004
 -10925462.14048  -8501262.86646  22291498.351    22291498.2654   22291505.7814
       185.0004        185.0004
  -9780171.99948  -7590150.90747  22906441.242    22906441.8034   22906449.9754
       194.0004        194.0004
 -12278850.42148  -9551767.63446  21938553.722    21938552.6894   21938557.9704
       184.0004        184.0004
  -3929502.67647  -3035148.52545  23673478.575    23673477.5204   23673484.4284
       153.0004        156.0004
 -12196274.45848  -9477743.12247  21912802.502    21912802.7794   21912811.3964
       192.0004        191.0004
  -8507520.99748  -6588735.79346  22770952.946    22770953.7774   22770958.6954
       173.0004        174.0004
 21  1 31  1 36  0.0000000  0 10G07G14G28G01G30G08G21G04G09G17
 -21843287.42849 -16787462.76447  20784922.690    20784922.7684   20784926.9324
       207.0004        207.0004
  -2793107.97347  -2169917.19546  23201791.628    23201791.4424   23201795.2754
       164.0004        165.0004
  -1005792.74347   -775643.82145  23597730.847    23597730.6724   23597733.9864
       154.0004        156.0004
 -19022813.51749 -14812215.30447  21094845.774    21094846.3524   21094855.0894
       198.0004        198.0004
 -11009711.02548  -8566911.33646  22275466.596    22275466.9204   22275473.9714
       186.0004        187.0004
  -9686071.60448  -7516825.92447  22924348.292    22924348.8804   22924357.1214
       194.0004        195.0004
 -12248699.54748  -9528273.42946  21944290.123    21944290.2514   21944294.9924
       184.0004        184.0004
  -3831457.68747  -2958749.83345  23692135.063    23692135.5394   23692141.7684
       155.0004        158.0004
 -12127206.08048  -9423923.62747  21925945.876    21925946.3414   21925954.1104
       190.0004        191.0004
  -8576361.66548  -6642377.84746  22757852.809    22757852.7344   22757857.8904
       172.0004        172.0004
 21  1 31  1 36 30.0000000  0 10G07G14G28G01G30G08G21G04G09G17
 -21895782.19749 -16828367.78147  20774932.626    20774933.2144   20774937.5834
       207.0004        208.0004
  -2819262.99347  -2190297.71446  23196812.225    23196812.5914   23196818.8624
       163.0004        164.0004
  -1020947.88547   -787452.99545  23594845.797    23594846.6394   23594850.9484
       153.0004        156.0004
 -19065900.33349 -14845789.44047  21086646.252    21086647.4984   21086655.6434
       197.0004        197.0004
 -11093828.47248  -8632457.41047  22259460.018    22259460.6374   22259467.1664
       187.0004        188.0004
  -9591913.09248  -7443455.64947  22942266.063    22942265.6424   22942274.4164
       193.0004        193.0004
 -12218055.14848  -9504394.66546  21950121.884    21950120.8534   21950126.1764
       183.0004        183.0004
  -3733437.31547  -2882370.35345  23710786.737    23710787.7244   23710795.4264
       156.0004        159.0004
 -12057885.19948  -9369907.35947  21939138.533    21939138.8664   21939146.0984
       192.0004        194.0004
  -8644821.17148  -6695722.88546  22744824.743    22744824.8104   22744829.1434
       170.0004        171.0004
 21  1 31  1 37  0.0000000  0 10G07G14G28G01G30G08G21G04G09G17
 -21947923.08349 -16868997.03447  20765010.707    20765011.4044   20765015.8054
       207.0004        208.0004
  -2845448.49147  -2210701.97145  23191829.320    23191829.6134   23191834.4324
       161.0004        162.0004
  -1036132.70447   -799285.29945  23591956.762    23591956.0614   23591961.2254
       153.0004        156.0004
 -19108522.20849 -14879001.26147  21078535.132    21078536.1814   21078545.1004
       197.0004        197.0004
 -11177811.98548  -8697899.08647  22243477.813    22243478.2654   22243485.5904
       187.0004        188.0004
  -9497698.47648  -7370041.65947  22960195.058    22960195.0794   22960203.0344
       194.0004        195.0004
 -12186917.53748  -9480131.57646  21956046.376    21956046.3034   21956051.9604
       183.0004        183.0004
  -3635444.23547  -2806012.12145  23729434.276    23729435.0164   23729442.7064
       156.0004        157.0004
 -11988314.81749  -9315696.65047  21952377.540    21952378.1124   21952384.9834
       195.0004        196.0004
  -8712898.63748  -6748770.21546  22731870.273    22731870.7824   22731874.9004
       170.0004        171.0004
 21  1 31  1 37 30.0000000  0 10G07G14G28G01G30G08G21G04G09G17
 -21999707.79849 -16909348.76947  20755156.583    20755156.7064   20755160.8824
       207.0004        207.0004
  -2871665.66547  -2231130.96345  23186841.814    23186841.9514   23186846.1054
       161.0004        162.0004
  -1051348.78247   -811141.99245  23589061.660    23589061.3324   23589065.5754
       153.0004        155.0004
 -19150676.80249 -14911848.99547  21070513.614    21070514.8824   21070522.8024
       197.0004        196.0004
 -11261659.36748  -8763234.71647  22227523.179    22227523.3964   22227530.0594
       188.0004        189.0004
  -9403431.07748  -7296586.56947  22978134.468    22978134.1494   22978141.6834
       193.0004        194.0004
 -12155287.58048  -9455484.85446  21962065.811    21962065.5324   21962071.0614
       182.0004        183.0004
  -3537481.33847  -2729677.44945  23748076.997    23748077.5054   23748084.8234
       156.0004        157.0004
 -11918498.27449  -9261294.14547  21965664.396    21965664.2084   21965670.4024
       196.0004        197.0004
  -8780593.40048  -6801519.34646  22718990.470    22718989.7874   22718992.5574
       172.0004        173.0004
 21  1 31  1 38  0.0000000  0 10G07G14G28G01G30G08G21G04G09G17
 -22051133.52449 -16949420.77547  20745370.074    20745370.9924   20745374.7584
       207.0004        207.0004
  -2897915.28047  -2251585.21846  23181845.086    23181845.8874   23181850.1844
       161.0004        163.0004
  -1066596.98947   -823023.68645  23586159.558    23586159.2434   23586164.3384
       151.0004        152.0004
 -19192361.29749 -14944330.41447  21062581.621    21062583.0974   21062590.3494
       196.0004        196.0004
 -11345367.85148  -8828462.11147  22211593.830    22211593.5814   22211601.0424
       190.0004        190.0004
  -9309112.89148  -7223091.88247  22996081.107    22996081.2524   22996090.5734
       193.0004        194.0004
 -12123165.16448  -9430454.40546  21968178.220    21968177.8264   21968183.5964
       182.0004        182.0004
  -3439551.14947  -2653368.24345  23766711.820    23766713.1914   23766719.5304
       155.0004        156.0004
 -11848438.34049  -9206701.99947  21978996.371    21978996.7834   21979001.7724
       197.0004        198.0004
  -8847904.36948  -6853969.45446  22706179.576    22706179.6214   22706184.2904
       172.0004        172.0004
 21  1 31  1 38 30.0000000  0 10G07G14G28G01G30G08G21G04G09G17
 -22102197.16249 -16989210.62247  20735653.759    20735653.8584   20735658.3954
       207.0004        208.0004
  -2924198.06647  -2272065.31246  23176844.871    23176844.9814   23176850.0494
       163.0004        165.0004
  -1081878.79147   -834931.61345  23583251.058    23583251.0354   23583254.5654
       149.0004        151.0004
 -19233572.97449 -14976443.38447  21054739.760    21054740.1674   21054748.1724
       196.0004        196.0004
 -11428934.79048  -8893579.17647  22195691.126    22195691.1574   22195698.5814
       189.0004        189.0004
  -9214746.38848  -7149559.57347  23014039.854    23014039.2184   23014046.8044
       193.0004        194.0004
 -12090550.75248  -9405040.56346  21974383.991    21974383.9404   21974390.1904
       183.0004        183.0004
  -3341656.09547  -2577086.40245  23785341.163    23785341.8104   23785348.4064
       154.0004        155.0004
 -11778137.88549  -9151922.41447  21992374.380    21992374.3994   21992379.9654
       198.0004        197.0004
  -8914830.28648  -6906119.47346  22693443.361    22693444.3064   22693449.0584
       171.0004        172.0004
 21  1 31  1 39  0.0000000  0 10G07G14G28G01G30G08G21G04G09G17
 -22152896.64149 -17028716.71647  20726005.529    20726006.3964   20726010.4524
       207.0004        208.0004
  -2950515.34148  -2292572.25046  23171837.066    23171838.1054   23171842.2384
       165.0004        167.0004
  -1097195.83847   -846866.96345  23580335.086    23580335.6584   23580340.3654
       147.0004        150.0004
 -19274309.56349 -15008186.17047  21046987.590    21046988.2224   21046996.2804
       196.0004        196.0004
 -11512357.94748  -8958584.24047  22179816.912    22179816.7554   22179822.8314
       188.0004        188.0004
  -9120334.49048  -7075991.85647  23032004.627    23032005.3684   23032013.1244
       194.0004        195.0004
 -12057445.09848  -9379243.94446  21980684.820    21980684.2914   21980689.6904
       182.0004        182.0004
  -3243799.23647  -2500834.34845  23803962.556    23803963.2284   23803968.3794
       154.0004        156.0004
 -11707600.29849  -9096958.05247  22005796.339    22005796.6374   22005803.3224
       197.0004        197.0004
  -8981370.18448  -6957968.69946  22680783.251    22680782.8544   22680786.4854
       173.0004        175.0004
 21  1 31  1 39 30.0000000  0 10G07G14G28G01G30G08G21G04G09G17
 -22203229.10649 -17067936.81747  20716428.047    20716428.2454   20716432.2364
       208.0004        208.0004
  -2976867.63448  -2313106.47546  23166823.531    23166824.0054   23166826.5784
       167.0004        169.0004
  -1112549.14447   -858830.54745  23577413.644    23577414.5424   23577418.9054
       147.0004        151.0004
 -19314568.22849 -15039556.52647  21039326.762    21039327.1134   21039335.2554
       196.0004        195.0004
 -11595634.47948  -9023475.05147  22163969.502    22163969.5294   22163976.2394
       188.0004        188.0004
  -9025879.20848  -7002390.34447  23049979.519    23049979.9394   23049987.1624
       194.0004        195.0004
 -12023848.85348  -9353065.02946  21987077.753    21987077.2614   21987083.3214
       183.0004        183.0004
  -3145982.84547  -2424613.81045  23822576.288    23822576.9974   23822584.1794
       155.0004        158.0004
 -11636828.26349  -9041811.01247  22019262.141    22019262.8764   22019270.2154
       195.0004        194.0004
  -9047522.84248  -7009516.20946  22668194.232    22668194.3094   22668198.5534
       174.0004        174.0004
 21  1 31  1 40  0.0000000  0 10G07G14G28G01G30G08G21G04G09G17
 -22253192.25849 -17106869.15947  20706920.217    20706920.9134   20706924.5194
       208.0004        209.0004
  -3003256.41948  -2333669.13246  23161801.687    23161802.8294   23161805.4634
       169.0004        170.0004
  -1127940.77147   -870824.03845  23574485.240    23574486.1324   23574490.2744
       147.0004        149.0004
 -19354346.99749 -15070552.97047  21031756.462    21031757.4414   21031765.1204
       195.0004        196.0004
 -11678762.44348  -9088250.08147  22148149.764    22148150.1344   22148157.4104
       187.0004        188.0004
  -8931383.45949  -6928757.30647  23067961.941    23067961.4934   23067969.1364
       195.0004        194.0004
 -11989762.49448  -9326504.22946  21993564.417    21993563.7684   21993569.7574
       183.0004        183.0004
  -3048210.08147  -2348427.28545  23841183.476    23841183.0234   23841189.3134
       156.0004        159.0004
 -11565825.39548  -8986484.11647  22032773.870    22032774.2144   22032781.9404
       193.0004        192.0004
  -9113287.98648  -7060761.75546  22655677.799    22655679.1074   22655683.0414
       172.0004        173.0004
 21  1 31  1 40 30.0000000  0 10G07G14G28G01G30G08G21G04G09G17
 -22302782.95449 -17145511.26147  20697483.452    20697483.9904   20697487.9684
       209.0004        209.0004
  -3029682.26048  -2354260.69646  23156771.901    23156770.5804   23156776.9794
       167.0004        166.0004
  -1143371.57447   -882848.02445  23571549.020    23571549.8404   23571553.9344
       143.0004        145.0004
 -19393643.07749 -15101173.27847  21024279.298    21024279.7864   21024287.4954
       195.0004        196.0004
 -11761738.97048  -9152907.10447  22132361.116    22132360.7514   22132367.7184
       187.0004        188.0004
  -8836849.50548  -6855094.49147  23085950.060    23085949.8704   23085958.8384
       194.0004        194.0004
 -11955186.20448  -9299561.65246  22000143.675    22000143.5924   22000148.8894
       183.0004        182.0004
  -2950483.27847  -2272276.58745  23859781.126    23859780.9454   23859785.8484
       156.0004        158.0004
 -11494594.42948  -8930979.48047  22046328.648    22046329.0024   22046337.1764
       192.0004        193.0004
  -9178664.53148  -7111704.49446  22643238.012    22643237.8494   22643243.0334
       173.0004        173.0004
 21  1 31  1 41  0.0000000  0 10G07G14G28G01G30G08G21G04G09G17
 -22351998.77749 -17183861.25547  20688118.300    20688118.8354   20688122.2634
       209.0004        209.0004
  -3056145.70847  -2374881.58045  23151732.099    23151733.0594   23151741.6574
       163.0004        161.0004
  -1158842.70747   -894903.41945  23568606.152    23568605.2784   23568609.1504
       143.0004        147.0004
 -19432453.64449 -15131415.27047  21016892.682    21016893.4994   21016902.7374
       195.0004        196.0004
 -11844561.18448  -9217443.90746  22116600.538    22116600.2394   22116606.3554
       187.0004        187.0004
  -8742279.65648  -6781403.71447  23103945.979    23103945.9144   23103955.1954
       193.0004        194.0004
 -11920120.38148  -9272237.64046  22006817.194    22006816.7514   22006821.5724
       183.0004        184.0004
  -2852804.71147  -2196163.46245  23878366.905    23878367.2504   23878374.0514
       154.0004        155.0004
 -11423138.09048  -8875299.22647  22059925.097    22059926.2164   22059934.4514
       191.0004        191.0004
  -9243650.94748  -7162343.24846  22630872.867    22630872.5634   22630876.2224
       173.0004        176.0004
 21  1 31  1 41 30.0000000  0 10G07G14G28G01G30G08G21G04G09G17
 -22400836.14849 -17221916.36047  20678824.632    20678825.2404   20678829.1304
       209.0004        209.0004
  -3082647.14647  -2395532.07546  23146692.916    23146692.9994   23146698.0954
       162.0004        164.0004
  -1174355.30747   -906991.15245  23565653.033    23565652.9154   23565658.0334
       145.0004        151.0004
 -19470775.70549 -15161276.61747  21009601.115    21009601.9464   21009610.0824
       196.0004        196.0004
 -11927225.99148  -9281858.04947  22100869.361    22100869.8564   22100876.7674
       188.0004        188.0004
  -8647675.60048  -6707686.27547  23121949.112    23121948.9104   23121957.2594
       192.0004        193.0004
 -11884565.36548  -9244532.40846  22013583.028    22013582.5124   22013587.2674
       183.0004        183.0004
  -2755176.49547  -2120089.55445  23896946.063    23896945.3174   23896951.9794
       152.0004        153.0004
 -11351458.92148  -8819445.34647  22073567.887    22073568.0364   22073574.2184
       191.0004        192.0004
  -9308245.79948  -7212676.87546  22618579.611    22618580.0674   22618584.7354
       176.0004        178.0004
 21  1 31  1 42  0.0000000  0 10G07G14G28G01G30G08G21G04G09G17
 -22449293.15449 -17259675.04847  20669603.307    20669603.6864   20669608.0044
       209.0004        209.0004
  -3109187.93048  -2416213.18246  23141644.867    23141644.3624   23141648.3804
       165.0004        168.0004
  -1189910.44947   -919112.03445  23562693.299    23562692.9594   23562698.1654
       149.0004        152.0004
 -19508607.17949 -15190755.67047  21002401.594    21002402.4064   21002410.8214
       196.0004        196.0004
 -12009731.20848  -9346147.82347  22085170.324    22085170.1774   22085176.6144
       188.0004        188.0004
  -8553040.08148  -6633944.32047  23139956.160    23139957.1064   23139967.1464
       193.0004        194.0004
 -11848522.04048  -9216446.68146  22020440.965    22020440.6034   22020446.2334
       182.0004        182.0004
  -2657601.61847  -2044057.21045  23915512.459    23915512.9734   23915519.3134
       150.0004        151.0004
 -11279560.34148  -8763420.48947  22087250.052    22087249.8884   22087256.1734
       192.0004        193.0004
  -9372448.71248  -7262705.11246  22606362.768    22606362.7464   22606367.5904
       177.0004        177.0004
 21  1 31  1 42 30.0000000  0 10G07G14G28G01G30G08G21G04G09G17
 -22497366.90349 -17297135.10947  20660455.441    20660455.9814   20660459.8524
       209.0004        210.0004
  -3135769.03748  -2436925.70646  23136584.422    23136585.1604   23136589.0324
       166.0004        166.0004
  -1205510.05247   -931267.58445  23559725.110    23559724.0864   23559729.5374
       148.0004        151.0004
 -19545945.84449 -15219850.72347  20995296.415    20995297.3044   20995305.4154
       196.0004        196.0004
 -12092074.53948  -9410311.44246  22069499.796    22069499.6304   22069506.8494
       187.0004        187.0004
  -8458375.97448  -6560180.08347  23157969.246    23157970.9324   23157980.7174
       193.0004        194.0004
 -11811990.99548  -9187980.91646  22027393.715    22027393.1174   22027397.9144
       183.0004        183.0004
  -2560082.87647  -1968068.62145  23934069.873    23934071.3764   23934076.8114
       149.0004        152.0004
 -11207445.62748  -8707227.19047  22100973.057    22100972.5574   22100980.0964
       193.0004        194.0004
  -9436259.24348  -7312427.58846  22594219.531    22594220.3284   22594224.5484
       177.0004        178.0004
 21  1 31  1 43  0.0000000  0 10G07G14G28G01G30G08G21G04G09G17
 -22545054.19149 -17334294.03347  20651380.693    20651381.2294   20651385.1424
       209.0004        209.0004
  -3162390.38947  -2457669.62646  23131517.967    23131518.3604   23131522.2934
       164.0004        164.0004
  -1221154.55447   -943458.06045  23556747.884    23556747.7804   23556751.7644
       148.0004        151.0004
 -19582788.40149 -15248559.19247  20988285.845    20988286.5924   20988294.3024
       196.0004        196.0004
 -12174252.44848  -9474346.15347  22053861.513    22053862.1784   22053868.9644
       187.0004        188.0004
  -8363684.67548  -6486394.64547  23175991.090    23175990.7064   23175998.7824
       193.0004        192.0004
 -11774972.06948  -9159134.96846  22034438.672    22034437.5744   22034441.7804
       183.0004        183.0004
  -2462621.99047  -1892125.09645  23952616.168    23952617.1054   23952623.1434
       150.0004        152.0004
 -11135116.90848  -8650867.14147  22114735.064    22114736.0554   22114743.0704
       192.0004        192.0004
  -9499675.47848  -7361842.81346  22582151.846    22582151.9874   22582157.3354
       177.0004        178.0004
 21  1 31  1 43 30.0000000  0 10G07G14G28G01G30G08G21G04G09G17
 -22592354.19749 -17371151.21147  20642379.625    20642380.3134   20642384.2714
       209.0004        209.0004
  -3189054.24247  -2478446.65646  23126443.263    23126444.5904   23126449.7594
       164.0004        166.0004
  -1236846.48947   -955685.54445  23553762.470    23553760.9224   23553764.8294
       148.0004        151.0004
 -19619133.78249 -15276880.27747  20981370.819    20981370.9944   20981378.1264
       197.0004        198.0004
 -12256263.68648  -9538251.04247  22038255.461    22038256.1774   22038263.1834
       188.0004        189.0004
  -8268970.32148  -6412591.26947  23194013.748    23194014.5864   23194022.7224
       192.0004        192.0004
 -11737467.25648  -9129910.45146  22041575.094    22041574.4214   22041579.2454
       183.0004        182.0004
  -2365222.71847  -1816229.60845  23971150.882    23971151.2414   23971159.5594
       150.0004        153.0004
 -11062578.50148  -8594343.73447  22128538.102    22128539.2184   22128547.2594
       191.0004        190.0004
  -9562697.92748  -7410951.21246  22570158.538    22570159.4164   22570164.0154
       176.0004        176.0004
 21  1 31  1 44  0.0000000  0 11G07G14G28G01G30G08G21G04G09G22G17
 -22639262.66349 -17407703.26947  20633453.603    20633454.1434   20633457.9034
       209.0004        210.0004
  -3215760.35148  -2499256.60146  23121361.236    23121361.5754   23121367.6384
       165.0004        166.0004
  -1252586.22747   -967950.27745  23550765.489    23550765.9154   23550770.4384
       148.0004        152.0004
 -19654978.51249 -15304811.22747  20974548.462    20974549.0274   20974557.4394
       198.0004        197.0004
 -12338104.62548  -9602023.19646  22022681.141    22022681.2424   22022688.3764
       187.0004        187.0004
  -8174233.66448  -6338770.51347  23212041.344    23212041.7524   23212050.2024
       191.0004        191.0004
 -11699476.63448  -9100307.34246  22048803.814    22048803.5604   22048808.4164
       182.0004        182.0004
  -2267886.71247  -1740383.44245  23989673.263    23989674.3484   23989681.1664
       149.0004        151.0004
 -10989832.45448  -8537658.50647  22142381.501    22142381.8824   22142389.4624
       190.0004        190.0004
    853493.33254
        74.0004
  -9625324.33948  -7459750.98446  22558241.747    22558242.2874   22558246.8324
       176.0004        177.0004
 21  1 31  1 44 30.0000000  0 12G07G14G28G01G30G08G19G21G04G09G22G17
 -22685776.96049 -17443948.18047  20624602.118    20624602.8074   20624606.3624
       209.0004        210.0004
  -3242509.46347  -2520100.04046  23116271.578    23116271.8084   23116277.7854
       163.0004        163.0004
  -1268375.05947   -980253.26245  23547762.733    23547762.3914   23547765.4934
       148.0004        151.0004
 -19690320.24749 -15332350.23547  20967822.273    20967823.5484   20967831.9334
       197.0004        197.0004
 -12419772.62848  -9665660.59246  22007140.597    22007140.8334   22007148.4554
       187.0004        187.0004
  -8079477.38848  -6264934.46747  23230073.799    23230073.0784   23230081.8324
       190.0004        189.0004
   -558775.98756   -384463.52145  24836659.331                    24836665.5304
       129.0004        153.0004
 -11661000.28748  -9070325.76246  22056125.511    22056125.5054   22056129.9804
       182.0004        182.0004
  -2170616.37947  -1664588.44245  24008184.742    24008184.4094   24008189.8064
       148.0004        151.0004
 -10916881.74448  -8480813.82047  22156265.300    22156265.1344   22156271.6864
       190.0004        191.0004
    853493.33244    709860.498 3                                  24709725.184
        74.0004         74.000
  -9687554.31748  -7508241.85246  22546399.990    22546400.1584   22546404.7324
       177.0004        177.0004
 21  1 31  1 45  0.0000000  0 12G07G14G28G01G30G08G19G21G04G09G22G17
 -22731896.46549 -17479885.45047  20615825.730    20615826.3284   20615830.3154
       209.0004        210.0004
  -3269304.24647  -2540979.10346  23111172.039    23111172.8384   23111179.1024
       162.0004        163.0004
  -1284216.22147   -992596.99745  23544746.964    23544747.3564   23544752.7884
       148.0004        151.0004
 -19725158.44049 -15359496.86647  20961193.784    20961194.1374   20961202.4854
       198.0004        198.0004
 -12501266.91848  -9729162.62647  21991633.762    21991633.1914   21991640.3024
       188.0004        189.0004
  -7984705.42648  -6191086.19147  23248108.409    23248108.1594   23248116.2774
       190.0004        190.0004
   -650197.47047   -455700.97145  24819262.060    24819262.0574   24819267.8494
       147.0004        153.0004
 -11622040.94948  -9039967.82146  22063539.405    22063539.3014   22063544.1504
       182.0004        182.0004
  -2073416.05747  -1588847.98545  24026679.240    24026680.1644   24026684.6754
       145.0004        148.0004
 -10843731.25248  -8423813.43647  22170184.324    22170184.8184   22170192.1604
       190.0004        191.0004
    853493.33244    709860.498 4                                  24709725.184
        74.0004        129.000
  -9749388.97248  -7556424.68546  22534631.993    22534632.4564   22534637.8674
       177.0004        178.0004
 21  1 31  1 45 30.0000000  0 11G07G14G28G01G30G08G19G21G04G09G17
 -22777618.21249 -17515512.79047  20607125.324    20607125.8734   20607129.5074
       209.0004        210.0004
  -3296144.94447  -2561893.91645  23106064.027    23106064.6774   23106069.9374
       161.0004        162.0004
  -1300110.16947  -1004981.87445  23541721.193    23541721.3794   23541726.5444
       148.0004        151.0004
 -19759490.21649 -15386248.88647  20954661.257    20954661.4214   20954669.1274
       198.0004        198.0004
 -12582584.32548  -9792526.82947  21976158.652    21976159.5984   21976165.5184
       189.0004        190.0004
  -7889919.62848  -6117227.14347  23266145.868    23266145.0604   23266152.8014
       190.0004        190.0004
   -741413.80047   -526778.56345  24801904.835    24801903.6814   24801907.4824
       147.0004        150.0004
 -11582598.82448  -9009233.68046  22071045.441    22071044.8514   22071049.6344
       182.0004        182.0004
  -1976287.72747  -1513163.60445  24045161.981    24045162.9294   24045169.7344
       143.0004        146.0004
 -10770383.46548  -8366659.31747  22184142.542    22184142.6404   22184149.7774
       191.0004        191.0004
  -9810826.75248  -7604298.25146  22522940.696    22522941.9874   22522946.6674
       178.0004        179.0004
 21  1 31  1 46  0.0000000  0 11G07G14G28G01G30G08G19G21G04G09G17
 -22822938.95249 -17550827.65447  20598501.434    20598501.5414   20598505.3934
       210.0004        210.0004
  -3323031.62947  -2582844.58446  23100948.425    23100949.4124   23100953.7864
       162.0004        164.0004
  -1316057.47847  -1017408.33445  23538688.371    23538687.8744   23538691.5654
       150.0004        154.0004
 -19793312.46149 -15412603.87347  20948225.043    20948225.5144   20948233.2034
       199.0004        199.0004
 -12663721.43648  -9855750.56347  21960719.904    21960720.0904   21960725.5934
       190.0004        190.0004
  -7795121.84648  -6043358.74847  23284182.252    23284183.6444   23284192.8044
       189.0004        189.0004
   -832422.33047   -597694.21845  24784585.473    24784584.5534   24784590.0944
       143.0004        147.0004
 -11542673.80948  -8978123.28246  22078642.423    22078642.6064   22078647.0974
       182.0004        182.0004
  -1879233.29347  -1437536.82045  24063633.559    24063632.7494   24063638.4364
       144.0004        148.0004
 -10696840.64648  -8309353.22747  22198137.344    22198138.1364   22198144.4744
       190.0004        191.0004
  -9871866.14748  -7651861.40246  22511327.602    22511326.9124   22511331.3284
       181.0004        183.0004
 21  1 31  1 46 30.0000000  0 11G07G14G28G01G30G08G19G21G04G09G17
 -22867855.41449 -17585827.49247  20589953.474    20589954.0704   20589958.1004
       209.0004        210.0004
  -3349964.37948  -2603831.13446  23095823.183    23095823.9814   23095829.6574
       165.0004        168.0004
  -1332058.77547  -1029876.87945  23535643.932    23535643.5874   23535648.0304
       152.0004        155.0004
 -19826622.30949 -15438559.59547  20941885.971    20941886.6594   20941894.4344
       199.0004        199.0004
 -12744675.03248  -9918831.29347  21945314.326    21945314.5674   21945321.4084
       190.0004        191.0004
  -7700313.30548  -5969481.96747  23302224.356    23302225.1564   23302234.2214
       188.0004        188.0004
   -923220.82847   -668446.20545  24767306.580    24767306.3924   24767311.9034
       141.0004        145.0004
 -11502266.22748  -8946636.84246  22086331.790    22086331.5274   22086335.5644
       181.0004        181.0004
  -1782254.48947  -1361968.98345  24082086.185    24082085.9464   24082093.1854
       144.0004        148.0004
 -10623105.19348  -8251897.04247  22212168.685    22212168.9804   22212175.8714
       191.0004        191.0004
  -9932505.75748  -7699113.02846  22499786.274    22499787.1914   22499791.9604
       181.0004        182.0004
 21  1 31  1 47  0.0000000  0 11G07G14G28G01G30G08G19G21G04G09G17
 -22912364.62149 -17620510.02447  20581483.676    20581484.2254   20581488.3104
       209.0004        210.0004
  -3376943.70848  -2624854.00346  23090690.825    23090690.8744   23090695.4764
       167.0004        167.0004
  -1348114.99147  -1042388.19645  23532587.304    23532587.2354   23532592.0344
       150.0004        152.0004
 -19859417.22249 -15464114.06447  20935645.641    20935646.1044   20935654.0134
       199.0004        199.0004
 -12825442.20848  -9981766.76147  21929945.314    21929944.9904   21929952.0614
       191.0004        192.0004
  -7605496.52448  -5895598.76646  23320266.730    23320268.0384   23320277.5814
       187.0004        187.0004
  -1013807.52347   -739033.19345  24750069.548    24750068.7074   24750071.9114
       140.0004        144.0004
 -11461376.82248  -8914774.97246  22094112.996    22094112.1834   22094117.1194
       181.0004        181.0004
  -1685353.60747  -1286461.85445  24100526.438    24100527.9324   24100533.5034
       145.0004        149.0004
 -10549179.84748  -8194292.88847  22226234.756    22226235.6874   22226242.9504
       190.0004        189.0004
  -9992744.69448  -7746052.46646  22488323.528    22488324.0824   22488329.0304
       182.0004        182.0004
 21  1 31  1 47 30.0000000  0 11G07G14G28G01G30G08G19G21G04G09G17
 -22956464.39849 -17654873.49247  20573091.272    20573092.1494   20573096.5274
       209.0004        210.0004
  -3403970.93447  -2645914.15446  23085545.536    23085546.3344   23085551.6794
       164.0004        164.0004
  -1364228.15847  -1054943.94045  23529522.657    23529522.0924   23529525.8604
       148.0004        151.0004
 -19891695.38149 -15489265.86347  20929503.451    20929503.7404   20929511.7254
       199.0004        199.0004
 -12906020.77748 -10044555.24547  21914610.516    21914610.6114   21914617.7174
       191.0004        191.0004
  -7510674.01248  -5821711.12646  23338312.035    23338312.3254   23338321.6164
       186.0004        185.0004
  -1104181.18947   -809454.15545  24732870.908    24732869.8364   24732876.4524
       140.0004        145.0004
 -11420006.39848  -8882538.26746  22101985.785    22101984.7724   22101989.2774
       181.0004        180.0004
  -1588533.48947  -1211017.66545  24118949.697    24118951.3204   24118956.7914
       147.0004        151.0004
 -10475068.18748  -8136543.54047  22240338.431    22240338.8024   22240345.8494
       189.0004        189.0004
 -10052582.39248  -7792679.21246  22476937.634    22476937.5894   22476942.0714
       183.0004        184.0004
 21  1 31  1 48  0.0000000  0 11G07G14G28G01G30G08G19G21G04G09G17
 -23000151.77249 -17688915.61547  20564778.843    20564779.2004   20564782.7664
       209.0004        210.0004
  -3431046.08747  -2667011.67046  23080395.305    23080395.6094   23080398.9844
       163.0004        165.0004
  -1380398.73347  -1067544.36445  23526444.278    23526444.8034   23526449.1844
       147.0004        149.0004
 -19923454.01149 -15514012.84647  20923459.455    20923460.1884   20923467.6494
       199.0004        199.0004
 -12986407.52848 -10107194.27847  21899313.883    21899314.0534   21899321.0424
       191.0004        192.0004
  -7415847.37848  -5747820.26647  23356358.752    23356358.6334   23356367.4494
       187.0004        188.0004
  -1194339.59847   -879707.38845  24715716.212    24715715.4284   24715717.8604
       140.0004        144.0004
 -11378155.81348  -8849927.40846  22109949.008    22109948.8194   22109953.0264
       180.0004        180.0004
  -1491796.04147  -1135637.91045  24137360.241    24137360.0864   24137366.1804
       147.0004        151.0004
 -10400772.54448  -8078650.83747  22254476.784    22254477.2424   22254484.2434
       189.0004        190.0004
 -10112018.37348  -7838992.95646  22465626.431    22465627.3384   22465632.2084
       182.0004        182.0004
 21  1 31  1 48 30.0000000  0 11G07G14G28G01G30G08G19G21G04G09G17
 -23043425.98649 -17722635.78047  20556543.353    20556543.6974   20556548.1304
       209.0004        210.0004
  -3458171.81148  -2688148.59946  23075233.391    23075233.5354   23075237.8854
       165.0004        167.0004
  -1396629.43247  -1080191.63945  23523356.343    23523355.3264   23523360.4234
       148.0004        151.0004
 -19954692.69649 -15538354.66147  20917515.323    20917515.9124   20917523.3484
       199.0004        199.0004
 -13066601.61648 -10169683.16847  21884053.955    21884054.0494   21884060.6994
       193.0004        194.0004
  -7321021.03548  -5673929.62847  23374406.563    23374404.3824   23374412.4774
       188.0004        188.0004
  -1284283.02947   -949793.10145  24698600.872    24698599.5044   24698602.3044
       141.0004        146.0004
 -11335827.12848  -8816944.01046  22118004.251    22118003.8474   22118008.4654
       180.0004        180.0004
  -1395145.59547  -1060325.93845  24155751.418    24155751.4474   24155757.5324
       148.0004        151.0004
 -10326297.80648  -8020618.58147  22268649.497    22268649.6744   22268656.8734
       188.0004        188.0004
 -10171053.00048  -7884993.93346  22454393.009    22454393.7834   22454397.8974
       181.0004        182.0004
 21  1 31  1 49  0.0000000  0 11G07G14G28G01G30G08G19G21G04G09G17
 -23086283.90249 -17756031.57347  20548387.733    20548388.4604   20548392.4084
       209.0004        210.0004
  -3485347.91548  -2709324.76246  23070060.079    23070060.7984   23070067.3774
       165.0004        167.0004
  -1412921.15047  -1092886.47545  23520256.580    23520256.0614   23520260.3204
       149.0004        152.0004
 -19985408.31149 -15562288.89347  20911670.430    20911670.9894   20911677.9744
       200.0004        200.0004
 -13146599.45048 -10232019.12947  21868830.177    21868830.7704   21868838.2004
       194.0004        194.0004
  -7226196.32948  -5600040.28247  23392451.594    23392450.3964   23392455.9404
       189.0004        189.0004
  -1374009.15647  -1019709.47945  24681525.426    24681524.0304   24681528.3034
       141.0004        145.0004
 -11293020.42348  -8783588.12946  22126149.582    22126149.0714   22126154.1574
       179.0004        179.0004
  -1298583.69247   -985082.96945  24174127.006    24174127.7624   24174132.7264
       147.0004        150.0004
 -10251646.09548  -7962448.40846  22282854.346    22282854.4774   22282862.1054
       188.0004        187.0004
 -10229685.19748  -7930681.34946  22443236.851    22443236.9164   22443241.2444
       182.0004        182.0004
 21  1 31  1 49 30.0000000  0 11G07G14G28G01G30G08G19G21G04G09G17
 -23128722.80049 -17789100.86047  20540312.472    20540312.8144   20540316.5824
       210.0004        210.0004
  -3512575.13748  -2730540.76346  23064880.192    23064880.3884   23064885.0074
       166.0004        167.0004
  -1429274.75247  -1105629.53645  23517142.896    23517143.7924   23517146.7224
       147.0004        150.0004
 -20015598.77149 -15585813.92447  20905925.602    20905926.1174   20905933.3074
       200.0004        200.0004
 -13226398.44548 -10294200.16047  21853645.536    21853645.2884   21853653.0894
       194.0004        194.0004
  -7131374.97848  -5526153.52046  23410491.208    23410492.1194   23410498.7644
       188.0004        187.0004
  -1463516.37447  -1089455.29145  24664493.394    24664491.9514   24664494.9024
       140.0004        144.0004
 -11249736.99648  -8749860.77446  22134387.074    22134386.4664   22134390.7864
       179.0004        180.0004
  -1202112.74147   -909910.88345  24192484.762    24192485.2904   24192490.0864
       146.0004        148.0004
 -10176820.43248  -7904142.71946  22297093.113    22297093.2384   22297099.6254
       186.0004        186.0004
 -10287913.98348  -7976054.43446  22432154.602    22432155.2194   22432159.6434
       182.0004        182.0004
 21  1 31  1 50  0.0000000  0 11G07G14G28G01G30G08G19G21G04G09G17
 -23170738.48749 -17821840.36347  20532317.100    20532317.5974   20532321.4014
       210.0004        211.0004
  -3539852.42548  -2751795.78446  23059688.603    23059690.1634   23059694.6844
       165.0004        166.0004
  -1445689.71247  -1118420.41545  23514020.841    23514020.5294   23514025.1624
       148.0004        153.0004
 -20045260.12649 -15608926.65447  20900280.689    20900281.0724   20900289.0334
       200.0004        200.0004
 -13305994.15048 -10356222.79547  21838499.047    21838499.1714   21838505.8124
       194.0004        194.0004
  -7036557.87748  -5452270.08547  23428534.713    23428535.0514   23428543.4254
       187.0004        188.0004
  -1552801.11847  -1159027.72545  24647500.430    24647500.0404   24647505.9314
       139.0004        143.0004
 -11205975.60648  -8715760.99446  22142713.970    22142713.8524   22142718.8124
       180.0004        179.0004
  -1105733.39347   -834810.16945  24210824.421    24210824.6104   24210830.8064
       146.0004        150.0004
 -10101822.07748  -7845702.45746  22311364.616    22311364.7184   22311371.7764
       185.0004        185.0004
 -10345736.80248  -8021111.17146  22421152.144    22421152.1474   22421156.0434
       181.0004        182.0004
 21  1 31  1 50 30.0000000  0 11G07G14G28G01G30G08G19G21G04G09G17
 -23212328.96549 -17854248.52847  20524402.219    20524402.7574   20524406.7344
       210.0004        210.0004
  -3567180.97948  -2773090.74646  23054488.688    23054489.0414   23054492.9874
       165.0004        166.0004
  -1462167.65847  -1131260.38245  23510883.641    23510883.1524   23510888.6404
       148.0004        150.0004
 -20074390.78549 -15631625.85847  20894737.469    20894737.7344   20894745.9844
       200.0004        200.0004
 -13385384.41348 -10418085.34447  21823391.899    21823391.4664   21823397.9434
       194.0004        194.0004
  -6941747.72448  -5378392.07246  23446577.686    23446577.1854   23446584.4024
       186.0004        185.0004
  -1641862.57547  -1228426.25145  24630553.558    24630552.6034   24630556.6364
       136.0004        140.0004
 -11161737.75648  -8681289.93646  22151131.922    22151131.0994   22151136.3164
       179.0004        178.0004
  -1009448.63747   -759783.17745  24229147.500    24229148.1144   24229152.3044
       147.0004        151.0004
 -10026654.59648  -7787130.40446  22325669.478    22325669.6084   22325676.6934
       186.0004        186.0004
 -10403154.41148  -8065852.14646  22410225.820    22410226.1004   22410229.2534
       181.0004        182.0004
 21  1 31  1 51  0.0000000  0 11G07G14G28G01G30G08G19G21G04G09G17
 -23253492.66449 -17886324.14347  20516569.271    20516569.6984   20516573.7254
       210.0004        210.0004
  -3594562.52248  -2794427.00346  23049278.307    23049278.5524   23049284.3234
       166.0004        167.0004
  -1478711.05547  -1144151.35245  23507734.881    23507734.6534   23507740.2424
       146.0004        148.0004
 -20102989.63949 -15653910.66547  20889294.888    20889295.3464   20889304.0104
       200.0004        200.0004
 -13464567.56548 -10479786.49647  21808323.004    21808323.7144   21808329.8234
       194.0004        194.0004
  -6846947.52248  -5304521.78946  23464616.091    23464616.1894   23464624.7094
       184.0004        185.0004
  -1730700.31447  -1297650.41545  24613647.918    24613647.5794   24613649.4674
       135.0004        139.0004
 -11117025.52248  -8646449.23146  22159640.941    22159640.1674   22159644.1344
       178.0004        178.0004
   -913261.80847   -684832.48145  24247450.205    24247450.8354   24247457.4624
       147.0004        150.0004
  -9951321.96648  -7728429.66446  22340004.027    22340004.7424   22340011.6344
       185.0004        186.0004
 -10460166.74448  -8110277.34446  22399376.483    22399376.8624   22399380.3134
       181.0004        181.0004
 21  1 31  1 51 30.0000000  0 11G07G14G28G01G30G08G19G21G04G09G17
 -23294226.45249 -17918064.76647  20508818.210    20508818.3924   20508822.4134
       210.0004        211.0004
  -3621997.06148  -2815804.54846  23044057.380    23044057.4914   23044063.1244
       167.0004        167.0004
  -1495320.10347  -1157093.46445  23504575.459    23504575.1434   23504580.7714
       147.0004        151.0004
 -20131053.93649 -15675778.93647  20883954.339    20883955.2024   20883963.1654
       200.0004        200.0004
 -13543540.23849 -10541323.63947  21793295.347    21793295.6394   21793301.7824
       195.0004        195.0004
  -6752159.27648  -5230660.83746  23482651.667    23482652.4814   23482661.9514
       184.0004        184.0004
  -1819311.88346  -1366698.32845  24596785.094    24596784.4084   24596789.2514
       134.0004        140.0004
 -11071839.12648  -8611239.04746  22168239.434    22168239.3794   22168243.7504
       178.0004        179.0004
   -817174.57547   -609959.36145  24265734.227    24265734.3364   24265742.2774
       147.0004        150.0004
  -9875826.55548  -7669602.08346  22354371.273    22354371.4544   22354377.5374
       185.0004        185.0004
 -10516772.38848  -8154385.62546  22388604.920    22388605.0474   22388608.7554
       181.0004        181.0004
 21  1 31  1 52  0.0000000  0 11G07G14G28G01G30G08G19G21G04G09G17
 -23334528.15949 -17949468.70047  20501148.642    20501149.2944   20501153.1704
       210.0004        211.0004
  -3649485.35548  -2837223.98646  23038826.582    23038827.1934   23038832.3774
       166.0004        167.0004
  -1511996.49347  -1170088.04845  23501402.390    23501402.2344   23501407.2884
       148.0004        151.0004
 -20158581.78349 -15697229.20247  20878716.270    20878716.7574   20878724.5684
       199.0004        199.0004
 -13622299.91749 -10602694.81847  21778308.221    21778307.9714   21778314.7104
       195.0004        195.0004
  -6657385.32248  -5156810.99846  23500687.811    23500688.6654   23500697.5124
       185.0004        187.0004
  -1907695.97547  -1435568.95145  24579968.632    24579967.1034   24579970.3904
       138.0004        144.0004
 -11026180.02248  -8575660.52146  22176927.559    22176927.6824   22176932.0134
       178.0004        179.0004
   -721189.62547   -535165.98545  24283999.335    24284000.4784   24284008.3104
       148.0004        151.0004
  -9800171.47648  -7610650.08046  22368767.795    22368767.6624   22368774.8124
       186.0004        186.0004
 -10572970.54048  -8198176.36646  22377910.765    22377910.8944   22377915.0364
       181.0004        181.0004
 21  1 31  1 52 30.0000000  0 11G07G14G28G01G30G08G19G21G04G09G17
 -23374395.57249 -17980534.23047  20493562.231    20493562.8274   20493566.9434
       210.0004        211.0004
  -3677028.55548  -2858686.21546  23033586.372    23033586.2814   23033590.3804
       167.0004        168.0004
  -1528741.41447  -1183136.03645  23498214.702    23498215.1804   23498219.1254
       148.0004        151.0004
 -20185571.53549 -15718260.16547  20873579.144    20873580.0244   20873588.7944
       198.0004        198.0004
 -13700844.31648 -10663898.24547  21763361.026    21763361.2124   21763368.0064
       194.0004        195.0004
  -6562627.83748  -5082974.01946  23518720.348    23518720.6024   23518728.9924
       186.0004        187.0004
  -1995851.44947  -1504261.48845  24563193.204    24563192.2834   24563195.8074
       143.0004        148.0004
 -10980049.27548  -8539714.47746  22185706.325    22185706.4994   22185710.5074
       178.0004        179.0004
   -625309.64347   -460454.40145  24302245.326    24302246.2354   24302253.1064
       147.0004        150.0004
  -9724360.16248  -7551576.34446  22383194.840    22383194.9444   22383201.5864
       186.0004        187.0004
 -10628762.00148  -8241650.22246  22367294.688    22367294.5564   22367298.6904
       181.0004        181.0004
 21  1 31  1 53  0.0000000  0 11G07G14G28G01G30G08G19G21G04G09G17
 -23413827.03549 -18011260.05247  20486058.885    20486059.0874   20486063.2124
       210.0004        211.0004
  -3704628.06448  -2880192.28646  23028331.940    23028332.7594   23028339.4474
       167.0004        168.0004
  -1545556.97347  -1196239.05845  23495016.175    23495016.0914   23495020.2744
       149.0004        153.0004
 -20212021.91249 -15738870.84847  20868546.766    20868547.4784   20868554.9554
       198.0004        199.0004
 -13779171.51549 -10724932.41947  21748456.345    21748456.2264   21748462.5494
       195.0004        195.0004
  -6467889.62248  -5009152.05647  23536749.437    23536749.9684   23536756.7294
       187.0004        188.0004
  -2083777.54647  -1572775.27245  24546460.892    24546460.1704   24546465.5174
       147.0004        151.0004
 -10933448.90748  -8503402.49146  22194573.564    22194573.0454   22194577.9044
       178.0004        178.0004
   -529537.76647   -385827.04645  24320467.760    24320471.0964   24320477.9134
       145.0004        148.0004
  -9648396.34248  -7492383.76346  22397648.975    22397649.3044   22397656.6664
       185.0004        185.0004
 -10684146.74148  -8284807.15346  22356754.408    22356753.8154   22356759.2114
       180.0004        181.0004
 21  1 31  1 53 30.0000000  0 11G07G14G28G01G30G08G19G21G04G09G17
 -23452819.25549 -18041643.60947  20478638.746    20478639.2374   20478643.4494
       211.0004        212.0004
  -3732283.45048  -2901741.94246  23023070.782    23023071.7564   23023076.0994
       167.0004        169.0004
  -1562443.32447  -1209397.26245  23491803.037    23491803.0514   23491807.0324
       153.0004        158.0004
 -20237929.91849 -15759058.89047  20863616.530    20863617.1894   20863625.4284
       199.0004        199.0004
 -13857277.74949 -10785794.41947  21733592.665    21733593.1104   21733599.9074
       195.0004        195.0004
  -6373172.03148  -4935346.15647  23554773.208    23554774.3964   23554781.4314
       187.0004        188.0004
  -2171471.72547  -1641108.32345  24529773.258    24529772.4464   24529776.8684
       148.0004        153.0004
 -10886378.86348  -8466724.53146  22203530.807    22203530.6344   22203535.6224
       178.0004        178.0004
   -433875.25147   -311284.91245  24338673.355    24338674.8604   24338681.2174
       144.0004        148.0004
  -9572282.00648  -7433073.90246  22412133.340    22412133.2804   22412140.6934
       184.0004        184.0004
 -10739123.30548  -8327646.01546  22346292.148    22346292.7174   22346297.4914
       181.0004        181.0004
 21  1 31  1 54  0.0000000  0 11G07G14G28G01G30G08G19G21G04G09G17
 -23491370.84849 -18071683.81447  20471302.036    20471303.1094   20471307.5334
       211.0004        212.0004
  -3759996.37248  -2923336.43446  23017797.467    23017797.8274   23017802.5824
       168.0004        169.0004
  -1579402.17047  -1222611.94345  23488576.281    23488575.7064   23488579.9314
       156.0004        159.0004
 -20263294.54949 -15778823.52447  20858789.909    20858790.4424   20858798.2384
       199.0004        199.0004
 -13935161.34449 -10846482.91547  21718771.972    21718772.2754   21718779.2564
       195.0004        196.0004
  -6278478.49148  -4861559.02746  23572794.047    23572793.8114   23572801.3424
       187.0004        187.0004
  -2258933.62447  -1709260.39845  24513128.844    24513128.1124   24513133.0054
       149.0004        152.0004
 -10838841.11348  -8429682.12746  22212577.653    22212576.9084   22212582.6664
       178.0004        178.0004
   -338325.49947   -236830.65245  24356857.512    24356858.8824   24356863.4364
       144.0004        147.0004
  -9496021.16548  -7373649.85446  22426644.359    22426644.8494   22426651.9464
       183.0004        183.0004
 -10793692.06448  -8370167.10646  22335908.821    22335909.0644   22335913.1254
       182.0004        182.0004
 21  1 31  1 54 30.0000000  0 11G07G14G28G01G30G08G19G21G04G09G17
 -23529479.48249 -18101378.86347  20464051.118    20464051.5054   20464055.4614
       211.0004        212.0004
  -3787767.82148  -2944976.49146  23012511.413    23012511.9224   23012517.6484
       167.0004        167.0004
  -1596435.13447  -1235884.35145  23485334.513    23485334.2934   23485338.5704
       155.0004        157.0004
 -20288114.28349 -15798163.57147  20854066.731    20854067.2274   20854076.0104
       199.0004        199.0004
 -14012819.97449 -10906996.13147  21703995.275    21703994.2294   21704001.1304
       196.0004        196.0004
  -6183811.00848  -4787792.18746  23590807.937    23590808.5034   23590814.4314
       186.0004        186.0004
  -2346161.99847  -1777230.51845  24496530.150    24496529.3794   24496533.8404
       149.0004        153.0004
 -10790837.52348  -8392276.73946  22221712.590    22221711.6424   22221716.4014
       178.0004        178.0004
   -242891.22447   -162466.37045  24375018.425    24375019.7704   24375024.8644
       142.0004        145.0004
  -9419617.17148  -7314114.28346  22441184.558    22441185.1714   22441191.8754
       183.0004        184.0004
 -10847852.97048  -8412370.39846  22325601.984    22325602.3044   22325606.3274
       182.0004        182.0004
 21  1 31  1 55  0.0000000  0 11G07G14G28G01G30G08G19G21G04G09G17
 -23567141.36849 -18130725.79247  20456883.930    20456884.4524   20456888.5594
       211.0004        212.0004
  -3815596.88448  -2966661.45846  23007217.304    23007218.1064   23007220.8804
       165.0004        165.0004
  -1613542.32547  -1249214.61545  23482079.534    23482079.3444   23482083.3764
       156.0004        159.0004
 -20312385.60849 -15817076.28647  20849448.263    20849448.6804   20849457.0604
       199.0004        200.0004
 -14090249.38849 -10967330.74347  21689259.596    21689259.8584   21689266.6954
       196.0004        197.0004
  -6089170.61448  -4714046.45146  23608817.091    23608817.0134   23608825.6084
       185.0004        185.0004
  -2433153.80647  -1845016.27045  24479975.288    24479974.3264   24479979.7144
       149.0004        152.0004
 -10742367.16148  -8354507.61546  22230935.736    22230935.2624   22230940.1234
       178.0004        179.0004
   -147573.15547    -88192.61945  24393154.770    24393155.5124   24393164.2034
       140.0004        143.0004
  -9343071.48248  -7254468.30346  22455751.348    22455751.1564   22455758.0984
       183.0004        184.0004
 -10901603.86548  -8454254.21446  22315373.394    22315373.1604   22315378.5174
       181.0004        182.0004
 21  1 31  1 55 30.0000000  0 11G07G14G28G01G30G08G19G21G04G09G17
 -23604353.90449 -18159722.57848  20449803.125    20449803.4484   20449807.5534
       212.0004        213.0004
  -3843483.81648  -2988391.53846  23001910.965    23001910.3454   23001914.5724
       165.0004        166.0004
  -1630724.10447  -1262602.96945  23478811.803    23478811.0274   23478814.4484
       157.0004        158.0004
 -20336106.35049 -15835559.97047  20844933.926    20844934.5024   20844943.2854
       199.0004        199.0004
 -14167446.60549 -11027484.42147  21674569.757    21674570.2534   21674576.8514
       196.0004        197.0004
  -5994558.85048  -4640323.02146  23626818.701    23626819.5564   23626829.4184
       183.0004        183.0004
  -2519907.30647  -1912616.35145  24463467.600    24463466.5784   24463470.5624
       148.0004        150.0004
 -10693431.12448  -8316375.65646  22240248.114    22240247.1074   22240252.7764
       178.0004        178.0004
    -52373.31547    -14011.00145  24411270.587    24411271.0064   24411279.6904
       139.0004        143.0004
  -9266386.78648  -7194713.99946  22470343.051    22470343.5454   22470351.0464
       183.0004        184.0004
 -10954944.21148  -8495818.11246  22305223.041    22305223.3724   22305227.4464
       181.0004        182.0004
 21  1 31  1 56  0.0000000  0 11G07G14G28G01G30G08G19G21G04G09G17
 -23641115.20249 -18188367.74047  20442806.669    20442807.2874   20442811.9744
       211.0004        212.0004
  -3871429.63148  -3010167.48446  22996591.482    22996592.1544   22996596.8374
       165.0004        167.0004
  -1647982.09747  -1276050.73045  23475525.651    23475525.7934   23475528.5924
       154.0004        153.0004
 -20359274.98449 -15853613.43247  20840525.518    20840526.1284   20840533.6964
       198.0004        199.0004
 -14244409.22849 -11087455.27947  21659924.514    21659924.6534   21659931.2384
       196.0004        196.0004
  -5899978.19548  -4566623.82646  23644817.201    23644818.4464   23644826.7474
       183.0004        183.0004
  -2606421.35647  -1980029.83145  24447003.879    24447003.1474   24447007.1824
       148.0004        151.0004
 -10644030.36148  -8277881.54246  22249648.356    22249647.7754   22249652.9254
       177.0004        178.0004
     42705.70047     60076.46445  24429363.629    24429366.2294   24429373.4954
       138.0004        142.0004
  -9189566.36148  -7134853.92946  22484962.458    22484962.5534   22484968.8924
       183.0004        184.0004
 -11007874.01248  -8537062.09746  22295151.397    22295151.5824   22295155.3054
       182.0004        184.0004
 21  1 31  1 56 30.0000000  0 11G07G14G28G01G30G08G19G21G04G09G17
 -23677423.01849 -18216659.56047  20435897.817    20435898.2924   20435902.6084
       211.0004        212.0004
  -3899434.93948  -3031989.78246  22991263.123    22991263.9504   22991268.1884
       166.0004        169.0004
  -1665317.25347  -1289558.63645  23472223.982    23472223.6144   23472230.2534
       149.0004        150.0004
 -20381889.76249 -15871235.32447  20836221.444    20836222.3294   20836229.9604
       198.0004        198.0004
 -14321134.64549 -11147241.31247  21645323.689    21645323.3284   21645331.0264
       196.0004        196.0004
  -5805430.55748  -4492950.34746  23662811.497    23662810.5764   23662819.5094
       182.0004        182.0004
  -2692694.65147  -2047255.72045  24430586.602    24430585.9354   24430591.1504
       149.0004        152.0004
 -10594166.65148  -8239026.71046  22259137.410    22259137.2564   22259142.3114
       178.0004        179.0004
    137661.46147    134067.86845  24447436.046    24447436.6684   24447441.3204
       138.0004        142.0004
  -9112613.31348  -7074890.53846  22499605.985    22499605.0234   22499612.7814
       183.0004        182.0004
 -11060392.75248  -8577985.76946  22285156.822    22285157.3094   22285161.3444
       183.0004        184.0004
 21  1 31  1 57  0.0000000  0 11G07G14G28G01G30G08G19G21G04G09G17
 -23713275.66149 -18244596.70647  20429075.877    20429076.2784   20429080.1164
       211.0004        212.0004
  -3927501.40248  -3053859.73246  22985922.264    22985922.1754   22985928.0164
       169.0004        169.0004
  -1682731.63447  -1303128.33045  23468909.692    23468910.0034   23468916.0994
       147.0004        149.0004
 -20403949.93449 -15888425.06447  20832023.661    20832024.2414   20832032.2894
       198.0004        198.0004
 -14397621.25449 -11206841.26047  21630769.371    21630769.3794   21630775.8954
       196.0004        197.0004
  -5710919.65648  -4419305.51346  23680795.399    23680795.7834   23680804.0174
       182.0004        183.0004
  -2778726.83847  -2114293.75845  24414216.507    24414215.5724   24414219.1164
       149.0004        153.0004
 -10543843.15248  -8199813.58446  22268712.907    22268713.2004   22268717.6174
       178.0004        178.0004
    232490.54347    207960.57545  24465480.932    24465481.6864   24465488.0334
       137.0004        141.0004
  -9035531.72248  -7014826.97546  22514273.547    22514273.7354   22514281.0484
       182.0004        183.0004
 -11112501.42348  -8618589.92046  22275240.240    22275241.1494   22275246.2454
       183.0004        183.0004
 21  1 31  1 57 30.0000000  0 11G07G14G28G01G30G08G19G21G04G09G17
 -23748670.32049 -18272176.96547  20422339.875    20422340.6094   20422344.6854
       211.0004        212.0004
  -3955628.73648  -3075777.14946  22980570.248    22980570.0654   22980574.0164
       167.0004        166.0004
  -1700225.97147  -1316760.26045  23465585.469    23465584.9064   23465587.8864
       150.0004        153.0004
 -20425452.88949 -15905180.60347  20827931.764    20827932.2634   20827940.6944
       198.0004        199.0004
 -14473865.46849 -11266252.34447  21616260.685    21616260.8354   21616266.5634
       197.0004        196.0004
  -5616446.26348  -4345689.92346  23698774.768    23698773.1414   23698782.3164
       181.0004        181.0004
  -2864515.71947  -2181142.19445  24397890.497    24397889.9744   24397892.7364
       149.0004        152.0004
 -10493058.80848  -8160241.36546  22278377.016    22278376.9374   22278382.6404
       178.0004        179.0004
    327191.67247    281753.59245  24483502.404    24483502.4174   24483509.5314
       137.0004        143.0004
  -8958323.71348  -6954664.89046  22528965.674    22528966.3404   22528972.6344
       182.0004        182.0004
 -11164198.57648  -8658873.41246  22265403.239    22265402.7544   22265408.1974
       184.0004        184.0004
 21  1 31  1 58  0.0000000  0 11G07G14G28G01G30G08G19G21G04G09G17
 -23783605.58649 -18299399.25947  20415692.514    20415692.8664   20415696.5724
       211.0004        212.0004
  -3983818.37748  -3097743.10246  22975204.994    22975206.1464   22975210.6764
       168.0004        170.0004
  -1717801.81347  -1330455.67745  23462241.348    23462241.8144   23462242.6534
       152.0004        156.0004
 -20446397.61049 -15921501.15547  20823945.616    20823946.6314   20823954.6374
       198.0004        198.0004
 -14549865.36749 -11325473.04347  21601798.531    21601798.0134   21601804.4294
       196.0004        196.0004
  -5522013.26848  -4272105.80846  23716742.627    23716743.1334   23716751.4504
       181.0004        181.0004
  -2950060.50347  -2247800.42645  24381611.900    24381611.3184   24381615.4364
       150.0004        153.0004
 -10441815.58348  -8120311.58246  22288128.818    22288127.9544   22288133.8504
       178.0004        178.0004
    421761.57847    355444.33045  24501498.015    24501499.0164   24501505.4264
       137.0004        142.0004
  -8880993.02548  -6894407.22346  22543682.112    22543682.3594   22543689.2154
       183.0004        184.0004
 -11215484.60548  -8698836.54146  22255643.562    22255644.5714   22255648.3584
       184.0004        185.0004
 21  1 31  1 58 30.0000000  0 11G07G14G28G01G30G08G19G21G04G09G17
 -23818078.23949 -18326261.07247  20409132.176    20409132.6824   20409136.6214
       211.0004        212.0004
  -4012070.01748  -3119757.35446  22969829.056    22969829.7224   22969834.7454
       170.0004        172.0004
  -1735459.51447  -1344214.92545  23458878.522    23458878.4704   23458882.4734
       153.0004        155.0004
 -20466781.61349 -15937384.79047  20820066.882    20820067.9724   20820075.3714
       198.0004        198.0004
 -14625617.48949 -11384500.65347  21587381.841    21587382.7264   21587389.5104
       196.0004        197.0004
  -5427621.80948  -4198554.04146  23734701.762    23734703.5504   23734713.6944
       179.0004        179.0004
  -3035359.21147  -2314266.86945  24365380.286    24365379.9864   24365383.9054
       152.0004        156.0004
 -10390114.95248  -8080025.37346  22297966.273    22297965.8674   22297971.0004
       177.0004        178.0004
    516199.00747    429031.83645  24519469.370    24519467.9494   24519474.5934
       137.0004        142.0004
  -8803541.90848  -6834055.71246  22558419.963    22558420.3394   22558427.6684
       183.0004        184.0004
 -11266358.46248  -8738478.48746  22245963.079    22245963.6944   22245968.4024
       185.0004        186.0004
 21  1 31  1 59  0.0000000  0 11G07G14G28G01G30G08G19G21G04G09G17
 -23852084.69949 -18352759.60148  20402661.866    20402662.2044   20402665.8274
       212.0004        213.0004
  -4040383.10548  -3141819.50546  22964442.000    22964442.3924   22964446.7664
       170.0004        171.0004
  -1753198.81447  -1358037.76245  23455499.686    23455500.5094   23455506.8114
       151.0004        153.0004
 -20486602.04349 -15952829.26847  20816295.249    20816296.0964   20816304.0674
       198.0004        198.0004
 -14701117.96449 -11443332.19347  21573015.576    21573015.7794   21573022.0714
       196.0004        197.0004
  -5333273.05348  -4125035.54546  23752656.973    23752658.1224   23752667.1754
       178.0004        179.0004
  -3120409.23547  -2380539.58445  24349195.130    24349194.8674   24349199.5304
       151.0004        153.0004
 -10337956.63148  -8039382.52446  22307892.217    22307891.9774   22307897.7284
       177.0004        178.0004
    610502.81547    502515.30145  24537412.570    24537413.4474   24537420.7544
       137.0004        142.0004
  -8725972.14348  -6773611.75346  22573181.175    22573180.7764   22573188.5734
       183.0004        182.0004
 -11316818.80448  -8777798.22146  22236361.023    22236360.6264   22236366.0074
       186.0004        186.0004
 21  1 31  1 59 30.0000000  0 11G07G14G28G01G30G08G19G21G04G09G17
 -23885623.72949 -18378893.91348  20396278.754    20396279.4654   20396283.5504
       212.0004        213.0004
  -4068758.72148  -3163930.36446  22959042.186    22959042.6844   22959046.4334
       170.0004        171.0004
  -1771021.45747  -1371925.52345  23452110.419    23452110.9414   23452114.3354
       149.0004        152.0004
 -20505857.69449 -15967833.65147  20812630.929    20812631.8134   20812639.6684
       198.0004        198.0004
 -14776364.63749 -11501965.96647  21558696.971    21558696.9494   21558703.1814
       197.0004        197.0004
  -5238969.54048  -4051552.34246  23770605.682    23770604.0614   23770612.8914
       179.0004        180.0004
  -3205209.47947  -2446617.65545  24333058.649    24333057.5074   24333061.8194
       151.0004        154.0004
 -10285342.74148  -7998384.68846  22317904.934    22317904.4344   22317909.4134
       177.0004        178.0004
    704670.18247    575892.39545  24555332.651    24555333.6564   24555341.9684
       140.0004        144.0004
  -8648287.26248  -6713078.08846  22587962.284    22587963.3714   22587970.1164
       181.0004        181.0004
 -11366866.31648  -8816796.26846  22226836.714    22226837.3294   22226842.8794
       185.0004        186.0004
 21  1 31  2  0  0.0000000  0 11G07G14G28G01G30G08G19G21G04G09G17
 -23918693.63449 -18404662.66148  20389985.484    20389986.3964   20389990.2324
       212.0004        213.0004
  -4097198.35748  -3186091.10446  22953629.820    22953630.6034   22953634.9944
       169.0004        169.0004
  -1788929.45047  -1385879.78445  23448704.968    23448705.0024   23448707.2564
       150.0004        154.0004
 -20524547.93649 -15982397.45347  20809073.564    20809074.8314   20809082.7134
       198.0004        198.0004
 -14851355.76749 -11560400.61747  21544426.198    21544426.5184   21544432.9334
       198.0004        198.0004
  -5144714.40148  -3978106.81446  23788539.288    23788540.4234   23788547.8644
       177.0004        177.0004
  -3289759.68647  -2512500.88245  24316968.573    24316967.5074   24316972.7594
       152.0004        156.0004
 -10232274.88348  -7957033.10046  22328003.678    22328002.8754   22328007.9594
       177.0004        176.0004
    798697.89547    649160.66745  24573225.221    24573227.7614   24573233.8274
       138.0004        142.0004
  -8570491.16848  -6652457.76746  22602768.360    22602768.1474   22602775.0714
       181.0004        182.0004
 -11416501.33048  -8855472.87246  22217391.239    22217391.9514   22217396.7034
       184.0004        184.0004
 21  1 31  2  0 30.0000000  0 11G07G14G28G01G30G08G19G21G04G09G17
 -23951292.29349 -18430064.22948  20383783.026    20383783.3294   20383787.0674
       212.0004        213.0004
  -4125702.59948  -3208302.20946  22948205.585    22948206.5294   22948210.0724
       168.0004        169.0004
  -1806923.89447  -1399901.41345  23445280.017    23445280.1234   23445283.5464
       153.0004        156.0004
 -20542671.23749 -15996519.49447  20805626.084    20805626.6134   20805635.2314
       198.0004        199.0004
 -14926088.74749 -11618634.10847  21530205.718    21530205.4944   21530212.0934
       198.0004        199.0004
  -5050509.35948  -3904700.30046  23806465.644    23806466.1084   23806477.3904
       177.0004        178.0004
  -3374058.96047  -2578188.58845  24300926.981    24300926.2464   24300931.6984
       153.0004        156.0004
 -10178754.68748  -7915329.06446  22338187.721    22338187.4564   22338192.7954
       177.0004        178.0004
    892583.58647    722318.28845  24591091.965    24591093.1564   24591100.2134
       138.0004        143.0004
  -8492586.99148  -6591753.21946  22617593.042    22617593.8754   22617600.1074
       183.0004        184.0004
 -11465723.73848  -8893827.99446  22208024.915    22208025.2894   22208029.0914
       184.0004        184.0004
 21  1 31  2  1  0.0000000  0 11G07G14G28G01G30G08G19G21G04G09G17
 -23983416.77749 -18455096.30348  20377669.624    20377670.1314   20377673.8244
       212.0004        213.0004
  -4154270.94448  -3230563.26646  22942769.340    22942769.6324   22942773.7814
       169.0004        169.0004
  -1825004.81747  -1413990.43745  23441838.540    23441838.5464   23441843.8834
       155.0004        158.0004
 -20560224.93649 -16010197.66947  20802285.655    20802285.8714   20802294.3844
       198.0004        198.0004
 -15000559.80249 -11676663.50047  21516033.867    21516033.7954   21516040.6234
       199.0004        199.0004
  -4956355.57648  -3831333.77546  23824383.066    23824384.1524   23824393.3274
       177.0004        178.0004
  -3458104.59947  -2643678.65145  24284934.505    24284933.5154   24284937.3804
       151.0004        153.0004
 -10124782.70448  -7873272.95546  22348458.489    22348458.0664   22348463.0924
       177.0004        177.0004
    986326.14547    795364.36145  24608931.896    24608931.9624   24608938.3144
       139.0004        143.0004
  -8414576.59748  -6530965.89846  22632438.129    22632438.2954   22632444.3774
       183.0004        182.0004
 -11514532.32648  -8931860.62846  22198737.880    22198737.4214   22198741.8824
       186.0004        186.0004
 21  1 31  2  1 30.0000000  0 11G07G14G28G01G30G08G19G21G04G09G17
 -24015065.65249 -18479757.77148  20371647.216    20371647.5434   20371651.7134
       212.0004        213.0004
  -4182904.85748  -3252875.38646  22937321.022    22937321.4484   22937325.6014
       169.0004        170.0004
  -1843174.11547  -1428148.31145  23438381.389    23438381.0864   23438384.6444
       155.0004        157.0004
 -20577208.40249 -16023431.52147  20799053.601    20799054.2924   20799062.2014
       198.0004        198.0004
 -15074767.24149 -11734487.48247  21501912.523    21501912.9794   21501919.6294
       199.0004        200.0004
  -4862256.07348  -3758009.50946  23842291.212    23842290.7934   23842299.4444
       176.0004        176.0004
  -3541896.11447  -2708970.68845  24268988.837    24268988.9564   24268992.5284
       149.0004        150.0004
 -10070361.70348  -7830866.98246  22358813.714    22358813.2794   22358819.4744
       176.0004        177.0004
   1079922.43847    868296.47945  24626742.345    24626744.0074   24626747.9154
       138.0004        142.0004
  -8336463.94048  -6470098.89146  22647301.929    22647302.0724   22647308.1104
       181.0004        180.0004
 -11562927.84448  -8969571.41446  22189527.343    22189528.4364   22189532.8904
       185.0004        187.0004
 21  1 31  2  2  0.0000000  0 11G07G14G28G01G30G08G19G21G04G09G17
 -24046237.20649 -18504047.30948  20365714.785    20365715.4884   20365719.6704
       212.0004        213.0004
  -4211605.03448  -3275239.16846  22931858.469    22931860.1504   22931864.4464
       170.0004        171.0004
  -1861432.83247  -1442375.88545  23434907.289    23434906.9774   23434910.6404
       154.0004        156.0004
 -20593620.39049 -16036220.07747  20795930.252    20795931.3464   20795939.2314
       198.0004        198.0004
 -15148708.49849 -11792104.05947  21487842.204    21487842.4454   21487849.0084
       200.0004        200.0004
  -4768212.88948  -3684729.14346  23860189.070    23860188.6704   23860195.9794
       177.0004        179.0004
  -3625432.81847  -2774064.19645  24253091.548    24253091.3154   24253094.9414
       148.0004        151.0004
 -10015492.68748  -7788111.90846  22369254.665    22369254.6604   22369260.4014
       176.0004        176.0004
   1173369.98847    941112.67045  24644524.826    24644525.1004   24644531.8724
       138.0004        142.0004
  -8258252.17648  -6409154.68046  22662185.472    22662186.1084   22662192.4294
       181.0004        183.0004
 -11610910.42648  -9006960.43846  22180397.281    22180397.0234   22180401.8654
       186.0004        185.0004
 21  1 31  2  2 30.0000000  0 11G07G14G28G01G30G08G19G21G04G09G17
 -24076928.29849 -18527962.46148  20359874.715    20359875.4374   20359879.4644
       212.0004        213.0004
  -4240371.38048  -3297654.50046  22926385.470    22926385.0064   22926389.7934
       170.0004        171.0004
  -1879781.67147  -1456673.66845  23431414.508    23431414.9874   23431420.5384
       154.0004        157.0004
 -20609458.69649 -16048561.59047  20792917.167    20792917.6874   20792925.7314
       198.0004        199.0004
 -15222380.32349 -11849510.68047  21473823.041    21473823.2544   21473829.5424
       200.0004        200.0004
  -4674227.56848  -3611493.84746  23878070.317    23878071.8614   23878080.1414
       176.0004        177.0004
  -3708712.33947  -2838957.28445  24237244.495    24237243.6304   24237247.5764
       146.0004        148.0004
  -9960176.00248  -7745008.00646  22379780.354    22379781.3304   22379786.7184
       175.0004        176.0004
   1266667.27047   1013811.82345  24662278.726    24662279.3764   24662284.4504
       138.0004        142.0004
  -8179943.70348  -6348135.09046  22677085.761    22677086.5234   22677093.9814
       182.0004        183.0004
 -11658479.45848  -9044027.20646  22171344.722    22171345.5204   22171349.0554
       186.0004        185.0004
 21  1 31  2  3  0.0000000  0 11G07G14G28G01G30G08G19G21G04G09G17
 -24107136.67049 -18551501.46148  20354126.663    20354127.1474   20354131.0324
       212.0004        214.0004
  -4269204.01548  -3320121.49046  22920898.126    22920898.5434   22920903.4674
       168.0004        170.0004
  -1898221.23047  -1471042.15445  23427906.115    23427905.8284   23427910.1034
       156.0004        157.0004
 -20624721.50949 -16060454.67047  20790011.846    20790013.1014   20790020.6614
       199.0004        199.0004
 -15295779.67349 -11906704.98547  21459855.896    21459855.8654   21459862.0204
       200.0004        200.0004
  -4580301.38248  -3538304.66946  23895946.531    23895946.0184   23895953.1904
       177.0004        178.0004
  -3791732.98647  -2903648.66445  24221447.289    24221446.2574   24221449.7684
       147.0004        150.0004
  -9904413.52948  -7701556.71046  22390393.118    22390392.4584   22390397.1364
       176.0004        176.0004
   1359812.42047   1086392.41045  24680002.975    24680003.8974   24680010.8224
       137.0004        143.0004
  -8101541.07148  -6287042.14846  22692005.885    22692006.1854   22692013.6044
       182.0004        182.0004
 -11705634.39048  -9080771.29246  22162371.429    22162371.5864   22162376.5144
       186.0004        187.0004
 21  1 31  2  3 30.0000000  0 11G07G14G28G01G30G08G19G21G04G09G17
 -24136860.30649 -18574662.74648  20348470.276    20348470.7054   20348474.6654
       213.0004        213.0004
  -4298103.60348  -3342640.64946  22915398.273    22915399.2934   22915403.2854
       168.0004        168.0004
  -1916752.58547  -1485482.18145  23424380.453    23424380.1954   23424383.1594
       156.0004        159.0004
 -20639407.53449 -16071898.30847  20787217.311    20787218.3194   20787226.1494
       199.0004        199.0004
 -15368903.98849 -11963684.95947  21445940.164    21445940.6744   21445947.6144
       201.0004        201.0004
  -4486436.65948  -3465163.33646  23913806.105    23913807.4474   23913816.2144
       180.0004        181.0004
  -3874494.16047  -2968137.87745  24205697.152    24205697.0134   24205700.3744
       150.0004        154.0004
  -9848207.22548  -7657759.58846  22401089.204    22401088.5114   22401092.2974
       175.0004        176.0004
   1452803.16947   1158852.71245  24697697.507    24697699.9194   24697705.3334
       137.0004        142.0004
  -8023047.40348  -6225878.27946  22706943.949    22706943.6034   22706950.4364
       180.0004        180.0004
 -11752375.25248  -9117192.74347  22153476.721    22153477.1114   22153482.1544
       187.0004        188.0004
 21  1 31  2  4  0.0000000  0 11G07G14G28G01G30G08G19G21G04G09G17
 -24166096.75649 -18597444.40848  20342906.752    20342907.1824   20342911.1224
       213.0004        214.0004
  -4327070.10548  -3365211.93646  22909887.056    22909887.7564   22909891.5144
       169.0004        172.0004
  -1935376.26047  -1499994.10845  23420835.615    23420835.0524   23420840.4234
       155.0004        157.0004
 -20653514.89449 -16082891.03247  20784533.305    20784533.7004   20784541.3994
       199.0004        199.0004
 -15441750.09449 -12020448.14847  21432078.227    21432078.0494   21432085.1414
       201.0004        201.0004
  -4392634.83148  -3392071.04946  23931655.614    23931656.8014   23931664.2684
       178.0004        177.0004
  -3956993.70947  -3032423.18645  24189998.787    24189997.4204   24190001.1684
       152.0004        156.0004
  -9791557.13848  -7613616.66646  22411867.737    22411867.8884   22411873.4244
       174.0004        175.0004
   1545637.77547   1231191.31845  24715365.036    24715364.2414   24715370.7084
       137.0004        142.0004
  -7944465.21948  -6164645.41346  22721897.427    22721897.5704   22721904.4364
       180.0004        180.0004
 -11798701.36048  -9153290.99247  22144661.630    22144661.9324   22144666.0324
       188.0004        188.0004
 21  1 31  2  4 30.0000000  0 11G07G14G28G01G30G08G19G21G04G09G17
 -24194844.40049 -18619845.17748  20337436.385    20337436.7774   20337440.9294
       213.0004        214.0004
  -4356104.40748  -3387836.06146  22904361.075    22904362.4634   22904367.9814
       169.0004        170.0004
  -1954093.84347  -1514579.23345  23417274.529    23417274.1414   23417278.2654
       154.0004        157.0004
 -20667042.58949 -16093432.06847  20781958.838    20781959.2074   20781967.2104
       198.0004        199.0004
 -15514315.78349 -12076992.82947  21418268.359    21418269.0694   21418276.2714
       201.0004        200.0004
  -4298898.43148  -3319029.70746  23949494.325    23949494.6204   23949503.1344
       178.0004        179.0004
  -4039231.03847  -3096504.17545  24174348.459    24174346.9094   24174352.0804
       153.0004        156.0004
  -9734465.48548  -7569129.65846  22422732.957    22422732.8074   22422737.3414
       175.0004        175.0004
   1638313.71247   1303406.27445  24732999.109    24733000.6374   24733007.2694
       137.0004        142.0004
  -7865797.85948  -6103346.17846  22736865.935    22736866.4464   22736874.4574
       178.0004        178.0004
 -11844613.37048  -9189066.57447  22135924.597    22135925.6004   22135928.7404
       187.0004        188.0004
 21  1 31  2  5  0.0000000  0 10G07G14G28G01G30G08G19G21G09G17
 -24223098.92249 -18641861.69348  20332059.638    20332060.1194   20332063.8104
       213.0004        214.0004
  -4385204.75048  -3410511.65646  22898823.651    22898824.2634   22898828.6694
       168.0004        168.0004
  -1972903.72247  -1529236.27045  23413695.164    23413693.8724   23413697.1394
       155.0004        158.0004
 -20679986.99349 -16103518.59647  20779495.906    20779496.3784   20779503.8204
       199.0004        199.0004
 -15586596.05649 -12133315.12747  21404514.673    21404515.0004   21404521.7664
       201.0004        201.0004
  -4205226.65448  -3246038.75646  23967318.847    23967320.3834   23967328.0104
       178.0004        179.0004
  -4121202.70547  -3160378.13945  24158749.986    24158749.2454   24158754.3584
       153.0004        156.0004
  -9676931.65848  -7524298.10246  22433681.666    22433681.3154   22433685.3784
       174.0004        174.0004
  -7787045.95248  -6041981.07246  22751852.292    22751852.8884   22751860.2064
       177.0004        178.0004
 -11890108.79848  -9224517.55146  22127266.855    22127267.0864   22127271.9474
       187.0004        187.0004
 21  1 31  2  5 30.0000000  0 10G07G14G28G01G30G08G19G21G09G17
 -24250860.56349 -18663494.15948  20326776.654    20326777.3044   20326780.9954
       213.0004        215.0004
  -4414374.14148  -3433241.06646  22893273.361    22893273.5914   22893278.3314
       168.0004        169.0004
  -1991809.45347  -1543968.02045  23410097.538    23410096.5964   23410101.2134
       156.0004        159.0004
 -20692349.42949 -16113151.64647  20777142.856    20777143.4284   20777151.3584
       199.0004        199.0004
 -15658590.91049 -12189415.02847  21390814.635    21390814.2414   21390821.6834
       201.0004        200.0004
  -4111624.30548  -3173101.88546  23985131.842    23985131.9454   23985139.5914
       177.0004        176.0004
  -4202909.59347  -3224045.82145  24143200.836    24143199.2144   24143205.9184
       151.0004        153.0004
  -9618959.62748  -7479125.09146  22444712.639    22444712.3264   22444717.1244
       173.0004        174.0004
  -7708215.12748  -5980554.47646  22766853.508    22766853.9914   22766860.5574
       177.0004        178.0004
 -11935190.30748  -9259646.00347  22118688.802    22118688.6074   22118692.6204
       187.0004        188.0004
 21  1 31  2  6  0.0000000  0 10G07G14G28G01G30G08G19G21G09G17
 -24278127.48349 -18684741.11048  20321587.717    20321588.3394   20321592.5904
       213.0004        214.0004
  -4443612.96748  -3456024.57646  22887709.202    22887710.2184   22887713.8814
       169.0004        169.0004
  -2010812.20447  -1558775.33145  23406480.816    23406480.0344   23406484.4954
       156.0004        158.0004
 -20704128.49049 -16122330.11547  20774902.055    20774902.1964   20774909.9044
       199.0004        199.0004
 -15730297.54249 -12245290.32847  21377169.104    21377169.3684   21377176.2054
       201.0004        201.0004
  -4018093.17848  -3100220.55846  24002932.793    24002932.0974   24002938.5444
       176.0004        177.0004
  -4284350.94247  -3287506.60145  24127704.339    24127703.0184   24127708.1254
       151.0004        154.0004
  -9560550.76648  -7433611.68746  22455827.671    22455827.0854   22455832.7184
       173.0004        174.0004
  -7629308.28448  -5919068.63446  22781869.181    22781869.7784   22781876.4044
       177.0004        178.0004
 -11979857.89648  -9294451.92547  22110188.645    22110189.2444   22110193.8844
       188.0004        189.0004
 21  1 31  2  6 30.0000000  0 10G07G14G28G01G30G08G19G21G09G17
 -24304898.90349 -18705601.96048  20316493.855    20316494.2644   20316497.9494
       213.0004        214.0004
  -4472922.66748  -3478863.27846  22882132.297    22882132.5984   22882136.9004
       169.0004        170.0004
  -2029913.79547  -1573659.68445  23402845.604    23402845.6924   23402849.0314
       155.0004        158.0004
 -20715323.86149 -16131053.76847  20772770.859    20772771.4574   20772779.7034
       199.0004        199.0004
 -15801714.25949 -12300939.71047  21363579.137    21363579.0154   21363586.3994
       201.0004        201.0004
  -3924636.29348  -3027397.04246  24020715.974    24020715.3184   24020722.5284
       175.0004        174.0004
  -4365526.32347  -3350760.10445  24112258.291    24112257.4974   24112261.2574
       154.0004        157.0004
  -9501708.26048  -7387760.37246  22467026.064    22467025.7784   22467028.7634
       173.0004        173.0004
  -7550329.28648  -5857526.58446  22796898.493    22796898.6344   22796905.8774
       178.0004        179.0004
 -12024112.47248  -9328936.00547  22101766.904    22101767.3004   22101772.4164
       189.0004        188.0004
 21  1 31  2  7  0.0000000  0 10G07G14G28G01G30G08G19G21G09G17
 -24331171.82849 -18726074.37248  20311493.895    20311494.5804   20311498.8174
       213.0004        215.0004
  -4502302.77048  -3501756.85746  22876539.945    22876541.1284   22876545.7044
       169.0004        170.0004
  -2049114.26947  -1588621.09145  23399191.179    23399191.6844   23399196.4284
       155.0004        157.0004
 -20725933.48449 -16139320.98147  20770752.162    20770752.6864   20770761.1354
       200.0004        200.0004
 -15872837.57449 -12356360.48147  21350044.304    21350044.6674   21350051.5704
       201.0004        200.0004
  -3831254.36448  -2954631.91446  24038484.059    24038484.3074   24038493.3264
       174.0004        175.0004
  -4446433.76847  -3413804.82345  24096860.213    24096859.5134   24096863.3544
       153.0004        154.0004
  -9442432.22948  -7341571.23546  22478305.173    22478305.0454   22478308.6904
       173.0004        173.0004
  -7471280.28948  -5795929.96946  22811940.936    22811941.3974   22811948.4074
       178.0004        178.0004
 -12067953.47648  -9363097.81946  22093424.213    22093424.3884   22093429.5544
       187.0004        187.0004
 21  1 31  2  7 30.0000000  0 10G07G14G28G01G30G08G19G21G09G17
 -24356942.23849 -18746155.22748  20306590.125    20306590.3804   20306594.7514
       214.0004        215.0004
  -4531751.70148  -3524704.10346  22870937.435    22870937.7154   22870942.1744
       169.0004        171.0004
  -2068412.43747  -1603658.60845  23395520.279    23395519.8084   23395524.5154
       155.0004        159.0004
 -20735954.15149 -16147129.27347  20768846.565    20768846.6564   20768853.8854
       200.0004        200.0004
 -15943662.79849 -12411548.97547  21336566.652    21336567.0144   21336574.1694
       201.0004        201.0004
  -3737947.95648  -2881925.65446  24056238.011    24056239.2424   24056249.4254
       177.0004        178.0004
  -4527070.06847  -3476638.23545  24081515.121    24081515.0664   24081520.1364
       153.0004        156.0004
  -9382722.55848  -7295044.22346  22489667.423    22489666.4254   22489671.3294
       173.0004        173.0004
  -7392162.09048  -5734279.45146  22826996.145    22826997.3924   22827004.2414
       176.0004        177.0004
 -12111378.83448  -9396935.76047  22085160.794    22085160.8994   22085165.7864
       187.0004        188.0004
 21  1 31  2  8  0.0000000  0 10G07G14G28G01G30G08G19G21G09G17
 -24382209.40049 -18765843.93748  20301781.769    20301782.2444   20301786.1534
       214.0004        215.0004
  -4561271.01748  -3547706.16246  22865319.371    22865320.0884   22865324.3194
       169.0004        169.0004
  -2087810.53147  -1618773.99545  23391828.760    23391828.0634   23391832.2914
       157.0004        160.0004
 -20745385.76549 -16154478.56847  20767050.675    20767051.2304   20767059.1634
       200.0004        200.0004
 -16014188.39149 -12466503.98447  21323146.533    21323146.7654   21323153.7534
       201.0004        202.0004
  -3644719.48648  -2809280.15146  24073976.949    24073979.0774   24073989.4044
       174.0004        174.0004
  -4607435.25847  -3539260.45245  24066224.032    24066223.2064   24066227.3804
       156.0004        159.0004
  -9322582.33448  -7248181.71546  22501111.401    22501111.8274   22501115.9064
       172.0004        172.0004
  -7312978.89048  -5672578.24546  22842064.777    22842064.7954   22842071.9684
       176.0004        176.0004
 -12154389.66648  -9430450.68147  22076976.411    22076976.9834   22076981.0124
       188.0004        189.0004
 21  1 31  2  8 30.0000000  0 10G07G14G28G01G30G08G19G21G09G17
 -24406971.01749 -18785138.70748  20297069.828    20297070.5684   20297074.3474
       214.0004        215.0004
  -4590860.77448  -3570763.09946  22859688.665    22859689.7104   22859693.2694
       168.0004        169.0004
  -2107309.25347  -1633967.81345  23388117.545    23388116.9124   23388121.6804
       154.0004        156.0004
 -20754226.85149 -16161367.71147  20765368.484    20765368.8974   20765376.6634
       200.0004        200.0004
 -16084411.34049 -12521223.16147  21309784.199    21309784.1344   21309789.9284
       202.0004        202.0004
  -3551570.36848  -2736696.44946  24091705.227    24091705.5604   24091714.4874
       173.0004        174.0004
  -4687527.79647  -3601670.17145  24050982.195    24050981.8734   24050985.2084
       156.0004        156.0004
  -9262012.05948  -7200984.08546  22512638.482    22512637.6364   22512641.2234
       173.0004        174.0004
  -7233733.15648  -5610828.34646  22857144.412    22857144.9604   22857151.4124
       175.0004        175.0004
 -12196986.17948  -9463642.75947  22068870.289    22068871.0094   22068874.6074
       188.0004        189.0004
 21  1 31  2  9  0.0000000  0 10G07G14G28G01G30G08G19G21G09G17
 -24431226.02449 -18804038.71848  20292454.158    20292454.8164   20292459.0734
       214.0004        215.0004
  -4620522.13548  -3593875.84846  22854044.815    22854045.2454   22854049.5314
       168.0004        169.0004
  -2126910.11447  -1649241.20245  23384387.744    23384387.1014   23384391.9694
       154.0004        157.0004
 -20762477.12349 -16167796.47747  20763798.859    20763798.8894   20763806.1594
       199.0004        199.0004
 -16154329.81849 -12575705.09947  21296478.824    21296478.8444   21296485.2994
       202.0004        202.0004
  -3458503.04848  -2664176.47846  24109415.597    24109415.7674   24109426.1224
       173.0004        173.0004
  -4767347.66847  -3663867.47345  24035792.492    24035792.2324   24035795.3904
       154.0004        156.0004
  -9201014.61448  -7153453.59646  22524245.082    22524244.9464   22524248.9614
       172.0004        173.0004
  -7154428.73348  -5549032.68946  22872234.697    22872235.4054   22872243.4494
       174.0004        175.0004
 -12239168.94148  -9496512.44447  22060843.550    22060843.9244   22060848.0404
       189.0004        190.0004
 21  1 31  2  9 30.0000000  0 10G07G14G28G01G30G08G19G21G09G17
 -24454972.26149 -18822542.28548  20287935.954    20287936.2174   20287940.1304
       214.0004        215.0004
  -4650255.04048  -3617044.31646  22848385.137    22848386.3824   22848391.8454
       168.0004        170.0004
  -2146613.58047  -1664594.56945  23380638.357    23380638.3764   23380642.6054
       156.0004        160.0004
 -20770134.94849 -16173763.60347  20762341.040    20762341.4544   20762348.9694
       199.0004        199.0004
 -16223940.66349 -12629947.31247  21283232.367    21283232.1014   21283239.1434
       202.0004        202.0004
  -3365519.31848  -2591721.67946  24127112.073    24127111.3464   24127119.5424
       174.0004        176.0004
  -4846892.61347  -3725850.52345  24020656.448    24020655.4714   24020657.3124
       154.0004        156.0004
  -9139591.57448  -7105591.48646  22535933.657    22535933.0464   22535936.2714
       172.0004        173.0004
  -7075067.97248  -5487193.15046  22887336.891    22887337.6544   22887345.8484
       174.0004        175.0004
 -12280937.67148  -9529059.50547  22052895.188    22052895.4024   22052898.9324
       189.0004        189.0004
 21  1 31  2 10  0.0000000  0 10G07G14G28G01G30G08G19G21G09G17
 -24478208.65449 -18840648.56948  20283513.478    20283513.9924   20283518.5334
       214.0004        215.0004
  -4680060.45248  -3640269.30846  22842715.235    22842715.8564   22842719.6084
       169.0004        170.0004
  -2166421.13647  -1680029.02445  23376868.583    23376868.5364   23376874.2054
       156.0004        157.0004
 -20777199.95749 -16179268.78947  20760996.675    20760997.2244   20761004.6594
       199.0004        199.0004
 -16293241.93149 -12683948.29347  21270044.371    21270044.7554   21270051.2044
       202.0004        202.0004
  -3272621.60348  -2519333.89646  24144790.256    24144789.4974   24144797.8614
       174.0004        175.0004
  -4926162.55347  -3787619.26445  24005571.241    24005570.8124   24005571.9274
       153.0004        156.0004
  -9077744.48448  -7057398.94246  22547702.943    22547702.2724   22547706.7284
       173.0004        173.0004
  -6995654.49248  -5425312.53746  22902449.733    22902450.0204   22902457.8554
       174.0004        176.0004
 -12322293.07248  -9561284.48747  22045025.486    22045026.2004   22045029.9274
       189.0004        190.0004
 21  1 31  2 10 30.0000000  0 10G07G14G28G01G30G08G19G21G09G17
 -24500933.32549 -18858356.12648  20279189.393    20279189.9214   20279194.3004
       214.0004        215.0004
  -4709939.14748  -3663551.42346  22837029.643    22837029.4394   22837033.4224
       169.0004        169.0004
  -2186333.96747  -1695545.49445  23373080.101    23373079.2244   23373084.0614
       154.0004        157.0004
 -20783671.46349 -16184311.51247  20759765.435    20759765.6534   20759773.4914
       199.0004        199.0004
 -16362231.30149 -12737706.25347  21256916.278    21256916.8384   21256923.4534
       202.0004        203.0004
  -3179812.03148  -2447014.79346  24162449.259    24162450.7864   24162458.5514
       175.0004        177.0004
  -5005157.05347  -3849173.38845  23990537.756    23990538.0914   23990540.4284
       152.0004        155.0004
  -9015475.70148  -7008877.80646  22559552.987    22559552.5184   22559556.6364
       173.0004        175.0004
  -6916191.56548  -5363393.38846  22917571.272    22917571.6364   22917578.1884
       175.0004        175.0004
 -12363235.79948  -9593187.91147  22037234.112    22037234.7814   22037238.7674
       189.0004        189.0004
 21  1 31  2 11  0.0000000  0 10G07G14G28G01G30G08G19G21G09G17
 -24523142.36349 -18875661.88948  20274963.561    20274963.9024   20274967.7634
       214.0004        215.0004
  -4739889.28548  -3686889.17046  22831329.101    22831329.5534   22831334.1354
       167.0004        168.0004
  -2206351.03447  -1711143.22645  23369270.045    23369270.7834   23369274.9784
       154.0004        158.0004
 -20789546.30549 -16188889.29347  20758646.469    20758647.4714   20758654.8544
       199.0004        199.0004
 -16430903.97149 -12791217.42647  21243848.001    21243848.1484   21243855.2884
       202.0004        202.0004
  -3087090.02548  -2374763.92446  24180093.538    24180094.0514   24180103.6994
       175.0004        176.0004
  -5083872.41047  -3910510.02845  23975559.037    23975558.1624   23975563.3894
       154.0004        158.0004
  -8952785.70748  -6960028.46246  22571482.383    22571482.0214   22571484.8864
       174.0004        175.0004
  -6836679.84548  -5301436.20946  22932701.034    22932701.8114   22932708.3744
       173.0004        174.0004
 -12403764.06648  -9624768.38547  22029521.365    22029522.0744   22029526.6154
       189.0004        189.0004
 21  1 31  2 11 30.0000000  0 10G07G14G28G01G30G08G19G21G09G17
 -24544834.42649 -18892564.80348  20270835.686    20270835.9774   20270839.9484
       214.0004        215.0004
  -4769911.54748  -3710283.16146  22825617.165    22825617.8504   22825621.5674
       169.0004        171.0004
  -2226473.45647  -1726823.02245  23365442.532    23365441.1234   23365445.6714
       155.0004        158.0004
 -20794823.86249 -16193001.65847  20757642.609    20757643.3764   20757651.0294
       199.0004        198.0004
 -16499257.65649 -12844480.02747  21230840.288    21230840.6054   21230847.8564
       202.0004        202.0004
  -2994458.37248  -2302583.44346  24197721.657    24197721.7104   24197730.4714
       173.0004        173.0004
  -5162307.94047  -3971628.55845  23960634.452    23960633.4774   23960636.5664
       155.0004        158.0004
  -8889675.65648  -6910851.78746  22583491.851    22583491.2864   22583495.3024
       174.0004        175.0004
  -6757122.64448  -5239443.58146  22947840.587    22947841.3114   22947847.4194
       173.0004        174.0004
 -12443878.65348  -9656026.50947  22021888.371    22021888.5594   22021892.9144
       189.0004        190.0004
 21  1 31  2 12  0.0000000  0 10G07G14G28G01G30G08G19G21G09G17
 -24566008.94449 -18909064.45748  20266806.000    20266806.6044   20266810.4724
       214.0004        215.0004
  -4800007.45148  -3733734.49646  22819890.560    22819890.7074   22819895.2944
       170.0004        171.0004
  -2246703.13747  -1742586.39845  23361591.660    23361590.9984   23361595.9094
       154.0004        157.0004
 -20799504.26049 -16196648.71347  20756751.867    20756752.4764   20756760.0904
       199.0004        199.0004
 -16567290.86349 -12897492.92547  21217893.860    21217894.3704   21217901.5054
       202.0004        203.0004
  -2901918.97548  -2230474.88246  24215332.027    24215331.9354   24215340.7294
       172.0004        173.0004
  -5240463.90747  -4032529.31045  23945761.333    23945761.2544   23945763.6984
       156.0004        158.0004
  -8826148.40848  -6861350.05146  22595578.958    22595580.5144   22595584.3444
       174.0004        176.0004
  -6677523.99648  -5177418.66846  22962988.870    22962988.8234   22962995.1724
       175.0004        177.0004
 -12483580.77648  -9686963.21447  22014333.605    22014334.0524   22014338.1254
       190.0004        191.0004
 21  1 31  2 12 30.0000000  0 10G07G14G28G01G30G08G19G21G09G17
 -24586662.73249 -18925158.30748  20262875.706    20262876.1554   20262880.2784
       214.0004        215.0004
  -4830175.99048  -3757242.42446  22814147.087    22814148.3864   22814154.5504
       169.0004        168.0004
  -2267039.38147  -1758432.83245  23357721.836    23357722.1584   23357726.7614
       155.0004        158.0004
 -20803585.34249 -16199828.75447  20755975.751    20755976.0894   20755983.6414
       199.0004        199.0004
 -16634999.61149 -12950252.98647  21205010.823    21205010.3324   21205017.1944
       203.0004        204.0004
  -2809473.13548  -2158439.21346  24232920.709    24232923.0594   24232932.0404
       175.0004        176.0004
  -5318337.89847  -4093210.31145  23930942.063    23930941.6644   23930945.3334
       155.0004        157.0004
  -8762204.66548  -6811523.74946  22607748.867    22607749.0044   22607752.9854
       176.0004        177.0004
  -6597885.38848  -5115362.62046  22978143.374    22978143.3454   22978150.4904
       175.0004        177.0004
 -12522869.48448  -9717577.76847  22006856.651    22006856.7524   22006861.3454
       190.0004        189.0004
 21  1 31  2 13  0.0000000  0 10G07G14G28G01G30G08G19G21G09G17
 -24606794.85649 -18940845.69748  20259044.630    20259045.4534   20259049.1934
       214.0004        216.0004
  -4860417.89748  -3780807.54046  22808393.377    22808394.2364   22808398.8774
       168.0004        168.0004
  -2287483.99647  -1774363.69745  23353830.954    23353830.9694   23353834.8114
       154.0004        155.0004
 -20807066.69549 -16202541.48647  20755313.517    20755313.8674   20755321.7484
       199.0004        199.0004
 -16702381.79049 -13002758.58047  21192187.325    21192187.5144   21192194.5974
       203.0004        203.0004
  -2717122.63448  -2086477.82446  24250497.234    24250497.4574   24250505.7734
       174.0004        175.0004
  -5395929.53847  -4153671.31045  23916176.891    23916176.3834   23916181.3274
       157.0004        160.0004
  -8697846.55748  -6761374.57046  22619995.320    22619994.9864   22619999.7294
       176.0004        177.0004
  -6518210.31148  -5053278.16246  22993303.768    22993304.4554   22993312.8054
       175.0004        176.0004
 -12561745.37748  -9747870.66647  21999458.602    21999459.3764   21999463.0464
       189.0004        190.0004
 21  1 31  2 13 30.0000000  0 10G07G14G28G01G30G08G19G21G09G17
 -24626403.50749 -18956125.17748  20255313.530    20255313.9324   20255318.1934
       215.0004        216.0004
  -4890733.84248  -3804430.32446  22802623.742    22802624.5404   22802630.5234
       168.0004        170.0004
  -2308037.94247  -1790379.76645  23349921.553    23349920.8564   23349924.6774
       153.0004        156.0004
 -20809947.72249 -16204786.43647  20754763.987    20754765.3314   20754773.5084
       199.0004        199.0004
 -16769435.06549 -13055007.89947  21179427.269    21179428.0974   21179434.8804
       203.0004        204.0004
  -2624869.46048  -2014592.27146  24268054.417    24268053.1464   24268061.2964
       175.0004        175.0004
  -5473237.79847  -4213911.46745  23901466.006    23901465.4494   23901469.6364
       159.0004        162.0004
  -8633076.56848  -6710904.45946  22632320.383    22632320.0274   22632325.3014
       176.0004        177.0004
  -6438501.81448  -4991167.65246  23008472.656    23008472.3174   23008479.6884
       175.0004        176.0004
 -12600209.07648  -9777842.38147  21992140.087    21992139.8634   21992144.6304
       190.0004        189.0004
 21  1 31  2 14  0.0000000  0 10G07G14G28G01G30G08G19G21G09G17
 -24645486.91649 -18970995.36748  20251681.926    20251682.4954   20251686.7404
       215.0004        216.0004
  -4921123.65948  -3828110.68946  22796842.494    22796842.4964   22796847.2384
       169.0004        170.0004
  -2328701.41847  -1806481.17345  23345987.968    23345987.7674   23345991.5504
       154.0004        157.0004
 -20812227.20749 -16206562.64447  20754330.720    20754331.6984   20754339.6144
       199.0004        200.0004
 -16836156.38949 -13106998.53847  21166731.726    21166731.5734   21166738.3994
       204.0004        205.0004
  -2532714.85548  -1942783.54046  24285586.119    24285588.3534   24285597.8774
       173.0004        173.0004
  -5550261.28547  -4273929.77045  23886809.498    23886808.9734   23886813.3824
       159.0004        162.0004
  -8567895.76648  -6660114.23046  22644723.584    22644723.2774   22644730.0264
       176.0004        177.0004
  -6358762.36648  -4929033.02446  23023646.030    23023646.5734   23023653.7384
       174.0004        175.0004
 -12638260.54248  -9807492.87547  21984898.358    21984899.0494   21984903.7504
       189.0004        189.0004
 21  1 31  2 14 30.0000000  0 10G07G14G28G01G30G08G19G21G09G17
 -24664042.83349 -18985454.53748  20248151.169    20248151.5644   20248155.4564
       215.0004        216.0004
  -4951587.18548  -3851848.51046  22791044.273    22791045.5814   22791049.6154
       168.0004        169.0004
  -2349475.07947  -1822668.41545  23342034.412    23342034.3844   23342039.1994
       154.0004        157.0004
 -20813903.92849 -16207869.16847  20754011.503    20754012.3954   20754020.0824
       199.0004        199.0004
 -16902542.71949 -13158728.14547  21154098.313    21154098.4454   21154105.4104
       205.0004        205.0004
  -2440660.18748  -1871052.67846  24303105.836    24303106.6414   24303115.1544
       173.0004        174.0004
  -5626998.81747  -4333725.23046  23872207.392    23872206.1344   23872210.1594
       161.0004        163.0004
  -8502305.48648  -6609004.92346  22657204.380    22657204.4664   22657210.5534
       176.0004        177.0004
  -6278994.40148  -4866876.19446  23038826.632    23038826.8274   23038833.2924
       174.0004        174.0004
 -12675899.89248  -9836822.23347  21977735.546    21977735.6734   21977741.0544
       188.0004        188.0004
 21  1 31  2 15  0.0000000  0 10G07G14G28G01G30G08G19G21G09G17
 -24682070.06249 -18999501.73048  20244720.475    20244720.5774   20244725.0754
       215.0004        216.0004
  -4982125.19448  -3875644.37946  22785233.576    22785233.9414   22785237.8034
       168.0004        169.0004
  -2370360.10147  -1838942.46945  23338061.137    23338061.0654   23338065.0764
       154.0004        157.0004
 -20814977.56749 -16208705.75947  20753807.608    20753808.2214   20753816.0154
       199.0004        199.0004
 -16968591.95349 -13210195.08847  21141529.597    21141529.6444   21141536.4474
       204.0004        204.0004
  -2348707.93648  -1799401.61546  24320604.401    24320603.9884   24320613.3414
       171.0004        171.0004
  -5703449.86347  -4393297.43145  23857657.116    23857657.0084   23857661.5474
       160.0004        162.0004
  -8436308.08548  -6557578.39246  22669763.773    22669763.3944   22669769.3044
       175.0004        176.0004
  -6199201.26248  -4804699.73146  23054010.096    23054010.6044   23054017.1324
       172.0004        172.0004
 -12713127.85748  -9865831.02347  21970651.272    21970651.6244   21970657.1494
       189.0004        191.0004
 21  1 31  2 15 30.0000000  0 10G07G14G28G01G30G08G19G21G09G17
 -24699567.07049 -19013135.77748  20241391.224    20241391.4824   20241395.4864
       215.0004        217.0004
  -5012737.58148  -3899498.19846  22779408.110    22779409.3284   22779412.8154
       168.0004        168.0004
  -2391356.86047  -1855303.56245  23334066.127    23334065.9334   23334067.9554
       154.0004        156.0004
 -20815447.10349 -16209071.62247  20753718.041    20753719.1064   20753726.7994
       199.0004        200.0004
 -17034301.11549 -13261397.03647  21129025.373    21129025.6574   21129032.5174
       204.0004        205.0004
  -2256859.35048  -1727831.32946  24338083.561    24338083.0564   24338090.9604
       169.0004        170.0004
  -5779612.87247  -4452645.19546  23843165.385    23843164.5774   23843168.5784
       162.0004        164.0004
  -8369905.05848  -6505835.76446  22682400.041    22682399.5914   22682405.9244
       176.0004        176.0004
  -6119385.48348  -4742505.63146  23069197.545    23069197.8764   23069204.8194
       170.0004        172.0004
 -12749944.41248  -9894519.25147  21963645.736    21963645.9564   21963650.6714
       190.0004        191.0004
 21  1 31  2 16  0.0000000  0 10G07G14G28G01G30G08G19G21G09G17
 -24716531.93249 -19026355.14948  20238162.338    20238162.8404   20238167.0474
       215.0004        216.0004
  -5043425.04248  -3923410.49246  22773569.754    22773569.6964   22773573.7914
       168.0004        169.0004
  -2412466.59547  -1871752.71845  23330047.078    23330047.8354   23330052.8094
       153.0004        155.0004
 -20815312.16249 -16208966.46947  20753744.184    20753744.3064   20753752.1334
       199.0004        200.0004
 -17099668.00849 -13312332.28347  21116586.636    21116586.5514   21116593.9564
       205.0004        206.0004
  -2165116.62248  -1656343.52146  24355540.662    24355540.9024   24355549.0234
       171.0004        173.0004
  -5855487.54147  -4511768.31445  23828725.685    23828725.6614   23828730.1324
       162.0004        162.0004
  -8303099.26548  -6453779.30146  22695111.335    22695111.2784   22695118.0544
       175.0004        175.0004
  -6039550.30348  -4680296.41046  23084390.098    23084390.9024   23084396.9634
       171.0004        172.0004
 -12786350.24348  -9922887.44247  21956718.196    21956718.0454   21956722.8534
       190.0004        190.0004
 21  1 31  2 16 30.0000000  0 10G07G14G28G01G30G08G19G21G09G17
 -24732962.78749 -19039158.41948  20235035.473    20235036.2154   20235040.4354
       215.0004        216.0004
  -5074186.98248  -3947380.85146  22767715.479    22767715.3464   22767720.5864
       168.0004        168.0004
  -2433689.15247  -1888289.76345  23326008.984    23326009.8994   23326013.3894
       153.0004        157.0004
 -20814571.32549 -16208389.18547  20753885.019    20753885.8214   20753893.4054
       200.0004        200.0004
 -17164689.26949 -13362998.20647  21104214.047    21104214.0334   21104220.4084
       206.0004        206.0004
  -2073480.27348  -1584938.63746  24372977.724    24372979.1254   24372986.5504
       171.0004        172.0004
  -5931072.04347  -4570665.30745  23814343.381    23814342.3564   23814345.5584
       161.0004        162.0004
  -8235891.21448  -6401409.40046  22707901.515    22707901.7734   22707908.0114
       175.0004        176.0004
  -5959697.72848  -4618073.64946  23099585.851    23099586.5914   23099593.4204
       171.0004        173.0004
 -12822345.17248  -9950935.42947  21949868.461    21949869.0864   21949872.5604
       190.0004        190.0004
 21  1 31  2 17  0.0000000  0 10G07G14G28G01G30G08G19G21G09G17
 -24748858.24649 -19051544.49448  20232011.036    20232011.6694   20232015.5644
       215.0004        216.0004
  -5105024.02448  -3971409.69046  22761844.870    22761846.5074   22761853.1914
       167.0004        168.0004
  -2455025.91647  -1904915.78245  23321948.718    23321948.1694   23321953.7954
       153.0004        155.0004
 -20813224.32349 -16207339.56347  20754141.626    20754141.5614   20754149.5264
       200.0004        199.0004
 -17229362.67249 -13413393.06447  21091906.657    21091906.6824   21091913.3154
       206.0004        206.0004
  -1981952.43748  -1513618.24446  24390394.548    24390395.3684   24390403.5144
       169.0004        169.0004
  -6006365.89047  -4629335.82545  23800014.830    23800013.7974   23800017.3024
       160.0004        161.0004
  -8168283.42848  -6348728.00646  22720768.680    22720767.5064   22720772.4484
       175.0004        176.0004
  -5879830.95648  -4555839.81946  23114783.706    23114784.1394   23114791.3914
       172.0004        173.0004
 -12857930.19748  -9978664.00547  21943096.897    21943097.4114   21943101.5764
       190.0004        190.0004
 21  1 31  2 17 30.0000000  0 10G07G14G28G01G30G08G19G21G09G17
 -24764216.96549 -19063512.32848  20229088.168    20229088.6174   20229093.1594
       215.0004        216.0004
  -5135936.31648  -3995497.19746  22755964.399    22755964.7414   22755969.9434
       168.0004        170.0004
  -2476477.45647  -1921631.29145  23317867.046    23317867.3714   23317870.8464
       152.0004        155.0004
 -20811270.50049 -16205817.09247  20754513.303    20754513.4704   20754520.9944
       199.0004        199.0004
 -17293685.55749 -13463514.79347  21079666.382    21079666.5514   21079673.4564
       206.0004        206.0004
  -1890534.99348  -1442383.94746  24407788.053    24407790.2564   24407800.4224
       168.0004        170.0004
  -6081368.04047  -4687779.04546  23785742.056    23785741.9804   23785746.1004
       160.0004        163.0004
  -8100277.57148  -6295736.44446  22733708.740    22733708.0804   22733714.0734
       175.0004        174.0004
  -5799952.75148  -4493597.07146  23129984.576    23129985.4294   23129991.7264
       172.0004        172.0004
 -12893105.65548 -10006073.43547  21936403.079    21936403.5844   21936407.6704
       189.0004        190.0004
 21  1 31  2 18  0.0000000  0 10G07G14G28G01G30G08G19G21G09G17
 -24779036.91849 -19075060.35548  20226267.898    20226268.4804   20226273.0184
       215.0004        216.0004
  -5166923.74248  -4019643.22846  22750068.851    22750068.5784   22750073.2834
       170.0004        171.0004
  -2498044.33647  -1938436.64245  23313762.730    23313762.1974   23313766.9634
       152.0004        155.0004
 -20808708.90249 -16203821.03847  20755000.884    20755000.9984   20755008.7364
       199.0004        199.0004
 -17357655.06949 -13513361.16747  21067493.746    21067493.8934   21067500.0474
       206.0004        207.0004
  -1799228.88948  -1371236.32046  24425167.185    24425166.5754   24425175.0014
       168.0004        169.0004
  -6156077.25447  -4745993.99346  23771526.320    23771525.4974   23771529.0774
       162.0004        164.0004
  -8031875.09748  -6242435.82446  22746724.917    22746724.8354   22746729.5344
       173.0004        173.0004
  -5720065.64448  -4431347.36646  23145186.846    23145187.0164   23145194.0714
       171.0004        171.0004
 -12927871.40948 -10033163.62847  21929787.959    21929788.3194   21929792.2024
       191.0004        191.0004
 21  1 31  2 18 30.0000000  0 10G07G14G28G01G30G08G19G21G09G17
 -24793317.50949 -19086188.10948  20223550.936    20223551.4584   20223555.5904
       215.0004        217.0004
  -5197987.18848  -4043848.50746  22744157.099    22744157.0094   22744161.8684
       170.0004        170.0004
  -2519727.59547  -1955332.67045  23309636.689    23309636.1704   23309641.7874
       154.0004        158.0004
 -20805539.70249 -16201351.52147  20755603.384    20755604.1184   20755611.2564
       199.0004        199.0004
 -17421269.29449 -13562930.69547  21055388.553    21055388.4724   21055394.5264
       207.0004        207.0004
  -1708036.56348  -1300177.37946  24442521.324    24442521.0604   24442529.7384
       170.0004        171.0004
  -6230493.30747  -4803980.51545  23757363.984    23757363.8114   23757368.4444
       161.0004        161.0004
  -7963079.17548  -6188828.60146  22759816.708    22759816.2484   22759821.5324
       173.0004        174.0004
  -5640173.08548  -4369093.45846  23160387.487    23160389.5664   23160396.4744
       169.0004        169.0004
 -12962229.15348 -10059935.89147  21923249.605    21923249.5764   21923253.8014
       191.0004        191.0004
